~Version
 VERS              .         3.0                           : CWLS LOG ASCII STANDARD - VERSION 3.0
 WRAP              .         NO                            : ONE LINE PER DEPTH STEP
 DLM               .         SPACE                         : DELIMITING CHARACTER(SPACE TAB OR COMMA)
~Well Information
#_______________________________________________________________________________
#
#PARAMETER_NAME    .UNIT     VALUE                         : DESCRIPTION
#_______________________________________________________________________________
STRT               .M        0.2                           : First reference value
STOP               .M        936.8                         : Last reference value
STEP               .M        0.1                           : Step increment
NULL               .         -9999                         : Missing value
COMP               .         ICPetroleum                   : Company
WELL               .         332                           : Well name
FLD                .         Karatobe                      : Field
LOC                .                                       : Location
SRVC               .                                       : Service Company
CTRY               .         KZ                            : Country
DATE               .         26-27.07.2007                 : Service Date
LATI               .         0                             : Latitude
LONG               .         0                             : Longitude
GDAT               .         WGS 84                        : Geodetic Datum
CNTY               .                                       : 
COORDIN            .                                       : Grid System
COUNTRY            .         Kazakhstan                    : 
COUNTRY            .         Kazakhstan                    : 
EREF               .m        138.1                         : 
KB                 .         0                             : KB Elevation
ORIGINALWELLNAME   .         332                           : 
PROV               .                                       : Province
RWS                .         -999                          : Def_Rw
STAT               .                                       : 
UWI                .                                       : 
WST                .         -999                          : Def_Rwt
X                  .km       466603.39                     : 
XCOORD             .                                       : X or East-West Coordinate
Y                  .km       5308410.77                    : 
YCOORD             .                                       : Y or North-South Coordinate
~Parameter Information Block
#_______________________________________________________________________________
#
#PARAMETER_NAME    .UNIT     VALUE                         : DESCRIPTION
#_______________________________________________________________________________
SET                .         Las                           : 
TLFamily_DEPT      .         Measured Depth                : 
TLFamily_PHI_FINAL .         Porosity                      : 
TLFamily_SW_AR     .         Water Saturation              : 
TLFamily_VSH_FINAL .         Shale Volume                  : 
~Curve Information
#_______________________________________________________________________________
#
#LOGNAME           .UNIT     LOG_ID                        : DESCRIPTION
#_______________________________________________________________________________
DEPT               .M                                      : Depth curve {F}
PHI_FINAL          .m3/m3                                  : Porosity {F}
SW_AR              .m3/m3                                  :  {F}
VSH_FINAL          .unitless                               : Vshale {F}
~Ascii
# ...
562.1      0.2469579  1          0.181962  
562.2      0.2475077  1          0.1733002 
562.3      0.2443123  1          0.2035213 
562.4      0.2451563  1          0.2052305 
562.5      0.2486938  1          0.1974941 
562.6      0.2691378  1          0.1448105 
562.7      0.292319   1          0.125732  
562.8      0.2944047  1          0.1201348 
562.9      0.2988355  1          0.1135006 
563        0.2973764  1          0.1176778 
563.1      0.3002877  1          0.1225619 
563.2      0.310425   1          0.1059215 
563.3      0.3061547  1          0.1087785 
563.4      0.3053592  1          0.1219074 
563.5      0.304193   1          0.1212791 
563.6      0.3052052  1          0.1158043 
563.7      0.3056442  1          0.1145992 
563.8      0.3036077  1          0.1139939 
563.9      0.2888366  1          0.1306681 
564        0.2756192  1          0.1653702 
564.1      0.2640123  1          0.1807677 
564.2      0.2533215  -9999      0.2082987 
564.3      0.2477952  -9999      0.2348484 
564.4      0.2178756  -9999      0.2909222 
564.5      0.1769355  1          0.3884132 
564.6      0.136055   1          0.4850683 
564.7      0.08313391 1          0.5913    
564.8      0.05104573 1          0.6526964 
564.9      0.04013885 1          0.665995  
565        0.04136323 1          0.6458787 
565.1      0.04409755 1          0.6263046 
565.2      0.04419198 1          0.6219507 
565.3      0.04948444 1          0.5927806 
565.4      0.06241154 1          0.5325221 
565.5      0.04506602 1          0.6049013 
565.6      0.05820118 1          0.574463  
565.7      0.04583981 1          0.6364517 
565.8      0.04916954 1          0.6450575 
565.9      0.05815834 1          0.6582096 
566        0.0934374  1          0.5880892 
566.1      0.0907841  1          0.5900195 
566.2      0.04473355 1          0.7133377 
566.3      0.01539551 1          0.7805541 
566.4      0.003794501 1          0.8820155 
566.5      0          1          0.960305  
566.6      0          1          1         
566.7      0          1          1         
566.8      0          1          1         
566.9      0          1          1         
567        0          1          1         
567.1      0          1          1         
567.2      0          1          1         
567.3      0          1          1         
567.4      0          1          1         
567.5      0          1          1         
567.6      0          1          1         
567.7      0          1          1         
567.8      0          1          1         
567.9      0          1          1         
568        0          1          1         
568.1      0          1          1         
568.2      0          1          1         
568.3      0          1          0.9572329 
568.4      0.01114568 1          0.7473454 
568.5      0.03768006 1          0.6272151 
568.6      0.07560497 1          0.4655288 
568.7      0.1059076  1          0.3088555 
568.8      0.1120171  1          0.2593081 
568.9      0.1048256  1          0.3317696 
569        0.05256844 1          0.5636659 
569.1      0.008074645 1          0.7872827 
569.2      0          1          1         
569.3      0          1          1         
569.4      0          1          1         
569.5      0          1          1         
569.6      0          1          1         
569.7      0          1          1         
569.8      0          1          1         
569.9      0          1          1         
570        0          1          0.9605871 
570.1      0          1          0.8850397 
570.2      0.0000817  1          0.890709  
570.3      0.02266168 1          0.7805029 
570.4      0.05547347 1          0.678203  
570.5      0.08150515 1          0.616803  
570.6      0.09022632 1          0.6062951 
570.7      0.09519293 1          0.5818456 
570.8      0.09962184 1          0.5718662 
570.9      0.1147838  1          0.5355266 
571        0.1019641  1          0.5580974 
571.1      0.09676689 1          0.5618669 
571.2      0.08671128 1          0.589412  
571.3      0.08947629 1          0.5873094 
571.4      0.08122712 1          0.5973369 
571.5      0.0826074  1          0.5871283 
571.6      0.0762442  1          0.5951173 
571.7      0.06375185 1          0.6052592 
571.8      0.08079132 1          0.5478985 
571.9      0.09450471 1          0.4953246 
572        0.09198457 1          0.4781869 
572.1      0.1112387  1          0.4117852 
572.2      0.10553    1          0.4073025 
572.3      0.09823576 1          0.4146429 
572.4      0.09955881 1          0.411614  
572.5      0.08989125 1          0.4500037 
572.6      0.1016206  1          0.4280593 
572.7      0.117713   1          0.3744106 
572.8      0.1179391  1          0.3702705 
572.9      0.1080637  1          0.3896209 
573        0.1105208  1          0.3728925 
573.1      0.1077111  1          0.4067968 
573.2      0.1041245  1          0.4171107 
573.3      0.09185424 1          0.4857362 
573.4      0.103961   1          0.4688981 
573.5      0.1210271  1          0.4367702 
573.6      0.118985   1          0.4838254 
573.7      0.1055322  1          0.5133315 
573.8      0.1004525  1          0.5186322 
573.9      0.1055676  1          0.5257978 
574        0.08378414 1          0.5828804 
574.1      0.1009559  1          0.5184015 
574.2      0.09979418 1          0.514738  
574.3      0.07803446 1          0.5649327 
574.4      0.05892145 1          0.6406589 
574.5      0.05892344 1          0.653659  
574.6      0.04000743 1          0.7178877 
574.7      0.02642711 1          0.7671239 
574.8      0.0297826  1          0.7272874 
574.9      0.03536225 1          0.7080194 
575        0.02815729 1          0.7417123 
575.1      0.03477919 1          0.7149138 
575.2      0.05064084 1          0.6420154 
575.3      0.05153279 1          0.6440843 
575.4      0.02000461 1          0.7636983 
575.5      0.02159305 1          0.758526  
575.6      0.01965861 1          0.7508901 
575.7      0.008299337 1          0.8289698 
575.8      0.01417337 1          0.7836641 
575.9      0.01703314 1          0.7706829 
576        0.02137896 1          0.7553896 
576.1      0.05263812 1          0.6520035 
576.2      0.09594709 1          0.5079    
576.3      0.1169825  1          0.4460007 
576.4      0.1318457  1          0.3934303 
576.5      0.1325881  1          0.3793582 
576.6      0.117236   1          0.4004897 
576.7      0.1153566  1          0.3447198 
576.8      0.1056206  1          0.3198788 
576.9      0.08289277 1          0.3433544 
577        0.06773414 1          0.3749818 
577.1      0.06309802 1          0.3681457 
577.2      0.08765469 0.6618026  0.2546737 
577.3      0.1046312  0.4676135  0.193433  
577.4      0.1178909  0.4819899  0.1704889 
577.5      0.1295063  0.7107823  0.1600964 
577.6      0.1374975  1          0.1900888 
577.7      0.1450215  1          0.2165387 
577.8      0.1655706  1          0.242618  
577.9      0.1793746  1          0.2657218 
578        0.2118622  1          0.2164645 
578.1      0.2344986  1          0.1875515 
578.2      0.2488888  1          0.1843214 
578.3      0.2557141  1          0.1827111 
578.4      0.2557514  1          0.1915548 
578.5      0.2532311  1          0.1899005 
578.6      0.2658163  1          0.1591883 
578.7      0.2748657  0.9363729  0.1492673 
578.8      0.279146   0.9173017  0.1371122 
578.9      0.2859249  0.9149479  0.1262177 
579        0.2914076  0.9061147  0.1129205 
579.1      0.293552   0.8466187  0.1054605 
579.2      0.3002388  0.7034119  0.09454093
579.3      0.2930593  0.668963   0.0961273 
579.4      0.3008735  0.6381099  0.07131242
579.5      0.3051582  0.6362522  0.06902329
579.6      0.3020507  0.6548387  0.07084087
579.7      0.3071648  0.6855794  0.06454717
579.8      0.3030703  0.7829258  0.06106527
579.9      0.3058407  0.8919464  0.06365947
580        0.3025376  1          0.06497116
580.1      0.2950408  1          0.07358526
580.2      0.294332   1          0.07545637
