~Version
 VERS              .         3.0                           : CWLS LOG ASCII STANDARD - VERSION 3.0
 WRAP              .         NO                            : ONE LINE PER DEPTH STEP
 DLM               .         SPACE                         : DELIMITING CHARACTER(SPACE TAB OR COMMA)
~Well Information
#_______________________________________________________________________________
#
#PARAMETER_NAME    .UNIT     VALUE                         : DESCRIPTION
#_______________________________________________________________________________
STRT               .M        0.2                           : First reference value
STOP               .M        936.8                         : Last reference value
STEP               .M        0.1                           : Step increment
NULL               .         -9999                         : Missing value
COMP               .         ICPetroleum                   : Company
WELL               .         332                           : Well name
FLD                .         Karatobe                      : Field
LOC                .                                       : Location
SRVC               .                                       : Service Company
CTRY               .         KZ                            : Country
DATE               .         26-27.07.2007                 : Service Date
LATI               .         0                             : Latitude
LONG               .         0                             : Longitude
GDAT               .         WGS 84                        : Geodetic Datum
CNTY               .                                       : 
COORDIN            .                                       : Grid System
COUNTRY            .         Kazakhstan                    : 
COUNTRY            .         Kazakhstan                    : 
EREF               .m        138.1                         : 
KB                 .         0                             : KB Elevation
ORIGINALWELLNAME   .         332                           : 
PROV               .                                       : Province
RWS                .         -999                          : Def_Rw
STAT               .                                       : 
UWI                .                                       : 
WST                .         -999                          : Def_Rwt
X                  .km       466603.39                     : 
XCOORD             .                                       : X or East-West Coordinate
Y                  .km       5308410.77                    : 
YCOORD             .                                       : Y or North-South Coordinate
~Parameter Information Block
#_______________________________________________________________________________
#
#PARAMETER_NAME    .UNIT     VALUE                         : DESCRIPTION
#_______________________________________________________________________________
SET                .         Las                           : 
TLFamily_DEPT      .         Measured Depth                : 
TLFamily_PHI_FINAL .         Porosity                      : 
TLFamily_SW_AR     .         Water Saturation              : 
TLFamily_VSH_FINAL .         Shale Volume                  : 
~Curve Information
#_______________________________________________________________________________
#
#LOGNAME           .UNIT     LOG_ID                        : DESCRIPTION
#_______________________________________________________________________________
DEPT               .M                                      : Depth curve {F}
PHI_FINAL          .m3/m3                                  : Porosity {F}
SW_AR              .m3/m3                                  :  {F}
VSH_FINAL          .unitless                               : Vshale {F}
~Ascii
# ...
252.7      0.299589   0.6162789  0.2303207 
252.8      0.2931215  0.6218425  0.2548455 
252.9      0.2965016  0.6177299  0.236219  
253        0.2916688  0.6267459  0.2560452 
253.1      0.2986446  0.6003384  0.236149  
253.2      0.3041095  0.5813346  0.2151653 
253.3      0.3040347  0.5831992  0.1976739 
253.4      0.3079092  0.5820568  0.1872583 
253.5      0.3023612  0.5927543  0.2018836 
253.6      0.2979152  0.5939357  0.2040115 
253.7      0.3132702  0.5471321  0.1771825 
253.8      0.3182459  0.5302283  0.1665892 
253.9      0.3266598  0.4909054  0.153736  
254        0.3348695  0.474108   0.1356987 
254.1      0.3413171  0.4871126  0.1145201 
254.2      0.3313328  0.5414161  0.1315819 
254.3      0.3327497  0.5492537  0.1398063 
254.4      0.3379301  0.520518   0.1381156 
254.5      0.3369001  0.4979421  0.1590257 
254.6      0.3406663  0.4897014  0.1380804 
254.7      0.3349168  0.5075202  0.1282908 
254.8      0.3230744  0.5275032  0.1430986 
254.9      0.3201157  0.5221419  0.1482483 
255        0.3221467  0.5057437  0.1598336 
255.1      0.3260752  0.4987169  0.1464747 
255.2      0.3340414  0.5139397  0.1330376 
255.3      0.32997    0.5496392  0.1464368 
255.4      0.329577   0.5350634  0.1481521 
255.5      0.3228722  0.5102928  0.1709463 
255.6      0.3258747  0.4818632  0.1489855 
255.7      0.317529   0.5080014  0.1624419 
255.8      0.3214006  0.5355256  0.1463422 
255.9      0.3161017  0.5637983  0.1633241 
256        0.3133084  0.5624058  0.175653  
256.1      0.2997558  0.5780012  0.2109323 
256.2      0.2898708  0.6077119  0.2374728 
256.3      0.289398   0.6300691  0.248475  
256.4      0.2928703  0.628971   0.245953  
256.5      0.3090122  0.5991288  0.2075143 
256.6      0.308284   0.6050282  0.2107817 
256.7      0.3052617  0.608708   0.2254729 
256.8      0.2839018  0.6362737  0.2920696 
256.9      0.297307   0.5886984  0.2661604 
257        0.2853031  0.6027967  0.2877711 
257.1      0.2833811  0.6142414  0.2961853 
257.2      0.2813093  0.6327124  0.2918862 
257.3      0.2777666  0.6409894  0.2989535 
257.4      0.2831074  0.6245197  0.2875913 
257.5      0.2765813  0.63219    0.2931601 
257.6      0.2917477  0.6028259  0.2517453 
257.7      0.2919174  0.5995573  0.254233  
257.8      0.2877527  0.6137591  0.263183  
257.9      0.2899149  0.6250774  0.2657543 
258        0.2964411  0.6265056  0.2478435 
258.1      0.2948694  0.641583   0.2453298 
258.2      0.2987098  0.6447111  0.2296446 
258.3      0.3057505  0.6328614  0.2203558 
258.4      0.3026554  0.6302156  0.2331199 
258.5      0.2948684  0.6452147  0.2551947 
258.6      0.3011714  0.6449739  0.2342406 
258.7      0.3067468  0.6509114  0.2365976 
258.8      0.3010361  0.6692275  0.2512922 
258.9      0.2978896  0.6750634  0.2563127 
259        0.2916099  0.6778206  0.2719093 
259.1      0.3107176  0.6262136  0.2024308 
259.2      0.3101985  0.6199495  0.1960459 
259.3      0.3067329  0.6201763  0.1960185 
259.4      0.2966039  0.6330759  0.2188709 
259.5      0.294822   0.6332002  0.2234049 
259.6      0.2800866  0.6575009  0.2611698 
259.7      0.2786565  0.6502928  0.2637226 
259.8      0.2794887  0.6418007  0.259802  
259.9      0.2669714  0.6498975  0.2850881 
260        0.2583174  0.6390317  0.3092806 
260.1      0.2545951  0.6139335  0.3196671 
260.2      0.281767   0.5315347  0.2545422 
260.3      0.300164   0.488975   0.2010217 
260.4      0.2950148  0.4994991  0.2020605 
260.5      0.2887846  0.5227613  0.2207945 
260.6      0.2943216  0.5281034  0.2063106 
260.7      0.286135   0.557346   0.2162095 
260.8      0.2905     0.561035   0.19876   
260.9      0.3009512  0.5453853  0.1813378 
261        0.2998885  0.5608817  0.1793389 
261.1      0.2919867  0.5837013  0.1997343 
261.2      0.2938096  0.5824364  0.212711  
261.3      0.3094257  0.5530467  0.1724752 
261.4      0.314638   0.5433686  0.1593961 
261.5      0.3090754  0.5526149  0.1695737 
261.6      0.3173601  0.5335553  0.1521978 
261.7      0.3283164  0.5014216  0.1319554 
261.8      0.3301605  0.488383   0.1217225 
261.9      0.3365038  0.4877833  0.1112492 
262        0.3379779  0.4968807  0.1097863 
262.1      0.3406878  0.4971288  0.106907  
262.2      0.3408351  0.4938174  0.1112093 
262.3      0.3386628  0.4823811  0.1216479 
262.4      0.3335603  0.4914356  0.1451037 
262.5      0.3343755  0.5110916  0.1467994 
262.6      0.3342464  0.5353378  0.165574  
262.7      0.3290232  0.5557149  0.1992871 
262.8      0.3240056  0.5674103  0.2212003 
262.9      0.3084057  0.6021852  0.2663457 
263        0.2735994  0.6933508  0.3477469 
263.1      0.2605214  0.7346217  0.3776993 
263.2      0.252254   0.7591414  0.4134306 
263.3      0.2763285  0.6980553  0.3443654 
263.4      0.2518264  0.7825263  0.4095879 
263.5      0.2683849  0.752655   0.3689124 
263.6      0.2768406  0.7433401  0.3506358 
263.7      0.2722498  0.7612399  0.3409562 
263.8      0.2657808  0.7735895  0.3570545 
263.9      0.2737685  0.7386468  0.3361162 
264        0.2763958  0.720112   0.3360614 
264.1      0.2775488  0.7226799  0.3487296 
264.2      0.2809986  0.7206561  0.3406776 
264.3      0.2862506  0.6940588  0.3266057 
264.4      0.2826031  0.686608   0.328087  
264.5      0.2927851  0.6562853  0.2899673 
264.6      0.2970174  0.639349   0.2695899 
264.7      0.2888434  0.6379451  0.2898769 
264.8      0.291547   0.6141544  0.2761563 
264.9      0.2882826  0.6132995  0.2734401 
265        0.2901271  0.6126577  0.2565007 
265.1      0.298399   0.6120761  0.2227452 
265.2      0.2975509  0.6382647  0.229643  
265.3      0.3123098  0.619559   0.1975147 
265.4      0.3014214  0.6180505  0.2226489 
265.5      0.3078963  0.5592875  0.2081327 
265.6      0.3179357  0.5236763  0.17435   
265.7      0.3211053  0.5286269  0.1558081 
265.8      0.3276416  0.534417   0.1557877 
265.9      0.3280199  0.5422401  0.1695213 
266        0.3357495  0.5288543  0.1575366 
266.1      0.3453947  0.5098704  0.1385523 
266.2      0.3494132  0.506779   0.1418674 
266.3      0.3591316  0.5208409  0.1328046 
266.4      0.3507867  0.5712211  0.1469227 
266.5      0.3516208  0.6074442  0.1376573 
266.6      0.3577038  0.6130657  0.1164932 
266.7      0.3524068  0.6138293  0.136801  
266.8      0.3517118  0.5842896  0.1359652 
266.9      0.3532435  0.5586123  0.1468286 
267        0.3456799  0.5435174  0.1683335 
267.1      0.3401437  0.5379528  0.1857638 
267.2      0.3416812  0.5328968  0.1797913 
267.3      0.3369915  0.5393537  0.1959238 
267.4      0.3299661  0.5474016  0.2108441 
267.5      0.3152     0.5687384  0.2431496 
267.6      0.3113951  0.571286   0.244332  
267.7      0.2762893  0.6429343  0.2927075 
267.8      0.2676555  0.6923188  0.3113162 
267.9      0.2441412  0.8038331  0.386763  
268        0.227745   0.8964682  0.4230504 
268.1      0.1805472  1          0.5640854 
268.2      0.1771885  1          0.5496724 
268.3      0.1783475  1          0.5495691 
268.4      0.1884843  1          0.5331824 
268.5      0.1630179  1          0.6374446 
268.6      0.1595765  1          0.6730654 
268.7      0.150183   1          0.7104408 
268.8      0.1236746  1          0.8074012 
268.9      0.09337697 1          0.9050885 
269        0.09329292 1          0.8975608 
269.1      0.09395377 1          0.8828708 
269.2      0.10763    1          0.8439238 
269.3      0.1521874  1          0.7095788 
269.4      0.1573902  1          0.6748097 
269.5      0.1430083  1          0.7271882 
269.6      0.1671963  1          0.691651  
269.7      0.1285285  1          0.7960059 
269.8      0.1512381  1          0.7450306 
269.9      0.1062401  1          0.8741995 
270        0.09959962 1          0.917717  
270.1      0.09397187 1          0.9249911 
270.2      0.07357617 1          0.9945966 
270.3      0.07939482 1          0.9396945 
270.4      0.1042023  1          0.8804031 
270.5      0.08558172 1          0.9392827 
270.6      0.1291355  1          0.8345651 
270.7      0.1209055  1          0.851608  
270.8      0.1365596  1          0.8342117 
