~Version
 VERS              .         3.0                           : CWLS LOG ASCII STANDARD - VERSION 3.0
 WRAP              .         NO                            : ONE LINE PER DEPTH STEP
 DLM               .         SPACE                         : DELIMITING CHARACTER(SPACE TAB OR COMMA)
~Well Information
#_______________________________________________________________________________
#
#PARAMETER_NAME    .UNIT     VALUE                         : DESCRIPTION
#_______________________________________________________________________________
STRT               .M        0.2                           : First reference value
STOP               .M        936.8                         : Last reference value
STEP               .M        0.1                           : Step increment
NULL               .         -9999                         : Missing value
COMP               .         ICPetroleum                   : Company
WELL               .         332                           : Well name
FLD                .         Karatobe                      : Field
LOC                .                                       : Location
SRVC               .                                       : Service Company
CTRY               .         KZ                            : Country
DATE               .         26-27.07.2007                 : Service Date
LATI               .         0                             : Latitude
LONG               .         0                             : Longitude
GDAT               .         WGS 84                        : Geodetic Datum
CNTY               .                                       : 
COORDIN            .                                       : Grid System
COUNTRY            .         Kazakhstan                    : 
COUNTRY            .         Kazakhstan                    : 
EREF               .m        138.1                         : 
KB                 .         0                             : KB Elevation
ORIGINALWELLNAME   .         332                           : 
PROV               .                                       : Province
RWS                .         -999                          : Def_Rw
STAT               .                                       : 
UWI                .                                       : 
WST                .         -999                          : Def_Rwt
X                  .km       466603.39                     : 
XCOORD             .                                       : X or East-West Coordinate
Y                  .km       5308410.77                    : 
YCOORD             .                                       : Y or North-South Coordinate
~Parameter Information Block
#_______________________________________________________________________________
#
#PARAMETER_NAME    .UNIT     VALUE                         : DESCRIPTION
#_______________________________________________________________________________
SET                .         Las                           : 
TLFamily_DEPT      .         Measured Depth                : 
TLFamily_PHI_FINAL .         Porosity                      : 
TLFamily_SW_AR     .         Water Saturation              : 
TLFamily_VSH_FINAL .         Shale Volume                  : 
~Curve Information
#_______________________________________________________________________________
#
#LOGNAME           .UNIT     LOG_ID                        : DESCRIPTION
#_______________________________________________________________________________
DEPT               .M                                      : Depth curve {F}
PHI_FINAL          .m3/m3                                  : Porosity {F}
SW_AR              .m3/m3                                  :  {F}
VSH_FINAL          .unitless                               : Vshale {F}
~Ascii
# ...
671.3      0.04369134 1          0.4492092 
671.4      0.0642198  1          0.4194129 
671.5      0.09852611 1          0.3827713 
671.6      0.08792065 1          0.3988299 
671.7      0.09607331 1          0.4111108 
671.8      0.09054081 1          0.4299213 
671.9      0.105618   1          0.4384341 
672        0.1160823  1          0.4288638 
672.1      0.1099952  1          0.4267534 
672.2      0.1078254  1          0.4448811 
672.3      0.1116824  1          0.4278079 
672.4      0.1067352  1          0.41837   
672.5      0.1131582  1          0.3957916 
672.6      0.1037138  1          0.4029007 
672.7      0.09360279 1          0.4162887 
672.8      0.100983   1          0.4111108 
672.9      0.08776976 1          0.4331025 
673        0.08334681 1          0.4320406 
673.1      0.07658836 1          0.4459609 
673.2      0.0764506  1          0.4427261 
673.3      0.07583223 1          0.4470421 
673.4      0.08591388 1          0.4235986 
673.5      0.08782069 1          0.42255   
673.6      0.08070913 1          0.4448811 
673.7      0.06989883 1          0.4745689 
673.8      0.06836261 1          0.4801902 
673.9      0.07043864 1          0.4745689 
674        0.06203731 1          0.4961397 
674.1      0.05323487 1          0.5206544 
674.2      0.06063768 1          0.5030709 
674.3      0.0630333  1          0.5042318 
674.4      0.07028708 1          0.4926957 
674.5      0.07680507 1          0.4904077 
674.6      0.08797906 1          0.4756901 
674.7      0.09146924 1          0.4667646 
674.8      0.08390853 1          0.4524711 
674.9      0.08165429 1          0.4601355 
675        0.08044949 1          0.5042318 
675.1      0.07354002 1          0.507724  
675.2      0.07490858 1          0.5030709 
675.3      0.07773843 1          0.4734494 
675.4      0.07479911 1          0.4634431 
675.5      0.07738434 1          0.4546533 
675.6      0.07706276 1          0.4557467 
675.7      0.06987348 1          0.4801902 
675.8      0.06753939 1          0.4881261 
675.9      0.06450483 1          0.4984436 
676        0.06970765 1          0.5007541 
676.1      0.05233547 1          0.5398195 
676.2      0.05963881 1          0.5349881 
676.3      0.06697053 1          0.5100603 
676.4      0.04680913 1          0.5386091 
676.5      0.04102102 1          0.5182887 
676.6      0.04309683 1          0.5112309 
676.7      0.02750823 1          0.5042318 
676.8      0.02786275 1          0.5230268 
676.9      0.0353999  1          0.5374005 
677        0.04269929 1          0.5325825 
677.1      0.04822812 1          0.5337845 
677.2      0.07706037 1          0.5194708 
677.3      0.08978972 1          0.4801902 
677.4      0.08916723 1          0.4756901 
677.5      0.1097447  1          0.4204571 
677.6      0.1063009  1          0.4278079 
677.7      0.1050891  1          0.4204571 
677.8      0.09848804 1          0.4029007 
677.9      0.06967579 1          0.4008625 
678        0.04086173 1          0.3988299 
678.1      0.05352004 1          0.3957916 
678.2      0.0638149  1          0.380789  
678.3      0.08058693 1          0.3837645 
678.4      0.07315012 1          0.4090497 
678.5      0.07659748 1          0.4173287 
678.6      0.05862533 1          0.4384341 
678.7      0.05704626 1          0.4438029 
678.8      0.05513682 1          0.450295  
678.9      0.07475337 1          0.4235986 
679        0.07195812 1          0.4331025 
679.1      0.1013699  1          0.4331025 
679.2      0.08011546 1          0.4667646 
679.3      0.07541376 1          0.4427261 
679.4      0.06487315 1          0.4320406 
679.5      0.04871002 1          0.4405771 
679.6      0.03026733 1          0.4535615 
679.7      0.02205888 1          0.4470421 
679.8      0.01056068 1          0.4481249 
679.9      0          1          0.4824498 
680        0          1          0.4557467 
680.1      0          1          0.459036  
680.2      0          1          0.4470421 
680.3      0          1          0.4215028 
680.4      0          1          0.4049447 
680.5      0.01007006 1          0.3847591 
680.6      0.0329501  1          0.3413455 
680.7      0.06974477 1          0.285817  
680.8      0.07119185 1          0.2557075 
680.9      0.04742243 1          0.2565236 
681        0.03956179 1          0.2832498 
681.1      0.03524113 1          0.29794   
681.2      0.03351277 1          0.3238164 
681.3      0.03751155 1          0.3302206 
681.4      0.02574685 1          0.3302206 
681.5      0.02729405 1          0.2849602 
681.6      0.02098627 1          0.2664067 
681.7      0.03544522 1          0.2372462 
681.8      0.0149088  1          0.2270701 
681.9      0.02595546 1          0.2095114 
682        0.04610775 1          0.1809936 
682.1      0.05853874 1          0.1387283 
682.2      0.06176389 1          0.1277627 
682.3      0.05622493 1          0.1065952 
682.4      0.06673185 1          0.1108717 
682.5      0.07011751 1          0.09936045
682.6      0.07599986 1          0.09936045
682.7      0.07440729 1          0.1047752 
682.8      0.06870287 1          0.1041702 
682.9      0.05729331 1          0.1029627 
683        0.04446023 1          0.1065952 
683.1      0.03821977 1          0.1078128 
683.2      0.03482342 1          0.09936045
683.3      0.02964251 1          0.09697556
683.4      0.03447124 1          0.1005579 
683.5      0.03161819 1          0.1102582 
683.6      0.03604837 1          0.09519563
683.7      0.02752644 1          0.1041702 
683.8      0.03197832 1          0.1090338 
683.9      0.01752759 1          0.09816635
684        0.002566578 1          0.1090338 
684.1      0.02057273 1          0.1078128 
684.2      0.03287423 1          0.1059877 
684.3      0.04481735 1          0.105381  
684.4      0.04850769 1          0.0928339 
684.5      0.04711455 1          0.09757055
684.6      0.05369541 1          0.09519563
684.7      0.05176512 1          0.1017586 
684.8      0.05442433 1          0.1127173 
684.9      0.06691228 1          0.1102582 
685        0.05496715 1          0.1108717 
685.1      0.0391132  1          0.1047752 
685.2      0.04392268 1          0.1084229 
685.3      0.04623593 1          0.1005579 
685.4      0.04605947 1          0.1011578 
685.5      0.04962536 1          0.1090338 
685.6      0.05800063 1          0.1005579 
685.7      0.05852854 1          0.09876297
685.8      0.04817885 1          0.113952  
685.9      0.05792809 1          0.1208045 
686        0.05921422 1          0.1164316 
686.1      0.06582589 1          0.113952  
686.2      0.06745864 1          0.1284006 
686.3      0.07865892 1          0.1303196 
686.4      0.06325541 1          0.1226916 
686.5      0.05424289 1          0.1133342 
686.6      0.05622493 1          0.1065952 
686.7      0.04247819 1          0.1133342 
686.8      0.04517347 1          0.1041702 
686.9      0.03857788 1          0.1065952 
687        0.03821977 1          0.1078128 
687.1      0.0529969  1          0.09757055
687.2      0.04140721 1          0.09697556
687.3      0.03482342 1          0.09936045
687.4      0.03534986 1          0.09757055
687.5      0.05264619 1          0.09876297
687.6      0.0442813  1          0.1072036 
687.7      0.05586682 1          0.1078128 
687.8      0.0606688  1          0.1114861 
687.9      0.07686126 0.9331247  0.1164316 
688        0.08034507 0.9816893  0.1245867 
688.1      0.07106918 1          0.1361247 
688.2      0.07405786 1          0.1459632 
688.3      0.07558533 1          0.1607698 
688.4      0.09316652 1          0.1809936 
688.5      0.1166027  1          0.2013105 
688.6      0.09997672 1          0.2178389 
688.7      0.09458911 1          0.1961568 
688.8      0.09176223 1          0.2057682 
688.9      0.09407587 1          0.2057682 
689        0.08729643 1          0.21177   
689.1      0.08068878 1          0.2216665 
689.2      0.08022787 1          0.2155551 
689.3      0.07327078 1          0.2294021 
689.4      0.06922764 1          0.2356686 
