~Version
 VERS              .         3.0                           : CWLS LOG ASCII STANDARD - VERSION 3.0
 WRAP              .         NO                            : ONE LINE PER DEPTH STEP
 DLM               .         SPACE                         : DELIMITING CHARACTER(SPACE TAB OR COMMA)
~Well Information
#_______________________________________________________________________________
#
#PARAMETER_NAME    .UNIT     VALUE                         : DESCRIPTION
#_______________________________________________________________________________
STRT               .M        0.2                           : First reference value
STOP               .M        936.8                         : Last reference value
STEP               .M        0.1                           : Step increment
NULL               .         -9999                         : Missing value
COMP               .         ICPetroleum                   : Company
WELL               .         332                           : Well name
FLD                .         Karatobe                      : Field
LOC                .                                       : Location
SRVC               .                                       : Service Company
CTRY               .         KZ                            : Country
DATE               .         26-27.07.2007                 : Service Date
LATI               .         0                             : Latitude
LONG               .         0                             : Longitude
GDAT               .         WGS 84                        : Geodetic Datum
CNTY               .                                       : 
COORDIN            .                                       : Grid System
COUNTRY            .         Kazakhstan                    : 
COUNTRY            .         Kazakhstan                    : 
EREF               .m        138.1                         : 
KB                 .         0                             : KB Elevation
ORIGINALWELLNAME   .         332                           : 
PROV               .                                       : Province
RWS                .         -999                          : Def_Rw
STAT               .                                       : 
UWI                .                                       : 
WST                .         -999                          : Def_Rwt
X                  .km       466603.39                     : 
XCOORD             .                                       : X or East-West Coordinate
Y                  .km       5308410.77                    : 
YCOORD             .                                       : Y or North-South Coordinate
~Parameter Information Block
#_______________________________________________________________________________
#
#PARAMETER_NAME    .UNIT     VALUE                         : DESCRIPTION
#_______________________________________________________________________________
SET                .         Las                           : 
TLFamily_DEPT      .         Measured Depth                : 
TLFamily_PHI_FINAL .         Porosity                      : 
TLFamily_SW_AR     .         Water Saturation              : 
TLFamily_VSH_FINAL .         Shale Volume                  : 
~Curve Information
#_______________________________________________________________________________
#
#LOGNAME           .UNIT     LOG_ID                        : DESCRIPTION
#_______________________________________________________________________________
DEPT               .M                                      : Depth curve {F}
PHI_FINAL          .m3/m3                                  : Porosity {F}
SW_AR              .m3/m3                                  :  {F}
VSH_FINAL          .unitless                               : Vshale {F}
~Ascii
# ...
489.3      0.1291681  1          0.4800979 
489.4      0.1275838  1          0.501815  
489.5      0.1411714  1          0.4746322 
489.6      0.1536834  1          0.4453626 
489.7      0.1500516  1          0.4744876 
489.8      0.1430481  1          0.4996575 
489.9      0.1139464  1          0.5865817 
490        0.09874962 1          0.6461755 
490.1      0.08292135 1          0.691224  
490.2      0.1209036  1          0.5969638 
490.3      0.118323   1          0.5798816 
490.4      0.1088899  1          0.6010816 
490.5      0.09311533 1          0.6479434 
490.6      0.1083091  1          0.6074025 
490.7      0.09703598 1          0.633996  
490.8      0.1082216  1          0.609389  
490.9      0.08776925 1          0.6781561 
491        0.08811442 1          0.6901647 
491.1      0.09739169 1          0.6683663 
491.2      0.07266872 1          0.7198067 
491.3      0.09548552 1          0.656365  
491.4      0.1105813  1          0.5767621 
491.5      0.07484504 1          0.6538126 
491.6      0.04228842 1          0.7243967 
491.7      0.05099355 1          0.699165  
491.8      0.05949013 1          0.6699527 
491.9      0.04274005 1          0.6915509 
492        0.03013971 1          0.7657259 
492.1      0.05265456 1          0.7086261 
492.2      0.06434616 1          0.6718807 
492.3      0.08637172 1          0.6013753 
492.4      0.07835381 1          0.6413004 
492.5      0.05919394 1          0.6811316 
492.6      0.06633798 1          0.6433766 
492.7      0.06565731 1          0.6386979 
492.8      0.06258038 1          0.643162  
492.9      0.05613458 1          0.6294324 
493        0.06671824 1          0.5921099 
493.1      0.08902875 1          0.5984357 
493.2      0.08682528 1          0.6496379 
493.3      0.02576095 1          0.8393199 
493.4      0.02017436 1          0.8597665 
493.5      0.01915151 1          0.8685769 
493.6      0.04353622 1          0.8187286 
493.7      0.02771408 1          0.8592995 
493.8      0.03202712 1          0.868103  
493.9      0.0713884  1          0.7499373 
494        0.0757788  1          0.7341928 
494.1      0.05260243 1          0.8095115 
494.2      0.02230958 1          0.897929  
494.3      0.07375271 1          0.7261196 
494.4      0.09431873 1          0.6552894 
494.5      0.09948877 1          0.6345239 
494.6      0.0841409  1          0.6667989 
494.7      0.1032836  1          0.6365792 
494.8      0.08496375 1          0.6833012 
494.9      0.0994476  1          0.6184518 
495        0.08891361 1          0.6317415 
495.1      0.1213983  1          0.5122316 
495.2      0.08573782 1          0.5942536 
495.3      0.05323665 1          0.6707507 
495.4      0.05252367 1          0.6472569 
495.5      0.06125507 1          0.5833807 
495.6      0.04811782 1          0.5832868 
495.7      0.06303079 1          0.5098827 
495.8      0.08293152 1          0.4330659 
495.9      0.09561018 1          0.3864666 
496        0.1193086  0.8545372  0.3467799 
496.1      0.135728   0.8516683  0.3400165 
496.2      0.1567302  0.9305402  0.363236  
496.3      0.1615289  1          0.431124  
496.4      0.1317842  1          0.5578505 
496.5      0.1242773  1          0.608067  
496.6      0.09908547 1          0.6836329 
496.7      0.1015626  1          0.7080371 
496.8      0.1305687  1          0.6526659 
496.9      0.1551677  1          0.6054989 
497        0.1913334  1          0.5355234 
497.1      0.2236137  1          0.490438  
497.2      0.2658268  1          0.4321706 
497.3      0.2904342  0.8504784  0.3697453 
497.4      0.2797157  0.827862   0.359829  
497.5      0.2541322  0.9124936  0.3420296 
497.6      0.222455   1          0.3667493 
497.7      0.1816512  1          0.4367348 
497.8      0.1643     1          0.4669512 
497.9      0.1508196  1          0.5100087 
498        0.1395091  1          0.53858   
498.1      0.1446305  1          0.5249594 
498.2      0.1552106  1          0.4824524 
498.3      0.1570475  1          0.4665985 
498.4      0.1579564  1          0.4876644 
498.5      0.1568379  1          0.5002901 
498.6      0.1538273  1          0.5283824 
498.7      0.1613594  1          0.5302246 
498.8      0.1960266  1          0.4279284 
498.9      0.1835064  1          0.5018178 
499        0.1951456  1          0.494433  
499.1      0.1859958  1          0.5554582 
499.2      0.1936729  1          0.5840903 
499.3      0.1813195  1          0.6295078 
499.4      0.1770872  1          0.6475434 
499.5      0.1720752  1          0.6613402 
499.6      0.1698139  1          0.6314384 
499.7      0.1634742  1          0.6136006 
499.8      0.1751547  1          0.5448982 
499.9      0.1564919  1          0.6047022 
500        0.1672822  1          0.5586842 
500.1      0.1735041  1          0.5525768 
500.2      0.1793645  1          0.5504963 
500.3      0.1937834  1          0.5644901 
500.4      0.1970079  1          0.5746472 
500.5      0.1932253  1          0.5462694 
500.6      0.1892485  1          0.5023404 
500.7      0.1702335  1          0.5041035 
500.8      0.1561381  1          0.5284838 
500.9      0.1507917  1          0.5419875 
501        0.1108459  1          0.6573561 
501.1      0.1195995  1          0.645718  
501.2      0.114147   1          0.6594641 
501.3      0.1142789  1          0.6500914 
501.4      0.08409619 1          0.7376663 
501.5      0.09178511 1          0.7171935 
501.6      0.09847888 1          0.6947891 
501.7      0.08243057 1          0.7450439 
501.8      0.08872419 1          0.7449149 
501.9      0.09920875 1          0.7473875 
502        0.1029369  1          0.7190929 
502.1      0.1158989  1          0.6821047 
502.2      0.1431458  1          0.6002977 
502.3      0.1420208  1          0.5853621 
502.4      0.1416785  1          0.5915858 
502.5      0.1529587  1          0.5425829 
502.6      0.1602636  1          0.5044693 
502.7      0.1836142  1          0.420725  
502.8      0.187753   1          0.3740078 
502.9      0.1815888  1          0.3855625 
503        0.1915653  1          0.3597994 
503.1      0.1805285  1          0.3738496 
503.2      0.1671232  1          0.3942916 
503.3      0.1573305  1          0.426708  
503.4      0.147715   1          0.4395868 
503.5      0.1196533  1          0.5130386 
503.6      0.08094932 1          0.6162501 
503.7      0.05583672 1          0.6778817 
503.8      0.04545312 1          0.7044491 
503.9      0.06153164 1          0.6518832 
504        0.03987712 1          0.709158  
504.1      0.04658982 1          0.6679562 
504.2      0.05214775 1          0.6469702 
504.3      0.05035037 1          0.6265733 
504.4      0.05575511 1          0.5792265 
504.5      0.08466849 1          0.4487734 
504.6      0.08524251 1          0.4307005 
504.7      0.08197528 1          0.4338646 
504.8      0.09372941 1          0.3787035 
504.9      0.09599008 1          0.3644186 
505        0.1105045  0.7907158  0.3255358 
505.1      0.1119013  0.8593237  0.3254918 
505.2      0.1084869  1          0.3872403 
505.3      0.1057029  1          0.420708  
505.4      0.09745923 1          0.4737089 
505.5      0.09965917 1          0.4788891 
505.6      0.1127381  1          0.4547309 
505.7      0.1307775  1          0.4049505 
505.8      0.1483111  1          0.3710096 
505.9      0.1318935  1          0.4063627 
506        0.1278137  1          0.4379032 
506.1      0.1174092  1          0.4611599 
506.2      0.1311436  1          0.4696688 
506.3      0.139453   1          0.4542567 
506.4      0.1294969  1          0.4997049 
506.5      0.1308056  1          0.5125259 
506.6      0.1409725  1          0.5032076 
506.7      0.1511673  1          0.5086554 
506.8      0.146103   1          0.5487318 
506.9      0.1251362  1          0.6440871 
507        0.1575655  1          0.5485588 
507.1      0.1632309  1          0.525219  
507.2      0.1809005  1          0.4990931 
507.3      0.1985807  1          0.4386939 
507.4      0.2083594  1          0.3919343 
