~Version
 VERS              .         3.0                           : CWLS LOG ASCII STANDARD - VERSION 3.0
 WRAP              .         NO                            : ONE LINE PER DEPTH STEP
 DLM               .         SPACE                         : DELIMITING CHARACTER(SPACE TAB OR COMMA)
~Well Information
#_______________________________________________________________________________
#
#PARAMETER_NAME    .UNIT     VALUE                         : DESCRIPTION
#_______________________________________________________________________________
STRT               .M        0.2                           : First reference value
STOP               .M        936.8                         : Last reference value
STEP               .M        0.1                           : Step increment
NULL               .         -9999                         : Missing value
COMP               .         ICPetroleum                   : Company
WELL               .         332                           : Well name
FLD                .         Karatobe                      : Field
LOC                .                                       : Location
SRVC               .                                       : Service Company
CTRY               .         KZ                            : Country
DATE               .         26-27.07.2007                 : Service Date
LATI               .         0                             : Latitude
LONG               .         0                             : Longitude
GDAT               .         WGS 84                        : Geodetic Datum
CNTY               .                                       : 
COORDIN            .                                       : Grid System
COUNTRY            .         Kazakhstan                    : 
COUNTRY            .         Kazakhstan                    : 
EREF               .m        138.1                         : 
KB                 .         0                             : KB Elevation
ORIGINALWELLNAME   .         332                           : 
PROV               .                                       : Province
RWS                .         -999                          : Def_Rw
STAT               .                                       : 
UWI                .                                       : 
WST                .         -999                          : Def_Rwt
X                  .km       466603.39                     : 
XCOORD             .                                       : X or East-West Coordinate
Y                  .km       5308410.77                    : 
YCOORD             .                                       : Y or North-South Coordinate
~Parameter Information Block
#_______________________________________________________________________________
#
#PARAMETER_NAME    .UNIT     VALUE                         : DESCRIPTION
#_______________________________________________________________________________
SET                .         Las                           : 
TLFamily_DEPT      .         Measured Depth                : 
TLFamily_PHI_FINAL .         Porosity                      : 
TLFamily_SW_AR     .         Water Saturation              : 
TLFamily_VSH_FINAL .         Shale Volume                  : 
~Curve Information
#_______________________________________________________________________________
#
#LOGNAME           .UNIT     LOG_ID                        : DESCRIPTION
#_______________________________________________________________________________
DEPT               .M                                      : Depth curve {F}
PHI_FINAL          .m3/m3                                  : Porosity {F}
SW_AR              .m3/m3                                  :  {F}
VSH_FINAL          .unitless                               : Vshale {F}
~Ascii
# ...
471.1      0.3558007  0.09215419 0.06524346
471.2      0.356673   0.08631924 0.06010372
471.3      0.3543221  0.0868177  0.06334397
471.4      0.3591014  0.08703817 0.05250802
471.5      0.3565997  0.08890413 0.05917372
471.6      0.3572797  0.08974297 0.0587138 
471.7      0.3608688  0.08907873 0.06808371
471.8      0.3599834  0.08887437 0.05734825
471.9      0.3652818  0.088075   0.05205186
472        0.3693395  0.08972681 0.04612637
472.1      0.3729731  0.0937727  0.05334635
472.2      0.3705177  0.1036397  0.05643212
472.3      0.3747288  0.1188853  0.05777282
472.4      0.3685604  0.1342206  0.06803998
472.5      0.3681874  0.1380799  0.06949125
472.6      0.369178   0.1329742  0.060487  
472.7      0.3706984  0.121331   0.0577523 
472.8      0.3713349  0.1126682  0.05684908
472.9      0.3731184  0.1019191  0.0680088 
473        0.378401   0.09833886 0.05683901
473.1      0.387978   0.090654   0.05156616
473.2      0.3899089  0.08283792 0.05863015
473.3      0.3911538  0.07790614 0.04773776
473.4      0.3895082  0.07757565 0.05241643
473.5      0.3893007  0.08007204 0.05241185
473.6      0.3850393  0.08179098 0.04772546
473.7      0.3834902  0.08230921 0.0528365 
473.8      0.3812489  0.0857251  0.05025006
473.9      0.3793875  0.09032384 0.06226314
474        0.3798209  0.09349846 0.06318957
474.1      0.3793201  0.09819312 0.06793404
474.2      0.3781095  0.1012581  0.06987062
474.3      0.3880143  0.1007387  0.05902614
474.4      0.3881781  0.1009551  0.06695349
474.5      0.3898006  0.09865875 0.06130392
474.6      0.3940688  0.09345547 0.05855713
474.7      0.3984499  0.08687785 0.04684768
474.8      0.4050389  0.08184177 0.04037043
474.9      0.4084361  0.07900412 0.04478133
475        0.4082594  0.07739895 0.04977291
475.1      0.409156   0.07635293 0.04436607
475.2      0.4055061  0.07751875 0.05061548
475.3      0.4075981  0.08141561 0.05018489
475.4      0.4083902  0.08354493 0.05232516
475.5      0.4027125  0.08339051 0.04975143
475.6      0.404652   0.08343966 0.04394112
475.7      0.4021193  0.09145306 0.0455697 
475.8      0.4054948  0.1036897  0.05101658
475.9      0.4040737  0.1202582  0.05404198
476        0.3954265  0.1451258  0.05668844
476.1      0.3926618  0.1581287  0.0644761 
476.2      0.3912397  0.1453782  0.06541506
476.3      0.3909787  0.1212854  0.07620893
476.4      0.3881591  0.1041599  0.08136665
476.5      0.3902287  0.09717862 0.0808351 
476.6      0.3889934  0.09544338 0.07720713
476.7      0.3868462  0.09992789 0.09217752
476.8      0.3852722  0.1093767  0.101936  
476.9      0.3796106  0.1244352  0.1147451 
477        0.3780048  0.1386419  0.1166355 
477.1      0.3717736  0.1443299  0.1091236 
477.2      0.3511701  0.1482362  0.1277387 
477.3      0.3473268  0.1399904  0.1165994 
477.4      0.3365023  0.1336227  0.1257044 
477.5      0.3427788  0.1223613  0.1012758 
477.6      0.3440683  0.1203698  0.08552037
477.7      0.3390889  0.1267624  0.09377114
477.8      0.3445688  0.1314081  0.08389922
477.9      0.3438251  0.1344105  0.08875123
478        0.3422001  0.1368306  0.09150316
478.1      0.3501541  0.1379249  0.07506925
478.2      0.3506794  0.1464838  0.07355741
478.3      0.3518072  0.1617626  0.07556006
478.4      0.3457977  0.1845708  0.08226285
478.5      0.3404927  0.1967421  0.08760842
478.6      0.3327364  0.2022609  0.08543833
478.7      0.3281826  0.1967409  0.07910905
478.8      0.3233616  0.1844004  0.0827591 
478.9      0.3268762  0.1632074  0.07551774
479        0.3287535  0.1604498  0.06383854
479.1      0.3293566  0.1737373  0.06714509
479.2      0.327735   0.1853094  0.06713896
479.3      0.3241065  0.1794738  0.06713288
479.4      0.3162402  0.1682694  0.07347553
479.5      0.3117613  0.1683235  0.07547548
479.6      0.3144418  0.1783608  0.07852655
479.7      0.3155269  0.183352   0.0680678 
479.8      0.3061835  0.1883356  0.06999861
479.9      0.3068437  0.1842108  0.07850441
480        0.31061    0.1970827  0.07096332
480.1      0.3170122  0.217882   0.07593861
480.2      0.3238352  0.234276   0.06283776
480.3      0.3297527  0.2478571  0.06899545
480.4      0.3331208  0.2537697  0.08053712
480.5      0.343159   0.2402728  0.07846014
480.6      0.3481913  0.2275711  0.08104327
480.7      0.3536016  0.2290176  0.08260965
480.8      0.3540526  0.2296386  0.08850285
480.9      0.352572   0.2241054  0.0794616 
481        0.348269   0.218117   0.07386512
481.1      0.3430109  0.2217315  0.07089154
481.2      0.3342664  0.2532635  0.05866545
481.3      0.3194034  0.3043731  0.06277575
481.4      0.3135868  0.3425553  0.07185429
481.5      0.3088856  0.3588801  0.0809743 
481.6      0.2980736  0.3838009  0.0900786 
481.7      0.2961183  0.4028793  0.0962332 
481.8      0.295239   0.4229819  0.1104417 
481.9      0.29387    0.424404   0.1185962 
482        0.2938752  0.4091246  0.1067633 
482.1      0.3000386  0.392671   0.1104081 
482.2      0.30227    0.390658   0.1160119 
482.3      0.3019181  0.3905405  0.1097717 
482.4      0.3036487  0.3917392  0.1140989 
482.5      0.3014061  0.3930069  0.122404  
482.6      0.3086036  0.3714013  0.1204416 
482.7      0.3117502  0.3641669  0.1121935 
482.8      0.303921   0.3908513  0.1317112 
482.9      0.3053282  0.4121136  0.1330665 
483        0.3067676  0.4306277  0.1479645 
483.1      0.3010901  0.4610647  0.1631044 
483.2      0.2968783  0.5119306  0.1937906 
483.3      0.2796457  0.6427757  0.257265  
483.4      0.2489889  0.85383    0.3570984 
483.5      0.2016754  1          0.5008559 
483.6      0.1490457  1          0.6346804 
483.7      0.0601997  1          0.8334314 
483.8      0.03818028 1          0.8188425 
483.9      0.06578165 1          0.6911863 
484        0.04149232 1          0.7418336 
484.1      0.0473951  1          0.6787566 
484.2      0.05548822 1          0.6182811 
484.3      0.09015908 1          0.4965403 
484.4      0.1055297  1          0.4660135 
484.5      0.1227398  1          0.4572966 
484.6      0.1382325  1          0.4853782 
484.7      0.1123602  1          0.6111268 
484.8      0.1040589  1          0.6612263 
484.9      0.07682033 1          0.7276993 
485        0.09715977 1          0.6777176 
485.1      0.1254861  1          0.5998017 
485.2      0.1336473  1          0.5659034 
485.3      0.09355786 1          0.6822133 
485.4      0.08310903 1          0.7168511 
485.5      0.08200398 1          0.7295151 
485.6      0.09743658 1          0.6746191 
485.7      0.1188219  1          0.6145307 
485.8      0.1284151  1          0.5926528 
485.9      0.128857   1          0.5904166 
486        0.1371205  1          0.569299  
486.1      0.1402286  1          0.5880919 
486.2      0.1184294  1          0.6811677 
486.3      0.09101085 1          0.7680351 
486.4      0.09296306 1          0.798103  
486.5      0.141808   1          0.7029307 
486.6      0.198093   1          0.5625782 
486.7      0.2363604  1          0.4766687 
486.8      0.2909851  0.881958   0.3723938 
486.9      0.3264066  0.6994776  0.2934773 
487        0.3327357  0.6221886  0.2413371 
487.1      0.2976894  0.6903622  0.2851408 
487.2      0.2564203  0.8693213  0.3141934 
487.3      0.2009699  1          0.408094  
487.4      0.1519295  1          0.535831  
487.5      0.1174141  1          0.6215813 
487.6      0.1222571  1          0.5761316 
487.7      0.1148397  1          0.5781295 
487.8      0.1366742  1          0.5105376 
487.9      0.1468167  1          0.5218449 
488        0.163234   1          0.4548833 
488.1      0.171619   1          0.4446911 
488.2      0.1549775  1          0.493549  
488.3      0.1419297  1          0.5331131 
488.4      0.1462718  1          0.5044523 
488.5      0.1347247  1          0.5407954 
488.6      0.1511029  1          0.4932441 
488.7      0.142571   1          0.5135863 
488.8      0.1528601  1          0.4681168 
488.9      0.1568608  1          0.4424922 
489        0.1491862  1          0.442426  
489.1      0.1382443  1          0.4679034 
489.2      0.1158792  1          0.5207806 
