~Version
 VERS              .         3.0                           : CWLS LOG ASCII STANDARD - VERSION 3.0
 WRAP              .         NO                            : ONE LINE PER DEPTH STEP
 DLM               .         SPACE                         : DELIMITING CHARACTER(SPACE TAB OR COMMA)
~Well Information
#_______________________________________________________________________________
#
#PARAMETER_NAME    .UNIT     VALUE                         : DESCRIPTION
#_______________________________________________________________________________
STRT               .M        0.2                           : First reference value
STOP               .M        936.8                         : Last reference value
STEP               .M        0.1                           : Step increment
NULL               .         -9999                         : Missing value
COMP               .         ICPetroleum                   : Company
WELL               .         332                           : Well name
FLD                .         Karatobe                      : Field
LOC                .                                       : Location
SRVC               .                                       : Service Company
CTRY               .         KZ                            : Country
DATE               .         26-27.07.2007                 : Service Date
LATI               .         0                             : Latitude
LONG               .         0                             : Longitude
GDAT               .         WGS 84                        : Geodetic Datum
CNTY               .                                       : 
COORDIN            .                                       : Grid System
COUNTRY            .         Kazakhstan                    : 
COUNTRY            .         Kazakhstan                    : 
EREF               .m        138.1                         : 
KB                 .         0                             : KB Elevation
ORIGINALWELLNAME   .         332                           : 
PROV               .                                       : Province
RWS                .         -999                          : Def_Rw
STAT               .                                       : 
UWI                .                                       : 
WST                .         -999                          : Def_Rwt
X                  .km       466603.39                     : 
XCOORD             .                                       : X or East-West Coordinate
Y                  .km       5308410.77                    : 
YCOORD             .                                       : Y or North-South Coordinate
~Parameter Information Block
#_______________________________________________________________________________
#
#PARAMETER_NAME    .UNIT     VALUE                         : DESCRIPTION
#_______________________________________________________________________________
SET                .         Las                           : 
TLFamily_DEPT      .         Measured Depth                : 
TLFamily_PHI_FINAL .         Porosity                      : 
TLFamily_SW_AR     .         Water Saturation              : 
TLFamily_VSH_FINAL .         Shale Volume                  : 
~Curve Information
#_______________________________________________________________________________
#
#LOGNAME           .UNIT     LOG_ID                        : DESCRIPTION
#_______________________________________________________________________________
DEPT               .M                                      : Depth curve {F}
PHI_FINAL          .m3/m3                                  : Porosity {F}
SW_AR              .m3/m3                                  :  {F}
VSH_FINAL          .unitless                               : Vshale {F}
~Ascii
# ...
634.9      0.2670063  0.3902065  0.1033755 
635        0.2815258  0.3523564  0.08647794
635.1      0.2843337  0.3333262  0.08647046
635.2      0.2827164  0.3245865  0.09547362
635.3      0.2914478  0.3114427  0.09597951
635.4      0.2950982  0.3032713  0.09443246
635.5      0.2921967  0.3043278  0.101187  
635.6      0.2919079  0.3133389  0.09543973
635.7      0.2866459  0.3515964  0.0959454 
635.8      0.2850977  0.4109609  0.08788655
635.9      0.2776662  0.5449684  0.1016812 
636        0.2711342  0.6751254  0.1183174 
636.1      0.2601791  0.7338337  0.137716  
636.2      0.2516485  0.7547303  0.157593  
636.3      0.2463047  0.7894533  0.1624698 
636.4      0.2407666  0.8427432  0.15007   
636.5      0.2376589  0.8390431  0.1624368 
636.6      0.2269549  0.7690181  0.171037  
636.7      0.2251953  0.6551389  0.1616992 
636.8      0.2342491  0.560963   0.146025  
636.9      0.2454033  0.5468126  0.1252813 
637        0.2390735  0.606843   0.1446833 
637.1      0.223253   0.7246711  0.1602311 
637.2      0.202233   0.9114922  0.2010562 
637.3      0.1754385  1          0.2487273 
637.4      0.1674911  1          0.2859176 
637.5      0.1568834  1          0.3368144 
637.6      0.1344356  1          0.4100685 
637.7      0.105312   1          0.5011073 
637.8      0.10562    1          0.4894068 
637.9      0.1216029  1          0.466772  
638        0.1524284  1          0.391782  
638.1      0.1975064  1          0.267098  
638.2      0.234693   0.760233   0.1896506 
638.3      0.2595551  0.5299026  0.1399694 
638.4      0.2777809  0.4104534  0.1117992 
638.5      0.2839873  0.3617532  0.1041115 
638.6      0.2941443  0.2974141  0.08964477
638.7      0.2986911  0.2635025  0.08188368
638.8      0.2940748  0.2447881  0.08522459
638.9      0.2931983  0.2365135  0.09161548
639        0.2910881  0.2568254  0.09929217
639.1      0.2905714  0.2951137  0.1024507 
639.2      0.2862498  0.3280391  0.1145322 
639.3      0.2816337  0.3418536  0.1341494 
639.4      0.2732107  0.3738775  0.1469678 
639.5      0.2770927  0.3985441  0.1328807 
639.6      0.2733216  0.4249372  0.1443139 
639.7      0.2672301  0.4414349  0.1391402 
639.8      0.2572494  0.4544041  0.1482332 
639.9      0.2495265  0.4623261  0.1590828 
640        0.2373038  0.5070196  0.1808291 
640.1      0.2255283  0.599591   0.1947939 
640.2      0.2041591  0.7651309  0.2376232 
640.3      0.2018437  0.8346795  0.2223347 
640.4      0.1746064  0.9600651  0.2555283 
640.5      0.1452161  1          0.3295929 
640.6      0.1491178  1          0.3283704 
640.7      0.1412519  1          0.3601783 
640.8      0.1435317  1          0.3678241 
640.9      0.1501432  1          0.3600864 
641        0.1647475  1          0.3223531 
641.1      0.1557694  1          0.3142587 
641.2      0.1620525  1          0.3074445 
641.3      0.1677814  1          0.3141817 
641.4      0.1844883  1          0.2741708 
641.5      0.1868301  1          0.2552049 
641.6      0.1711833  1          0.281345  
641.7      0.164493   1          0.2886958 
641.8      0.1658683  1          0.3061036 
641.9      0.1765152  1          0.2639223 
642        0.1880504  0.9688815  0.2436292 
642.1      0.2013946  0.9060607  0.214982  
642.2      0.2125288  0.8755193  0.1983616 
642.3      0.2111292  0.8664926  0.2106967 
642.4      0.227041   0.7582667  0.1888106 
642.5      0.2245399  0.7151979  0.1999144 
642.6      0.2312135  0.6524116  0.1685406 
642.7      0.2386026  0.6004345  0.1635297 
642.8      0.2402699  0.5740429  0.1642203 
642.9      0.2429004  0.5638545  0.1531297 
643        0.2455473  0.5652591  0.1451368 
643.1      0.2518882  0.5816907  0.139955  
643.2      0.2446357  0.6138711  0.1727952 
643.3      0.2417485  0.6254851  0.1713167 
643.4      0.2504781  0.5994242  0.1606074 
643.5      0.2492448  0.5850345  0.1457195 
643.6      0.2410117  0.5832579  0.1557417 
643.7      0.2426632  0.5779755  0.1503204 
643.8      0.2429515  0.5902628  0.1605427 
643.9      0.2439896  0.6163288  0.1612246 
644        0.2454419  0.6574467  0.1626104 
644.1      0.2460214  0.6994329  0.1682826 
644.2      0.2418262  0.7722374  0.1618756 
644.3      0.2402543  0.7626392  0.1597659 
644.4      0.2401092  0.6965623  0.1597499 
644.5      0.2435276  0.6197567  0.1597338 
644.6      0.2544974  0.551071   0.1569555 
644.7      0.2621151  0.5185038  0.1488412 
644.8      0.2666988  0.5066473  0.1422877 
644.9      0.2729727  0.5039613  0.1315797 
645        0.270598   0.5262368  0.1315671 
645.1      0.2743103  0.5273117  0.1422461 
645.2      0.268195   0.5339205  0.1461311 
645.3      0.2706839  0.4998928  0.129089  
645.4      0.2716824  0.4794827  0.1346065 
645.5      0.2690075  0.4631052  0.1352168 
645.6      0.2815783  0.4233418  0.1230741 
645.7      0.2871567  0.3965383  0.1050439 
645.8      0.287008   0.3834325  0.1121554 
645.9      0.2923348  0.3880169  0.09406769
646        0.2919473  0.4295077  0.09254732
646.1      0.2997183  0.4561877  0.08089913
646.2      0.2955406  0.4707393  0.09153041
646.3      0.2845757  0.4845022  0.09658303
646.4      0.2763512  0.5006495  0.1120937 
646.5      0.2774652  0.5022569  0.09503289
646.6      0.2764734  0.4873202  0.09655743
646.7      0.2878365  0.4186639  0.08416876
646.8      0.2921453  0.3405775  0.07352825
646.9      0.2976282  0.2657482  0.05822175
647        0.3028349  0.2275188  0.03461734
647.1      0.3080208  0.2155056  0.02221337
647.2      0.3090973  0.2161916  0.0149595 
647.3      0.3052044  0.2113679  0.01165736
647.4      0.2972836  0.2056578  0.02012594
647.5      0.2863665  0.1835022  0.02967236
647.6      0.2779987  0.1546412  0.02870895
647.7      0.2750236  0.1358877  0.03326388
647.8      0.2806816  0.1314212  0.03974414
647.9      0.2914216  0.1481215  0.03731203
648        0.2910146  0.1824836  0.03973822
648.1      0.2915353  0.2186342  0.04079112
648.2      0.2895521  0.2649782  0.04657409
648.3      0.2930766  0.3174954  0.04731247
648.4      0.2845088  0.3991513  0.05339888
648.5      0.283221   0.4961075  0.0499352 
648.6      0.2837959  0.5673015  0.05261413
648.7      0.2816636  0.6130615  0.05495241
648.8      0.276302   0.6321776  0.06098201
648.9      0.2762     0.6175041  0.06304633
649        0.2674134  0.6016345  0.05572902
649.1      0.2501854  0.5887907  0.04915571
649.2      0.2387792  0.5656193  0.03591135
649.3      0.211652   0.6556268  0.03761722
649.4      0.1789623  0.9074844  0.03830463
649.5      0.1380142  1          0.0480145 
649.6      0.1025152  1          0.06939416
649.7      0.09376761 1          0.08732006
649.8      0.08143991 1          0.1237668 
649.9      0.07753722 1          0.1467666 
650        0.08383819 1          0.142211  
650.1      0.1005598  1          0.119069  
650.2      0.1196082  1          0.1179088 
650.3      0.1322462  1          0.1207826 
650.4      0.1573805  1          0.09674588
650.5      0.168905   1          0.08247423
650.6      0.1775171  0.9859816  0.06171708
650.7      0.1790611  0.9118894  0.04574929
650.8      0.1800627  0.8745967  0.04611334
650.9      0.1734856  0.8874592  0.0450105 
651        0.1741191  0.8717946  0.04176524
651.1      0.1744322  0.8536509  0.03219292
651.2      0.1696707  0.8594603  0.03317965
651.3      0.1617915  0.8873611  0.03585621
651.4      0.153832   0.9367813  0.0410438 
651.5      0.1479312  0.9984095  0.05641183
651.6      0.147614   1          0.0688472 
651.7      0.1473749  1          0.09409426
651.8      0.1513448  1          0.1217775 
651.9      0.154284   1          0.1558162 
652        0.1515801  1          0.1955076 
652.1      0.1501079  1          0.2399447 
652.2      0.1522434  1          0.2362599 
652.3      0.1528214  1          0.2059476 
652.4      0.1655705  1          0.1477181 
652.5      0.1678138  1          0.08662605
652.6      0.1782407  0.833856   0.05206562
652.7      0.1724841  0.8068023  0.04350031
652.8      0.1801561  0.7397081  0.03380449
652.9      0.1798952  0.7163385  0.03380204
653        0.1762282  0.7100982  0.04170283
