~Version
 VERS              .         3.0                           : CWLS LOG ASCII STANDARD - VERSION 3.0
 WRAP              .         NO                            : ONE LINE PER DEPTH STEP
 DLM               .         SPACE                         : DELIMITING CHARACTER(SPACE TAB OR COMMA)
~Well Information
#_______________________________________________________________________________
#
#PARAMETER_NAME    .UNIT     VALUE                         : DESCRIPTION
#_______________________________________________________________________________
STRT               .M        0.2                           : First reference value
STOP               .M        936.8                         : Last reference value
STEP               .M        0.1                           : Step increment
NULL               .         -9999                         : Missing value
COMP               .         ICPetroleum                   : Company
WELL               .         332                           : Well name
FLD                .         Karatobe                      : Field
LOC                .                                       : Location
SRVC               .                                       : Service Company
CTRY               .         KZ                            : Country
DATE               .         26-27.07.2007                 : Service Date
LATI               .         0                             : Latitude
LONG               .         0                             : Longitude
GDAT               .         WGS 84                        : Geodetic Datum
CNTY               .                                       : 
COORDIN            .                                       : Grid System
COUNTRY            .         Kazakhstan                    : 
COUNTRY            .         Kazakhstan                    : 
EREF               .m        138.1                         : 
KB                 .         0                             : KB Elevation
ORIGINALWELLNAME   .         332                           : 
PROV               .                                       : Province
RWS                .         -999                          : Def_Rw
STAT               .                                       : 
UWI                .                                       : 
WST                .         -999                          : Def_Rwt
X                  .km       466603.39                     : 
XCOORD             .                                       : X or East-West Coordinate
Y                  .km       5308410.77                    : 
YCOORD             .                                       : Y or North-South Coordinate
~Parameter Information Block
#_______________________________________________________________________________
#
#PARAMETER_NAME    .UNIT     VALUE                         : DESCRIPTION
#_______________________________________________________________________________
SET                .         Las                           : 
TLFamily_DEPT      .         Measured Depth                : 
TLFamily_PHI_FINAL .         Porosity                      : 
TLFamily_SW_AR     .         Water Saturation              : 
TLFamily_VSH_FINAL .         Shale Volume                  : 
~Curve Information
#_______________________________________________________________________________
#
#LOGNAME           .UNIT     LOG_ID                        : DESCRIPTION
#_______________________________________________________________________________
DEPT               .M                                      : Depth curve {F}
PHI_FINAL          .m3/m3                                  : Porosity {F}
SW_AR              .m3/m3                                  :  {F}
VSH_FINAL          .unitless                               : Vshale {F}
~Ascii
# ...
707.7      0          1          0.3670666 
707.8      0          1          0.3778259 
707.9      0.007307369 1          0.3729149 
708        0.03478868 1          0.3394784 
708.1      0.04597427 1          0.3014474 
708.2      0.04694479 1          0.2781476 
708.3      0.035429   1          0.2773013 
708.4      0.02416106 1          0.2756124 
708.5      0.04225922 1          0.2540786 
708.6      0.05521581 1          0.2500261 
708.7      0.04487049 1          0.2452002 
708.8      0.03391904 1          0.2224352 
708.9      0.03752304 1          0.2301816 
709        0.03504638 1          0.2186023 
709.1      0.04681107 1          0.2186023 
709.2      0.04815354 1          0.2140379 
709.3      0.05102405 1          0.2042781 
709.4      0.04579678 1          0.2020509 
709.5      0.04860404 1          0.1925062 
709.6      0.04100017 1          0.1983594 
709.7      0.03391904 1          0.2224352 
709.8      0.03459638 1          0.2201323 
709.9      0.03567738 1          0.2364568 
710        0.02916403 1          0.2186023 
710.1      0.03638885 1          0.2140379 
710.2      0.03459638 1          0.2201323 
710.3      0.03638885 1          0.2140379 
710.4      0.0314111  1          0.2309622 
710.5      0.01663255 1          0.2412093 
710.6      0.01284748 1          0.2540786 
710.7      0.007009401 1          0.273928  
710.8      0.000613593 1          0.3156738 
710.9      0.01015946 1          0.3432178 
711        0.01441425 1          0.3887514 
711.1      0          1          0.4049447 
711.2      0          1          0.4131776 
711.3      0          1          0.4362969 
711.4      0          1          0.4215028 
711.5      0          1          0.4612364 
711.6      0          1          0.4524711 
711.7      0          1          0.4546533 
711.8      0          1          0.4601355 
711.9      0          1          0.4267534 
712        0          1          0.3998455 
712.1      0          1          0.4204571 
712.2      0          1          0.4204571 
712.3      0          1          0.4029007 
712.4      0          1          0.4059688 
712.5      0          1          0.4029007 
712.6      0          1          0.3612669 
712.7      0.005435254 1          0.3192801 
712.8      0.001141751 1          0.313878  
712.9      0.01375774 1          0.2909837 
713        0.01836403 1          0.2953223 
713.1      0.001946875 1          0.3311406 
713.2      0.01078503 1          0.3210908 
713.3      0.01479165 1          0.3274683 
713.4      0.01051818 1          0.3219981 
713.5      0          1          0.3719367 
713.6      0          1          0.4246488 
713.7      0          1          0.457938  
713.8      0          1          0.4546533 
713.9      0          1          0.4395048 
714        0          1          0.4427261 
714.1      0          1          0.4362969 
714.2      0          1          0.4734494 
714.3      0          1          0.4869877 
714.4      0          1          0.4972909 
714.5      0          1          0.4915509 
714.6      0          1          0.4949901 
714.7      0          1          0.4892661 
714.8      0          1          0.4835818 
714.9      0          1          0.5030709 
715        0          1          0.4768127 
715.1      0          1          0.4373648 
715.2      0          1          0.4362969 
715.3      0          1          0.4029007 
715.4      0          1          0.4090497 
715.5      0          1          0.4267534 
715.6      0          1          0.4194129 
715.7      0          1          0.4299213 
715.8      0          1          0.4362969 
715.9      0          1          0.4173287 
716        0          1          0.4162887 
716.1      0          1          0.403922  
716.2      0          1          0.3847591 
716.3      0          1          0.3837645 
716.4      0          1          0.3778259 
716.5      0          1          0.389753  
716.6      0          1          0.3968029 
716.7      0          1          0.4246488 
716.8      0          1          0.4362969 
716.9      0          1          0.4513823 
717        0          1          0.4926957 
717.1      0          1          0.4881261 
717.2      0          1          0.5398195 
717.3      0          1          0.5386091 
717.4      0          1          0.4768127 
717.5      0          1          0.4448811 
717.6      0.01596999 1          0.4384341 
717.7      0.0179243  1          0.4405771 
717.8      0.01983826 1          0.4427261 
717.9      0.02211945 1          0.4395048 
718        0.03051863 1          0.4204571 
718.1      0.02522971 1          0.4278079 
718.2      0.03200056 1          0.403922  
718.3      0.01523267 1          0.4059688 
718.4      0.0005595645 1          0.3758574 
718.5      0          1          0.380789  
718.6      0          1          0.3877512 
718.7      0          1          0.3788123 
718.8      0          1          0.3927659 
718.9      0          1          0.389753  
719        0          1          0.3847591 
719.1      0          1          0.4018809 
719.2      0          1          0.4059688 
719.3      0          1          0.4100795 
719.4      0          1          0.4405771 
719.5      0          1          0.3699846 
719.6      0          1          0.3385468 
719.7      0          1          0.3201849 
719.8      0.002978696 1          0.3076324 
719.9      0.002193624 1          0.3103017 
720        0          1          0.3120874 
720.1      0          1          0.3023273 
720.2      0          1          0.2935832 
720.3      0          1          0.2935832 
720.4      0          1          0.3032084 
720.5      0          1          0.3049743 
720.6      0          1          0.263094  
720.7      0          1          0.2452002 
720.8      0          1          0.2027923 
720.9      0.01202061 1          0.19689   
721        0.04333203 1          0.1704311 
721.1      0.03481034 1          0.1594049 
721.2      0.01405989 1          0.1499565 
721.3      0.005798911 1          0.1580438 
721.4      0.004634419 1          0.1420031 
721.5      0.01595562 1          0.163511  
721.6      0.02568498 1          0.1704311 
721.7      0.02929549 1          0.1781554 
721.8      0.04837619 1          0.2132809 
721.9      0.05722203 1          0.223205  
722        0.06980744 1          0.2404145 
722.1      0.07898258 1          0.249219  
722.2      0.09145746 1          0.2468044 
722.3      0.09615451 1          0.2508344 
722.4      0.08298453 1          0.2756124 
722.5      0.06827055 1          0.3256399 
722.6      0.07199273 1          0.3329844 
722.7      0.07678595 1          0.3366875 
722.8      0.07976656 1          0.3265534 
722.9      0.07415289 1          0.3256399 
723        0.0644744  1          0.3385468 
723.1      0.05551446 1          0.3690106 
723.2      0.05520006 1          0.4100795 
723.3      0.03297171 1          0.4656559 
723.4      0.0264811  1          0.507724  
723.5      0.008653028 1          0.5483394 
723.6      0.01597029 1          0.5434607 
723.7      0.01887729 1          0.5135769 
723.8      0.02347728 1          0.477937  
723.9      0.03424722 1          0.4813192 
724        0.05255802 1          0.4790629 
724.1      0.06924149 1          0.462339  
724.2      0.07427859 1          0.4756901 
724.3      0.07371908 1          0.4995981 
724.4      0.06299361 1          0.4835818 
724.5      0.05094454 1          0.4645487 
724.6      0.03712038 1          0.4915509 
724.7      0.01714381 1          0.5194708 
724.8      0.007758092 1          0.5313823 
724.9      0.01222538 1          0.5361934 
725        0          1          0.5557086 
725.1      0          1          0.5581787 
725.2      0          1          0.5495633 
725.3      0          1          0.5594164 
725.4      0          1          0.5277914 
725.5      0          1          0.5446779 
725.6      0          1          0.5386091 
725.7      0.003168287 1          0.4869877 
725.8      0.005507019 1          0.459036  
