~Version
 VERS              .         3.0                           : CWLS LOG ASCII STANDARD - VERSION 3.0
 WRAP              .         NO                            : ONE LINE PER DEPTH STEP
 DLM               .         SPACE                         : DELIMITING CHARACTER(SPACE TAB OR COMMA)
~Well Information
#_______________________________________________________________________________
#
#PARAMETER_NAME    .UNIT     VALUE                         : DESCRIPTION
#_______________________________________________________________________________
STRT               .M        0.2                           : First reference value
STOP               .M        936.8                         : Last reference value
STEP               .M        0.1                           : Step increment
NULL               .         -9999                         : Missing value
COMP               .         ICPetroleum                   : Company
WELL               .         332                           : Well name
FLD                .         Karatobe                      : Field
LOC                .                                       : Location
SRVC               .                                       : Service Company
CTRY               .         KZ                            : Country
DATE               .         26-27.07.2007                 : Service Date
LATI               .         0                             : Latitude
LONG               .         0                             : Longitude
GDAT               .         WGS 84                        : Geodetic Datum
CNTY               .                                       : 
COORDIN            .                                       : Grid System
COUNTRY            .         Kazakhstan                    : 
COUNTRY            .         Kazakhstan                    : 
EREF               .m        138.1                         : 
KB                 .         0                             : KB Elevation
ORIGINALWELLNAME   .         332                           : 
PROV               .                                       : Province
RWS                .         -999                          : Def_Rw
STAT               .                                       : 
UWI                .                                       : 
WST                .         -999                          : Def_Rwt
X                  .km       466603.39                     : 
XCOORD             .                                       : X or East-West Coordinate
Y                  .km       5308410.77                    : 
YCOORD             .                                       : Y or North-South Coordinate
~Parameter Information Block
#_______________________________________________________________________________
#
#PARAMETER_NAME    .UNIT     VALUE                         : DESCRIPTION
#_______________________________________________________________________________
SET                .         Las                           : 
TLFamily_DEPT      .         Measured Depth                : 
TLFamily_PHI_FINAL .         Porosity                      : 
TLFamily_SW_AR     .         Water Saturation              : 
TLFamily_VSH_FINAL .         Shale Volume                  : 
~Curve Information
#_______________________________________________________________________________
#
#LOGNAME           .UNIT     LOG_ID                        : DESCRIPTION
#_______________________________________________________________________________
DEPT               .M                                      : Depth curve {F}
PHI_FINAL          .m3/m3                                  : Porosity {F}
SW_AR              .m3/m3                                  :  {F}
VSH_FINAL          .unitless                               : Vshale {F}
~Ascii
# ...
325.5      0.04892872 1          0.7315108 
325.6      0.06396478 1          0.6807864 
325.7      0.07905403 1          0.6383485 
325.8      0.05421947 1          0.7224301 
325.9      0.04567409 1          0.7426189 
326        0.03849571 1          0.7815896 
326.1      0.03384666 1          0.8159684 
326.2      0.03091163 1          0.7843621 
326.3      0.02332925 1          0.8092628 
326.4      0.02383433 1          0.787142  
326.5      0.01417543 1          0.8478667 
326.6      0.01218941 1          0.8183492 
326.7      0.02695536 1          0.7443957 
326.8      0.01506906 1          0.805283  
326.9      0.01203925 1          0.8405795 
327        0.005977394 1          0.9050035 
327.1      0.001072756 1          0.9739103 
327.2      0.0003935831 1          0.9888521 
327.3      0          1          0.9810432 
327.4      0.03655823 1          0.8011633 
327.5      0.05919853 1          0.743229  
327.6      0.07981307 1          0.7029531 
327.7      0.1164776  1          0.6059198 
327.8      0.1369394  1          0.5427423 
327.9      0.1289563  1          0.531619  
328        0.1327766  0.8838868  0.483265  
328.1      0.1342798  0.7417628  0.459532  
328.2      0.1277495  0.8588446  0.4480047 
328.3      0.1164429  1          0.4911218 
328.4      0.1276266  1          0.4631674 
328.5      0.1364883  1          0.4868857 
328.6      0.1371296  1          0.5309591 
328.7      0.1252153  1          0.6221299 
328.8      0.1487759  1          0.5925806 
328.9      0.1423708  1          0.6552256 
329        0.1604874  1          0.6020314 
329.1      0.1676653  1          0.5756688 
329.2      0.141279   1          0.6788282 
329.3      0.1449528  1          0.6679519 
329.4      0.1481053  1          0.6493868 
329.5      0.1701331  1          0.5775934 
329.6      0.1737921  1          0.5751467 
329.7      0.1472327  1          0.6568608 
329.8      0.1489046  1          0.6515019 
329.9      0.166208   1          0.6108204 
330        0.1568578  1          0.6357807 
330.1      0.1632004  1          0.6130621 
330.2      0.1547961  1          0.6380984 
330.3      0.1366499  1          0.6747133 
330.4      0.1382496  1          0.6719011 
330.5      0.1079132  1          0.7301781 
330.6      0.09948236 1          0.7475336 
330.7      0.06909584 1          0.8053051 
330.8      0.06809925 1          0.801998  
330.9      0.0810679  1          0.7740291 
331        0.07861101 1          0.7861226 
331.1      0.08176254 1          0.7767683 
331.2      0.083809   1          0.758512  
331.3      0.06563675 1          0.8202164 
331.4      0.08984515 1          0.7582137 
331.5      0.07949959 1          0.8008775 
331.6      0.08278891 1          0.8007183 
331.7      0.04514307 1          0.8997294 
331.8      0.04839081 1          0.8891476 
331.9      0.06868709 1          0.8517891 
332        0.06030874 1          0.8819161 
332.1      0.08150286 1          0.8093587 
332.2      0.04292512 1          0.898802  
332.3      0.03573343 1          0.9021014 
332.4      0.03225112 1          0.894959  
332.5      0.02386083 1          0.9052246 
332.6      0.05150053 1          0.8085496 
332.7      0.05025538 1          0.8147279 
332.8      0.02508511 1          0.8873224 
332.9      0.03670352 1          0.8701074 
333        0.05497934 1          0.8206169 
333.1      0.03710195 1          0.8833467 
333.2      0.0805454  1          0.7735515 
333.3      0.1081497  1          0.7205088 
333.4      0.09768311 1          0.7762837 
333.5      0.09372276 1          0.7914762 
333.6      0.08143547 1          0.8588073 
333.7      0.08657235 1          0.8486842 
333.8      0.1127466  1          0.7665995 
333.9      0.1224249  1          0.7369049 
334        0.1453941  1          0.6673368 
334.1      0.1559117  1          0.6436896 
334.2      0.13417    1          0.7051852 
334.3      0.126325   1          0.7276796 
334.4      0.1144566  1          0.7567335 
334.5      0.1016813  1          0.7837518 
334.6      0.1037961  1          0.753472  
334.7      0.1032094  1          0.7474282 
334.8      0.1125576  1          0.7241147 
334.9      0.1202201  1          0.7014598 
335        0.09074885 1          0.773837  
335.1      0.08734978 1          0.7889678 
335.2      0.07743015 1          0.8298271 
335.3      0.08403722 1          0.8136654 
335.4      0.0537405  1          0.8963597 
335.5      0.06821546 1          0.8655083 
335.6      0.05423031 1          0.9099339 
335.7      0.0505344  1          0.9310273 
335.8      0.05878802 1          0.9060557 
335.9      0.03510984 1          1         
336        0.03790689 1          1         
336.1      0.04666353 1          1         
336.2      0.05139112 1          1         
336.3      0.04725398 1          1         
336.4      0.03722667 1          1         
336.5      0.02836614 1          1         
336.6      0.02445005 1          1         
336.7      0.02115673 1          1         
336.8      0.02270972 1          1         
336.9      0.02393854 1          1         
337        0.02281734 1          1         
337.1      0.02202497 1          1         
337.2      0.01822018 1          1         
337.3      0.0129584  1          1         
337.4      0.008977785 1          1         
337.5      0.008977785 1          1         
337.6      0.008977785 1          1         
337.7      0.007967685 1          1         
337.8      0.007967685 1          1         
337.9      0.008977785 1          1         
338        0.009987885 1          1         
338.1      0.01001712 1          1         
338.2      0.008977785 1          1         
338.3      0.007967685 1          1         
338.4      0.005947485 1          1         
338.5      0.00291716 1          1         
338.6      0          1          1         
338.7      0          1          1         
338.8      0          1          0.9575731 
338.9      0          1          0.7739494 
339        0.0008249978 1          0.7070522 
339.1      0.0000844  1          0.7069167 
339.2      0          1          0.842571  
339.3      0          1          0.8358992 
339.4      0          1          0.8890393 
339.5      0          1          1         
339.6      0.00392726 1          1         
339.7      0.006957585 1          1         
339.8      0.009119724 1          0.9519215 
339.9      0.01470874 1          0.9372417 
340        0.007615181 1          0.9662095 
340.1      0.02951296 1          0.9050211 
340.2      0.03519619 1          0.9013615 
340.3      0.009059968 1          1         
340.4      0.06008302 1          0.8770255 
340.5      0.08372804 1          0.8178833 
340.6      0.1167881  1          0.7104617 
340.7      0.1131572  1          0.7159331 
340.8      0.1341226  1          0.6854457 
340.9      0.1580771  1          0.6156367 
341        0.1500609  1          0.6380133 
341.1      0.1417251  1          0.6823575 
341.2      0.1278446  1          0.7674651 
341.3      0.09633476 1          0.8653542 
341.4      0.08649763 1          0.906085  
341.5      0.09533242 1          0.8920748 
341.6      0.1132788  1          0.8224426 
341.7      0.09709588 1          0.8848749 
341.8      0.120252   1          0.8285064 
341.9      0.1161597  1          0.8576605 
342        0.128673   1          0.8443447 
342.1      0.1412202  1          0.8152804 
342.2      0.1416299  1          0.8310539 
342.3      0.1268768  1          0.8872004 
342.4      0.1017454  1          0.9911791 
342.5      0.1155993  1          0.9286435 
342.6      0.09884071 1          0.9609753 
342.7      0.1202849  1          0.8864776 
342.8      0.15566    1          0.7770801 
342.9      0.1324527  1          0.8493527 
343        0.09876609 1          0.9638484 
343.1      0.09012777 1          1         
343.2      0.08900257 1          1         
343.3      0.1094398  1          0.9378192 
343.4      0.1545081  1          0.8194965 
343.5      0.1453556  1          0.8548965 
343.6      0.1611772  1          0.7941621 
