~Version
 VERS              .         3.0                           : CWLS LOG ASCII STANDARD - VERSION 3.0
 WRAP              .         NO                            : ONE LINE PER DEPTH STEP
 DLM               .         SPACE                         : DELIMITING CHARACTER(SPACE TAB OR COMMA)
~Well Information
#_______________________________________________________________________________
#
#PARAMETER_NAME    .UNIT     VALUE                         : DESCRIPTION
#_______________________________________________________________________________
STRT               .M        0.2                           : First reference value
STOP               .M        936.8                         : Last reference value
STEP               .M        0.1                           : Step increment
NULL               .         -9999                         : Missing value
COMP               .         ICPetroleum                   : Company
WELL               .         332                           : Well name
FLD                .         Karatobe                      : Field
LOC                .                                       : Location
SRVC               .                                       : Service Company
CTRY               .         KZ                            : Country
DATE               .         26-27.07.2007                 : Service Date
LATI               .         0                             : Latitude
LONG               .         0                             : Longitude
GDAT               .         WGS 84                        : Geodetic Datum
CNTY               .                                       : 
COORDIN            .                                       : Grid System
COUNTRY            .         Kazakhstan                    : 
COUNTRY            .         Kazakhstan                    : 
EREF               .m        138.1                         : 
KB                 .         0                             : KB Elevation
ORIGINALWELLNAME   .         332                           : 
PROV               .                                       : Province
RWS                .         -999                          : Def_Rw
STAT               .                                       : 
UWI                .                                       : 
WST                .         -999                          : Def_Rwt
X                  .km       466603.39                     : 
XCOORD             .                                       : X or East-West Coordinate
Y                  .km       5308410.77                    : 
YCOORD             .                                       : Y or North-South Coordinate
~Parameter Information Block
#_______________________________________________________________________________
#
#PARAMETER_NAME    .UNIT     VALUE                         : DESCRIPTION
#_______________________________________________________________________________
SET                .         Las                           : 
TLFamily_DEPT      .         Measured Depth                : 
TLFamily_PHI_FINAL .         Porosity                      : 
TLFamily_SW_AR     .         Water Saturation              : 
TLFamily_VSH_FINAL .         Shale Volume                  : 
~Curve Information
#_______________________________________________________________________________
#
#LOGNAME           .UNIT     LOG_ID                        : DESCRIPTION
#_______________________________________________________________________________
DEPT               .M                                      : Depth curve {F}
PHI_FINAL          .m3/m3                                  : Porosity {F}
SW_AR              .m3/m3                                  :  {F}
VSH_FINAL          .unitless                               : Vshale {F}
~Ascii
# ...
434.7      0.08796517 1          0.7162275 
434.8      0.1171691  1          0.6269246 
434.9      0.1296854  1          0.5971278 
435        0.1320134  1          0.6015113 
435.1      0.119522   1          0.6150371 
435.2      0.1097522  1          0.6288283 
435.3      0.09852856 1          0.63577   
435.4      0.09806522 1          0.5988579 
435.5      0.1098684  1          0.5596107 
435.6      0.1339695  1          0.4533146 
435.7      0.1257083  1          0.4585541 
435.8      0.1380557  1          0.4273969 
435.9      0.1393982  1          0.4443703 
436        0.1504476  1          0.4727488 
436.1      0.1671071  1          0.4529606 
436.2      0.1873558  1          0.4528897 
436.3      0.1828341  1          0.5082839 
436.4      0.1791396  1          0.5441923 
436.5      0.1937081  1          0.533893  
436.6      0.177466   1          0.5954093 
436.7      0.1750771  1          0.6156458 
436.8      0.1717757  1          0.620141  
436.9      0.1709598  1          0.6269907 
437        0.1775863  1          0.6107614 
437.1      0.1620608  1          0.6577085 
437.2      0.1143387  1          0.8040684 
437.3      0.127351   1          0.7448673 
437.4      0.1216272  1          0.7556665 
437.5      0.1177779  1          0.7527828 
437.6      0.1305084  1          0.7125237 
437.7      0.1358196  1          0.6692585 
437.8      0.118112   1          0.7254191 
437.9      0.07400741 1          0.8030287 
438        0.06800918 1          0.7856194 
438.1      0.09181371 1          0.7197466 
438.2      0.08976406 1          0.7065664 
438.3      0.09030929 1          0.7090338 
438.4      0.08028612 1          0.7625725 
438.5      0.07010064 1          0.7792276 
438.6      0.06949303 1          0.7790849 
438.7      0.09407109 1          0.7402824 
438.8      0.08636484 1          0.7901729 
438.9      0.1049125  1          0.7563598 
439        0.0958783  1          0.813069  
439.1      0.1169507  1          0.7560852 
439.2      0.1501576  1          0.6749167 
439.3      0.155631   1          0.6747982 
439.4      0.1527673  1          0.692257  
439.5      0.190636   1          0.6127088 
439.6      0.2250849  1          0.5352273 
439.7      0.2570909  0.9857451  0.4902824 
439.8      0.280756   0.891399   0.4699207 
439.9      0.3298969  0.7047627  0.3878815 
440        0.3688486  0.5578615  0.2926001 
440.1      0.4004184  0.4949719  0.2379357 
440.2      0.4111511  0.5113296  0.1994347 
440.3      0.3896619  0.6141418  0.2195106 
440.4      0.3429583  0.7882863  0.2924399 
440.5      0.2616147  1          0.4144639 
440.6      0.1940299  1          0.5718198 
440.7      0.1501744  1          0.6464043 
440.8      0.1273764  1          0.6705562 
440.9      0.1465461  1          0.6227028 
441        0.1240511  1          0.7134184 
441.1      0.1430912  1          0.6826295 
441.2      0.164954   1          0.6200792 
441.3      0.155645   1          0.6553333 
441.4      0.1549604  1          0.6291255 
441.5      0.1646543  1          0.6243742 
441.6      0.1656361  1          0.6037496 
441.7      0.1486054  1          0.6524689 
441.8      0.1166298  1          0.7334892 
441.9      0.07595854 1          0.8689955 
442        0.02246999 1          1         
442.1      0.02339637 1          1         
442.2      0.02263101 1          1         
442.3      0.0169849  1          1         
442.4      0.006268842 1          1         
442.5      0.00190706 1          1         
442.6      0          1          1         
442.7      0          1          1         
442.8      0          1          1         
442.9      0          1          1         
443        0.0002597622 1          0.9548444 
443.1      0.001001489 1          0.9479006 
443.2      0.001145931 1          0.9510918 
443.3      0.007975904 1          0.9308373 
443.4      0.03566259 1          0.8665451 
443.5      0.03340637 1          0.8757316 
443.6      0.02929007 1          0.8913504 
443.7      0.03951715 1          0.8629619 
443.8      0.07811698 1          0.755143  
443.9      0.1300442  1          0.6149466 
444        0.1474407  1          0.5685903 
444.1      0.150735   1          0.5475659 
444.2      0.1578535  1          0.5114896 
444.3      0.2034177  1          0.3644312 
444.4      0.2208744  0.9430193  0.2764857 
444.5      0.237543   0.8054206  0.1993101 
444.6      0.2456152  0.731234   0.1623193 
444.7      0.2479548  0.7079662  0.1379725 
444.8      0.2523553  0.7098029  0.1329666 
444.9      0.2604587  0.6910345  0.1437864 
445        0.2591704  0.7106462  0.1787843 
445.1      0.2611777  0.7450706  0.2085232 
445.2      0.2461024  0.8386589  0.2868933 
445.3      0.2387251  0.8987507  0.3467427 
445.4      0.2275723  0.9472351  0.3741703 
445.5      0.1919307  1          0.4820828 
445.6      0.1717934  1          0.5122771 
445.7      0.1606189  1          0.5339366 
445.8      0.1298205  1          0.6152372 
445.9      0.1300361  1          0.6174136 
446        0.1356222  1          0.5992754 
446.1      0.1366345  1          0.5903345 
446.2      0.171448   1          0.50026   
446.3      0.1526027  1          0.5664234 
446.4      0.1560531  0.9723498  0.5475547 
446.5      0.1829466  0.7810836  0.4596729 
446.6      0.1966928  0.6841241  0.4237022 
446.7      0.1880605  0.6591084  0.4455661 
446.8      0.178238   0.6509016  0.4847823 
446.9      0.1780508  0.625146   0.4773532 
447        0.2023571  0.5452462  0.4217971 
447.1      0.1998029  0.542576   0.4470155 
447.2      0.1928739  0.5465855  0.4538982 
447.3      0.1991518  0.5424486  0.4468773 
447.4      0.2048818  0.5588916  0.4281587 
447.5      0.1837584  0.6799275  0.4750817 
447.6      0.1788212  0.8095295  0.48602   
447.7      0.1239286  1          0.6200932 
447.8      0.09644061 1          0.6821077 
447.9      0.05681114 1          0.7912629 
448        0.02298412 1          0.8966438 
448.1      0.02373205 1          0.8901169 
448.2      0.02200285 1          0.928715  
448.3      0.006058341 1          0.9722685 
448.4      0.001767764 1          1         
448.5      0.005889855 1          1         
448.6      0.0086925  1          1         
448.7      0.02352907 1          0.9377463 
448.8      0.03847669 1          0.8857827 
448.9      0.04080936 1          0.8951184 
449        0.05521079 1          0.8423184 
449.1      0.0622193  1          0.798091  
449.2      0.1040033  1          0.680441  
449.3      0.1048547  1          0.6487111 
449.4      0.1357476  1          0.5287407 
449.5      0.1555469  1          0.4522838 
449.6      0.1860563  0.9640163  0.3616384 
449.7      0.2113883  0.6965616  0.2827662 
449.8      0.2300601  0.4983384  0.2455095 
449.9      0.2423517  0.4655601  0.223794  
450        0.2567221  0.5886964  0.2267732 
450.1      0.2549147  0.7578512  0.3148677 
450.2      0.2599375  0.8490683  0.3896388 
450.3      0.2163793  1          0.4932424 
450.4      0.2105725  1          0.4931641 
450.5      0.2020897  1          0.4782976 
450.6      0.1742716  1          0.525732  
450.7      0.1626201  1          0.5498548 
450.8      0.1644368  0.8297335  0.5315248 
450.9      0.1682288  0.6682407  0.5079384 
451        0.1957286  0.5049374  0.4291385 
451.1      0.2052841  0.4544791  0.3968536 
451.2      0.1864591  0.4817712  0.4340228 
451.3      0.1929922  0.4653654  0.4223326 
451.4      0.1893894  0.4823416  0.430543  
451.5      0.1893679  0.4903787  0.4422871 
451.6      0.2170268  0.438693   0.3678578 
451.7      0.2046307  0.4795963  0.3887762 
451.8      0.1865484  0.5325469  0.4042901 
451.9      0.1828874  0.6119367  0.4335598 
452        0.1915305  0.6163794  0.4041696 
452.1      0.1854762  0.6660061  0.3870181 
452.2      0.1613235  0.7973536  0.4350406 
452.3      0.148744   0.8775322  0.4332952 
452.4      0.1536222  0.8203754  0.426569  
452.5      0.1666564  0.7190704  0.3898498 
452.6      0.1724551  0.6843826  0.3852108 
452.7      0.1689026  0.7288359  0.3974689 
452.8      0.176688   0.7520452  0.4181123 
