~Version
 VERS              .         3.0                           : CWLS LOG ASCII STANDARD - VERSION 3.0
 WRAP              .         NO                            : ONE LINE PER DEPTH STEP
 DLM               .         SPACE                         : DELIMITING CHARACTER(SPACE TAB OR COMMA)
~Well Information
#_______________________________________________________________________________
#
#PARAMETER_NAME    .UNIT     VALUE                         : DESCRIPTION
#_______________________________________________________________________________
STRT               .M        0.2                           : First reference value
STOP               .M        936.8                         : Last reference value
STEP               .M        0.1                           : Step increment
NULL               .         -9999                         : Missing value
COMP               .         ICPetroleum                   : Company
WELL               .         332                           : Well name
FLD                .         Karatobe                      : Field
LOC                .                                       : Location
SRVC               .                                       : Service Company
CTRY               .         KZ                            : Country
DATE               .         26-27.07.2007                 : Service Date
LATI               .         0                             : Latitude
LONG               .         0                             : Longitude
GDAT               .         WGS 84                        : Geodetic Datum
CNTY               .                                       : 
COORDIN            .                                       : Grid System
COUNTRY            .         Kazakhstan                    : 
COUNTRY            .         Kazakhstan                    : 
EREF               .m        138.1                         : 
KB                 .         0                             : KB Elevation
ORIGINALWELLNAME   .         332                           : 
PROV               .                                       : Province
RWS                .         -999                          : Def_Rw
STAT               .                                       : 
UWI                .                                       : 
WST                .         -999                          : Def_Rwt
X                  .km       466603.39                     : 
XCOORD             .                                       : X or East-West Coordinate
Y                  .km       5308410.77                    : 
YCOORD             .                                       : Y or North-South Coordinate
~Parameter Information Block
#_______________________________________________________________________________
#
#PARAMETER_NAME    .UNIT     VALUE                         : DESCRIPTION
#_______________________________________________________________________________
SET                .         Las                           : 
TLFamily_DEPT      .         Measured Depth                : 
TLFamily_PHI_FINAL .         Porosity                      : 
TLFamily_SW_AR     .         Water Saturation              : 
TLFamily_VSH_FINAL .         Shale Volume                  : 
~Curve Information
#_______________________________________________________________________________
#
#LOGNAME           .UNIT     LOG_ID                        : DESCRIPTION
#_______________________________________________________________________________
DEPT               .M                                      : Depth curve {F}
PHI_FINAL          .m3/m3                                  : Porosity {F}
SW_AR              .m3/m3                                  :  {F}
VSH_FINAL          .unitless                               : Vshale {F}
~Ascii
# ...
744.1      0          1          0.6866252 
744.2      0          1          0.6923035 
744.3      0          1          0.673964  
744.4      0          1          0.671172  
744.5      0          1          0.7226393 
744.6      0          1          0.9368086 
744.7      0          1          1         
744.8      0          1          1         
744.9      0          1          1         
745        0          1          1         
745.1      0          1          1         
745.2      0          1          1         
745.3      0          1          1         
745.4      0          1          1         
745.5      0          1          1         
745.6      0          1          1         
745.7      0          1          1         
745.8      0          1          1         
745.9      0          1          1         
746        0          1          1         
746.1      0          1          0.9368086 
746.2      0          1          0.895172  
746.3      0          1          0.9332856 
746.4      0          1          1         
746.5      0          1          1         
746.6      0          1          1         
746.7      0          1          1         
746.8      0          1          1         
746.9      0          1          0.895172  
747        0          1          0.7023171 
747.1      0          1          0.5581787 
747.2      0          1          0.4972909 
747.3      0          1          0.4100795 
747.4      0          1          0.3738944 
747.5      0          1          0.3498119 
747.6      0          1          0.3339083 
747.7      0          1          0.3357598 
747.8      0          1          0.3302206 
747.9      0          1          0.3247275 
748        0          1          0.3201849 
748.1      0          1          0.3156738 
748.2      0          1          0.329302  
748.3      0          1          0.3247275 
748.4      0          1          0.3247275 
748.5      0          1          0.3450952 
748.6      0          1          0.3545616 
748.7      0          1          0.389753  
748.8      0          1          0.4090497 
748.9      0          1          0.4162887 
749        0          1          0.4059688 
749.1      0          1          0.3947816 
749.2      0          1          0.4029007 
749.3      0          1          0.4362969 
749.4      0          1          0.4768127 
749.5      0          1          0.4801902 
749.6      0          1          0.4926957 
749.7      0          1          0.4961397 
749.8      0          1          0.4972909 
749.9      0          1          0.4984436 
750        0          1          0.4972909 
750.1      0          1          0.5386091 
750.2      0          1          0.5986505 
750.3      0          1          0.6725671 
750.4      0          1          0.6614606 
750.5      0          1          0.7023171 
750.6      0          1          0.7829343 
750.7      0          1          0.9368086 
750.8      0          1          1         
750.9      0          1          1         
751        0          1          1         
751.1      0          1          1         
751.2      0          1          1         
751.3      0          1          1         
751.4      0          1          1         
751.5      0          1          1         
751.6      0          1          1         
751.7      0          1          1         
751.8      0          1          1         
751.9      0          1          1         
752        0          1          1         
752.1      0          1          1         
752.2      0          1          1         
752.3      0          1          1         
752.4      0          1          1         
752.5      0          1          1         
752.6      0          1          1         
752.7      0          1          1         
752.8      0          1          1         
752.9      0          1          1         
753        0          1          1         
753.1      0          1          1         
753.2      0          1          1         
753.3      0          1          1         
753.4      0          1          1         
753.5      0          1          1         
753.6      0          1          1         
753.7      0          1          1         
753.8      0          1          1         
753.9      0          1          0.9280194 
754        0          1          0.8223601 
754.1      0          1          0.7782946 
754.2      0          1          0.7138813 
754.3      0          1          0.6463897 
754.4      0          1          0.63021   
754.5      0          1          0.5544761 
754.6      0          1          0.5301836 
754.7      0          1          0.5458967 
754.8      0          1          0.5569428 
754.9      0          1          0.6382661 
755        0          1          0.6937281 
755.1      0          1          0.8001126 
755.2      0          1          0.9492173 
755.3      0          1          1         
755.4      0          1          1         
755.5      0          1          1         
755.6      0          1          1         
755.7      0          1          1         
755.8      0          1          1         
755.9      0          1          1         
756        0          1          1         
756.1      0          1          1         
756.2      0          1          1         
756.3      0          1          1         
756.4      0          1          1         
756.5      0          1          1         
756.6      0          1          1         
756.7      0          1          1         
756.8      0          1          1         
756.9      0          1          1         
757        0          1          1         
757.1      0          1          1         
757.2      0          1          1         
757.3      0          1          0.8866715 
757.4      0          1          0.7226393 
757.5      0          1          0.6038375 
757.6      0          1          0.5230268 
757.7      0          1          0.4142133 
757.8      0          1          0.2773013 
757.9      0          1          0.1732262 
758        -9999      -9999      0.1017586 
758.1      -9999      -9999      0.07272039
758.2      -9999      -9999      0.04354872
758.3      -9999      -9999      0.03735865
758.4      -9999      -9999      0.03328904
758.5      -9999      -9999      0.02577963
758.6      -9999      -9999      0.02479017
758.7      -9999      -9999      0.02380347
758.8      -9999      -9999      0.03177458
758.9      -9999      -9999      0.02876459
759        -9999      -9999      0.0262754 
759.1      -9999      -9999      0.02429648
759.2      -9999      -9999      0.02085979
759.3      -9999      -9999      0.02085979
759.4      -9999      -9999      0.0262754 
759.5      -9999      -9999      0.01939715
759.6      -9999      -9999      0.02380347
759.7      -9999      -9999      0.02826537
759.8      -9999      -9999      0.02479017
759.9      -9999      -9999      0.0262754 
760        -9999      -9999      0.01697295
760.1      -9999      -9999      0.01939715
760.2      -9999      -9999      0.02232855
760.3      -9999      -9999      0.02528455
760.4      -9999      -9999      0.02726899
760.5      -9999      -9999      0.02429648
760.6      -9999      -9999      0.02876459
760.7      -9999      -9999      0.02528455
760.8      -9999      -9999      0.02479017
760.9      -9999      -9999      0.0322787 
761        -9999      -9999      0.03076845
761.1      -9999      -9999      0.03177458
761.2      -9999      -9999      0.03328904
761.3      -9999      -9999      0.03480984
761.4      -9999      -9999      0.03531818
761.5      -9999      -9999      0.03889648
761.6      -9999      -9999      0.04044076
761.7      -9999      -9999      0.03177458
761.8      -9999      -9999      0.03076845
761.9      -9999      -9999      0.02577963
762        -9999      -9999      0.02479017
762.1      -9999      -9999      0.02876459
762.2      -9999      -9999      0.0322787 
