~Version
 VERS              .         3.0                           : CWLS LOG ASCII STANDARD - VERSION 3.0
 WRAP              .         NO                            : ONE LINE PER DEPTH STEP
 DLM               .         SPACE                         : DELIMITING CHARACTER(SPACE TAB OR COMMA)
~Well Information
#_______________________________________________________________________________
#
#PARAMETER_NAME    .UNIT     VALUE                         : DESCRIPTION
#_______________________________________________________________________________
STRT               .M        0.2                           : First reference value
STOP               .M        936.8                         : Last reference value
STEP               .M        0.1                           : Step increment
NULL               .         -9999                         : Missing value
COMP               .         ICPetroleum                   : Company
WELL               .         332                           : Well name
FLD                .         Karatobe                      : Field
LOC                .                                       : Location
SRVC               .                                       : Service Company
CTRY               .         KZ                            : Country
DATE               .         26-27.07.2007                 : Service Date
LATI               .         0                             : Latitude
LONG               .         0                             : Longitude
GDAT               .         WGS 84                        : Geodetic Datum
CNTY               .                                       : 
COORDIN            .                                       : Grid System
COUNTRY            .         Kazakhstan                    : 
COUNTRY            .         Kazakhstan                    : 
EREF               .m        138.1                         : 
KB                 .         0                             : KB Elevation
ORIGINALWELLNAME   .         332                           : 
PROV               .                                       : Province
RWS                .         -999                          : Def_Rw
STAT               .                                       : 
UWI                .                                       : 
WST                .         -999                          : Def_Rwt
X                  .km       466603.39                     : 
XCOORD             .                                       : X or East-West Coordinate
Y                  .km       5308410.77                    : 
YCOORD             .                                       : Y or North-South Coordinate
~Parameter Information Block
#_______________________________________________________________________________
#
#PARAMETER_NAME    .UNIT     VALUE                         : DESCRIPTION
#_______________________________________________________________________________
SET                .         Las                           : 
TLFamily_DEPT      .         Measured Depth                : 
TLFamily_PHI_FINAL .         Porosity                      : 
TLFamily_SW_AR     .         Water Saturation              : 
TLFamily_VSH_FINAL .         Shale Volume                  : 
~Curve Information
#_______________________________________________________________________________
#
#LOGNAME           .UNIT     LOG_ID                        : DESCRIPTION
#_______________________________________________________________________________
DEPT               .M                                      : Depth curve {F}
PHI_FINAL          .m3/m3                                  : Porosity {F}
SW_AR              .m3/m3                                  :  {F}
VSH_FINAL          .unitless                               : Vshale {F}
~Ascii
# ...
216.3      -9999      -9999      0.4155281 
216.4      -9999      -9999      0.3163582 
216.5      -9999      -9999      0.2574634 
216.6      -9999      -9999      0.2482833 
216.7      -9999      -9999      0.239352  
216.8      -9999      -9999      0.2520915 
216.9      -9999      -9999      0.2920311 
217        -9999      -9999      0.3023258 
217.1      -9999      -9999      0.3191037 
217.2      -9999      -9999      0.4246224 
217.3      -9999      -9999      0.5030215 
217.4      0.2249806  0.8439543  0.5167452 
217.5      0.222905   0.8707785  0.5028296 
217.6      0.2242429  0.883109   0.4674356 
217.7      0.2208955  0.8825517  0.495853  
217.8      0.210734   0.8845628  0.5523036 
217.9      0.1732591  1          0.6475129 
218        0.1611398  1          0.6792557 
218.1      0.1635863  1          0.6444169 
218.2      0.1423288  1          0.6819373 
218.3      0.1476469  1          0.681795  
218.4      0.1400211  1          0.6876127 
218.5      0.1566524  1          0.6244032 
218.6      0.1326087  1          0.7116204 
218.7      0.1425958  1          0.6782664 
218.8      0.1109021  1          0.7687909 
218.9      0.1282132  1          0.7298778 
219        0.1169583  1          0.7717693 
219.1      0.09208707 1          0.8334187 
219.2      0.06975093 1          0.8956989 
219.3      0.0624917  1          0.9224316 
219.4      0.07312307 1          0.895295  
219.5      0.06903064 1          0.9337745 
219.6      0.09994449 1          0.8219094 
219.7      0.09548072 1          0.8043556 
219.8      0.08494178 1          0.8500472 
219.9      0.07620745 1          0.8681195 
220        0.1019861  1          0.8038285 
220.1      0.1428886  1          0.6881606 
220.2      0.1721117  1          0.6114021 
220.3      0.1775128  0.9064586  0.5797266 
220.4      0.2143313  0.7073674  0.4586703 
220.5      0.2141429  0.7692189  0.4481923 
220.6      0.2094062  0.8675734  0.4481099 
220.7      0.1978928  0.9769158  0.4930426 
220.8      0.1803554  1          0.6026478 
220.9      0.1540297  1          0.687013  
221        0.1773462  1          0.6077368 
221.1      0.1606325  1          0.6348892 
221.2      0.1788407  1          0.5890236 
221.3      0.1734925  1          0.6154377 
221.4      0.1564837  1          0.628966  
221.5      0.1838055  1          0.5458829 
221.6      0.1689584  1          0.5833746 
221.7      0.156131   1          0.6149412 
221.8      0.1549798  1          0.6094354 
221.9      0.1841183  1          0.5192609 
222        0.1758682  1          0.5477884 
222.1      0.1737695  1          0.5700361 
222.2      0.1554841  1          0.6251996 
222.3      0.1800821  1          0.5523666 
222.4      0.1868562  1          0.5596752 
222.5      0.1880324  1          0.5351806 
222.6      0.1737395  1          0.5669554 
222.7      0.1616076  1          0.6110132 
222.8      0.1775273  1          0.5845643 
222.9      0.1802331  1          0.5844483 
223        0.15618    1          0.652072  
223.1      0.167      1          0.6159064 
223.2      0.2085753  0.9553718  0.5133394 
223.3      0.1650748  1          0.6102766 
223.4      0.14667    1          0.6572388 
223.5      0.1596174  1          0.6208304 
223.6      0.1540203  1          0.6234305 
223.7      0.1629611  1          0.6097863 
223.8      0.1694893  1          0.6314136 
223.9      0.1817309  1          0.5807202 
224        0.202006   0.9627807  0.5336316 
224.1      0.2201061  0.891001   0.4703119 
224.2      0.2036328  0.9686519  0.4920158 
224.3      0.1938874  1          0.5215325 
224.4      0.178021   1          0.5599671 
224.5      0.1550473  1          0.6250273 
224.6      0.1731017  1          0.5824817 
224.7      0.1623426  1          0.6166223 
224.8      0.1673543  1          0.5771332 
224.9      0.1672561  1          0.5770193 
225        0.15146    1          0.6354051 
225.1      0.1767126  1          0.5592007 
225.2      0.1773624  1          0.5492533 
225.3      0.1462579  1          0.626752  
225.4      0.1703747  1          0.5564002 
225.5      0.1675262  1          0.563736  
225.6      0.1768769  1          0.5367526 
225.7      0.1628834  1          0.5685238 
225.8      0.1840131  1          0.5177147 
225.9      0.1792743  1          0.5246074 
226        0.1687558  1          0.5606964 
226.1      0.141315   1          0.6593157 
226.2      0.07809609 1          0.84167   
226.3      0.1415619  1          0.6793506 
226.4      0.1646227  1          0.6038408 
226.5      0.1925237  1          0.5334394 
226.6      0.1879309  1          0.5286022 
226.7      0.206324   1          0.4831221 
226.8      0.2076454  1          0.485218  
226.9      0.2179294  0.9712735  0.4552805 
227        0.2277612  0.918563   0.4328554 
227.1      0.2346699  0.8796224  0.4387752 
227.2      0.22873    0.8963883  0.4508989 
227.3      0.1963726  1          0.5326185 
227.4      0.1988667  1          0.5277911 
227.5      0.2033907  1          0.4867739 
227.6      0.2065732  0.9897304  0.4801365 
227.7      0.2123321  0.9442163  0.4525455 
227.8      0.2182049  0.8282165  0.4224018 
227.9      0.2167156  0.7660927  0.4107825 
228        0.2133594  0.8049631  0.4069213 
228.1      0.2236075  0.8681905  0.3938211 
228.2      0.2276706  0.9332462  0.3810734 
228.3      0.2160099  0.9893401  0.4398298 
228.4      0.2046446  0.993229   0.4881492 
228.5      0.202008   0.956917   0.4815008 
228.6      0.1923048  0.9859043  0.4835877 
228.7      0.1793571  1          0.5079967 
228.8      0.1964452  0.9861246  0.4683517 
228.9      0.1888252  1          0.512369  
229        0.1812297  1          0.5476416 
229.1      0.1716088  1          0.5773309 
229.2      0.1663259  1          0.6004781 
229.3      0.161594   1          0.6271599 
229.4      0.1670763  1          0.6002393 
229.5      0.1705478  1          0.5743435 
229.6      0.1727213  1          0.5641972 
229.7      0.1478968  1          0.6432198 
229.8      0.1754762  1          0.5541013 
229.9      0.1725917  1          0.5589112 
230        0.1785837  1          0.5465825 
230.1      0.1769407  1          0.5392583 
230.2      0.1892951  1          0.5088271 
230.3      0.1915458  1          0.5132974 
230.4      0.198278   0.9456185  0.5018519 
230.5      0.1880663  0.9532527  0.5484762 
230.6      0.1835373  0.9524431  0.5655847 
230.7      0.1961654  0.8862612  0.5410289 
230.8      0.2127535  0.8134612  0.5243675 
230.9      0.2040747  0.8395648  0.550481  
231        0.2210066  0.7831575  0.5359424 
231.1      0.2294144  0.7673307  0.540612  
231.2      0.2450725  0.72974    0.5170134 
231.3      0.2630453  0.6984754  0.4898938 
231.4      0.3073448  0.621823   0.3933749 
231.5      0.301239   0.6433252  0.4333066 
231.6      0.3253033  0.6467234  0.4043362 
231.7      0.340819   0.6205188  0.3630818 
231.8      0.3530708  0.5769908  0.3413062 
231.9      0.3388775  0.579608   0.3733482 
232        0.3218636  0.605681   0.4211702 
232.1      0.3320435  0.6002055  0.3965602 
232.2      0.3307812  0.6152614  0.394654  
232.3      0.3187791  0.6487769  0.4426725 
232.4      0.3236654  0.6587824  0.4151024 
232.5      0.3244565  0.6752689  0.4018306 
232.6      0.3287976  0.6757532  0.4073715 
232.7      0.3219036  0.6833293  0.44034   
232.8      0.3104118  0.6901618  0.4628114 
232.9      0.28365    0.7352263  0.4906274 
233        0.285573   0.7325212  0.4321375 
233.1      0.2526322  0.8316318  0.5037918 
233.2      0.2350981  0.8914232  0.5173517 
233.3      0.2309531  0.9052945  0.5058556 
233.4      0.18842    1          0.6247208 
233.5      0.1944005  1          0.6005977 
233.6      0.1872422  1          0.6244701 
233.7      0.1791182  1          0.629788  
233.8      0.178221   1          0.6134601 
233.9      0.1788208  1          0.6160114 
234        0.1754558  1          0.6239694 
234.1      0.1583156  1          0.688966  
234.2      0.1655381  1          0.6598114 
234.3      0.18159    1          0.6155195 
234.4      0.1978724  1          0.5663695 
