~Version
 VERS              .         3.0                           : CWLS LOG ASCII STANDARD - VERSION 3.0
 WRAP              .         NO                            : ONE LINE PER DEPTH STEP
 DLM               .         SPACE                         : DELIMITING CHARACTER(SPACE TAB OR COMMA)
~Well Information
#_______________________________________________________________________________
#
#PARAMETER_NAME    .UNIT     VALUE                         : DESCRIPTION
#_______________________________________________________________________________
STRT               .M        0.2                           : First reference value
STOP               .M        936.8                         : Last reference value
STEP               .M        0.1                           : Step increment
NULL               .         -9999                         : Missing value
COMP               .         ICPetroleum                   : Company
WELL               .         332                           : Well name
FLD                .         Karatobe                      : Field
LOC                .                                       : Location
SRVC               .                                       : Service Company
CTRY               .         KZ                            : Country
DATE               .         26-27.07.2007                 : Service Date
LATI               .         0                             : Latitude
LONG               .         0                             : Longitude
GDAT               .         WGS 84                        : Geodetic Datum
CNTY               .                                       : 
COORDIN            .                                       : Grid System
COUNTRY            .         Kazakhstan                    : 
COUNTRY            .         Kazakhstan                    : 
EREF               .m        138.1                         : 
KB                 .         0                             : KB Elevation
ORIGINALWELLNAME   .         332                           : 
PROV               .                                       : Province
RWS                .         -999                          : Def_Rw
STAT               .                                       : 
UWI                .                                       : 
WST                .         -999                          : Def_Rwt
X                  .km       466603.39                     : 
XCOORD             .                                       : X or East-West Coordinate
Y                  .km       5308410.77                    : 
YCOORD             .                                       : Y or North-South Coordinate
~Parameter Information Block
#_______________________________________________________________________________
#
#PARAMETER_NAME    .UNIT     VALUE                         : DESCRIPTION
#_______________________________________________________________________________
SET                .         Las                           : 
TLFamily_DEPT      .         Measured Depth                : 
TLFamily_PHI_FINAL .         Porosity                      : 
TLFamily_SW_AR     .         Water Saturation              : 
TLFamily_VSH_FINAL .         Shale Volume                  : 
~Curve Information
#_______________________________________________________________________________
#
#LOGNAME           .UNIT     LOG_ID                        : DESCRIPTION
#_______________________________________________________________________________
DEPT               .M                                      : Depth curve {F}
PHI_FINAL          .m3/m3                                  : Porosity {F}
SW_AR              .m3/m3                                  :  {F}
VSH_FINAL          .unitless                               : Vshale {F}
~Ascii
# ...
361.9      0.1579919  1          0.6667065 
362        0.1844903  1          0.5878983 
362.1      0.1727829  1          0.6187034 
362.2      0.1618525  1          0.6585871 
362.3      0.1495777  1          0.6926275 
362.4      0.1194174  1          0.7834217 
362.5      0.08783234 1          0.8551176 
362.6      0.04566356 1          0.9504803 
362.7      0.03431851 1          0.968337  
362.8      0.0535558  1          0.9183843 
362.9      0.08822358 1          0.8131688 
363        0.07920253 1          0.828659  
363.1      0.1200002  1          0.7216665 
363.2      0.1172119  1          0.7077214 
363.3      0.1070928  1          0.7269827 
363.4      0.09715839 1          0.7849056 
363.5      0.1101531  1          0.7351604 
363.6      0.1046192  1          0.7579895 
363.7      0.08616064 1          0.7935037 
363.8      0.08156536 1          0.8086462 
363.9      0.09058499 1          0.7751893 
364        0.08349048 1          0.7869996 
364.1      0.1014855  1          0.7457137 
364.2      0.1095476  1          0.7201681 
364.3      0.1179552  1          0.6927249 
364.4      0.141239   1          0.6332754 
364.5      0.1260717  1          0.6739152 
364.6      0.1439481  1          0.6183385 
364.7      0.1298343  1          0.6530163 
364.8      0.1289992  1          0.6528965 
364.9      0.1184107  1          0.6760361 
365        0.1180695  1          0.6785395 
365.1      0.1328835  1          0.6449474 
365.2      0.1354148  1          0.6348334 
365.3      0.1226032  1          0.6677094 
365.4      0.1439425  1          0.6126204 
365.5      0.1601252  1          0.5796547 
365.6      0.1419221  1          0.6318969 
365.7      0.1213469  1          0.6724207 
365.8      0.09730796 1          0.7548036 
365.9      0.09229827 1          0.74889   
366        0.1123168  1          0.6825556 
366.1      0.1351743  1          0.6239577 
366.2      0.1194569  1          0.661441  
366.3      0.1197431  1          0.6742868 
366.4      0.117589   1          0.6794112 
366.5      0.133138   1          0.6333356 
366.6      0.1685723  1          0.5494834 
366.7      0.1745707  1          0.5450352 
366.8      0.1771801  1          0.5603045 
366.9      0.1691701  1          0.5669039 
367        0.1537702  1          0.6108614 
367.1      0.14603    1          0.6277222 
367.2      0.1720198  1          0.5423995 
367.3      0.1754662  1          0.5231779 
367.4      0.1591184  1          0.5664065 
367.5      0.161094   1          0.5551979 
367.6      0.145602   1          0.607816  
367.7      0.1580056  1          0.563872  
367.8      0.1277501  1          0.636795  
367.9      0.1257219  1          0.6517335 
368        0.1016012  1          0.7013837 
368.1      0.09086382 1          0.7315857 
368.2      0.0780307  1          0.7513533 
368.3      0.06896365 1          0.7775143 
368.4      0.07298452 1          0.7568411 
368.5      0.06163945 1          0.7772148 
368.6      0.1031478  1          0.6585324 
368.7      0.08685321 1          0.6924039 
368.8      0.08013338 1          0.7003364 
368.9      0.06814701 1          0.7389383 
369        0.07524836 1          0.7219738 
369.1      0.076983   1          0.7358307 
369.2      0.07475875 1          0.7413547 
369.3      0.07015762 1          0.741214  
369.4      0.08599629 1          0.7159045 
369.5      0.09968636 1          0.7048342 
369.6      0.07223224 1          0.7815106 
369.7      0.07681759 1          0.7695282 
369.8      0.05761945 1          0.836504  
369.9      0.09696785 1          0.7319049 
370        0.1146073  1          0.6987714 
370.1      0.114971   1          0.7040446 
370.2      0.08933115 1          0.7835883 
370.3      0.09900548 1          0.7569913 
370.4      0.1487122  1          0.6264313 
370.5      0.1571092  1          0.5999517 
370.6      0.1693549  1          0.5812906 
370.7      0.1497958  1          0.6560055 
370.8      0.1410334  1          0.6817679 
370.9      0.1384677  1          0.6949179 
371        0.1047978  1          0.7734905 
371.1      0.1345886  1          0.6787634 
371.2      0.1363253  1          0.6760212 
371.3      0.1696696  1          0.5760215 
371.4      0.1778717  1          0.5427685 
371.5      0.1886094  1          0.5383835 
371.6      0.1741326  1          0.5825528 
371.7      0.1708335  1          0.5986716 
371.8      0.1626027  1          0.6272924 
371.9      0.1617531  1          0.6571103 
372        0.1684719  1          0.6519167 
372.1      0.1783534  1          0.634317  
372.2      0.1892328  1          0.6195539 
372.3      0.1694954  1          0.6668753 
372.4      0.1524978  1          0.679756  
372.5      0.1242982  1          0.73112   
372.6      0.1393329  1          0.6795051 
372.7      0.1294557  1          0.716974  
372.8      0.1393548  1          0.666264  
372.9      0.1647462  1          0.6044492 
373        0.171099   1          0.5903111 
373.1      0.1498707  1          0.658215  
373.2      0.1489099  1          0.6479763 
373.3      0.1691649  1          0.5993132 
373.4      0.1796583  1          0.5875853 
373.5      0.1765044  1          0.6061676 
373.6      0.1882303  1          0.5714468 
373.7      0.2077184  1          0.542765  
373.8      0.1983543  1          0.5802992 
373.9      0.2032176  1          0.5870668 
374        0.2183193  1          0.5382022 
374.1      0.2158752  1          0.5554121 
374.2      0.2513435  1          0.4564511 
374.3      0.2681983  1          0.4137051 
374.4      0.2739673  0.9245994  0.398526  
374.5      0.2694716  0.8871189  0.3870294 
374.6      0.2532514  0.9139792  0.3588046 
374.7      0.2314804  0.9950931  0.3694942 
374.8      0.2155055  1          0.3966261 
374.9      0.2016117  1          0.4766664 
375        0.231056   1          0.4862733 
375.1      0.2082615  1          0.592747  
375.2      0.2420668  0.9958369  0.5265439 
375.3      0.258016   0.8950467  0.5079195 
375.4      0.2584491  0.8835033  0.511902  
375.5      0.2427071  0.956255   0.5673155 
375.6      0.2326119  1          0.6086352 
375.7      0.1939503  1          0.6887629 
375.8      0.202227   1          0.6549819 
375.9      0.2141243  1          0.5988898 
376        0.2179625  1          0.5918049 
376.1      0.2271767  1          0.5667219 
376.2      0.2062408  1          0.6199347 
376.3      0.1776009  1          0.688     
376.4      0.1433169  1          0.7539903 
376.5      0.1298227  1          0.7712409 
376.6      0.1337333  1          0.7451439 
376.7      0.08551576 1          0.8666892 
376.8      0.1144138  1          0.7796242 
376.9      0.07506394 1          0.8893994 
377        0.1069966  1          0.782286  
377.1      0.1101895  1          0.7703585 
377.2      0.09907819 1          0.784956  
377.3      0.08274504 1          0.8463598 
377.4      0.1034752  1          0.7876324 
377.5      0.08740371 1          0.8302496 
377.6      0.1357104  1          0.6810991 
377.7      0.1228319  1          0.7240136 
377.8      0.125313   1          0.6756338 
377.9      0.1393869  1          0.6474653 
378        0.1677628  1          0.5782987 
378.1      0.1486207  1          0.6447342 
378.2      0.1160559  1          0.7514246 
378.3      0.08741669 1          0.8415333 
378.4      0.09783479 1          0.822574  
378.5      0.1143667  1          0.7859727 
378.6      0.08952338 1          0.8347353 
378.7      0.1075306  1          0.7827041 
378.8      0.07215201 1          0.8728744 
378.9      0.06678271 1          0.8958738 
379        0.04406497 1          0.9437263 
379.1      0.0577033  1          0.9158152 
379.2      0.04594024 1          0.9610544 
379.3      0.06780072 1          0.8985142 
379.4      0.04668726 1          0.9678309 
379.5      0.07228278 1          0.884822  
379.6      0.100821   1          0.8053371 
379.7      0.1196863  1          0.763653  
379.8      0.1291071  1          0.7520069 
379.9      0.1398224  1          0.7461738 
380        0.1329976  1          0.7837191 
