~Version
 VERS              .         3.0                           : CWLS LOG ASCII STANDARD - VERSION 3.0
 WRAP              .         NO                            : ONE LINE PER DEPTH STEP
 DLM               .         SPACE                         : DELIMITING CHARACTER(SPACE TAB OR COMMA)
~Well Information
#_______________________________________________________________________________
#
#PARAMETER_NAME    .UNIT     VALUE                         : DESCRIPTION
#_______________________________________________________________________________
STRT               .M        0.2                           : First reference value
STOP               .M        936.8                         : Last reference value
STEP               .M        0.1                           : Step increment
NULL               .         -9999                         : Missing value
COMP               .         ICPetroleum                   : Company
WELL               .         332                           : Well name
FLD                .         Karatobe                      : Field
LOC                .                                       : Location
SRVC               .                                       : Service Company
CTRY               .         KZ                            : Country
DATE               .         26-27.07.2007                 : Service Date
LATI               .         0                             : Latitude
LONG               .         0                             : Longitude
GDAT               .         WGS 84                        : Geodetic Datum
CNTY               .                                       : 
COORDIN            .                                       : Grid System
COUNTRY            .         Kazakhstan                    : 
COUNTRY            .         Kazakhstan                    : 
EREF               .m        138.1                         : 
KB                 .         0                             : KB Elevation
ORIGINALWELLNAME   .         332                           : 
PROV               .                                       : Province
RWS                .         -999                          : Def_Rw
STAT               .                                       : 
UWI                .                                       : 
WST                .         -999                          : Def_Rwt
X                  .km       466603.39                     : 
XCOORD             .                                       : X or East-West Coordinate
Y                  .km       5308410.77                    : 
YCOORD             .                                       : Y or North-South Coordinate
~Parameter Information Block
#_______________________________________________________________________________
#
#PARAMETER_NAME    .UNIT     VALUE                         : DESCRIPTION
#_______________________________________________________________________________
SET                .         Las                           : 
TLFamily_DEPT      .         Measured Depth                : 
TLFamily_PHI_FINAL .         Porosity                      : 
TLFamily_SW_AR     .         Water Saturation              : 
TLFamily_VSH_FINAL .         Shale Volume                  : 
~Curve Information
#_______________________________________________________________________________
#
#LOGNAME           .UNIT     LOG_ID                        : DESCRIPTION
#_______________________________________________________________________________
DEPT               .M                                      : Depth curve {F}
PHI_FINAL          .m3/m3                                  : Porosity {F}
SW_AR              .m3/m3                                  :  {F}
VSH_FINAL          .unitless                               : Vshale {F}
~Ascii
# ...
598.5      0.07386399 1          0.2715475 
598.6      0.07733097 1          0.2532112 
598.7      0.0770868  1          0.2367657 
598.8      0.0824656  1          0.2105677 
598.9      0.08140738 1          0.2228977 
599        0.08529215 1          0.2096578 
599.1      0.09615773 1          0.208774  
599.2      0.1099036  1          0.2139499 
599.3      0.1130719  1          0.2630403 
599.4      0.09896655 1          0.3561715 
599.5      0.1032854  1          0.3896559 
599.6      0.1078242  1          0.4241936 
599.7      0.1076462  1          0.4533004 
599.8      0.1050735  1          0.482407  
599.9      0.07051728 1          0.5994911 
600        0.04620228 1          0.6778873 
600.1      0.06953966 1          0.6217529 
600.2      0.08432513 1          0.5833485 
600.3      0.08289647 1          0.6011362 
600.4      0.09784058 1          0.5619612 
600.5      0.09360799 1          0.5811282 
600.6      0.09267074 1          0.5675085 
600.7      0.1115805  1          0.5230954 
600.8      0.1472252  1          0.4401487 
600.9      0.1805454  1          0.3752507 
601        0.1699838  1          0.4116062 
601.1      0.1756592  1          0.4086507 
601.2      0.1686994  1          0.4399047 
601.3      0.1593613  1          0.4682574 
601.4      0.1582521  1          0.473074  
601.5      0.1616393  1          0.4713748 
601.6      0.1569023  1          0.4997109 
601.7      0.1818944  1          0.4536088 
601.8      0.1779278  1          0.4711749 
601.9      0.1708567  1          0.5133522 
602        0.1791871  1          0.5274618 
602.1      0.1648689  1          0.6095942 
602.2      0.1818963  1          0.5718999 
602.3      0.1603294  1          0.6384833 
602.4      0.1681431  1          0.6320544 
602.5      0.1755397  1          0.6031482 
602.6      0.1666326  1          0.5831962 
602.7      0.1958811  1          0.4989204 
602.8      0.1990667  1          0.5074567 
602.9      0.1956435  1          0.5431011 
603        0.1786778  1          0.5789455 
603.1      0.1635258  1          0.6188954 
603.2      0.1626143  1          0.6167426 
603.3      0.1541026  1          0.6311778 
603.4      0.1388745  1          0.6480516 
603.5      0.1203164  1          0.6808601 
603.6      0.1099111  1          0.6920459 
603.7      0.1076568  1          0.6739496 
603.8      0.1008608  1          0.6650099 
603.9      0.104864   1          0.6181375 
604        0.1162559  1          0.5997673 
604.1      0.1222669  1          0.5838351 
604.2      0.1562272  1          0.5116434 
604.3      0.157715   1          0.492684  
604.4      0.1562098  1          0.5114955 
604.5      0.1798224  1          0.4409651 
604.6      0.1601287  1          0.4725648 
604.7      0.159404   1          0.472498  
604.8      0.1773333  1          0.4407818 
604.9      0.1844196  1          0.4300773 
605        0.1722657  1          0.4499574 
605.1      0.1768623  1          0.4467779 
605.2      0.1843168  1          0.449832  
605.3      0.1514703  1          0.5125737 
605.4      0.1549266  1          0.5090172 
605.5      0.1508818  1          0.5391983 
605.6      0.133535   1          0.5963191 
605.7      0.1211072  1          0.6330361 
605.8      0.1340836  1          0.616343  
605.9      0.1506358  1          0.584209  
606        0.1660477  1          0.5667523 
606.1      0.1875153  1          0.527885  
606.2      0.1732886  1          0.5571334 
606.3      0.1395291  1          0.6158724 
606.4      0.1080615  1          0.67776   
606.5      0.0668065  1          0.7165058 
606.6      0.03917241 1          0.7047652 
606.7      0.06121877 1          0.6073577 
606.8      0.05803635 1          0.6236351 
606.9      0.04578148 1          0.6552796 
607        0.04583995 1          0.6883368 
607.1      0.04997312 1          0.6950361 
607.2      0.05537644 1          0.685865  
607.3      0.03785357 1          0.7762589 
607.4      0.07756983 1          0.6811596 
607.5      0.09899502 1          0.646078  
607.6      0.1231774  1          0.6045115 
607.7      0.143557   1          0.5411044 
607.8      0.157532   1          0.5142115 
607.9      0.1886082  1          0.4497037 
608        0.1943191  1          0.4465315 
608.1      0.2040762  1          0.4311946 
608.2      0.2079242  1          0.4495164 
608.3      0.2230792  1          0.4104366 
608.4      0.2379795  1          0.3636478 
608.5      0.2350548  1          0.3636003 
608.6      0.2398028  1          0.3494069 
608.7      0.2567004  1          0.2949098 
608.8      0.2435799  1          0.3164766 
608.9      0.2424499  1          0.3307105 
609        0.2456381  1          0.3246613 
609.1      0.2459606  1          0.309409  
609.2      0.2472305  1          0.3116728 
609.3      0.2410075  1          0.3070434 
609.4      0.2474092  1          0.2742415 
609.5      0.2390317  0.8963639  0.2480521 
609.6      0.2381759  0.6769804  0.2013227 
609.7      0.2466304  0.5124848  0.1713992 
609.8      0.2515217  0.4393428  0.1555314 
609.9      0.2451834  0.4465129  0.1736043 
610        0.2339085  0.5055046  0.2088133 
610.1      0.2192081  0.5990621  0.2576956 
610.2      0.1869441  0.7824273  0.3387087 
610.3      0.1618587  0.9926578  0.4021851 
610.4      0.160843   1          0.4064041 
610.5      0.1643931  1          0.3826281 
610.6      0.1517297  1          0.4193364 
610.7      0.1497729  1          0.3893795 
610.8      0.1454845  1          0.4033346 
610.9      0.1658455  1          0.356004  
611        0.1643007  1          0.3650289 
611.1      0.170485   1          0.3796135 
611.2      0.1779425  1          0.3836355 
611.3      0.1875606  1          0.3768187 
611.4      0.1916541  1          0.3903984 
611.5      0.1873424  1          0.4173601 
611.6      0.218604   1          0.3393367 
611.7      0.2066602  1          0.3633905 
611.8      0.2101254  1          0.3417238 
611.9      0.1985667  1          0.3581129 
612        0.2202244  1          0.2796883 
612.1      0.20044    1          0.3222122 
612.2      0.2109398  0.8918362  0.2722848 
612.3      0.2212353  0.7660249  0.2377434 
612.4      0.2111239  0.7613652  0.2443377 
612.5      0.2114291  0.7438749  0.2491219 
612.6      0.2112965  0.706707   0.2348656 
612.7      0.213038   0.6198521  0.235768  
612.8      0.2312431  0.4899316  0.1932655 
612.9      0.2386883  0.4445012  0.1798732 
613        0.2466553  0.4452891  0.1745389 
613.1      0.241447   0.4739229  0.1868294 
613.2      0.2418293  0.4503142  0.1836786 
613.3      0.2396179  0.4127933  0.1915541 
613.4      0.2379376  0.393151   0.189141  
613.5      0.2464245  0.3632396  0.1812965 
613.6      0.2434915  0.3755129  0.1859437 
613.7      0.245931   0.4122496  0.1789554 
613.8      0.2356464  0.513976   0.2054031 
613.9      0.2164577  0.6737777  0.2526095 
614        0.2005037  0.8479648  0.2790164 
614.1      0.1859433  1          0.3029686 
614.2      0.157824   1          0.3532156 
614.3      0.1511789  1          0.3861543 
614.4      0.1625804  1          0.3493265 
614.5      0.1889797  0.8760402  0.2939245 
614.6      0.2138101  0.6988454  0.2533825 
614.7      0.2192526  0.5916735  0.2389617 
614.8      0.223715   0.5583883  0.2198179 
614.9      0.2183618  0.5829767  0.2351755 
615        0.2081159  0.6732355  0.2542458 
615.1      0.1875724  0.7903904  0.3025961 
615.2      0.1734381  0.8648698  0.3427191 
615.3      0.1464695  1          0.4210604 
615.4      0.1113888  1          0.5278817 
615.5      0.1117792  1          0.5242558 
615.6      0.1056274  1          0.5494588 
615.7      0.08235448 1          0.6131945 
615.8      0.06027443 1          0.6527175 
615.9      0.06878519 1          0.6232201 
616        0.0518855  1          0.648244  
616.1      0.06255149 1          0.6148525 
616.2      0.03215236 1          0.7055514 
616.3      0.04130121 1          0.6783618 
616.4      0.0283197  1          0.7099333 
616.5      0.0523431  1          0.6288425 
616.6      0.07974843 1          0.5486532 
