~Version
 VERS              .         3.0                           : CWLS LOG ASCII STANDARD - VERSION 3.0
 WRAP              .         NO                            : ONE LINE PER DEPTH STEP
 DLM               .         SPACE                         : DELIMITING CHARACTER(SPACE TAB OR COMMA)
~Well Information
#_______________________________________________________________________________
#
#PARAMETER_NAME    .UNIT     VALUE                         : DESCRIPTION
#_______________________________________________________________________________
STRT               .M        0.2                           : First reference value
STOP               .M        936.8                         : Last reference value
STEP               .M        0.1                           : Step increment
NULL               .         -9999                         : Missing value
COMP               .         ICPetroleum                   : Company
WELL               .         332                           : Well name
FLD                .         Karatobe                      : Field
LOC                .                                       : Location
SRVC               .                                       : Service Company
CTRY               .         KZ                            : Country
DATE               .         26-27.07.2007                 : Service Date
LATI               .         0                             : Latitude
LONG               .         0                             : Longitude
GDAT               .         WGS 84                        : Geodetic Datum
CNTY               .                                       : 
COORDIN            .                                       : Grid System
COUNTRY            .         Kazakhstan                    : 
COUNTRY            .         Kazakhstan                    : 
EREF               .m        138.1                         : 
KB                 .         0                             : KB Elevation
ORIGINALWELLNAME   .         332                           : 
PROV               .                                       : Province
RWS                .         -999                          : Def_Rw
STAT               .                                       : 
UWI                .                                       : 
WST                .         -999                          : Def_Rwt
X                  .km       466603.39                     : 
XCOORD             .                                       : X or East-West Coordinate
Y                  .km       5308410.77                    : 
YCOORD             .                                       : Y or North-South Coordinate
~Parameter Information Block
#_______________________________________________________________________________
#
#PARAMETER_NAME    .UNIT     VALUE                         : DESCRIPTION
#_______________________________________________________________________________
SET                .         Las                           : 
TLFamily_DEPT      .         Measured Depth                : 
TLFamily_PHI_FINAL .         Porosity                      : 
TLFamily_SW_AR     .         Water Saturation              : 
TLFamily_VSH_FINAL .         Shale Volume                  : 
~Curve Information
#_______________________________________________________________________________
#
#LOGNAME           .UNIT     LOG_ID                        : DESCRIPTION
#_______________________________________________________________________________
DEPT               .M                                      : Depth curve {F}
PHI_FINAL          .m3/m3                                  : Porosity {F}
SW_AR              .m3/m3                                  :  {F}
VSH_FINAL          .unitless                               : Vshale {F}
~Ascii
# ...
398.3      0.2342499  1          0.591635  
398.4      0.2467392  1          0.553933  
398.5      0.2571366  1          0.5327125 
398.6      0.2831843  0.8875318  0.4714963 
398.7      0.3165549  0.8326848  0.3775404 
398.8      0.2857197  0.9429824  0.4584083 
398.9      0.2472429  1          0.5344328 
399        0.2109243  1          0.614031  
399.1      0.2069599  1          0.6115769 
399.2      0.1930093  1          0.6352853 
399.3      0.1689039  1          0.6724282 
399.4      0.1421802  1          0.7195619 
399.5      0.1136936  1          0.7929376 
399.6      0.09398437 1          0.8444408 
399.7      0.1060662  1          0.7926375 
399.8      0.08839532 1          0.8347883 
399.9      0.06605379 1          0.8887367 
400        0.08791343 1          0.8563683 
400.1      0.08342121 1          0.8436281 
400.2      0.07190598 1          0.8849493 
400.3      0.1162273  1          0.7684763 
400.4      0.124633   1          0.7597714 
400.5      0.1238214  1          0.7596294 
400.6      0.1276279  1          0.7510176 
400.7      0.1391399  1          0.7124687 
400.8      0.1446727  1          0.6990567 
400.9      0.1260402  1          0.7534099 
401        0.1766232  1          0.6454247 
401.1      0.2084195  1          0.5665248 
401.2      0.2322776  1          0.5180336 
401.3      0.2680418  0.9889287  0.4475623 
401.4      0.3063926  0.9127584  0.3729166 
401.5      0.3397127  0.9564576  0.3154315 
401.6      0.3473856  1          0.3113835 
401.7      0.3631836  0.9911278  0.2746675 
401.8      0.3652582  1          0.2570235 
401.9      0.351875   1          0.2745917 
402        0.3361604  1          0.2905422 
402.1      0.3007016  1          0.3709922 
402.2      0.2618644  1          0.4398364 
402.3      0.2074455  1          0.5653627 
402.4      0.1681373  1          0.6561491 
402.5      0.1497326  1          0.7048072 
402.6      0.1166504  1          0.8001115 
402.7      0.1259228  1          0.7621859 
402.8      0.1068606  1          0.8027833 
402.9      0.1025211  1          0.7996578 
403        0.1127302  1          0.773199  
403.1      0.1143126  1          0.7846451 
403.2      0.1090113  1          0.8202129 
403.3      0.08719438 1          0.9025444 
403.4      0.1160393  1          0.8108408 
403.5      0.1382655  1          0.7553948 
403.6      0.1554834  1          0.7060431 
403.7      0.1630796  1          0.7139087 
403.8      0.156488   1          0.7300073 
403.9      0.1705996  1          0.6925167 
404        0.1761606  1          0.7028833 
404.1      0.2251697  1          0.5571422 
404.2      0.2726239  0.8008126  0.4384441 
404.3      0.2526388  0.7688705  0.4975468 
404.4      0.2476857  0.7499296  0.5072973 
404.5      0.1963303  0.9589043  0.6317579 
404.6      0.1435567  1          0.7399156 
404.7      0.1077171  1          0.8331296 
404.8      0.1136854  1          0.8237886 
404.9      0.1562513  1          0.7150195 
405        0.1420444  1          0.7589272 
405.1      0.1337449  1          0.7904565 
405.2      0.1723213  1          0.6961015 
405.3      0.221957   1          0.5712011 
405.4      0.2334228  1          0.5431737 
405.5      0.2194792  1          0.5820747 
405.6      0.2200182  1          0.5709082 
405.7      0.2123386  1          0.5999666 
405.8      0.1939462  1          0.64482   
405.9      0.1843385  1          0.6645048 
406        0.1820599  1          0.679585  
406.1      0.1525128  1          0.7351207 
406.2      0.1867465  1          0.6468071 
406.3      0.2004969  1          0.6249915 
406.4      0.225516   1          0.5528344 
406.5      0.2549153  1          0.4976977 
406.6      0.2763123  0.8739884  0.4672809 
406.7      0.3213172  0.6885693  0.3654163 
406.8      0.3466864  0.5625947  0.3025607 
406.9      0.3631773  0.4979031  0.2923138 
407        0.3861319  0.4938218  0.2726715 
407.1      0.3559338  0.6506273  0.3518758 
407.2      0.2896926  0.9307445  0.479885  
407.3      0.235375   1          0.5983043 
407.4      0.2113262  1          0.6333262 
407.5      0.177826   1          0.6854419 
407.6      0.1842741  1          0.6649922 
407.7      0.159079   1          0.6955619 
407.8      0.1459261  1          0.7139111 
407.9      0.1564889  1          0.6747242 
408        0.1221355  1          0.7575221 
408.1      0.1354338  1          0.7002889 
408.2      0.156387   1          0.6324351 
408.3      0.1851187  1          0.5405297 
408.4      0.2111455  1          0.4846271 
408.5      0.2302498  1          0.4372166 
408.6      0.2370073  1          0.4302262 
408.7      0.2114692  1          0.4997965 
408.8      0.1925231  1          0.5527209 
408.9      0.1844038  1          0.5633582 
409        0.1648064  1          0.6080183 
409.1      0.1590716  1          0.6242948 
409.2      0.1867403  1          0.5828319 
409.3      0.1745024  1          0.6123412 
409.4      0.170301   1          0.6311018 
409.5      0.1658777  1          0.6454734 
409.6      0.189171   0.9237127  0.600488  
409.7      0.1798083  0.9276472  0.6550581 
409.8      0.2040418  0.8215448  0.6118079 
409.9      0.2140733  0.8016467  0.61871   
410        0.2255257  0.7918846  0.6023617 
410.1      0.2371574  0.7973679  0.5908903 
410.2      0.1806813  1          0.7572466 
410.3      0.1875543  1          0.7294703 
410.4      0.2038546  1          0.6717098 
410.5      0.1882865  1          0.7157348 
410.6      0.1660094  1          0.7623209 
410.7      0.1599663  1          0.7650104 
410.8      0.209376   1          0.6248029 
410.9      0.2154758  1          0.6014234 
411        0.2645383  1          0.458531  
411.1      0.269958   1          0.444169  
411.2      0.2636132  1          0.4638411 
411.3      0.2767129  0.9914802  0.4804645 
411.4      0.2704331  0.9848282  0.5335917 
411.5      0.2055564  1          0.6933951 
411.6      0.1992404  1          0.6906803 
411.7      0.1814167  1          0.7168409 
411.8      0.2248631  1          0.5891644 
411.9      0.253921   1          0.5270018 
412        0.2831054  0.9292976  0.474307  
412.1      0.3581515  0.7027237  0.3159848 
412.2      0.4042603  0.5616883  0.2456757 
412.3      0.4551412  0.4669241  0.1546941 
412.4      0.4772215  0.4377832  0.1263473 
412.5      0.4925982  0.4304075  0.1007697 
412.6      0.4921361  0.4336524  0.09178141
412.7      0.4845675  0.4326159  0.1025987 
412.8      0.4728902  0.4539719  0.111469  
412.9      0.4433121  0.5454367  0.1530049 
413        0.3952291  0.7292457  0.2171079 
413.1      0.3398974  0.9337076  0.3102481 
413.2      0.3121637  1          0.3724096 
413.3      0.2728379  1          0.4373917 
413.4      0.2583964  1          0.4788363 
413.5      0.2644593  1          0.4676227 
413.6      0.259377   1          0.4693879 
413.7      0.2531032  1          0.4899615 
413.8      0.2437438  1          0.5212954 
413.9      0.2356235  1          0.5191966 
414        0.2074691  1          0.5714802 
414.1      0.192608   1          0.5981087 
414.2      0.1521282  1          0.6952065 
414.3      0.1698609  1          0.6595846 
414.4      0.1723995  1          0.6423352 
414.5      0.1239962  1          0.7681158 
414.6      0.07184658 1          0.9156854 
414.7      0.05497672 1          0.9879286 
414.8      0.04502938 1          1         
414.9      0.07020306 1          0.8986495 
415        0.09060868 1          0.82301   
415.1      0.1103747  1          0.7758075 
415.2      0.1335618  1          0.7149515 
415.3      0.1504905  1          0.6912463 
415.4      0.1436182  1          0.7067571 
415.5      0.1345608  1          0.733386  
415.6      0.1179468  1          0.7924153 
415.7      0.08494151 1          0.9005283 
415.8      0.08202218 1          0.9135462 
415.9      0.06069502 1          0.992715  
416        0.06037508 1          1         
416.1      0.06565598 1          1         
416.2      0.06816145 1          1         
416.3      0.06992666 1          1         
416.4      0.07749514 1          0.9917263 
