~Version
 VERS              .         3.0                           : CWLS LOG ASCII STANDARD - VERSION 3.0
 WRAP              .         NO                            : ONE LINE PER DEPTH STEP
 DLM               .         SPACE                         : DELIMITING CHARACTER(SPACE TAB OR COMMA)
~Well Information
#_______________________________________________________________________________
#
#PARAMETER_NAME    .UNIT     VALUE                         : DESCRIPTION
#_______________________________________________________________________________
STRT               .M        0.2                           : First reference value
STOP               .M        936.8                         : Last reference value
STEP               .M        0.1                           : Step increment
NULL               .         -9999                         : Missing value
COMP               .         ICPetroleum                   : Company
WELL               .         332                           : Well name
FLD                .         Karatobe                      : Field
LOC                .                                       : Location
SRVC               .                                       : Service Company
CTRY               .         KZ                            : Country
DATE               .         26-27.07.2007                 : Service Date
LATI               .         0                             : Latitude
LONG               .         0                             : Longitude
GDAT               .         WGS 84                        : Geodetic Datum
CNTY               .                                       : 
COORDIN            .                                       : Grid System
COUNTRY            .         Kazakhstan                    : 
COUNTRY            .         Kazakhstan                    : 
EREF               .m        138.1                         : 
KB                 .         0                             : KB Elevation
ORIGINALWELLNAME   .         332                           : 
PROV               .                                       : Province
RWS                .         -999                          : Def_Rw
STAT               .                                       : 
UWI                .                                       : 
WST                .         -999                          : Def_Rwt
X                  .km       466603.39                     : 
XCOORD             .                                       : X or East-West Coordinate
Y                  .km       5308410.77                    : 
YCOORD             .                                       : Y or North-South Coordinate
~Parameter Information Block
#_______________________________________________________________________________
#
#PARAMETER_NAME    .UNIT     VALUE                         : DESCRIPTION
#_______________________________________________________________________________
SET                .         Las                           : 
TLFamily_DEPT      .         Measured Depth                : 
TLFamily_PHI_FINAL .         Porosity                      : 
TLFamily_SW_AR     .         Water Saturation              : 
TLFamily_VSH_FINAL .         Shale Volume                  : 
~Curve Information
#_______________________________________________________________________________
#
#LOGNAME           .UNIT     LOG_ID                        : DESCRIPTION
#_______________________________________________________________________________
DEPT               .M                                      : Depth curve {F}
PHI_FINAL          .m3/m3                                  : Porosity {F}
SW_AR              .m3/m3                                  :  {F}
VSH_FINAL          .unitless                               : Vshale {F}
~Ascii
# ...
289.1      0.2259707  1          0.4492597 
289.2      0.2523396  0.939082   0.3868327 
289.3      0.253997   0.94814    0.3649131 
289.4      0.2752814  0.8930546  0.2831073 
289.5      0.2886901  0.8537673  0.2331594 
289.6      0.2921882  0.8394847  0.2044021 
289.7      0.2992285  0.8193019  0.2001934 
289.8      0.2899037  0.829309   0.2161608 
289.9      0.2858782  0.8177     0.2284292 
290        0.2804449  0.816497   0.2272583 
290.1      0.2700411  0.840836   0.2329591 
290.2      0.2492497  0.8957264  0.2619489 
290.3      0.2352807  0.8470635  0.2328924 
290.4      0.2084515  0.7251121  0.2317046 
290.5      0.2034068  0.5578689  0.2052019 
290.6      0.1929233  0.4801669  0.1948147 
290.7      0.2034028  0.4417608  0.1789855 
290.8      0.204511   0.4803603  0.186746  
290.9      0.2169942  0.5722876  0.1887025 
291        0.2219846  0.7109578  0.1947087 
291.1      0.2400116  0.7812589  0.196722  
291.2      0.2487525  0.8214215  0.2092503 
291.3      0.2467285  0.8480986  0.2360424 
291.4      0.2541328  0.7955818  0.2503259 
291.5      0.2368768  0.8363907  0.3171844 
291.6      0.2178044  0.943922   0.3684731 
291.7      0.2133227  1          0.3869458 
291.8      0.2379243  0.946328   0.3229312 
291.9      0.2504675  0.9160314  0.2887743 
292        0.2427965  0.9495947  0.3125728 
292.1      0.2441615  0.9162194  0.2927862 
292.2      0.2561483  0.8085983  0.2428074 
292.3      0.2659638  0.7306341  0.2068047 
292.4      0.2637875  0.6827826  0.2208799 
292.5      0.2522949  0.6646951  0.2535955 
292.6      0.2489905  0.6420455  0.2523304 
292.7      0.2534969  0.6307165  0.2498516 
292.8      0.2485198  0.6675723  0.2803245 
292.9      0.2381811  0.7473898  0.3389998 
293        0.2477386  0.7870246  0.3238062 
293.1      0.2374593  0.8663441  0.3725364 
293.2      0.2453617  0.8967057  0.3609749 
293.3      0.249152   0.9439328  0.3465584 
293.4      0.2394494  1          0.3927572 
293.5      0.2251518  1          0.4213198 
293.6      0.2131698  1          0.4594593 
293.7      0.2095823  1          0.4693738 
293.8      0.214469   1          0.4436858 
293.9      0.199094   1          0.4835056 
294        0.2017503  1          0.4691268 
294.1      0.2007558  1          0.4590588 
294.2      0.20233    1          0.4530756 
294.3      0.2211592  0.944481   0.4062495 
294.4      0.2277358  0.9086217  0.3700869 
294.5      0.2354867  0.8639914  0.3569907 
294.6      0.2344726  0.8630022  0.3617758 
294.7      0.2173475  0.9496503  0.4131661 
294.8      0.2352677  0.9060084  0.3616583 
294.9      0.2423243  0.9114761  0.3441094 
295        0.2580151  0.8682618  0.3111183 
295.1      0.2509654  0.871191   0.3471264 
295.2      0.2677938  0.8073528  0.3024919 
295.3      0.2654641  0.8756042  0.301042  
295.4      0.2800305  0.8569418  0.2464598 
295.5      0.2801481  0.8506589  0.2357876 
295.6      0.2882465  0.7465816  0.2357538 
295.7      0.2906616  0.7117419  0.2220753 
295.8      0.2946663  0.659989   0.2100524 
295.9      0.3076938  0.6067867  0.1730476 
296        0.3186813  0.5876192  0.1448354 
296.1      0.3304947  0.5845474  0.1047959 
296.2      0.3338759  0.6045109  0.08842944
296.3      0.3411381  0.6338888  0.07636942
296.4      0.3391655  0.687649   0.0651595 
296.5      0.3294957  0.7283705  0.07869274
296.6      0.3182303  0.7097926  0.08346663
296.7      0.313398   0.6745149  0.0921683 
296.8      0.3119192  0.6596712  0.09279726
296.9      0.3198811  0.6358836  0.0822311 
297        0.3229949  0.6325029  0.08343022
297.1      0.3248727  0.6211231  0.07746877
297.2      0.324767   0.6092082  0.08100539
297.3      0.3294583  0.6046599  0.06032365
297.4      0.3266872  0.6314273  0.06726494
297.5      0.3297032  0.6500754  0.06562556
297.6      0.3327887  0.6516974  0.05072719
297.7      0.335485   0.6403684  0.05219066
297.8      0.3439369  0.6185682  0.03953076
297.9      0.3380861  0.6252626  0.04640284
298        0.3252663  0.629131   0.04973743
298.1      0.3143637  0.634417   0.05975401
298.2      0.3121836  0.6241661  0.0561576 
298.3      0.3063582  0.6046867  0.05819215
298.4      0.2939683  0.5659717  0.0623563 
298.5      0.2824355  0.490131   0.07677035
298.6      0.2851077  0.4134484  0.0660923 
298.7      0.2870669  0.3944053  0.07104705
298.8      0.285339   0.5004837  0.08206172
298.9      0.2951123  0.6461777  0.0881664 
299        0.3103314  0.7816932  0.1058159 
299.1      0.3139348  0.8570578  0.1605355 
299.2      0.308519   0.8885389  0.2112004 
299.3      0.2985211  0.9086285  0.2711052 
299.4      0.293399   0.9176328  0.2868541 
299.5      0.2913524  0.9197684  0.2935941 
299.6      0.2978377  0.8894528  0.2908218 
299.7      0.278042   0.9375464  0.3556018 
299.8      0.2574497  1          0.3972582 
299.9      0.2486879  1          0.3971924 
300        0.2553493  1          0.366726  
300.1      0.2580492  1          0.3490476 
300.2      0.2450828  1          0.3815521 
300.3      0.23572    1          0.414685  
300.4      0.2183216  1          0.4424835 
300.5      0.1932409  1          0.4986593 
300.6      0.1877004  1          0.5092291 
300.7      0.2040789  1          0.4460852 
300.8      0.2234988  1          0.3879686 
300.9      0.1984703  1          0.4654921 
301        0.1812329  1          0.5397304 
301.1      0.1971757  1          0.502363  
301.2      0.2135738  1          0.4732689 
301.3      0.1989477  1          0.5238177 
301.4      0.1854911  1          0.5741627 
301.5      0.1743345  1          0.6184177 
301.6      0.1432816  1          0.7104071 
301.7      0.1514336  1          0.6988345 
301.8      0.1464494  1          0.7246485 
301.9      0.1351156  1          0.7422776 
302        0.126915   1          0.7633538 
302.1      0.131054   1          0.7510095 
302.2      0.1235574  1          0.7816643 
302.3      0.09841549 1          0.853323  
302.4      0.1200577  1          0.7813471 
302.5      0.1538166  1          0.6977382 
302.6      0.1728053  1          0.6351324 
302.7      0.1453657  1          0.714632  
302.8      0.1359539  1          0.7261418 
302.9      0.1388359  1          0.7230701 
303        0.1152152  1          0.8122739 
303.1      0.1378111  1          0.7495064 
303.2      0.1344975  1          0.749357  
303.3      0.1777229  1          0.6316905 
303.4      0.1564355  1          0.6936887 
303.5      0.161513   1          0.6907437 
303.6      0.1405245  1          0.748757  
303.7      0.1755761  1          0.6469074 
303.8      0.224456   1          0.5106135 
303.9      0.2726875  1          0.3876955 
304        0.2918361  1          0.3300889 
304.1      0.3032189  0.9392452  0.2915537 
304.2      0.3097232  0.7481111  0.2481161 
304.3      0.2906186  0.6624457  0.2941881 
304.4      0.2937466  0.6403176  0.2742029 
304.5      0.2941484  0.7430788  0.285994  
304.6      0.2767997  0.9512861  0.3623897 
304.7      0.2871429  1          0.3671947 
304.8      0.2618474  1          0.4584145 
304.9      0.122542   1          0.9246484 
305        0.147823   1          0.8189435 
305.1      0.1642174  1          0.7230561 
305.2      0.1841378  0.9418691  0.5587476 
305.3      0.1911737  0.7912155  0.4185026 
305.4      0.2401398  0.5278707  0.2146284 
305.5      0.2812578  0.4017571  0.07461992
305.6      0.2228003  0.5948395  0.2682773 
305.7      0.1440624  1          0.5735947 
305.8      0.07654449 1          0.8331293 
305.9      0.05156663 1          0.9444314 
306        0.0663294  1          0.9477819 
306.1      0.09204827 1          0.8928356 
306.2      0.1093965  1          0.8147415 
306.3      0.101731   1          0.7954494 
306.4      0.07414351 1          0.8288442 
306.5      0.02738675 1          0.9579279 
306.6      0.0212987  1          1         
306.7      0.02203062 1          1         
306.8      0.02434971 1          1         
306.9      0.02578975 1          1         
307        0.03042438 1          1         
307.1      0.03378088 1          1         
307.2      0.03398023 1          1         
