~Version
 VERS              .         3.0                           : CWLS LOG ASCII STANDARD - VERSION 3.0
 WRAP              .         NO                            : ONE LINE PER DEPTH STEP
 DLM               .         SPACE                         : DELIMITING CHARACTER(SPACE TAB OR COMMA)
~Well Information
#_______________________________________________________________________________
#
#PARAMETER_NAME    .UNIT     VALUE                         : DESCRIPTION
#_______________________________________________________________________________
STRT               .M        0.2                           : First reference value
STOP               .M        936.8                         : Last reference value
STEP               .M        0.1                           : Step increment
NULL               .         -9999                         : Missing value
COMP               .         ICPetroleum                   : Company
WELL               .         332                           : Well name
FLD                .         Karatobe                      : Field
LOC                .                                       : Location
SRVC               .                                       : Service Company
CTRY               .         KZ                            : Country
DATE               .         26-27.07.2007                 : Service Date
LATI               .         0                             : Latitude
LONG               .         0                             : Longitude
GDAT               .         WGS 84                        : Geodetic Datum
CNTY               .                                       : 
COORDIN            .                                       : Grid System
COUNTRY            .         Kazakhstan                    : 
COUNTRY            .         Kazakhstan                    : 
EREF               .m        138.1                         : 
KB                 .         0                             : KB Elevation
ORIGINALWELLNAME   .         332                           : 
PROV               .                                       : Province
RWS                .         -999                          : Def_Rw
STAT               .                                       : 
UWI                .                                       : 
WST                .         -999                          : Def_Rwt
X                  .km       466603.39                     : 
XCOORD             .                                       : X or East-West Coordinate
Y                  .km       5308410.77                    : 
YCOORD             .                                       : Y or North-South Coordinate
~Parameter Information Block
#_______________________________________________________________________________
#
#PARAMETER_NAME    .UNIT     VALUE                         : DESCRIPTION
#_______________________________________________________________________________
SET                .         Las                           : 
TLFamily_DEPT      .         Measured Depth                : 
TLFamily_PHI_FINAL .         Porosity                      : 
TLFamily_SW_AR     .         Water Saturation              : 
TLFamily_VSH_FINAL .         Shale Volume                  : 
~Curve Information
#_______________________________________________________________________________
#
#LOGNAME           .UNIT     LOG_ID                        : DESCRIPTION
#_______________________________________________________________________________
DEPT               .M                                      : Depth curve {F}
PHI_FINAL          .m3/m3                                  : Porosity {F}
SW_AR              .m3/m3                                  :  {F}
VSH_FINAL          .unitless                               : Vshale {F}
~Ascii
# ...
525.7      0.07979825 1          0.6696838 
525.8      0.07476017 1          0.69078   
525.9      0.08068905 1          0.6788132 
526        0.07044953 1          0.7272154 
526.1      0.0593414  1          0.7447889 
526.2      0.01912666 1          0.850551  
526.3      0.05063776 1          0.7574068 
526.4      0.0701374  1          0.7094176 
526.5      0.08508883 1          0.6852193 
526.6      0.1003419  1          0.6571805 
526.7      0.1174893  1          0.6063663 
526.8      0.1224765  1          0.56903   
526.9      0.1075178  1          0.6104386 
527        0.1114363  1          0.6103407 
527.1      0.1402843  1          0.5297625 
527.2      0.1370382  1          0.548876  
527.3      0.1513968  1          0.5352953 
527.4      0.1625142  1          0.4982283 
527.5      0.1766093  1          0.4633878 
527.6      0.2009094  1          0.4074202 
527.7      0.2021753  1          0.3910069 
527.8      0.194075   1          0.4118609 
527.9      0.207978   1          0.3779272 
528        0.2177835  1          0.346324  
528.1      0.2273752  1          0.3462771 
528.2      0.2251305  1          0.3435919 
528.3      0.222855   1          0.3383183 
528.4      0.2338962  1          0.3130866 
528.5      0.2424541  1          0.299843  
528.6      0.2444861  1          0.2951138 
528.7      0.2428664  1          0.2858685 
528.8      0.2417818  1          0.2997262 
528.9      0.2452193  1          0.3080314 
529        0.2491303  1          0.3020139 
529.1      0.2390686  1          0.3251831 
529.2      0.228584   1          0.3524178 
529.3      0.236823   1          0.3301564 
529.4      0.2342003  1          0.3365243 
529.5      0.2419651  1          0.3377734 
529.6      0.2406206  1          0.3700059 
529.7      0.2351786  1          0.3913703 
529.8      0.2587035  1          0.3494585 
529.9      0.2151617  1          0.4260679 
530        0.1582564  1          0.5661809 
530.1      0.09662151 1          0.6882364 
530.2      0.08093611 1          0.719611  
530.3      0.07768851 1          0.7394993 
530.4      0.117509   1          0.6198908 
530.5      0.1298568  1          0.5819115 
530.6      0.1042661  1          0.6506332 
530.7      0.1145051  1          0.6261095 
530.8      0.1027452  1          0.6756739 
530.9      0.1177105  1          0.6413436 
531        0.1671508  1          0.4991041 
531.1      0.1941925  1          0.4084163 
531.2      0.2245723  1          0.2999727 
531.3      0.2300872  1          0.2804211 
531.4      0.2418846  1          0.2566061 
531.5      0.2304868  1          0.2759066 
531.6      0.208586   1          0.3241065 
531.7      0.1816616  1          0.4126211 
531.8      0.1629878  1          0.4638134 
531.9      0.1527508  1          0.5221435 
532        0.1349336  1          0.5764689 
532.1      0.1613001  1          0.5054714 
532.2      0.1625405  1          0.491099  
532.3      0.1633135  1          0.4981282 
532.4      0.163394   1          0.4962696 
532.5      0.1300891  1          0.582122  
532.6      0.1268529  1          0.5923299 
532.7      0.1272163  1          0.6176059 
532.8      0.09839662 1          0.7067117 
532.9      0.1221538  1          0.6088508 
533        0.1572791  1          0.4869969 
533.1      0.1656278  1          0.4782347 
533.2      0.1626105  1          0.4798903 
533.3      0.1712728  1          0.4479049 
533.4      0.1589785  1          0.4728747 
533.5      0.1545764  1          0.4762301 
533.6      0.1086288  1          0.5934679 
533.7      0.09796145 1          0.6230938 
533.8      0.09254629 1          0.6405554 
533.9      0.06645291 1          0.732507  
534        0.049541   1          0.7893755 
534.1      0.0585393  1          0.7499743 
534.2      0.05453872 1          0.749847  
534.3      0.05175851 1          0.7446218 
534.4      0.04739105 1          0.7521534 
534.5      0.05876078 1          0.7342725 
534.6      0.07595564 1          0.6831334 
534.7      0.05958709 1          0.7390563 
534.8      0.06058497 1          0.7313977 
534.9      0.07308412 1          0.6922544 
535        0.03891079 1          0.8179253 
535.1      0.07935555 1          0.7088544 
535.2      0.0862342  1          0.6942925 
535.3      0.09592409 1          0.6637872 
535.4      0.109382   1          0.634483  
535.5      0.08363897 1          0.7255611 
535.6      0.08297478 1          0.7254393 
535.7      0.08311855 1          0.7428619 
535.8      0.05428962 1          0.8306952 
535.9      0.04587145 1          0.8677115 
536        0.0315817  1          0.9062221 
536.1      0.06058347 1          0.8443724 
536.2      0.04860991 1          0.8908519 
536.3      0.09432829 1          0.7730354 
536.4      0.1261857  1          0.6580373 
536.5      0.1248866  1          0.6117293 
536.6      0.09766784 1          0.6332571 
536.7      0.09399185 1          0.6222619 
536.8      0.06207438 1          0.704433  
536.9      0.05614552 1          0.7338132 
537        0.01411886 1          0.8430419 
537.1      0.04270642 1          0.7461752 
537.2      0.04972025 1          0.7284546 
537.3      0.03378843 1          0.7743402 
537.4      0.03333448 1          0.7742078 
537.5      0.05366762 1          0.7084489 
537.6      0.04477532 1          0.7354537 
537.7      0.03208818 1          0.7685783 
537.8      0.03475152 1          0.7789441 
537.9      0.03001732 1          0.7974888 
538        0.0352117  1          0.800052  
538.1      0.01230321 1          0.8730943 
538.2      0.001898299 1          0.9209473 
538.3      0          1          0.9744217 
538.4      0          1          0.9807383 
538.5      0.007353365 1          0.8754078 
538.6      0.009744198 1          0.8520672 
538.7      0.01230767 1          0.832096  
538.8      0.04532699 1          0.7364767 
538.9      0.03526796 1          0.7854192 
539        0.03673331 1          0.8095363 
539.1      0.01548191 1          0.8982136 
539.2      0.0437443  1          0.8147343 
539.3      0.03173202 1          0.8396593 
539.4      0.05093125 1          0.8089772 
539.5      0.009051814 1          0.9280422 
539.6      0.03412101 1          0.8649669 
539.7      0.02596889 1          0.8823739 
539.8      0.02925544 1          0.8675658 
539.9      0.0620129  1          0.7683065 
540        0.03576695 1          0.8471301 
540.1      0.02731043 1          0.8729374 
540.2      0.0610642  1          0.7863279 
540.3      0.07511715 1          0.7296371 
540.4      0.05721052 1          0.7650565 
540.5      0.04491322 1          0.7885854 
540.6      0.02450955 1          0.8434049 
540.7      0.0269288  1          0.8319983 
540.8      0.02572702 1          0.8207341 
540.9      0.04053519 1          0.7853862 
541        0.07767426 1          0.6806402 
541.1      0.1159872  1          0.5968006 
541.2      0.1336298  1          0.5525049 
541.3      0.126104   1          0.5741445 
541.4      0.1034146  1          0.6240571 
541.5      0.1080715  1          0.6239578 
541.6      0.09805191 1          0.654752  
541.7      0.08009907 1          0.7131985 
541.8      0.06996065 1          0.7555196 
541.9      0.07485177 1          0.7351499 
542        0.06557393 1          0.7578287 
542.1      0.08675671 1          0.7006642 
542.2      0.1082269  1          0.6254205 
542.3      0.1070528  1          0.6210068 
542.4      0.1126123  1          0.6018234 
542.5      0.1252048  1          0.5690763 
542.6      0.08203381 1          0.6835242 
542.7      0.1060338  1          0.5994513 
542.8      0.08433295 1          0.646765  
542.9      0.08559031 1          0.6488916 
543        0.1006956  1          0.6181697 
543.1      0.09573034 1          0.6223645 
543.2      0.09503896 1          0.6158367 
543.3      0.09481347 1          0.6200172 
543.4      0.1282596  1          0.5278489 
543.5      0.1379159  1          0.5203583 
543.6      0.1426495  1          0.5184413 
543.7      0.1392771  1          0.5220445 
543.8      0.1537994  1          0.4896359 
