~Version information
  VERS.                            1.20: CWLS LAS  -  VERSION 1.20
  WRAP.                              NO: One line per depth step
~Well information
# MNEM.UNIT
# ====.================================:===================
  STRT.M                           0.20: First depth in file
  STOP.M                         936.80: Last depth in file
  STEP.M                           0.10: Depth increment
  NULL.                           -9999: Null values
  COMP.                         COMPANY:
  WELL.                            WELL: 332
  FLD .                           FIELD: Karatobe
  CNTY.                          COUNTY: 
  STAT.                           STATE: 
  DATE.                        LOG DATE: 26-27.07.2007
  SRVC.                 SERVICE COMPANY: 
  UWI.           Unique Well Identifier: 
~Parametr information block
# MNEM.UNIT
# ====.================================:===================
~Other information
# ------------------------- REMARKS  AREA ------------------
~Curve information
# MNEM.UNIT
# ====.================================:===================
  DEPT.M                               : Depth curve
BS    .MM                              :
GR    .UR/H                            : 
NGL   .C.U                             :
LL3   .OHMM                            : 
C1    .MM                              : 
C2    .MM                              : 
CALI  .MM                              :
MLL   .OHMM                            : 
CILR  .MMHO                            : 
RHOB  .G/C3                            : 
GZ3   .OHMM                            : 
GZ3B  .OHMM                            : 
SP    .MV                              : 
DT    .US/M                            :
~ASCII Log Data
# ...
   813.60     215.90       1.79       6.84   19361.99     229.12     241.11     235.12      96.58      46.34      -9999       1.99      71.75    -138.17      -9999
   813.70     215.90       1.83       6.78   24009.33     231.86     242.39     237.13     131.19      46.43      -9999       1.99      71.75    -138.17      -9999
   813.80     215.90       1.65       6.66   28425.97     232.29     243.83     238.06     207.79      46.61      -9999       1.99      71.75    -138.17      -9999
   813.90     215.90       1.65       6.48   29067.71     230.59     243.53     237.06     170.22      46.62      -9999       1.99      71.75    -138.17      -9999
   814.00     215.90       1.58       6.39   21576.42     231.76     243.31     237.53     118.93      46.56      -9999       1.99      71.75    -138.17      -9999
   814.10     215.90       1.53       6.30   20009.06     236.74     246.42     241.58     109.66      46.39      -9999       1.99      71.75    -138.17      -9999
   814.20     215.90       1.70       6.13   20965.88     247.45     254.17     250.81      22.04      46.38      -9999       1.99      71.75    -138.17      -9999
   814.30     215.90       1.59       5.77   25506.10     270.86     270.11     270.48       2.07      46.39      -9999       1.99      71.75    -138.17      -9999
   814.40     215.90       1.85       5.35   25170.63     305.06     297.02     301.04       1.16      46.45      -9999       1.99      71.75    -138.17      -9999
   814.50     215.90       1.69       4.83   23176.25     339.90     327.88     333.89       0.90      46.48      -9999       1.99      71.75    -138.17      -9999
   814.60     215.90       1.53       4.61   21882.86     353.43     345.87     349.65       2.52      46.46      -9999       1.99      71.75    -138.17      -9999
   814.70     215.90       1.57       4.52   22547.10     325.36     323.51     324.43      28.59      46.64      -9999       1.99      71.75    -138.17      -9999
   814.80     215.90       1.49       4.65   23974.61     285.17     283.89     284.53     126.84      46.64      -9999       1.99      71.75    -138.17      -9999
   814.90     215.90       1.55       4.95   22231.50     247.01     244.34     245.68      73.60      46.70      -9999       1.99      71.75    -138.17      -9999
   815.00     215.90       1.55       5.35   21281.66     237.85     229.64     233.74     111.91      46.50      -9999       1.99      71.75    -138.17      -9999
   815.10     215.90       1.55       5.58   20586.44     231.39     222.35     226.87      84.64      46.53      -9999       1.99      71.75    -138.17      -9999
   815.20     215.90       1.64       5.85   19926.28     229.03     216.63     222.83     151.23      46.53      -9999       1.99      71.75    -138.17      -9999
   815.30     215.90       1.65       6.17   19952.55     226.46     211.79     219.12     141.91      46.50      -9999       1.99      71.75    -138.17      -9999
   815.40     215.90       1.52       6.61   19620.27     223.90     208.03     215.97     389.86      46.50      -9999       1.99      71.75    -138.17      -9999
   815.50     215.90       1.57       6.97   19326.95     223.86     206.21     215.03     182.92      46.47      -9999       1.99      71.75    -138.17      -9999
   815.60     215.90       1.63       7.20   20019.23     222.36     205.51     213.94     154.66      46.46      -9999       1.99      71.75    -138.17      -9999
   815.70     215.90       1.56       7.29   19766.14     220.42     202.27     211.34      66.00      46.40      -9999       1.99      71.75    -138.17      -9999
   815.80     215.90       1.49       7.32   19665.83     214.38     198.03     206.21      47.06      46.42      -9999       1.99      71.75    -138.17      -9999
   815.90     215.90       1.56       7.28   20462.31     202.37     190.45     196.41      46.10      46.11      -9999       1.99      71.75    -138.17      -9999
   816.00     215.90       1.64       7.36   19536.65     186.44     180.41     183.42      46.08      46.34      -9999       1.99      71.75    -138.17      -9999
   816.10     215.90       1.71       7.57   19500.85     171.33     171.81     171.57      46.12      46.18      -9999       1.99      71.75    -138.17      -9999
   816.20     215.90       1.69       7.67   19874.56     162.82     166.46     164.64      46.08      46.44      -9999       1.99      71.75    -138.17      -9999
   816.30     215.90      -9999       7.76   19505.00     160.16     166.13     163.14      46.03      46.14      -9999       1.99      71.75    -138.17      -9999
   816.40     215.90      -9999       7.76   19578.34     159.97     166.03     163.00      45.98      46.34      -9999       1.99      71.75    -138.17      -9999
   816.50     215.90      -9999       7.72   19458.37     159.97     165.82     162.89      45.89      46.61      -9999       1.99      71.75    -138.17      -9999
   816.60     215.90      -9999       7.76   20862.08     159.91     165.63     162.77      45.83      46.61      -9999       1.99      71.75    -138.17      -9999
   816.70     215.90      -9999       7.78   21401.60     159.89     165.72     162.81      45.76      48.12      -9999       1.99      71.75    -138.17      -9999
   816.80     215.90      -9999       7.76   24513.54     159.81     165.78     162.79      45.71      48.99      -9999       1.99      71.75    -138.17      -9999
   816.90     215.90      -9999       7.79   22904.97     159.60     166.04     162.82      45.65      48.91      -9999       1.99      71.75    -138.17      -9999
   817.00     215.90      -9999       7.77   22529.55     159.31     165.95     162.63      45.59      48.53      -9999       1.99      71.75    -138.17      -9999
   817.10     215.90      -9999       7.78   21551.17     158.87     166.26     162.56      45.53      48.56      -9999       1.99      71.75    -138.17      -9999
   817.20     215.90      -9999       7.75      -9999     158.51     166.43     162.47      45.49      49.09      -9999       1.99      71.75    -138.17      -9999
   817.30     215.90      -9999       7.67      -9999     158.32     166.59     162.46      45.43      49.99      -9999       1.99      71.75    -138.17      -9999
   817.40     215.90      -9999       7.65      -9999     158.43     166.32     162.37      45.38      49.86      -9999       1.99      71.75    -138.17      -9999
   817.50     215.90      -9999       7.70      -9999     158.63     165.61     162.12      45.31      51.11      -9999       1.99      71.75    -138.17      -9999
   817.60     215.90      -9999       7.70      -9999     158.84     165.07     161.96      -9999      50.09      -9999       1.99      71.75    -138.17      -9999
   817.70     215.90      -9999       7.65      -9999     158.84     164.46     161.65      -9999      49.78      -9999       1.99      71.75    -138.17      -9999
   817.80     215.90      -9999       7.69      -9999     158.71     164.16     161.44      -9999      48.73      -9999       1.99      71.75    -138.17      -9999
   817.90     215.90      -9999       7.77      -9999     158.51     163.69     161.10      -9999      48.31      -9999       1.99      71.75    -138.17      -9999
   818.00     215.90      -9999       7.71      -9999     158.44     164.03     161.24      -9999      47.51      -9999       1.99      71.75    -138.17      -9999
   818.10     215.90      -9999       7.72      -9999     158.51     164.22     161.37      -9999      46.77      -9999       1.99      71.75    -138.17      -9999
   818.20     215.90      -9999      -9999      -9999     158.54     164.59     161.56      -9999      47.48      -9999       1.99      71.75    -138.17      -9999
   818.30     215.90      -9999      -9999      -9999     158.55     164.35     161.45      -9999      48.29      -9999       1.99      71.75    -138.17      -9999
   818.40     215.90      -9999      -9999      -9999      -9999      -9999      -9999      -9999      49.14      -9999       1.99      71.75    -138.17      -9999
