~Version information
  VERS.                            1.20: CWLS LAS  -  VERSION 1.20
  WRAP.                              NO: One line per depth step
~Well information
# MNEM.UNIT
# ====.================================:===================
  STRT.M                           0.20: First depth in file
  STOP.M                         936.80: Last depth in file
  STEP.M                           0.10: Depth increment
  NULL.                           -9999: Null values
  COMP.                         COMPANY:
  WELL.                            WELL: 332
  FLD .                           FIELD: Karatobe
  CNTY.                          COUNTY: 
  STAT.                           STATE: 
  DATE.                        LOG DATE: 26-27.07.2007
  SRVC.                 SERVICE COMPANY: 
  UWI.           Unique Well Identifier: 
~Parametr information block
# MNEM.UNIT
# ====.================================:===================
~Other information
# ------------------------- REMARKS  AREA ------------------
~Curve information
# MNEM.UNIT
# ====.================================:===================
  DEPT.M                               : Depth curve
BS    .MM                              :
GR    .UR/H                            : 
NGL   .C.U                             :
LL3   .OHMM                            : 
C1    .MM                              : 
C2    .MM                              : 
CALI  .MM                              :
MLL   .OHMM                            : 
CILR  .MMHO                            : 
RHOB  .G/C3                            : 
GZ3   .OHMM                            : 
GZ3B  .OHMM                            : 
SP    .MV                              : 
DT    .US/M                            :
~ASCII Log Data
# ...
   132.50     227.00       5.29       0.99      -9999     224.45     222.71     223.58      -9999      -9999      -9999      -9999       0.21      -9999      -9999
   132.60     227.00       5.06       0.97      -9999     224.39     222.97     223.68      -9999      -9999      -9999      -9999       0.20      -9999      -9999
   132.70     227.00       4.95       0.96      -9999     224.44     223.40     223.92      -9999      -9999      -9999      -9999       0.20      -9999      -9999
   132.80     227.00       5.00       0.95      -9999     224.64     223.72     224.18      -9999      -9999      -9999      -9999       0.21      -9999      -9999
   132.90     227.00       5.17       0.95      -9999     224.73     223.31     224.02      -9999      -9999      -9999      -9999       0.21      -9999      -9999
   133.00     227.00       5.29       0.94      -9999     224.62     222.56     223.59      -9999      -9999      -9999      -9999       0.20      -9999      -9999
   133.10     227.00       5.17       0.92      -9999     224.30     222.20     223.25      -9999      -9999      -9999      -9999       0.20      -9999      -9999
   133.20     227.00       5.28       0.96      -9999     224.56     222.28     223.42      -9999      -9999      -9999      -9999       0.20      -9999      -9999
   133.30     227.00       5.06       0.95      -9999     225.67     222.51     224.09      -9999      -9999      -9999      -9999       0.22     254.01      -9999
   133.40     227.00       4.90       0.98      -9999     224.97     221.73     223.35      -9999      -9999      -9999      -9999       0.23     252.58      -9999
   133.50     227.00       4.76       0.97      -9999     224.00     221.18     222.59      -9999      -9999      -9999      -9999       0.22     251.04      -9999
   133.60     227.00       4.78       0.95      -9999     222.82     221.56     222.19      -9999      -9999      -9999      -9999       0.22     249.45      -9999
   133.70     227.00       4.89       1.00      -9999     224.16     221.92     223.04      -9999      -9999      -9999      -9999       0.21     247.95      -9999
   133.80     227.00       5.05       1.01      -9999     225.22     222.03     223.62      -9999      -9999      -9999      -9999       0.21     246.81      -9999
   133.90     227.00       5.35       0.98      -9999     225.55     221.38     223.47      -9999      -9999      -9999      -9999       0.21     246.05      -9999
   134.00     227.00       5.44       0.98      -9999     225.37     221.43     223.40      -9999      -9999      -9999      -9999       0.21     245.51      -9999
   134.10     227.00       5.91       1.00      -9999     225.33     221.46     223.40      -9999      -9999      -9999      -9999       0.21     245.23      -9999
   134.20     227.00       5.88       1.04      -9999     225.99     221.65     223.82      -9999      -9999      -9999      -9999       0.21     245.12      -9999
   134.30     227.00       5.80       1.10      -9999     226.71     221.92     224.31      -9999      -9999      -9999      -9999       0.20     245.30      -9999
   134.40     227.00       5.98       1.11      -9999     227.31     222.08     224.69      -9999      -9999      -9999      -9999       0.21     245.96      -9999
   134.50     227.00       5.98       1.14      -9999     227.45     222.12     224.78      -9999      -9999      -9999      -9999       0.21     246.99      -9999
   134.60     227.00       5.88       1.14      -9999     227.20     221.91     224.56      -9999      -9999      -9999      -9999       0.22     248.35      -9999
   134.70     227.00       5.75       1.12      -9999     226.75     221.70     224.23      -9999      -9999      -9999      -9999       0.21     250.08      -9999
   134.80     227.00       5.44       1.12      -9999     226.15     221.49     223.82      -9999      -9999      -9999      -9999       0.20     251.98      -9999
   134.90     227.00       5.60       1.06       0.77     225.69     221.38     223.53      -9999      -9999      -9999      -9999       0.21     253.68      -9999
   135.00     227.00       5.32       1.02       0.77     225.28     221.38     223.33      -9999      -9999      -9999      -9999       0.21     255.02      -9999
   135.10     227.00       5.10       1.00       0.76     224.91     221.43     223.17      -9999      -9999      -9999      -9999       0.21     255.84      -9999
   135.20     227.00       4.88       1.01       0.76     224.68     221.53     223.11      -9999      -9999      -9999      -9999       0.21     256.03      -9999
   135.30     227.00       4.71       1.03       0.77     224.62     221.56     223.09      -9999      -9999      -9999      -9999       0.20     255.60      -9999
   135.40     227.00       4.68       1.04       0.77     224.59     221.55     223.07      -9999      -9999      -9999      -9999       0.20     254.49      -9999
   135.50     227.00       4.57       1.06       0.78     224.29     221.72     223.00      -9999      -9999      -9999      -0.03       0.20     252.92      -9999
   135.60     227.00       4.54       1.04       0.76     224.24     221.37     222.81      -9999      -9999      -9999      -0.01       0.20     251.41      -9999
   135.70     227.00       4.65       1.04       0.77     224.23     221.13     222.68      -9999      -9999      -9999      -0.02       0.21     249.91      -9999
   135.80     227.00       4.74       0.99       0.79     224.45     220.95     222.70      -9999      -9999      -9999      -0.02       0.21     248.23      -9999
   135.90     227.00       4.78       1.02       0.78     224.51     221.34     222.93      -9999      -9999      -9999      -0.02       0.21     246.42      -9999
   136.00     227.00       4.84       0.99       0.78     224.59     221.64     223.12      -9999      -9999      -9999      -0.02       0.21     244.44     182.71
   136.10     227.00       4.98       0.95       0.77     224.82     221.69     223.26      -9999      -9999      -9999      -0.01       0.21     242.36     182.67
   136.20     227.00       5.31       0.97       0.77     225.09     221.73     223.41      -9999      -9999      -9999      -0.00       0.21     240.39     182.63
   136.30     227.00       5.10       0.95       0.77     225.52     221.85     223.68      -9999      -9999      -9999       0.00       0.21     238.72     182.67
   136.40     227.00       5.02       0.96       0.77     225.86     221.87     223.87      -9999      -9999      -9999      -0.01       0.22     237.54     182.71
   136.50     227.00       5.01       0.97       0.77     226.00     221.80     223.90      -9999      -9999      -9999      -0.01       0.22     236.71     182.89
   136.60     227.00       5.20       0.97       0.77     225.79     221.56     223.67      -9999      -9999      -9999      -0.02       0.21     236.06     183.07
   136.70     227.00       5.31       0.98       0.78     225.58     221.41     223.49      -9999      -9999      -9999      -0.02       0.21     235.12     183.24
   136.80     227.00       5.20       0.98       0.78     225.46     221.36     223.41      -9999      -9999      -9999      -0.02       0.21     233.97     183.40
   136.90     227.00       5.05       0.99       0.79     225.63     221.49     223.56      -9999      -9999      -9999      -0.02       0.21     232.74     183.46
   137.00     227.00       5.15       1.00       0.78     225.77     221.66     223.71      -9999      -9999      -9999      -0.03       0.21     231.48     183.53
   137.10     227.00       5.32       0.97       0.78     225.87     221.77     223.82      -9999      -9999      -9999      -0.02       0.20     230.39     183.45
   137.20     227.00       5.49       1.01       0.78     226.02     221.82     223.92      -9999      -9999      -9999      -0.01       0.20     229.95     183.38
   137.30     227.00       5.54       0.96       0.79     226.49     221.90     224.20      -9999      -9999      -9999      -0.01       0.21     229.82     183.19
