~Version information
  VERS.                            1.20: CWLS LAS  -  VERSION 1.20
  WRAP.                              NO: One line per depth step
~Well information
# MNEM.UNIT
# ====.================================:===================
  STRT.M                           0.20: First depth in file
  STOP.M                         936.80: Last depth in file
  STEP.M                           0.10: Depth increment
  NULL.                           -9999: Null values
  COMP.                         COMPANY:
  WELL.                            WELL: 332
  FLD .                           FIELD: Karatobe
  CNTY.                          COUNTY: 
  STAT.                           STATE: 
  DATE.                        LOG DATE: 26-27.07.2007
  SRVC.                 SERVICE COMPANY: 
  UWI.           Unique Well Identifier: 
~Parametr information block
# MNEM.UNIT
# ====.================================:===================
~Other information
# ------------------------- REMARKS  AREA ------------------
~Curve information
# MNEM.UNIT
# ====.================================:===================
  DEPT.M                               : Depth curve
BS    .MM                              :
GR    .UR/H                            : 
NGL   .C.U                             :
LL3   .OHMM                            : 
C1    .MM                              : 
C2    .MM                              : 
CALI  .MM                              :
MLL   .OHMM                            : 
CILR  .MMHO                            : 
RHOB  .G/C3                            : 
GZ3   .OHMM                            : 
GZ3B  .OHMM                            : 
SP    .MV                              : 
DT    .US/M                            :
~ASCII Log Data
# ...
   313.80     215.90       9.55       1.35       5.56     309.97     246.50     278.23       1.48      75.98       2.20       7.69       5.91     173.57     511.44
   313.90     215.90       9.66       1.29       5.45     323.95     251.08     287.51       1.44      78.91       2.19       7.35       5.70     174.09     513.23
   314.00     215.90       9.63       1.27       5.25     320.48     254.45     287.46       1.70      80.67       2.19       7.24       5.72     174.80     515.02
   314.10     215.90      10.12       1.23       5.13     300.52     247.63     274.08       1.71      81.46       2.17       7.30       5.89     175.52     516.26
   314.20     215.90      10.09       1.26       5.35     274.43     237.96     256.19       1.74      81.12       2.16       7.55       6.15     176.30     517.49
   314.30     215.90      10.15       1.28       5.79     251.34     228.88     240.11       2.31      80.93       2.16       7.93       6.34     177.05     518.41
   314.40     215.90      10.08       1.29       6.25     247.45     225.15     236.30       2.46      81.61       2.18       8.16       6.47     177.79     519.33
   314.50     215.90       9.85       1.30       6.59     245.68     220.94     233.31       2.35      85.58       2.16       8.26       6.51     178.45     519.60
   314.60     215.90       9.63       1.32       6.64     245.55     218.38     231.96       2.43      87.76       2.15       8.32       6.51     178.97     519.87
   314.70     215.90       9.51       1.29       7.01     243.82     217.06     230.44       2.84      88.76       2.14       8.34       6.57     179.36     519.12
   314.80     215.90       9.31       1.27       7.25     243.02     216.80     229.91       3.20      90.04       2.13       8.47       6.69     179.77     518.38
   314.90     215.90       8.89       1.29       7.44     240.92     217.51     229.22       3.23      92.86       2.12       8.68       6.93     180.36     516.20
   315.00     215.90       8.97       1.28       7.67     238.60     219.28     228.94       2.96      94.90       2.12       9.09       7.17     181.17     514.03
   315.10     215.90       8.91       1.28       8.19     235.78     220.72     228.25       3.04      97.40       2.12       9.58       7.41     182.00     512.34
   315.20     215.90       8.99       1.33       8.95     232.31     221.32     226.81       3.31      99.37       2.11      10.06       7.54     182.64     510.65
   315.30     215.90       8.50       1.33       9.85     231.33     221.26     226.29       3.53     104.00       2.10      10.51       7.56     183.05     510.72
   315.40     215.90       8.48       1.31      10.76     234.21     220.97     227.59       3.75     106.11       2.09      10.88       7.48     183.26     510.80
   315.50     215.90       8.79       1.29      11.33     236.36     220.40     228.38       3.51     106.25       2.08      11.17       7.19     183.25     513.88
   315.60     215.90       8.60       1.27      11.56     235.49     219.86     227.67       3.93      94.56       2.08      11.30       6.75     183.09     516.95
   315.70     215.90       8.53       1.27      11.51     233.74     220.26     227.00       4.54      92.69       2.08      11.28       6.32     182.88     521.28
   315.80     215.90       8.48       1.27      11.02     232.70     220.89     226.79       5.19      96.60       2.07      11.13       5.89     182.46     525.60
   315.90     215.90       8.51       1.28      10.12     232.02     221.73     226.87       4.93     109.85       2.08      10.81       5.50     181.63     529.52
   316.00     215.90       8.76       1.28       8.84     231.31     222.24     226.77       3.03     114.72       2.10      10.41       5.39     180.34     533.45
   316.10     215.90       9.05       1.30       7.59     239.18     224.10     231.64       2.52     110.28       2.09       9.94       4.92     178.63     535.34
   316.20     215.90       9.18       1.30       6.92     246.17     225.10     235.63       2.54     106.25       2.11       9.52       4.67     176.68     537.24
   316.30     215.90       9.27       1.29       6.71     246.06     226.39     236.23       2.63     101.26       2.09       9.23       4.57     174.77     536.71
   316.40     215.90       9.44       1.24       6.79     238.04     225.09     231.57       2.66     105.97       2.08       8.96       4.52     172.98     536.19
   316.50     215.90       9.67       1.25       6.94     232.24     226.03     229.14       3.01     109.86       2.06       8.65       4.45     171.28     533.02
   316.60     215.90       9.39       1.25       6.86     233.57     226.71     230.14       3.15     115.14       2.04       8.20       4.26     169.61     529.85
   316.70     215.90       9.33       1.24       6.33     239.20     229.17     234.19       2.26     115.75       2.02       7.64       4.03     167.94     523.91
   316.80     215.90       9.46       1.24       5.58     250.19     231.18     240.69       1.65     117.45       2.01       6.79       3.76     166.19     517.97
   316.90     215.90       9.38       1.21       4.90     263.19     234.59     248.89       1.51     116.16       2.02       6.04       3.54     164.50     509.52
   317.00     215.90       9.48       1.22       4.47     272.49     243.86     258.17       1.33     115.44       2.01       5.51       3.45     163.08     501.08
   317.10     215.90       9.32       1.25       4.24     269.28     257.61     263.45       1.42     116.02       2.00       5.28       3.59     161.82     491.50
   317.20     215.90       9.08       1.24       4.30     255.26     260.54     257.90       1.41     128.03       1.98       5.41       3.96     160.90     481.93
   317.30     215.90       8.91       1.29       4.57     240.77     252.07     246.42       1.58     145.05       1.96       5.73       4.38     160.55     472.79
   317.40     215.90       9.10       1.29       4.96     231.81     243.73     237.77       1.73     156.79       1.95       6.28       4.79     160.59     463.65
   317.50     215.90       9.11       1.29       5.44     231.08     247.64     239.36       1.87     157.84       1.93       6.91       5.14     160.87     458.00
   317.60     215.90       9.00       1.27       5.81     230.68     250.14     240.41       2.14     158.68       1.94       7.42       5.73     161.39     452.36
   317.70     215.90       9.38       1.28       6.41     230.34     243.95     237.14       2.97     156.83       2.00       7.85       5.89     162.05     451.10
   317.80     215.90       9.06       1.30       7.74     229.27     237.41     233.34       7.11     151.99       2.07       8.07       5.76     162.87     449.83
   317.90     215.90       8.81       1.32       8.66     230.14     238.52     234.33       8.23     137.63       2.12       8.05       5.46     164.09     453.60
   318.00     215.90       9.05       1.29       7.87     233.90     243.17     238.53       4.53     130.46       2.15       7.67       5.09     165.57     457.36
   318.10     215.90       9.07       1.30       6.08     241.92     244.31     243.12       2.23     127.85       2.16       7.03       4.60     167.18     463.42
   318.20     215.90       9.25       1.24       5.22     244.84     241.55     243.20       1.64     130.12       2.16       6.36       4.11     168.91     469.47
   318.30     215.90       9.34       1.26       4.72     246.07     240.86     243.46       1.35     131.98       2.14       5.57       3.72     170.54     475.68
   318.40     215.90       9.15       1.27       4.66     254.10     252.53     253.31       1.45     133.09       2.10       4.88       3.39     171.65     481.89
   318.50     215.90       8.86       1.25       4.47     279.17     279.61     279.39       1.65     137.52       2.06       4.49       3.16     172.29     485.35
   318.60     215.90       8.45       1.22       4.23     322.16     319.29     320.73       1.61     134.86       2.05       4.06       3.04     172.57     488.81
