~Version information
  VERS.                            1.20: CWLS LAS  -  VERSION 1.20
  WRAP.                              NO: One line per depth step
~Well information
# MNEM.UNIT
# ====.================================:===================
  STRT.M                           0.20: First depth in file
  STOP.M                         936.80: Last depth in file
  STEP.M                           0.10: Depth increment
  NULL.                           -9999: Null values
  COMP.                         COMPANY:
  WELL.                            WELL: 332
  FLD .                           FIELD: Karatobe
  CNTY.                          COUNTY: 
  STAT.                           STATE: 
  DATE.                        LOG DATE: 26-27.07.2007
  SRVC.                 SERVICE COMPANY: 
  UWI.           Unique Well Identifier: 
~Parametr information block
# MNEM.UNIT
# ====.================================:===================
~Other information
# ------------------------- REMARKS  AREA ------------------
~Curve information
# MNEM.UNIT
# ====.================================:===================
  DEPT.M                               : Depth curve
BS    .MM                              :
GR    .UR/H                            : 
NGL   .C.U                             :
LL3   .OHMM                            : 
C1    .MM                              : 
C2    .MM                              : 
CALI  .MM                              :
MLL   .OHMM                            : 
CILR  .MMHO                            : 
RHOB  .G/C3                            : 
GZ3   .OHMM                            : 
GZ3B  .OHMM                            : 
SP    .MV                              : 
DT    .US/M                            :
~ASCII Log Data
# ...
   676.40     215.90       7.69       1.34       4.01     241.28     221.30     231.29       2.78     222.16       2.33       2.36       3.23     182.83     356.90
   676.50     215.90       7.52       1.35       4.56     240.21     224.82     232.52       3.10     214.46       2.35       2.44       3.38     182.80     356.69
   676.60     215.90       7.46       1.42       4.89     237.12     224.61     230.87       1.56     206.78       2.35       2.58       3.55     182.87     356.48
   676.70     215.90       7.40       1.41       5.13     229.88     218.71     224.29       3.21     203.65       2.38       2.68       3.64     183.13     356.94
   676.80     215.90       7.56       1.43       5.88     233.85     213.62     223.73       4.88     197.83       2.37       2.73       3.58     183.57     357.39
   676.90     215.90       7.68       1.42       6.86     251.33     217.60     234.47       5.04     190.74       2.35       2.68       3.37     184.29     357.26
   677.00     215.90       7.64       1.43       6.21     268.07     220.43     244.25       1.83     184.99       2.34       2.58       3.16     185.19     357.13
   677.10     215.90       7.65       1.43       5.12     276.95     220.57     248.76       1.78     183.58       2.33       2.33       2.95     186.23     355.65
   677.20     215.90       7.53       1.44       4.24     278.94     216.40     247.67       1.53     183.47       2.28       2.15       2.81     187.33     354.18
   677.30     215.90       7.19       1.44       3.78     278.60     214.63     246.62       1.50     185.03       2.26       2.03       2.79     188.35     352.21
   677.40     215.90       7.15       1.44       3.70     269.87     217.15     243.51       1.28     189.47       2.25       2.02       2.89     189.19     350.24
   677.50     215.90       6.64       1.43       3.82     259.41     222.72     241.07       1.74     197.35       2.25       2.07       3.08     189.73     349.72
   677.60     215.90       6.71       1.45       4.03     247.10     225.03     236.07       1.94     206.98       2.25       2.16       3.30     190.01     349.20
   677.70     215.90       6.64       1.42       4.42     246.10     224.24     235.17       2.07     212.83       2.29       2.23       3.48     190.04     351.90
   677.80     215.90       6.47       1.42       4.93     247.43     217.88     232.66       2.74     209.71       2.31       2.30       3.63     189.73     354.59
   677.90     215.90       6.45       1.43       5.33     258.64     216.80     237.72       2.36     202.30       2.36       2.36       3.71     189.08     360.43
   678.00     215.90       6.43       1.42       5.54     263.08     213.82     238.45       2.71     191.97       2.41       2.37       3.73     188.06     366.27
   678.10     215.90       6.40       1.39       5.40     269.00     216.59     242.79       2.16     188.54       2.39       2.35       3.72     186.59     373.32
   678.20     215.90       6.25       1.42       5.02     261.69     213.99     237.84       2.00     187.15       2.38       2.30       3.76     184.77     380.37
   678.30     215.90       6.28       1.42       4.55     258.07     214.41     236.24       1.52     191.72       2.35       2.27       3.85     182.86     385.71
   678.40     215.90       6.53       1.41       4.34     252.21     211.73     231.97       2.20     194.85       2.35       2.27       3.96     180.99     391.04
   678.50     215.90       6.61       1.39       4.34     254.46     216.05     235.25       1.94     193.88       2.34       2.29       4.09     179.10     391.71
   678.60     215.90       6.81       1.41       4.51     253.91     214.30     234.11       1.86     194.06       2.36       2.34       4.19     177.24     392.37
   678.70     215.90       6.86       1.39       4.73     257.29     212.75     235.02       2.17     194.01       2.36       2.40       4.24     175.42     387.27
   678.80     215.90       6.92       1.36       4.83     257.92     209.36     233.64       2.49     195.42       2.36       2.45       4.23     173.73     382.17
   678.90     215.90       6.67       1.40       4.85     259.98     213.57     236.78       2.47     190.68       2.34       2.46       4.22     172.29     372.54
   679.00     215.90       6.76       1.34       4.87     257.32     217.00     237.16       2.44     185.70       2.34       2.47       4.24     171.09     362.91
   679.10     215.90       6.76       1.39       4.70     253.77     216.50     235.14       1.90     179.06       2.29       2.49       4.34     170.20     351.48
   679.20     215.90       7.07       1.41       4.40     252.32     211.03     231.67       1.95     170.13       2.28       2.49       4.58     169.81     340.05
   679.30     215.90       6.85       1.39       4.15     252.04     206.35     229.19       1.52     163.34       2.29       2.46       4.92     169.82     329.17
   679.40     215.90       6.75       1.41       4.09     254.08     205.24     229.66       1.63     164.14       2.30       2.42       5.12     169.97     318.29
   679.50     215.90       6.83       1.34       4.23     247.30     208.67     227.98       1.89     165.64       2.32       2.37       5.79     170.15     309.18
   679.60     215.90       6.95       1.34       4.45     241.92     219.34     230.63       2.55     159.76       2.33       2.35       6.18     170.50     300.07
   679.70     215.90       6.89       1.34       4.54     237.22     224.21     230.71       1.84     148.88       2.33       2.35       6.71     171.02     293.05
   679.80     215.90       6.90       1.34       4.40     243.16     224.28     233.72       1.57     141.51       2.32       2.36       7.45     171.70     286.03
   679.90     215.90       7.21       1.32       4.24     243.92     217.16     230.54       1.91     140.50       2.31       2.38       8.15     172.54     280.93
   680.00     215.90       6.97       1.34       4.25     243.78     215.37     229.57       1.54     139.54       2.29       2.46       8.91     173.47     275.83
   680.10     215.90       7.00       1.42       4.53     238.55     215.88     227.22       3.85     134.73       2.32       2.53       9.62     174.49     272.35
   680.20     215.90       6.89       1.41       4.83     240.61     217.19     228.90       1.95     126.63       2.32       2.61      10.61     175.58     268.88
   680.30     215.90       6.65       1.44       4.96     242.67     215.79     229.23       2.49     119.91       2.33       2.75      11.72     176.69     268.16
   680.40     215.90       6.49       1.50       5.06     241.46     215.46     228.46       1.99     116.56       2.35       2.92      13.07     177.64     267.43
   680.50     215.90       6.29       1.52       5.51     229.97     212.84     221.41       2.34     114.47       2.34       3.15      14.66     178.43     271.03
   680.60     215.90       5.84       1.60       6.56     219.28     211.75     215.52       5.57     109.53       2.37       3.43      15.97     179.18     274.63
   680.70     215.90       5.22       1.61       9.22     214.37     209.23     211.80       8.70     102.19       2.40       3.70      16.93     179.94     283.85
   680.80     215.90       4.86       1.59      14.06     215.46     208.61     212.04      10.33      90.61       2.43       3.96      17.35     180.84     293.07
   680.90     215.90       4.87       1.65      15.49     215.33     208.71     212.02      12.44      80.23       2.47       4.07      17.20     181.86     306.52
   681.00     215.90       5.19       1.66      13.16     214.98     208.46     211.72      10.06      74.70       2.47       4.07      16.92     182.87     319.96
   681.10     215.90       5.36       1.65      10.75     216.07     209.07     212.57       5.93      75.52       2.47       3.99      16.64     183.82     333.03
   681.20     215.90       5.65       1.69       9.11     219.55     210.42     214.99       5.50      77.96       2.46       3.84      16.52     184.73     346.09
