~Version information
  VERS.                            1.20: CWLS LAS  -  VERSION 1.20
  WRAP.                              NO: One line per depth step
~Well information
# MNEM.UNIT
# ====.================================:===================
  STRT.M                           0.20: First depth in file
  STOP.M                         936.80: Last depth in file
  STEP.M                           0.10: Depth increment
  NULL.                           -9999: Null values
  COMP.                         COMPANY:
  WELL.                            WELL: 332
  FLD .                           FIELD: Karatobe
  CNTY.                          COUNTY: 
  STAT.                           STATE: 
  DATE.                        LOG DATE: 26-27.07.2007
  SRVC.                 SERVICE COMPANY: 
  UWI.           Unique Well Identifier: 
~Parametr information block
# MNEM.UNIT
# ====.================================:===================
~Other information
# ------------------------- REMARKS  AREA ------------------
~Curve information
# MNEM.UNIT
# ====.================================:===================
  DEPT.M                               : Depth curve
BS    .MM                              :
GR    .UR/H                            : 
NGL   .C.U                             :
LL3   .OHMM                            : 
C1    .MM                              : 
C2    .MM                              : 
CALI  .MM                              :
MLL   .OHMM                            : 
CILR  .MMHO                            : 
RHOB  .G/C3                            : 
GZ3   .OHMM                            : 
GZ3B  .OHMM                            : 
SP    .MV                              : 
DT    .US/M                            :
~ASCII Log Data
# ...
   451.00     215.90       8.35       1.23      17.34     210.73     210.34     210.54       5.52      80.04       2.12       6.45      19.35     178.82     439.13
   451.10     215.90       8.15       1.25      19.15     209.99     210.35     210.17       5.81      71.74       2.12       6.69      18.70     179.25     440.97
   451.20     215.90       8.38       1.29      20.22     209.62     210.41     210.02       5.64      67.44       2.13       6.98      18.06     179.60     442.82
   451.30     215.90       8.31       1.27      20.29     209.78     210.18     209.98       5.23      60.00       2.13       7.25      17.48     179.95     444.44
   451.40     215.90       8.36       1.28      19.69     209.93     209.53     209.73       5.38      58.01       2.13       7.51      17.07     180.32     446.06
   451.50     215.90       8.43       1.25      19.16     210.03     209.15     209.59       5.32      54.92       2.13       7.82      16.58     180.76     447.63
   451.60     215.90       7.96       1.21      18.61     209.80     209.28     209.54       5.34      59.19       2.14       8.07      15.68     180.92     449.21
   451.70     215.90       8.10       1.23      17.61     209.96     209.92     209.94       4.72      62.36       2.15       8.32      15.11     180.60     450.42
   451.80     215.90       8.20       1.29      17.12     210.01     209.83     209.92       4.30      65.16       2.17       9.18      14.53     179.96     451.63
   451.90     215.90       8.38       1.24      14.10     209.66     209.60     209.63       3.82      61.10       2.17       9.71      14.07     179.05     452.15
   452.00     215.90       8.20       1.25      13.01     209.49     209.60     209.55       3.88      56.08       2.17      10.23      13.55     177.88     452.66
   452.10     215.90       8.09       1.30      12.09     209.43     210.20     209.81       3.71      53.43       2.19      10.64      13.17     176.57     452.11
   452.20     215.90       8.39       1.32      11.23     209.69     210.62     210.15       3.79      55.31       2.21      10.84      12.91     175.17     451.56
   452.30     215.90       8.38       1.33      10.91     210.26     210.72     210.49       4.02      58.87       2.25      10.91      12.76     173.88     449.82
   452.40     215.90       8.34       1.33      11.54     210.93     210.78     210.85       4.64      61.94       2.24      11.00      12.63     172.61     448.07
   452.50     215.90       8.11       1.29      12.56     211.57     210.95     211.26       5.53      66.71       2.25      11.17      12.48     171.23     445.15
   452.60     215.90       8.08       1.30      12.90     211.57     211.20     211.38       5.04      66.96       2.23      11.25      12.37     169.72     442.22
   452.70     215.90       8.16       1.29      12.06     211.47     211.19     211.33       4.15      68.08       2.23      11.26      12.33     168.31     439.36
   452.80     215.90       8.29       1.26      10.77     211.29     210.61     210.95       3.78      67.82       2.19      11.29      12.44     167.22     436.50
   452.90     215.90       8.61       1.26       9.99     211.67     209.89     210.78       3.34      69.72       2.17      11.55      12.85     166.56     435.17
   453.00     215.90       8.79       1.23       9.27     210.94     209.37     210.16       3.54      69.55       2.16      12.01      13.34     166.28     433.85
   453.10     215.90       8.86       1.20       9.59     210.48     209.45     209.97       3.88      69.01       2.15      12.60      13.89     166.36     433.58
   453.20     215.90       8.80       1.23      10.65     209.56     209.50     209.53       4.43      68.49       2.12      13.19      14.20     166.67     433.31
   453.30     215.90       8.57       1.22      12.50     210.18     209.56     209.87       4.39      68.63       2.11      13.80      14.44     167.03     431.85
   453.40     215.90       8.48       1.25      13.82     210.34     209.55     209.94       4.30      70.16       2.12      14.30      14.52     167.26     430.40
   453.50     215.90       8.31       1.25      14.24     210.20     209.55     209.87       3.97      74.33       2.11      14.81      14.56     167.54     426.05
   453.60     215.90       8.32       1.28      14.25     209.63     209.59     209.61       3.90      79.05       2.10      15.30      14.59     168.09     421.70
   453.70     215.90       8.46       1.24      14.51     209.29     210.52     209.90       4.14      81.42       2.13      15.83      14.58     168.92     416.09
   453.80     215.90       8.60       1.22      15.35     209.31     211.42     210.37       4.32      83.04       2.13      16.31      14.52     169.90     410.48
   453.90     215.90       8.45       1.22      16.12     210.06     212.08     211.07       4.40      84.02       2.13      16.66      14.29     170.97     407.25
   454.00     215.90       8.16       1.21      16.17     210.95     211.65     211.30       4.21      82.78       2.13      16.77      13.93     172.00     404.02
   454.10     215.90       8.20       1.21      15.42     211.45     212.26     211.85       3.86      77.49       2.12      16.61      13.49     172.90     404.97
   454.20     215.90       8.49       1.20      14.26     210.95     214.63     212.79       4.00      76.28       2.12      16.12      12.99     173.63     405.92
   454.30     215.90       8.15       1.21      12.37     210.96     222.35     216.66       3.68      81.88       2.13      15.48      12.51     174.22     410.07
   454.40     215.90       8.19       1.18      10.75     203.17     230.75     216.96       3.34      90.31       2.15      14.69      12.10     174.73     414.21
   454.50     215.90       8.13       1.22       9.43     196.18     239.16     217.67       3.23      94.49       2.15      13.77      11.71     175.27     418.45
   454.60     215.90       8.49       1.17       8.49     192.68     242.97     217.83       3.25      93.69       2.15      12.84      11.56     175.82     422.69
   454.70     215.90       8.50       1.17       7.88     202.14     244.30     223.22       2.92      94.64       2.14      11.99      11.54     176.28     424.91
   454.80     215.90       8.51       1.16       7.37     209.69     243.50     226.60       2.79      93.30       2.13      11.22      11.63     176.55     427.13
   454.90     215.90       8.80       1.19       7.03     214.51     236.41     225.46       2.67      94.19       2.12      10.63      11.86     176.65     427.57
   455.00     215.90       9.13       1.21       6.89     216.75     229.85     223.30       2.55      91.51       2.12      10.33      12.48     176.64     428.00
   455.10     215.90       8.84       1.26       6.84     217.97     221.47     219.72       2.92      92.61       2.11      10.37      13.41     176.77     428.16
   455.20     215.90       8.98       1.28       6.76     214.37     216.44     215.40       2.59      90.50       2.10      10.74      14.66     177.17     428.33
   455.30     215.90       9.00       1.26       7.03     210.19     209.79     209.99       2.73      89.47       2.09      11.35      15.77     177.92     429.37
   455.40     215.90       9.24       1.24       8.32     207.11     205.25     206.18       3.58      83.91       2.08      12.04      16.35     179.24     430.41
   455.50     215.90       8.91       1.25      11.25     207.55     203.05     205.30       5.15      83.68       2.09      12.71      16.33     180.79     431.76
   455.60     215.90       8.78       1.24      15.61     206.97     202.87     204.92       4.90      85.65       2.09      13.15      15.71     182.20     433.11
   455.70     215.90       8.79       1.27      18.49     207.68     205.09     206.39       4.89      88.98       2.08      13.47      14.84     183.36     434.42
   455.80     215.90       8.90       1.30      19.76     207.82     207.50     207.66       5.08      89.13       2.08      13.72      14.05     184.45     435.74
