~Version information
  VERS.                            1.20: CWLS LAS  -  VERSION 1.20
  WRAP.                              NO: One line per depth step
~Well information
# MNEM.UNIT
# ====.================================:===================
  STRT.M                           0.20: First depth in file
  STOP.M                         936.80: Last depth in file
  STEP.M                           0.10: Depth increment
  NULL.                           -9999: Null values
  COMP.                         COMPANY:
  WELL.                            WELL: 332
  FLD .                           FIELD: Karatobe
  CNTY.                          COUNTY: 
  STAT.                           STATE: 
  DATE.                        LOG DATE: 26-27.07.2007
  SRVC.                 SERVICE COMPANY: 
  UWI.           Unique Well Identifier: 
~Parametr information block
# MNEM.UNIT
# ====.================================:===================
~Other information
# ------------------------- REMARKS  AREA ------------------
~Curve information
# MNEM.UNIT
# ====.================================:===================
  DEPT.M                               : Depth curve
BS    .MM                              :
GR    .UR/H                            : 
NGL   .C.U                             :
LL3   .OHMM                            : 
C1    .MM                              : 
C2    .MM                              : 
CALI  .MM                              :
MLL   .OHMM                            : 
CILR  .MMHO                            : 
RHOB  .G/C3                            : 
GZ3   .OHMM                            : 
GZ3B  .OHMM                            : 
SP    .MV                              : 
DT    .US/M                            :
~ASCII Log Data
# ...
   176.60     215.90       4.59       1.35       4.61     398.32     325.42     361.87       2.61     168.46       1.86       3.80       3.73     182.59     461.72
   176.70     215.90       4.74       1.35       4.58     393.96     327.03     360.50       2.30     167.57       1.85       3.80       3.76     184.14     473.02
   176.80     215.90       4.85       1.32       4.59     390.40     329.29     359.85       2.24     166.55       1.87       3.79       3.77     185.38     484.32
   176.90     215.90       4.74       1.36       4.63     388.65     331.84     360.24       2.35     164.53       1.89       3.77       3.76     185.89     493.18
   177.00     215.90       4.73       1.37       4.63     384.44     333.34     358.89       2.29     161.56       1.90       3.76       3.74     185.93     502.04
   177.10     215.90       4.90       1.32       4.65     381.08     336.09     358.58       2.09     162.62       1.92       3.75       3.73     185.60     508.29
   177.20     215.90       5.12       1.33       4.68     378.48     337.81     358.14       2.01     163.68       1.92       3.74       3.72     185.07     514.55
   177.30     215.90       5.20       1.32       4.71     381.09     336.79     358.94       1.92     167.44       1.90       3.74       3.71     184.40     519.28
   177.40     215.90       5.32       1.33       4.72     386.83     338.52     362.67       1.94     169.66       1.89       3.75       3.70     183.40     524.01
   177.50     215.90       5.34       1.35       4.73     389.85     341.11     365.48       1.88     170.03       1.89       3.76       3.71     181.88     526.67
   177.60     215.90       5.25       1.32       4.71     382.58     345.21     363.90       1.92     170.08       1.88       3.77       3.72     179.92     529.33
   177.70     215.90       5.43       1.38       4.72     374.73     344.47     359.60       1.88     169.21       1.89       3.80       3.73     177.57     530.29
   177.80     215.90       5.38       1.40       4.78     371.24     341.24     356.24       1.87     170.59       1.88       3.84       3.74     175.05     531.26
   177.90     215.90       5.37       1.40       4.83     377.69     338.49     358.09       1.95     172.98       1.89       3.88       3.73     172.84     530.12
   178.00     215.90       5.27       1.38       4.86     382.54     336.53     359.53       2.02     174.14       1.88       3.90       3.72     171.19     528.98
   178.10     215.90       5.27       1.39       4.87     380.21     336.94     358.57       2.04     173.19       1.86       3.92       3.70     169.69     526.40
   178.20     215.90       5.45       1.36       4.85     374.58     337.99     356.29       1.98     172.95       1.85       3.94       3.72     168.32     523.83
   178.30     215.90       5.14       1.37       4.81     368.29     338.57     353.43       1.92     174.08       1.87       3.95       3.73     166.88     519.96
   178.40     215.90       4.94       1.37       4.76     365.10     338.93     352.01       2.10     177.36       1.87       3.95       3.75     165.45     516.08
   178.50     215.90       4.84       1.39       4.74     364.83     339.16     351.99       2.04     177.00       1.88       3.93       3.73     164.21     511.82
   178.60     215.90       4.90       1.35       4.74     368.57     339.81     354.19       2.19     177.73       1.88       3.89       3.70     163.39     507.56
   178.70     215.90       5.00       1.26       4.74     375.83     341.03     358.43       2.25     176.20       1.88       3.84       3.66     163.04     505.15
   178.80     215.90       5.21       1.28       4.73     381.21     342.05     361.63       2.24     174.71       1.89       3.81       3.65     163.10     502.73
   178.90     215.90       5.26       1.28       4.68     381.45     342.20     361.83       2.21     171.84       1.90       3.81       3.66     163.44     501.84
   179.00     215.90       5.38       1.31       4.62     371.60     341.76     356.68       1.99     171.08       1.91       3.84       3.70     164.06     500.95
   179.10     215.90       5.21       1.34       4.60     359.79     341.39     350.59       1.82     172.81       1.90       3.87       3.74     164.78     500.87
   179.20     215.90       5.27       1.34       4.60     351.44     341.74     346.59       1.95     172.88       1.88       3.88       3.75     165.76     500.79
   179.30     215.90       5.29       1.34       4.63     351.97     343.84     347.90       1.89     173.55       1.88       3.88       3.74     166.73     498.62
   179.40     215.90       5.35       1.34       4.63     354.18     347.93     351.05       1.99     172.47       1.89       3.85       3.69     167.79     496.45
   179.50     215.90       5.46       1.32       4.61     356.70     351.16     353.93       1.97     171.75       1.90       3.81       3.64     168.91     494.45
   179.60     215.90       5.40       1.35       4.61     356.74     352.41     354.58       1.93     169.87       1.90       3.77       3.59     170.00     492.46
   179.70     215.90       5.52       1.32       4.64     355.97     351.44     353.71       1.87     167.17       1.91       3.76       3.56     171.11     491.51
   179.80     215.90       5.59       1.34       4.69     354.25     350.92     352.58       1.74     165.55       1.92       3.77       3.54     172.13     490.56
   179.90     215.90       5.47       1.37       4.67     350.25     347.00     348.62       1.93     168.61       1.92       3.79       3.54     173.19     492.99
   180.00     215.90       5.39       1.37       4.62     346.07     342.73     344.40       1.91     171.19       1.93       3.81       3.54     174.34     495.43
   180.10     215.90       5.30       1.38       4.58     341.82     338.75     340.29       1.83     176.10       1.96       3.82       3.54     175.02     497.43
   180.20     215.90       5.27       1.36       4.55     341.37     338.13     339.75       1.92     175.95       1.96       3.83       3.51     175.42     499.44
   180.30     215.90       5.31       1.38       4.51     343.32     337.70     340.51       2.00     182.41       1.97       3.83       3.49     175.57     499.53
   180.40     215.90       5.37       1.38       4.48     345.70     337.89     341.80       2.09     184.14       1.98       3.81       3.45     175.77     499.62
   180.50     215.90       5.27       1.40       4.44     347.75     338.20     342.97       2.19     189.55       2.01       3.78       3.40     176.02     495.89
   180.60     215.90       5.39       1.39       4.43     347.58     338.80     343.19       2.20     185.44       2.02       3.76       3.35     176.27     492.17
   180.70     215.90       5.34       1.33       4.40     345.64     339.41     342.53       2.16     182.31       2.02       3.75       3.29     176.39     486.54
   180.80     215.90       5.43       1.35       4.37     344.49     339.72     342.10       2.09     176.22       2.01       3.74       3.24     176.23     480.91
   180.90     215.90       5.46       1.36       4.35     342.28     339.00     340.64       2.04     172.59       2.00       3.76       3.22     175.94     474.80
   181.00     215.90       5.52       1.36       4.35     338.32     337.46     337.89       2.07     174.68       2.00       3.77       3.21     175.73     468.68
   181.10     215.90       5.59       1.38       4.35     330.87     336.64     333.75       2.10     177.74       2.00       3.78       3.21     175.78     463.41
   181.20     215.90       5.50       1.39       4.35     323.85     336.56     330.21       2.04     183.51       2.00       3.80       3.21     176.26     458.13
   181.30     215.90       5.37       1.38       4.37     318.43     335.92     327.17       2.00     181.37       2.00       3.83       3.21     177.28     454.08
   181.40     215.90       5.27       1.31       4.40     313.08     334.31     323.70       1.99     178.91       2.01       3.87       3.21     178.75     450.04
