~Version information
  VERS.                            1.20: CWLS LAS  -  VERSION 1.20
  WRAP.                              NO: One line per depth step
~Well information
# MNEM.UNIT
# ====.================================:===================
  STRT.M                           0.20: First depth in file
  STOP.M                         936.80: Last depth in file
  STEP.M                           0.10: Depth increment
  NULL.                           -9999: Null values
  COMP.                         COMPANY:
  WELL.                            WELL: 332
  FLD .                           FIELD: Karatobe
  CNTY.                          COUNTY: 
  STAT.                           STATE: 
  DATE.                        LOG DATE: 26-27.07.2007
  SRVC.                 SERVICE COMPANY: 
  UWI.           Unique Well Identifier: 
~Parametr information block
# MNEM.UNIT
# ====.================================:===================
~Other information
# ------------------------- REMARKS  AREA ------------------
~Curve information
# MNEM.UNIT
# ====.================================:===================
  DEPT.M                               : Depth curve
BS    .MM                              :
GR    .UR/H                            : 
NGL   .C.U                             :
LL3   .OHMM                            : 
C1    .MM                              : 
C2    .MM                              : 
CALI  .MM                              :
MLL   .OHMM                            : 
CILR  .MMHO                            : 
RHOB  .G/C3                            : 
GZ3   .OHMM                            : 
GZ3B  .OHMM                            : 
SP    .MV                              : 
DT    .US/M                            :
~ASCII Log Data
# ...
   539.20     215.90      10.53       1.21       3.43     214.31     224.37     219.34       2.50     201.35       2.21       2.34       4.21     169.82     433.35
   539.30     215.90      10.62       1.24       3.39     213.60     224.15     218.87       2.40     201.24       2.21       2.33       4.36     171.49     435.08
   539.40     215.90      10.51       1.22       3.41     213.14     223.83     218.49       2.27     203.64       2.19       2.32       4.50     173.15     436.80
   539.50     215.90      10.92       1.25       3.46     212.30     224.02     218.16       2.46     201.80       2.17       2.32       4.63     174.67     438.68
   539.60     215.90      10.71       1.27       3.47     212.18     224.71     218.45       2.55     196.99       2.14       2.33       4.79     175.85     440.56
   539.70     215.90      10.77       1.28       3.52     211.46     223.39     217.42       2.39     193.53       2.15       2.34       4.97     176.92     442.01
   539.80     215.90      10.72       1.29       3.54     211.25     221.60     216.43       2.30     195.74       2.16       2.33       5.15     177.97     443.47
   539.90     215.90      10.36       1.30       3.59     211.07     219.72     215.40       2.37     194.18       2.17       2.33       5.32     178.84     443.92
   540.00     215.90      10.65       1.30       3.64     211.25     219.71     215.48       2.45     185.27       2.16       2.33       5.45     179.48     444.38
   540.10     215.90      10.74       1.29       3.70     211.88     219.77     215.83       2.41     175.94       2.16       2.34       5.56     179.91     443.37
   540.20     215.90      10.43       1.26       3.80     212.38     219.36     215.87       2.34     168.66       2.16       2.34       5.69     179.90     442.35
   540.30     215.90      10.21       1.29       3.94     212.70     218.24     215.47       2.34     163.37       2.17       2.34       5.82     179.64     439.85
   540.40     215.90      10.35       1.33       4.05     213.06     217.64     215.35       2.38     154.89       2.17       2.34       5.95     179.31     437.34
   540.50     215.90      10.44       1.34       4.11     213.90     217.35     215.63       2.35     141.53       2.18       2.37       6.17     179.02     433.91
   540.60     215.90      10.64       1.32       4.13     214.83     217.17     216.00       2.35     131.11       2.19       2.42       6.41     178.93     430.48
   540.70     215.90      10.60       1.34       4.19     214.57     216.43     215.50       2.31     123.14       2.18       2.49       6.68     179.13     428.15
   540.80     215.90      10.56       1.40       4.32     213.74     215.63     214.68       2.40     118.68       2.17       2.56       6.88     179.43     425.81
   540.90     215.90      10.43       1.39       4.69     213.04     215.17     214.11       2.64     115.20       2.16       2.67       7.06     179.73     425.60
   541.00     215.90      10.01       1.39       5.18     213.19     215.23     214.21       2.79     112.50       2.16       2.79       7.15     180.12     425.38
   541.10     215.90       9.63       1.34       5.72     213.62     215.47     214.54       2.95     114.37       2.14       2.90       7.16     180.62     427.49
   541.20     215.90       9.41       1.33       6.04     214.14     215.83     214.99       3.10     116.64       2.14       2.99       7.12     181.25     429.61
   541.30     215.90       9.52       1.34       6.13     214.65     215.96     215.31       3.14     120.40       2.14       3.07       7.07     181.94     432.34
   541.40     215.90       9.76       1.39       6.00     215.01     216.05     215.53       3.09     120.73       2.15       3.13       7.03     182.60     435.08
   541.50     215.90       9.76       1.35       5.75     214.43     215.80     215.11       3.06     121.75       2.15       3.21       7.03     183.16     437.22
   541.60     215.90       9.90       1.35       5.60     213.62     215.53     214.57       2.94     120.89       2.15       3.29       7.05     183.50     439.35
   541.70     215.90      10.15       1.34       5.61     212.88     215.20     214.04       2.88     123.08       2.14       3.32       7.13     183.50     440.12
   541.80     215.90      10.32       1.31       5.78     212.75     215.12     213.93       2.87     124.23       2.13       3.46       7.20     183.19     440.88
   541.90     215.90      10.24       1.33       6.01     212.79     215.05     213.92       2.88     126.04       2.13       3.63       7.25     182.55     440.32
   542.00     215.90      10.33       1.34       6.16     212.86     215.04     213.95       2.98     125.12       2.13       3.78       7.26     181.69     439.76
   542.10     215.90      10.10       1.31       6.33     212.90     215.01     213.95       2.98     124.26       2.14       3.90       7.24     180.66     438.04
   542.20     215.90       9.77       1.37       6.39     212.99     215.08     214.04       3.04     123.67       2.13       4.03       7.20     179.49     436.33
   542.30     215.90       9.75       1.37       6.43     213.01     215.20     214.10       3.11     122.18       2.14       4.16       7.14     178.15     433.41
   542.40     215.90       9.66       1.37       6.31     213.00     215.33     214.16       3.12     121.48       2.14       4.27       7.09     176.67     430.49
   542.50     215.90       9.50       1.34       6.15     212.83     215.37     214.10       3.12     120.07       2.14       4.38       7.05     175.21     426.04
   542.60     215.90      10.03       1.36       6.16     212.65     215.29     213.97       3.01     121.33       2.13       4.51       7.02     173.79     421.58
   542.70     215.90       9.65       1.40       6.35     212.63     215.10     213.87       2.97     114.56       2.13       4.64       6.97     172.39     415.94
   542.80     215.90       9.87       1.43       6.64     212.45     214.64     213.54       3.10     115.39       2.13       4.78       6.91     170.98     410.29
   542.90     215.90       9.88       1.39       6.85     211.95     214.16     213.05       3.16     115.69       2.12       4.94       6.83     169.78     404.81
   543.00     215.90       9.74       1.33       6.95     211.36     214.12     212.74       3.14     120.32       2.11       5.12       6.72     169.05     399.32
   543.10     215.90       9.76       1.35       6.99     211.18     214.57     212.88       3.10     120.55       2.11       5.29       6.64     168.58     396.40
   543.20     215.90       9.73       1.37       7.00     211.30     214.92     213.11       3.07     120.30       2.11       5.45       6.56     168.30     393.48
   543.30     215.90       9.75       1.36       6.82     211.40     214.92     213.16       3.10     122.11       2.11       5.60       6.46     168.24     394.39
   543.40     215.90       9.29       1.36       6.65     211.40     214.80     213.10       3.12     121.74       2.11       5.74       6.38     168.33     395.30
   543.50     215.90       9.25       1.31       6.52     211.28     214.75     213.01       3.04     124.15       2.11       5.80       6.31     168.54     399.78
   543.60     215.90       9.24       1.28       6.47     211.20     214.76     212.98       2.89     126.12       2.12       5.85       6.25     168.84     404.25
   543.70     215.90       9.26       1.31       6.49     211.15     214.77     212.96       2.86     122.71       2.13       5.90       6.21     169.29     409.97
   543.80     215.90       9.08       1.32       6.48     211.04     214.85     212.95       2.86     115.27       2.12       5.95       6.18     169.95     415.69
   543.90     215.90       9.24       1.28       6.41     211.04     214.84     212.94       2.86     107.44       2.13       6.00       6.17     170.91     420.59
   544.00     215.90       9.19       1.32       6.34     211.23     214.85     213.04       2.82     106.31       2.15       6.07       6.18     171.93     425.50
