~Version information
  VERS.                            1.20: CWLS LAS  -  VERSION 1.20
  WRAP.                              NO: One line per depth step
~Well information
# MNEM.UNIT
# ====.================================:===================
  STRT.M                           0.20: First depth in file
  STOP.M                         936.80: Last depth in file
  STEP.M                           0.10: Depth increment
  NULL.                           -9999: Null values
  COMP.                         COMPANY:
  WELL.                            WELL: 332
  FLD .                           FIELD: Karatobe
  CNTY.                          COUNTY: 
  STAT.                           STATE: 
  DATE.                        LOG DATE: 26-27.07.2007
  SRVC.                 SERVICE COMPANY: 
  UWI.           Unique Well Identifier: 
~Parametr information block
# MNEM.UNIT
# ====.================================:===================
~Other information
# ------------------------- REMARKS  AREA ------------------
~Curve information
# MNEM.UNIT
# ====.================================:===================
  DEPT.M                               : Depth curve
BS    .MM                              :
GR    .UR/H                            : 
NGL   .C.U                             :
LL3   .OHMM                            : 
C1    .MM                              : 
C2    .MM                              : 
CALI  .MM                              :
MLL   .OHMM                            : 
CILR  .MMHO                            : 
RHOB  .G/C3                            : 
GZ3   .OHMM                            : 
GZ3B  .OHMM                            : 
SP    .MV                              : 
DT    .US/M                            :
~ASCII Log Data
# ...
   406.90     215.90       7.25       1.08       7.32     226.47     230.11     228.29       4.62     153.07       1.62       6.79       6.17     179.86     484.12
   407.00     215.90       7.09       1.05       6.85     224.90     227.22     226.06       3.32     145.46       1.56       6.39       5.75     177.95     480.70
   407.10     215.90       7.69       1.04       5.35     223.91     223.66     223.78       2.07     138.31       1.58       5.84       5.35     175.93     475.37
   407.20     215.90       8.46       1.08       4.47     220.75     217.51     219.13       1.62     134.26       1.64       5.21       4.91     174.17     470.04
   407.30     215.90       9.03       1.09       4.05     218.87     217.32     218.09       1.39     134.18       1.69       4.65       4.57     172.60     463.62
   407.40     215.90       9.18       1.07       3.92     215.06     216.38     215.72       1.52     138.68       1.77       4.18       4.34     170.99     457.21
   407.50     215.90       9.39       1.08       3.85     214.28     217.14     215.71       1.89     144.50       1.83       3.85       4.21     169.14     449.97
   407.60     215.90       9.31       1.07       3.74     214.13     215.44     214.78       1.34     150.02       1.83       3.67       4.18     167.28     442.74
   407.70     215.90       9.43       1.13       3.65     216.67     215.23     215.95       1.19     154.70       1.83       3.58       4.23     165.53     434.94
   407.80     215.90       9.50       1.14       3.71     223.24     212.00     217.62       1.26     158.81       1.84       3.53       4.30     163.95     427.13
   407.90     215.90       9.35       1.15       3.95     229.29     217.40     223.35       1.39     161.15       1.83       3.53       4.37     162.66     419.19
   408.00     215.90       9.66       1.17       4.36     243.12     233.90     238.51       1.57     160.63       1.82       3.52       4.30     161.74     411.24
   408.10     215.90       9.45       1.18       4.74     263.67     260.95     262.31       1.64     156.51       1.84       3.47       4.14     161.10     406.13
   408.20     215.90       9.18       1.20       4.98     296.89     300.33     298.61       1.29     149.32       1.83       3.36       3.89     160.60     401.02
   408.30     215.90       8.77       1.23       4.96     320.49     337.86     329.18       1.35     140.75       1.83       3.27       3.67     160.26     399.61
   408.40     215.90       8.49       1.23       4.91     335.13     361.14     348.13       1.41     134.42       1.79       3.18       3.53     160.21     398.20
   408.50     215.90       8.23       1.25       4.68     338.26     348.84     343.55       1.07     131.77       1.77       3.10       3.46     160.51     400.11
   408.60     215.90       8.19       1.25       4.66     318.26     326.03     322.14       1.10     132.87       1.75       3.11       3.46     161.13     402.01
   408.70     215.90       8.57       1.28       4.72     288.54     312.52     300.53       1.22     135.60       1.74       3.20       3.49     162.36     403.38
   408.80     215.90       8.83       1.27       4.63     258.01     325.45     291.73       1.25     137.77       1.75       3.28       3.52     164.01     404.75
   408.90     215.90       8.88       1.26       4.50     250.17     336.76     293.47       1.34     138.25       1.78       3.45       3.57     165.93     404.15
   409.00     215.90       9.08       1.26       4.35     250.67     322.30     286.48       1.44     137.66       1.80       3.66       3.69     167.92     403.56
   409.10     215.90       9.15       1.27       4.24     241.99     305.13     273.56       1.35     137.53       1.79       3.96       3.92     169.90     402.34
   409.20     215.90       8.97       1.18       4.28     238.89     278.01     258.45       1.27     138.81       1.77       4.42       4.30     171.81     401.12
   409.30     215.90       9.10       1.21       4.61     239.37     262.33     250.85       1.34     140.71       1.76       4.96       4.77     173.58     401.73
   409.40     215.90       9.18       1.22       5.25     240.71     239.78     240.25       1.72     142.29       1.74       5.45       5.10     175.14     402.33
   409.50     215.90       9.24       1.25       6.31     239.33     227.95     233.64       2.41     141.82       1.73       5.89       5.36     176.61     406.99
   409.60     215.90       9.05       1.25       7.31     236.16     226.08     231.12       2.11     138.48       1.70       6.28       5.53     177.89     411.65
   409.70     215.90       9.28       1.24       7.76     239.43     226.15     232.79       1.81     133.60       1.67       6.40       5.48     178.94     420.30
   409.80     215.90       9.10       1.24       7.78     230.59     231.24     230.91       2.06     128.90       1.64       6.36       5.25     179.36     428.94
   409.90     215.90       9.13       1.22       7.56     217.45     242.56     230.01       2.32     125.28       1.61       6.29       4.83     179.35     441.36
   410.00     215.90       9.06       1.26       7.19     210.17     261.74     235.96       2.09     123.55       1.58       5.83       4.38     179.08     453.78
   410.10     215.90       9.01       1.24       6.69     218.82     283.53     251.18       1.81     124.03       1.58       5.49       3.94     178.61     468.49
   410.20     215.90       9.67       1.21       6.03     227.98     288.64     258.31       1.81     126.88       1.62       5.24       3.65     178.08     483.21
   410.30     215.90       9.57       1.22       5.47     226.54     274.79     250.67       1.61     130.76       1.66       5.04       3.35     177.64     497.91
   410.40     215.90       9.35       1.27       4.95     216.86     251.52     234.19       1.54     135.31       1.68       4.87       3.13     177.36     512.61
   410.50     215.90       9.52       1.28       4.66     215.47     237.79     226.63       1.17     139.62       1.70       4.70       2.96     177.29     524.70
   410.60     215.90       9.69       1.28       4.50     224.98     236.54     230.76       1.13     143.05       1.76       4.59       2.89     177.39     536.78
   410.70     215.90       9.70       1.27       4.35     236.15     233.88     235.01       1.27     145.93       1.81       4.56       2.95     177.63     544.65
   410.80     215.90       9.16       1.23       4.23     240.44     228.11     234.27       1.22     148.94       1.84       4.57       3.08     178.03     552.52
   410.90     215.90       9.06       1.19       4.19     242.83     226.59     234.71       1.52     151.62       1.88       4.62       3.24     178.68     555.75
   411.00     215.90       8.36       1.17       4.29     244.07     233.64     238.86       1.72     153.65       1.90       4.69       3.43     179.54     558.97
   411.10     215.90       8.28       1.15       4.24     242.25     236.78     239.52       1.95     153.51       1.91       4.61       3.51     180.48     557.25
   411.20     215.90       8.39       1.17       4.24     239.17     241.49     240.33       3.22     152.68       1.89       4.46       3.49     181.44     555.52
   411.30     215.90       8.48       1.09       4.38     236.00     245.96     240.98       2.26     149.94       1.84       4.32       3.46     182.29     548.53
   411.40     215.90       8.75       1.08       4.51     236.37     255.26     245.81       1.84     148.96       1.77       4.11       3.43     182.89     541.55
   411.50     215.90       9.44       1.17       4.49     233.17     258.26     245.71       1.98     148.16       1.72       3.96       3.42     183.20     528.39
   411.60     215.90       9.43       1.17       4.55     235.63     260.70     248.17       2.06     148.02       1.74       3.93       3.44     183.25     515.24
   411.70     215.90       9.53       1.16       4.63     237.74     264.45     251.09       2.09     148.03       1.78       4.05       3.55     182.88     504.48
