~Version information
  VERS.                            1.20: CWLS LAS  -  VERSION 1.20
  WRAP.                              NO: One line per depth step
~Well information
# MNEM.UNIT
# ====.================================:===================
  STRT.M                           0.20: First depth in file
  STOP.M                         936.80: Last depth in file
  STEP.M                           0.10: Depth increment
  NULL.                           -9999: Null values
  COMP.                         COMPANY:
  WELL.                            WELL: 332
  FLD .                           FIELD: Karatobe
  CNTY.                          COUNTY: 
  STAT.                           STATE: 
  DATE.                        LOG DATE: 26-27.07.2007
  SRVC.                 SERVICE COMPANY: 
  UWI.           Unique Well Identifier: 
~Parametr information block
# MNEM.UNIT
# ====.================================:===================
~Other information
# ------------------------- REMARKS  AREA ------------------
~Curve information
# MNEM.UNIT
# ====.================================:===================
  DEPT.M                               : Depth curve
BS    .MM                              :
GR    .UR/H                            : 
NGL   .C.U                             :
LL3   .OHMM                            : 
C1    .MM                              : 
C2    .MM                              : 
CALI  .MM                              :
MLL   .OHMM                            : 
CILR  .MMHO                            : 
RHOB  .G/C3                            : 
GZ3   .OHMM                            : 
GZ3B  .OHMM                            : 
SP    .MV                              : 
DT    .US/M                            :
~ASCII Log Data
# ...
   495.10     215.90       9.00       1.27       4.07     207.91     212.06     209.99       2.05     162.51       2.26       2.91       3.41     177.78     427.53
   495.20     215.90       9.41       1.27       4.11     207.61     211.64     209.63       2.18     160.07       2.28       3.01       3.57     178.00     417.72
   495.30     215.90       9.75       1.26       4.10     207.61     210.95     209.28       2.34     158.02       2.30       3.15       3.79     178.52     409.22
   495.40     215.90       9.65       1.22       4.04     208.20     210.60     209.40       2.29     157.58       2.34       3.37       4.09     179.37     400.72
   495.50     215.90       9.36       1.26       4.08     209.75     210.33     210.04       2.40     158.35       2.36       3.68       4.45     180.53     395.87
   495.60     215.90       9.36       1.31       4.30     211.70     210.40     211.05       2.47     158.54       2.41       4.11       4.94     181.90     391.01
   495.70     215.90       8.99       1.32       4.84     213.16     210.34     211.75       2.65     161.87       2.43       4.57       5.40     183.38     390.65
   495.80     215.90       8.55       1.29       6.13     213.93     210.13     212.03       3.12     170.77       2.45       5.03       5.70     184.88     390.29
   495.90     215.90       8.25       1.30       9.90     213.84     209.79     211.82      14.86     177.37       2.45       5.37       5.72     186.34     395.51
   496.00     215.90       7.97       1.33      15.78     212.19     209.49     210.84      24.74     168.52       2.41       5.50       5.51     187.54     400.74
   496.10     215.90       7.92       1.36      13.06     210.36     209.32     209.84      40.47     154.18       2.36       5.30       5.08     188.42     409.08
   496.20     215.90       8.09       1.33       9.29     208.61     209.33     208.97      26.82     145.95       2.28       4.93       4.56     189.23     417.41
   496.30     215.90       8.54       1.31       5.78     208.57     209.59     209.08       3.12     148.47       2.20       4.42       4.16     189.97     425.99
   496.40     215.90       9.24       1.29       4.42     208.59     209.70     209.14       2.40     151.54       2.17       3.93       3.76     190.31     434.58
   496.50     215.90       9.48       1.26       4.25     208.92     209.69     209.31       2.33     155.72       2.15       3.60       3.48     190.21     439.12
   496.60     215.90       9.81       1.30       4.31     209.39     209.78     209.58       2.21     167.14       2.12       3.38       3.37     189.68     443.67
   496.70     215.90       9.91       1.28       4.39     210.11     211.08     210.59       2.61     182.86       2.06       3.21       3.28     188.72     443.85
   496.80     215.90       9.68       1.27       4.36     212.24     214.00     213.12       2.44     193.55       2.01       3.09       3.22     187.50     444.02
   496.90     215.90       9.47       1.25       4.39     217.15     221.52     219.34       2.35     197.47       1.97       3.04       3.19     186.02     441.94
   497.00     215.90       9.13       1.23       4.50     219.11     229.39     224.25       2.48     197.98       1.91       3.02       3.23     184.34     439.85
   497.10     215.90       8.89       1.19       4.46     218.74     231.06     224.90       3.02     198.23       1.84       3.04       3.32     182.80     439.44
   497.20     215.90       8.55       1.13       4.51     214.54     224.61     219.58       2.06     200.89       1.76       3.08       3.38     181.32     439.02
   497.30     215.90       8.14       1.11       4.91     216.35     217.46     216.90       2.40     199.74       1.77       3.12       3.36     179.69     441.39
   497.40     215.90       8.07       1.11       5.27     215.38     215.73     215.56       3.98     200.43       1.86       3.14       3.29     177.77     443.75
   497.50     215.90       7.94       1.17       5.23     214.22     213.42     213.82       4.47     198.53       2.01       3.09       3.17     175.85     448.51
   497.60     215.90       8.12       1.20       4.70     209.74     210.71     210.22       2.91     195.28       2.13       3.04       3.01     174.08     453.27
   497.70     215.90       8.58       1.23       4.14     208.61     207.21     207.91       2.66     189.47       2.18       2.93       2.89     172.49     459.85
   497.80     215.90       8.76       1.30       3.92     208.55     207.36     207.96       2.14     179.75       2.18       2.86       2.80     171.24     466.43
   497.90     215.90       9.00       1.28       3.91     208.42     207.29     207.86       2.24     176.44       2.19       2.85       2.79     170.21     475.28
   498.00     215.90       9.15       1.31       3.77     208.38     207.56     207.97       2.19     173.02       2.19       2.91       2.85     169.51     484.14
   498.10     215.90       9.08       1.33       3.55     208.45     207.88     208.17       1.78     178.82       2.19       3.03       2.99     169.12     495.91
   498.20     215.90       8.85       1.33       3.52     208.54     208.17     208.35       1.79     183.65       2.21       3.18       3.22     168.88     507.69
   498.30     215.90       8.76       1.33       3.68     208.74     208.18     208.46       1.82     193.30       2.23       3.34       3.48     168.89     521.41
   498.40     215.90       8.88       1.30       3.94     209.07     208.32     208.70       2.06     196.86       2.22       3.47       3.69     169.20     535.14
   498.50     215.90       8.95       1.29       4.06     209.50     208.51     209.01       2.30     199.97       2.22       3.57       3.85     169.94     548.53
   498.60     215.90       9.10       1.22       4.31     210.40     208.65     209.53       2.53     197.19       2.23       3.64       3.93     171.11     561.92
   498.70     215.90       9.11       1.19       4.36     211.25     208.72     209.98       2.51     194.81       2.22       3.70       3.95     172.54     572.78
   498.80     215.90       8.53       1.25       4.48     211.98     208.85     210.42       2.58     190.19       2.20       3.71       3.92     174.08     583.63
   498.90     215.90       8.96       1.23       4.74     213.34     211.40     212.37       2.56     182.66       2.17       3.65       3.83     175.61     591.84
   499.00     215.90       8.92       1.21       4.97     220.81     222.40     221.60       2.78     175.18       2.15       3.57       3.66     177.15     600.04
   499.10     215.90       9.24       1.22       4.93     235.99     241.57     238.78       3.06     170.33       2.11       3.44       3.47     178.52     606.35
   499.20     215.90       9.38       1.20       4.57     246.82     252.49     249.66       2.27     171.86       2.06       3.26       3.28     179.75     612.66
   499.30     215.90       9.59       1.23       4.25     249.93     254.08     252.01       1.90     172.43       2.04       3.14       3.16     180.92     616.96
   499.40     215.90       9.67       1.22       4.20     241.07     244.18     242.63       2.13     172.49       2.04       3.09       3.12     182.02     621.26
   499.50     215.90       9.73       1.20       4.28     230.88     235.64     233.26       2.44     175.85       2.05       3.14       3.19     182.85     622.27
   499.60     215.90       9.60       1.21       4.33     219.36     225.59     222.48       2.39     180.80       2.09       3.28       3.32     183.30     623.29
   499.70     215.90       9.52       1.24       4.36     213.12     219.91     216.52       2.13     180.19       2.12       3.43       3.47     183.46     620.23
   499.80     215.90       9.19       1.26       4.41     212.02     218.53     215.27       2.30     181.72       2.15       3.53       3.60     183.32     617.17
   499.90     215.90       9.48       1.30       4.44     214.93     221.70     218.32       2.39     182.89       2.13       3.58       3.67     182.83     611.98
