~Version information
  VERS.                            1.20: CWLS LAS  -  VERSION 1.20
  WRAP.                              NO: One line per depth step
~Well information
# MNEM.UNIT
# ====.================================:===================
  STRT.M                           0.20: First depth in file
  STOP.M                         936.80: Last depth in file
  STEP.M                           0.10: Depth increment
  NULL.                           -9999: Null values
  COMP.                         COMPANY:
  WELL.                            WELL: 332
  FLD .                           FIELD: Karatobe
  CNTY.                          COUNTY: 
  STAT.                           STATE: 
  DATE.                        LOG DATE: 26-27.07.2007
  SRVC.                 SERVICE COMPANY: 
  UWI.           Unique Well Identifier: 
~Parametr information block
# MNEM.UNIT
# ====.================================:===================
~Other information
# ------------------------- REMARKS  AREA ------------------
~Curve information
# MNEM.UNIT
# ====.================================:===================
  DEPT.M                               : Depth curve
BS    .MM                              :
GR    .UR/H                            : 
NGL   .C.U                             :
LL3   .OHMM                            : 
C1    .MM                              : 
C2    .MM                              : 
CALI  .MM                              :
MLL   .OHMM                            : 
CILR  .MMHO                            : 
RHOB  .G/C3                            : 
GZ3   .OHMM                            : 
GZ3B  .OHMM                            : 
SP    .MV                              : 
DT    .US/M                            :
~ASCII Log Data
# ...
   769.50     215.90       1.68       4.43    1444.41     211.20     208.16     209.68     479.30      51.58       2.88      95.05      70.13      95.26     172.83
   769.60     215.90       1.52       4.37     772.72     210.47     208.24     209.36     691.65      51.48       2.89      96.30      69.74      93.72     173.86
   769.70     215.90       1.65       4.21     659.53     210.45     208.19     209.32     635.03      51.97       2.88      96.68      69.35      92.25     174.90
   769.80     215.90       1.78       4.13     777.16     210.45     208.12     209.29     686.94      50.42       2.89      96.70      68.99      90.89     175.94
   769.90     215.90       1.75       4.02     709.39     210.60     208.22     209.41     447.81      48.93       2.89      96.48      68.80      89.73     177.12
   770.00     215.90       1.72       3.91     518.07     210.67     208.31     209.49     123.81      47.86       2.87      95.89      68.81      88.88     178.30
   770.10     215.90       1.78       3.77     346.74     210.83     208.40     209.62      53.73      47.26       2.84      95.08      69.01      88.30     179.88
   770.20     215.90       2.02       3.63     246.18     210.69     208.34     209.52     268.66      47.05       2.82      93.92      69.21      88.11     181.47
   770.30     215.90       2.26       3.48     194.55     210.67     208.38     209.52     643.19      46.48       2.81      92.29      69.35      88.29     183.56
   770.40     215.90       2.69       3.35     221.25     210.86     208.35     209.60     879.81      46.44       2.81      90.65      69.56      88.88     185.65
   770.50     215.90       2.80       3.28     291.46     211.21     208.41     209.81      32.12      45.61       2.82      88.90      70.79      89.76     187.97
   770.60     215.90       3.03       3.26     297.58     211.86     208.68     210.27      18.08      46.83       2.85      87.47      72.12      90.79     190.30
   770.70     215.90       3.31       3.35     191.29     212.31     208.65     210.48      55.63      48.15       2.87      86.54      73.38      91.82     192.25
   770.80     215.90       3.51       3.38     167.85     212.54     208.68     210.61     857.61      48.93       2.87      86.24      74.41      92.96     194.20
   770.90     215.90       3.39       3.39     260.21     211.72     208.52     210.12     866.66      47.77       2.90      86.08      74.86      94.36     195.37
   771.00     215.90       3.23       3.54     641.56     210.95     208.78     209.87     827.80      45.89       2.92      86.54      74.57      95.92     196.53
   771.10     215.90       3.01       3.60    1561.18     210.47     209.00     209.73     692.11      45.92       2.92      87.14      73.87      97.45     196.93
   771.20     215.90       2.92       3.71    1441.39     210.41     209.09     209.75     867.97      45.23       2.89      87.83      72.99      98.93     197.33
   771.30     215.90       2.88       3.87    1252.96     210.47     209.04     209.76     867.43      45.97       2.91      88.61      72.09     100.18     197.29
   771.40     215.90       2.71       3.90    1614.50     210.53     208.94     209.74     865.07      46.41       2.91      89.23      71.07     101.14     197.26
   771.50     215.90       2.27       4.02    3444.96     210.81     208.91     209.86     864.60      49.07       2.88      89.81      70.02     101.76     196.89
   771.60     215.90       1.94       4.02    4751.14     211.00     209.21     210.10     854.60      51.35       2.85      90.49      68.96     102.18     196.52
   771.70     215.90       1.80       4.04    4853.51     211.13     209.22     210.17     677.18      52.54       2.87      91.14      68.10     102.57     195.48
   771.80     215.90       1.82       4.05    4118.31     210.96     208.93     209.95     548.80      52.02       2.90      91.73      67.23     102.95     194.45
   771.90     215.90       1.89       3.97    2953.56     210.63     208.46     209.55     465.05      52.96       2.90      92.23      66.01     103.23     192.29
   772.00     215.90       1.88       3.96    2270.50     210.46     208.53     209.49     743.49      52.86       2.95      92.75      65.07     103.28     190.13
   772.10     215.90       1.76       3.93    1636.69     210.61     208.93     209.77     840.93      53.88       2.94      93.17      64.18     103.16     186.87
   772.20     215.90       1.80       3.93    1349.81     210.85     208.69     209.77     415.21      50.90       2.90      93.43      63.47     102.99     183.60
   772.30     215.90       1.80       3.83    1213.28     211.06     208.13     209.60     219.34      48.85       2.91      93.62      62.79     102.83     179.85
   772.40     215.90       1.68       3.75     874.97     211.20     207.83     209.52      81.56      45.32       2.92      93.56      62.37     102.84     176.11
   772.50     215.90       1.74       3.71     585.94     211.37     207.90     209.64     143.73      45.91       2.95      93.40      62.26     103.13     172.80
   772.60     215.90       1.82       3.65     348.87     211.44     208.30     209.87     214.91      46.05       2.96      93.28      62.19     103.72     169.49
   772.70     215.90       1.86       3.64     328.29     211.33     208.35     209.84     221.02      46.79       2.94      93.11      62.00     104.56     167.25
   772.80     215.90       1.82       3.59     378.16     211.15     208.56     209.86     192.32      45.71       2.93      92.90      61.53     105.49     165.02
   772.90     215.90       1.74       3.56     484.50     211.01     209.00     210.00     363.88      45.40       2.91      92.65      60.60     106.48     163.96
   773.00     215.90       1.55       3.57     569.40     211.18     209.49     210.34     799.03      45.40       2.93      92.18      59.49     107.47     162.89
   773.10     215.90       1.49       3.62     691.14     211.42     209.91     210.66     760.55      45.67       2.94      91.55      58.58     108.45     162.65
   773.20     215.90       1.62       3.59     938.54     212.21     209.80     211.01     391.03      46.14       2.93      90.60      56.89     109.28     162.41
   773.30     215.90       1.52       3.62    1100.76     213.30     209.62     211.46      65.66      45.24       2.93      89.59      56.10     110.13     162.59
   773.40     215.90       1.46       3.67     682.93     214.32     209.58     211.95      99.98      45.26       2.93      88.68      55.68     110.96     162.77
   773.50     215.90       1.59       3.67     363.75     214.90     209.54     212.22     212.72      45.86       2.92      88.21      55.61     111.72     163.17
   773.60     215.90       1.63       3.62     286.46     214.82     209.51     212.17      49.52      46.79       2.93      87.75      55.78     112.03     163.57
   773.70     215.90       1.67       3.63     280.55     214.73     209.51     212.12     110.85      46.32       2.94      87.43      56.01     111.95     164.26
   773.80     215.90       1.75       3.45     277.82     214.31     209.79     212.05     155.19      45.21       2.95      87.23      56.10     111.68     164.96
   773.90     215.90       1.68       3.42     271.25     213.85     210.13     211.99     207.43      47.21       2.96      86.99      56.05     111.35     166.08
   774.00     215.90       1.65       3.48     319.63     212.93     210.12     211.52     183.30      48.18       2.96      86.63      55.99     110.90     167.21
   774.10     215.90       1.57       3.57     392.15     212.10     209.98     211.04      99.75      48.58       2.97      86.26      56.03     110.23     168.82
   774.20     215.90       1.54       3.53     388.15     211.60     209.73     210.67     138.01      47.36       2.96      85.95      56.11     109.23     170.43
   774.30     215.90       1.55       3.45     324.07     211.65     209.97     210.81      98.61      46.70       2.96      85.68      56.28     108.16     172.35
