~Version information
  VERS.                            1.20: CWLS LAS  -  VERSION 1.20
  WRAP.                              NO: One line per depth step
~Well information
# MNEM.UNIT
# ====.================================:===================
  STRT.M                           0.20: First depth in file
  STOP.M                         936.80: Last depth in file
  STEP.M                           0.10: Depth increment
  NULL.                           -9999: Null values
  COMP.                         COMPANY:
  WELL.                            WELL: 332
  FLD .                           FIELD: Karatobe
  CNTY.                          COUNTY: 
  STAT.                           STATE: 
  DATE.                        LOG DATE: 26-27.07.2007
  SRVC.                 SERVICE COMPANY: 
  UWI.           Unique Well Identifier: 
~Parametr information block
# MNEM.UNIT
# ====.================================:===================
~Other information
# ------------------------- REMARKS  AREA ------------------
~Curve information
# MNEM.UNIT
# ====.================================:===================
  DEPT.M                               : Depth curve
BS    .MM                              :
GR    .UR/H                            : 
NGL   .C.U                             :
LL3   .OHMM                            : 
C1    .MM                              : 
C2    .MM                              : 
CALI  .MM                              :
MLL   .OHMM                            : 
CILR  .MMHO                            : 
RHOB  .G/C3                            : 
GZ3   .OHMM                            : 
GZ3B  .OHMM                            : 
SP    .MV                              : 
DT    .US/M                            :
~ASCII Log Data
# ...
   269.70     215.90       9.09       1.18       5.23     223.34     227.55     225.45       2.35     132.65       2.04       6.01       4.64     195.38     591.16
   269.80     215.90       8.93       1.15       5.11     224.60     229.62     227.11       2.32     137.43       2.04       5.87       4.69     195.82     600.76
   269.90     215.90       9.32       1.14       5.05     227.71     232.10     229.91       2.23     139.56       2.06       5.73       4.74     195.47     610.74
   270.00     215.90       9.44       1.12       5.08     226.17     235.28     230.72       2.34     138.52       2.05       5.61       4.78     194.82     620.71
   270.10     215.90       9.46       1.14       5.17     221.99     238.58     230.28       2.41     136.21       2.05       5.49       4.82     193.74     626.03
   270.20     215.90       9.64       1.13       5.35     219.22     242.06     230.64       2.31     139.58       2.05       5.45       4.87     191.91     631.36
   270.30     215.90       9.50       1.19       5.38     220.46     245.04     232.75       2.27     137.15       2.06       5.44       4.91     189.78     630.35
   270.40     215.90       9.34       1.17       5.34     223.54     239.03     231.28       2.22     140.38       2.05       5.43       4.93     187.64     629.35
   270.50     215.90       9.50       1.16       5.30     223.44     231.50     227.47       2.18     139.20       2.05       5.35       4.91     185.62     623.46
   270.60     215.90       9.21       1.15       5.03     225.91     228.63     227.27       2.07     147.03       2.02       5.22       4.82     183.50     617.57
   270.70     215.90       9.26       1.18       4.91     234.21     239.27     236.74       1.74     150.80       2.01       5.06       4.71     181.19     610.95
   270.80     215.90       9.21       1.13       4.77     246.14     245.96     246.05       1.63     152.54       2.00       4.89       4.72     178.73     604.34
   270.90     215.90       9.29       1.14       4.70     253.05     249.79     251.42       1.68     154.55       2.00       4.86       4.83     176.41     599.52
   271.00     215.90       8.91       1.18       4.75     249.32     249.45     249.38       1.82     156.52       1.99       4.95       5.09     174.86     594.71
   271.10     215.90       8.63       1.14       4.97     235.96     248.64     242.30       1.77     161.53       2.01       5.23       5.34     173.70     592.27
   271.20     215.90       8.58       1.20       5.42     226.34     243.23     234.79       1.99     161.10       2.02       5.48       5.49     172.99     589.84
   271.30     215.90       8.55       1.24       6.00     225.73     236.22     230.97       1.99     157.79       2.08       5.59       5.44     173.03     588.75
   271.40     215.90       8.30       1.21       6.21     240.92     239.68     240.30       2.23     149.24       2.09       5.53       5.07     173.47     587.66
   271.50     215.90       8.15       1.18       5.93     265.78     253.34     259.56       2.21     140.83       2.08       5.21       4.69     174.00     586.72
   271.60     215.90       7.89       1.16       5.59     293.13     271.66     282.40       2.34     135.87       2.05       4.68       4.32     174.43     585.78
   271.70     215.90       7.71       1.17       5.43     305.96     290.64     298.30       2.35     133.70       1.98       4.33       3.99     174.66     584.16
   271.80     215.90       7.67       1.19       5.40     305.26     302.27     303.77       2.12     134.35       1.94       4.12       3.80     174.84     582.55
   271.90     215.90       7.82       1.22       5.34     298.34     295.73     297.04       1.59     137.59       1.91       4.07       3.72     175.36     579.96
   272.00     215.90       7.84       1.24       5.24     298.93     283.42     291.18       1.46     141.36       1.89       4.07       3.72     176.02     577.37
   272.10     215.90       7.75       1.25       5.19     300.29     276.17     288.23       1.65     147.41       1.88       4.12       3.78     176.66     576.22
   272.20     215.90       7.58       1.21       5.17     305.03     280.49     292.76       1.59     150.17       1.86       4.22       3.88     177.26     575.07
   272.30     215.90       7.42       1.24       5.15     302.83     278.13     290.48       1.64     156.12       1.84       4.40       4.06     177.84     579.01
   272.40     215.90       7.67       1.25       5.16     288.79     263.45     276.12       1.67     155.77       1.82       4.56       4.24     178.29     582.96
   272.50     215.90       7.60       1.24       5.22     271.99     250.89     261.44       1.96     152.44       1.83       4.76       4.42     178.52     587.79
   272.60     215.90       7.55       1.24       5.31     260.40     241.00     250.70       1.92     147.47       1.85       4.93       4.58     178.60     592.62
   272.70     215.90       7.72       1.27       5.31     263.50     238.75     251.12       1.76     146.61       1.91       5.01       4.66     178.63     605.81
   272.80     215.90       7.87       1.24       5.26     267.62     236.30     251.96       1.84     145.35       1.97       4.96       4.64     178.67     618.99
   272.90     215.90       8.09       1.21       5.22     267.76     242.17     254.96       1.95     140.64       2.01       4.89       4.60     178.63     635.12
   273.00     215.90       8.32       1.25       5.10     267.72     249.55     258.64       1.84     136.07       2.02       4.82       4.65     178.45     651.26
   273.10     215.90       8.28       1.21       4.94     257.01     246.69     251.85       1.79     136.18       2.03       4.85       4.77     178.29     671.40
   273.20     215.90       8.16       1.21       4.91     247.92     239.38     243.65       1.85     138.24       2.04       4.98       5.01     178.11     691.54
   273.30     215.90       8.20       1.23       5.12     233.79     230.38     232.08       2.43     140.20       2.06       5.23       5.28     177.68     701.64
   273.40     215.90       8.35       1.24       5.58     227.37     231.30     229.33       4.91     141.40       2.08       5.48       5.46     177.14     711.73
   273.50     215.90       8.57       1.20       6.14     223.79     231.89     227.84       4.22     141.61       2.11       5.67       5.50     176.70     711.73
   273.60     215.90       8.29       1.15       6.27     226.36     233.18     229.77       2.58     135.06       2.13       5.72       5.42     176.51     711.74
   273.70     215.90       8.24       1.17       5.66     227.36     234.32     230.84       2.15     127.25       2.12       5.62       5.28     176.63     703.08
   273.80     215.90       8.62       1.18       5.09     227.73     235.15     231.44       2.08     120.23       2.11       5.39       5.18     177.10     694.42
   273.90     215.90       8.56       1.19       5.03     225.86     235.00     230.43       2.29     121.44       2.09       5.20       5.07     177.84     679.93
   274.00     215.90       8.55       1.19       5.07     225.54     234.44     229.99       2.35     122.63       2.08       5.02       4.97     178.67     665.44
   274.10     215.90       8.51       1.20       5.09     224.78     233.56     229.17       2.23     124.06       2.07       4.86       4.82     179.68     647.48
   274.20     215.90       8.57       1.18       4.96     224.96     232.84     228.90       2.23     123.64       2.09       4.75       4.73     181.02     629.52
   274.30     215.90       8.67       1.22       4.89     225.13     231.05     228.09       2.29     125.13       2.09       4.65       4.72     182.51     612.08
   274.40     215.90       8.87       1.19       4.95     226.18     231.26     228.72       2.33     125.38       2.09       4.54       4.76     184.28     594.63
   274.50     215.90       8.77       1.20       5.07     226.64     233.48     230.06       2.25     125.54       2.10       4.45       4.82     185.96     582.23
