~Version information
  VERS.                            1.20: CWLS LAS  -  VERSION 1.20
  WRAP.                              NO: One line per depth step
~Well information
# MNEM.UNIT
# ====.================================:===================
  STRT.M                           0.20: First depth in file
  STOP.M                         936.80: Last depth in file
  STEP.M                           0.10: Depth increment
  NULL.                           -9999: Null values
  COMP.                         COMPANY:
  WELL.                            WELL: 332
  FLD .                           FIELD: Karatobe
  CNTY.                          COUNTY: 
  STAT.                           STATE: 
  DATE.                        LOG DATE: 26-27.07.2007
  SRVC.                 SERVICE COMPANY: 
  UWI.           Unique Well Identifier: 
~Parametr information block
# MNEM.UNIT
# ====.================================:===================
~Other information
# ------------------------- REMARKS  AREA ------------------
~Curve information
# MNEM.UNIT
# ====.================================:===================
  DEPT.M                               : Depth curve
BS    .MM                              :
GR    .UR/H                            : 
NGL   .C.U                             :
LL3   .OHMM                            : 
C1    .MM                              : 
C2    .MM                              : 
CALI  .MM                              :
MLL   .OHMM                            : 
CILR  .MMHO                            : 
RHOB  .G/C3                            : 
GZ3   .OHMM                            : 
GZ3B  .OHMM                            : 
SP    .MV                              : 
DT    .US/M                            :
~ASCII Log Data
# ...
   357.90     215.90      10.29       1.33      11.21     212.40     220.78     216.59       4.02     102.61       2.05       6.81       5.99     158.90     584.85
   358.00     215.90      10.46       1.31       9.45     213.28     222.31     217.79       3.65     106.23       2.05       6.88       5.65     158.80     588.60
   358.10     215.90      10.70       1.33       7.27     216.19     223.26     219.72       3.52     108.06       2.07       6.61       5.37     159.12     589.47
   358.20     215.90      10.38       1.30       5.43     218.80     223.45     221.13       2.49     101.46       2.07       6.23       5.20     159.79     590.34
   358.30     215.90      10.16       1.24       4.75     218.58     222.09     220.33       2.17     104.63       2.06       5.85       5.18     160.92     587.88
   358.40     215.90      10.23       1.25       4.67     215.87     222.35     219.11       2.41     104.22       2.06       5.60       5.36     162.36     585.42
   358.50     215.90      10.22       1.30       4.87     213.55     222.55     218.05       2.56     114.90       2.07       5.68       5.64     163.94     583.38
   358.60     215.90      10.02       1.31       5.17     211.06     221.65     216.35       2.93     121.47       2.04       5.95       6.00     165.41     581.34
   358.70     215.90       9.97       1.31       5.48     210.97     220.57     215.77       3.15     128.68       2.04       6.47       6.72     166.71     581.66
   358.80     215.90       9.93       1.34       5.92     211.55     219.39     215.47       2.83     131.21       2.05       7.02       7.23     167.85     581.99
   358.90     215.90       9.74       1.35       7.05     212.42     218.79     215.60       3.07     122.88       2.05       7.68       7.66     168.81     586.97
   359.00     215.90       9.41       1.34       8.89     212.09     217.82     214.96       3.91     114.08       2.06       8.39       7.84     169.86     591.96
   359.10     215.90       9.22       1.36      11.85     210.72     215.60     213.16       6.30     107.05       2.06       9.09       7.81     170.91     599.35
   359.20     215.90       9.53       1.37      14.37     209.97     213.40     211.69       9.40     106.54       2.06       9.59       7.53     171.79     606.75
   359.30     215.90       9.43       1.39      15.38     208.91     214.03     211.47      10.46     108.31       2.08       9.69       6.97     172.58     613.95
   359.40     215.90       9.63       1.39      13.43     214.28     219.34     216.81      10.75     107.51       2.11       9.47       6.19     173.17     621.15
   359.50     215.90      10.06       1.38       9.91     227.78     227.76     227.77       9.59     108.02       2.13       8.75       5.41     173.67     625.74
   359.60     215.90      10.43       1.40       7.45     254.21     240.58     247.40       4.79     111.92       2.12       7.78       4.67     174.18     630.34
   359.70     215.90      10.28       1.37       5.74     280.38     257.37     268.87       2.95     121.01       2.10       6.90       4.02     174.74     631.31
   359.80     215.90       9.85       1.30       5.03     294.03     268.89     281.46       1.96     123.79       2.06       6.13       3.67     175.29     632.27
   359.90     215.90       9.42       1.27       4.81     287.53     268.47     278.00       1.70     128.30       2.02       5.61       3.48     175.82     628.99
   360.00     215.90       9.25       1.26       4.82     272.72     262.62     267.67       1.67     131.23       2.00       5.35       3.43     176.29     625.72
   360.10     215.90       9.46       1.22       5.00     266.37     267.11     266.74       1.79     140.02       1.96       5.27       3.47     176.38     617.64
   360.20     215.90       9.43       1.25       5.05     271.10     276.68     273.89       1.89     143.38       1.91       5.21       3.53     176.31     609.56
   360.30     215.90       9.43       1.25       5.00     281.25     284.09     282.67       2.31     144.83       1.90       5.16       3.59     176.29     598.58
   360.40     215.90       9.65       1.32       4.95     282.18     290.69     286.44       2.14     157.23       1.89       5.09       3.66     176.43     587.60
   360.50     215.90       9.31       1.30       4.88     267.02     296.36     281.69       1.94     167.93       1.90       5.03       3.70     176.73     577.41
   360.60     215.90       9.12       1.31       4.89     248.63     301.04     274.84       1.97     179.36       1.90       4.91       3.67     177.12     567.22
   360.70     215.90       9.43       1.29       5.04     243.05     302.08     272.57       2.11     175.19       1.90       4.77       3.53     177.60     560.81
   360.80     215.90       9.42       1.27       5.11     263.59     319.36     291.48       2.67     170.57       1.88       4.65       3.39     178.23     554.41
   360.90     215.90       9.44       1.30       4.89     274.62     340.99     307.80       2.30     171.13       1.87       4.58       3.30     179.06     551.07
   361.00     215.90       8.91       1.33       4.69     283.22     350.23     316.72       1.82     171.52       1.85       4.60       3.25     179.90     547.73
   361.10     215.90       9.35       1.28       4.68     288.81     336.90     312.86       1.55     172.77       1.81       4.74       3.31     180.67     544.67
   361.20     215.90       9.49       1.27       4.69     296.20     320.71     308.46       1.46     169.11       1.79       5.03       3.42     181.32     541.61
   361.30     215.90       9.16       1.30       4.61     290.72     312.83     301.77       1.54     170.14       1.80       5.28       3.56     181.72     536.40
   361.40     215.90       9.55       1.29       4.54     277.13     313.75     295.44       1.56     169.14       1.89       5.44       3.64     181.73     531.18
   361.50     215.90       9.21       1.25       4.57     269.16     322.68     295.92       1.65     165.93       1.95       5.48       3.64     181.23     523.74
   361.60     215.90       9.19       1.26       4.54     266.58     341.62     304.10       1.63     158.93       1.97       5.48       3.60     180.31     516.30
   361.70     215.90       9.07       1.24       4.52     263.18     357.58     310.38       1.55     153.81       1.97       5.27       3.54     179.10     508.10
   361.80     215.90       9.21       1.22       4.60     261.00     361.87     311.43       1.59     148.21       1.96       5.04       3.50     177.59     499.90
   361.90     215.90       9.10       1.23       4.72     268.12     342.08     305.10       1.62     151.39       1.95       4.87       3.55     175.87     493.08
   362.00     215.90       8.78       1.25       4.64     262.45     315.00     288.73       1.65     153.88       1.93       4.76       3.67     174.17     486.26
   362.10     215.90       8.91       1.28       4.55     258.46     291.84     275.15       1.62     155.78       1.91       4.71       3.86     172.66     482.51
   362.20     215.90       9.07       1.27       4.59     243.73     279.56     261.65       1.88     152.83       1.89       4.74       4.11     171.43     478.77
   362.30     215.90       9.20       1.27       4.62     239.56     267.85     253.71       2.18     153.18       1.89       4.82       4.36     170.28     477.83
   362.40     215.90       9.52       1.25       4.60     232.77     247.27     240.02       1.93     152.13       1.89       4.88       4.60     169.15     476.90
   362.50     215.90       9.75       1.25       4.52     229.43     231.39     230.41       1.84     150.36       1.93       4.91       4.82     168.08     477.79
   362.60     215.90      10.03       1.24       4.54     223.36     226.13     224.74       1.82     144.76       1.99       4.89       4.98     167.38     478.68
   362.70     215.90      10.08       1.23       4.61     218.78     230.41     224.59       1.99     141.52       2.03       4.85       5.08     167.22     480.07
