~Version information
  VERS.                            1.20: CWLS LAS  -  VERSION 1.20
  WRAP.                              NO: One line per depth step
~Well information
# MNEM.UNIT
# ====.================================:===================
  STRT.M                           0.20: First depth in file
  STOP.M                         936.80: Last depth in file
  STEP.M                           0.10: Depth increment
  NULL.                           -9999: Null values
  COMP.                         COMPANY:
  WELL.                            WELL: 332
  FLD .                           FIELD: Karatobe
  CNTY.                          COUNTY: 
  STAT.                           STATE: 
  DATE.                        LOG DATE: 26-27.07.2007
  SRVC.                 SERVICE COMPANY: 
  UWI.           Unique Well Identifier: 
~Parametr information block
# MNEM.UNIT
# ====.================================:===================
~Other information
# ------------------------- REMARKS  AREA ------------------
~Curve information
# MNEM.UNIT
# ====.================================:===================
  DEPT.M                               : Depth curve
BS    .MM                              :
GR    .UR/H                            : 
NGL   .C.U                             :
LL3   .OHMM                            : 
C1    .MM                              : 
C2    .MM                              : 
CALI  .MM                              :
MLL   .OHMM                            : 
CILR  .MMHO                            : 
RHOB  .G/C3                            : 
GZ3   .OHMM                            : 
GZ3B  .OHMM                            : 
SP    .MV                              : 
DT    .US/M                            :
~ASCII Log Data
# ...
   588.20     215.90       4.06       2.00       4.03     216.01     214.05     215.03     183.24     242.47       2.51       1.53       2.88     181.19     357.25
   588.30     215.90       3.98       2.16       6.00     215.68     214.25     214.97     147.58     220.35       2.55       1.67       2.84     182.54     341.95
   588.40     215.90       4.09       2.30       7.87     215.51     214.67     215.09     173.40     203.07       2.59       1.75       2.75     183.36     326.64
   588.50     215.90       4.30       2.37       6.52     215.37     214.64     215.01     332.32     188.05       2.56       1.80       2.71     184.02     320.26
   588.60     215.90       4.63       2.30       3.93     215.37     214.30     214.84     187.80     179.86       2.55       1.77       2.77     184.74     313.87
   588.70     215.90       5.20       2.06       2.63     215.78     214.42     215.10      28.32     174.42       2.52       1.70       2.93     185.30     317.63
   588.80     215.90       6.02       1.79       2.23     215.83     214.74     215.29       1.62     178.60       2.49       1.62       3.14     185.55     321.38
   588.90     215.90       6.85       1.64       2.29     215.34     214.63     214.98       1.50     194.57       2.44       1.59       3.42     185.58     332.80
   589.00     215.90       7.98       1.51       2.70     214.43     213.98     214.20       2.32     211.99       2.42       1.63       3.75     185.32     344.23
   589.10     215.90       9.27       1.44       3.17     214.17     213.37     213.77       2.45     230.67       2.39       1.73       4.03     184.71     357.16
   589.20     215.90      10.23       1.41       4.05     214.35     213.00     213.68       2.55     236.38       2.40       1.83       4.09     183.75     370.10
   589.30     215.90      10.33       1.41       5.86     214.53     212.65     213.59       3.24     236.24       2.40       1.90       3.99     182.83     380.39
   589.40     215.90       9.86       1.42       8.18     214.39     212.64     213.51      29.81     231.01       2.40       1.91       3.75     182.16     390.69
   589.50     215.90       9.64       1.44       6.21     214.21     212.59     213.40     115.80     225.86       2.38       1.83       3.33     181.86     397.18
   589.60     215.90       9.93       1.45       4.07     214.11     212.14     213.13       9.33     221.42       2.39       1.67       2.91     181.63     403.66
   589.70     215.90      10.44       1.44       3.42     214.13     211.84     212.98       2.20     218.84       2.38       1.55       2.57     181.34     407.77
   589.80     215.90      10.70       1.44       3.22     214.26     212.06     213.16       2.49     218.13       2.33       1.36       2.29     181.25     411.88
   589.90     215.90      11.16       1.35       3.10     215.54     214.68     215.11       2.42     220.79       2.30       1.26       2.13     181.49     414.27
   590.00     215.90      11.27       1.32       3.05     220.14     223.41     221.78       2.05     226.41       2.26       1.20       2.02     181.94     416.67
   590.10     215.90      10.93       1.37       3.06     228.09     234.24     231.17       2.05     236.57       2.27       1.21       1.93     182.58     417.59
   590.20     215.90      10.97       1.31       3.08     232.16     236.78     234.47       2.14     246.05       2.26       1.26       1.88     183.40     418.52
   590.30     215.90      11.15       1.37       3.07     227.52     229.12     228.32       1.86     253.62       2.27       1.34       1.89     184.40     418.36
   590.40     215.90      11.01       1.42       3.09     219.06     218.78     218.92       1.61     254.51       2.26       1.45       1.92     185.37     418.20
   590.50     215.90      11.40       1.42       3.13     213.32     214.77     214.05       1.71     253.84       2.28       1.57       1.99     186.27     417.57
   590.60     215.90      11.54       1.45       3.21     212.80     214.65     213.73       2.19     253.49       2.29       1.67       2.03     187.04     416.94
   590.70     215.90      11.47       1.43       3.23     212.46     214.68     213.57       2.15     255.90       2.29       1.72       2.07     187.51     417.76
   590.80     215.90      11.20       1.42       3.25     211.83     214.74     213.28       2.32     257.10       2.30       1.74       2.09     187.73     418.57
   590.90     215.90      10.98       1.37       3.27     211.35     214.53     212.94       2.30     253.87       2.34       1.78       2.10     187.73     423.22
   591.00     215.90      10.93       1.41       3.28     211.12     214.48     212.80       2.33     251.44       2.33       1.82       2.10     187.49     427.87
   591.10     215.90      10.90       1.35       3.27     211.25     214.45     212.85       2.31     252.31       2.34       1.88       2.11     187.02     437.16
   591.20     215.90      11.28       1.33       3.26     211.39     214.57     212.98       2.29     253.77       2.33       2.00       2.13     186.22     446.45
   591.30     215.90      11.42       1.33       3.25     211.56     214.78     213.17       2.35     248.19       2.33       2.13       2.15     185.02     457.26
   591.40     215.90      11.26       1.32       3.22     211.78     214.91     213.35       2.34     244.43       2.33       2.25       2.17     183.44     468.06
   591.50     215.90      11.25       1.31       3.19     211.93     214.94     213.44       2.24     244.50       2.33       2.37       2.19     181.72     475.88
   591.60     215.90      11.34       1.33       3.18     212.33     215.30     213.82       1.98     251.89       2.32       2.49       2.21     179.99     483.70
   591.70     215.90      11.16       1.34       3.26     212.77     215.46     214.12       2.09     257.56       2.30       2.56       2.23     178.20     487.84
   591.80     215.90      11.04       1.33       3.32     213.22     215.95     214.59       2.30     263.11       2.30       2.59       2.27     176.52     491.98
   591.90     215.90      10.82       1.30       3.30     213.22     215.83     214.53       2.21     266.75       2.29       2.57       2.30     174.94     496.37
   592.00     215.90      11.16       1.30       3.28     213.19     215.87     214.53       2.20     270.01       2.30       2.55       2.33     173.52     500.76
   592.10     215.90      10.83       1.27       3.30     213.07     216.28     214.68       2.36     268.09       2.29       2.52       2.36     172.27     509.37
   592.20     215.90      11.00       1.25       3.31     212.90     216.86     214.88       2.29     262.02       2.27       2.50       2.38     171.12     517.97
   592.30     215.90      11.02       1.29       3.30     213.04     217.50     215.27       2.29     259.74       2.27       2.44       2.40     170.27     528.11
   592.40     215.90      11.58       1.33       3.29     218.47     220.95     219.71       2.18     258.92       2.26       2.34       2.37     169.90     538.24
   592.50     215.90      11.24       1.32       3.29     227.30     230.41     228.85       2.11     256.57       2.25       2.26       2.31     170.06     541.60
   592.60     215.90      11.23       1.27       3.24     234.52     242.55     238.54       2.14     245.86       2.24       2.22       2.27     170.42     544.96
   592.70     215.90      11.02       1.27       3.08     237.99     252.67     245.33       2.10     239.50       2.21       2.08       2.26     170.83     535.03
   592.80     215.90      10.72       1.26       3.01     236.91     251.05     243.98       1.78     238.93       2.21       2.05       2.29     171.37     525.09
   592.90     215.90      10.79       1.27       3.02     235.06     244.63     239.85       1.75     248.78       2.20       2.07       2.35     172.03     502.05
   593.00     215.90      10.51       1.30       3.06     235.65     235.61     235.63       1.70     253.49       2.16       2.11       2.42     172.79     479.02
