~Version information
  VERS.                            1.20: CWLS LAS  -  VERSION 1.20
  WRAP.                              NO: One line per depth step
~Well information
# MNEM.UNIT
# ====.================================:===================
  STRT.M                           0.20: First depth in file
  STOP.M                         936.80: Last depth in file
  STEP.M                           0.10: Depth increment
  NULL.                           -9999: Null values
  COMP.                         COMPANY:
  WELL.                            WELL: 332
  FLD .                           FIELD: Karatobe
  CNTY.                          COUNTY: 
  STAT.                           STATE: 
  DATE.                        LOG DATE: 26-27.07.2007
  SRVC.                 SERVICE COMPANY: 
  UWI.           Unique Well Identifier: 
~Parametr information block
# MNEM.UNIT
# ====.================================:===================
~Other information
# ------------------------- REMARKS  AREA ------------------
~Curve information
# MNEM.UNIT
# ====.================================:===================
  DEPT.M                               : Depth curve
BS    .MM                              :
GR    .UR/H                            : 
NGL   .C.U                             :
LL3   .OHMM                            : 
C1    .MM                              : 
C2    .MM                              : 
CALI  .MM                              :
MLL   .OHMM                            : 
CILR  .MMHO                            : 
RHOB  .G/C3                            : 
GZ3   .OHMM                            : 
GZ3B  .OHMM                            : 
SP    .MV                              : 
DT    .US/M                            :
~ASCII Log Data
# ...
   632.30     215.90       7.85       1.31       8.78     210.96     208.80     209.88       3.74     108.26       2.19       8.92       9.43     176.91     429.39
   632.40     215.90       7.75       1.33       8.39     210.85     208.29     209.57       3.54     110.25       2.22       9.05      10.07     177.33     425.86
   632.50     215.90       8.02       1.32       8.08     211.36     208.07     209.72       3.33     110.24       2.22       9.28      10.88     177.79     422.86
   632.60     215.90       7.86       1.30       7.99     211.34     207.96     209.65       3.28     110.70       2.22       9.44      11.72     178.28     419.87
   632.70     215.90       7.63       1.35       8.25     211.18     208.03     209.61       3.62     108.47       2.19       9.90      12.38     178.89     417.43
   632.80     215.90       7.21       1.38       8.54     210.57     208.37     209.47       4.37     105.40       2.17      10.13      12.74     179.87     415.00
   632.90     215.90       7.23       1.38      10.71     210.60     208.75     209.68       3.71     102.88       2.17      10.17      12.86     181.10     413.32
   633.00     215.90       6.91       1.40      11.10     211.70     208.77     210.24       3.60      99.51       2.17      10.10      12.90     182.28     411.65
   633.10     215.90       6.71       1.37       9.93     214.02     208.72     211.37       3.93     100.00       2.19       9.96      12.99     183.28     410.32
   633.20     215.90       6.99       1.37       8.61     216.21     208.62     212.41       3.37      97.15       2.20       9.90      13.25     184.23     408.99
   633.30     215.90       7.14       1.33       8.12     216.97     208.83     212.90       3.24      97.92       2.19       9.96      13.71     185.21     407.04
   633.40     215.90       7.23       1.35       8.13     216.74     209.40     213.07       3.53      93.40       2.17      10.16      14.05     186.30     405.09
   633.50     215.90       6.67       1.32       9.14     216.09     209.94     213.01       3.78      95.46       2.16      10.60      14.19     187.41     401.24
   633.60     215.90       6.11       1.35      11.62     215.39     210.16     212.77       4.19      95.54       2.14      11.07      14.05     188.24     397.38
   633.70     215.90       5.61       1.37      15.68     214.47     209.83     212.15       3.99      96.16       2.13      11.37      13.67     188.74     391.11
   633.80     215.90       5.45       1.37      19.60     214.22     209.51     211.86       3.95      92.97       2.10      11.54      13.30     188.79     384.85
   633.90     215.90       5.18       1.39      20.95     214.25     208.95     211.60       4.36      89.13       2.08      11.49      11.69     188.18     377.09
   634.00     215.90       5.23       1.42      17.18     214.33     208.61     211.47       3.89      85.16       2.09      11.23      10.80     186.93     369.33
   634.10     215.90       5.36       1.38      12.57     214.03     207.95     210.99       3.25      83.12       2.10      10.84      10.11     185.54     362.62
   634.20     215.90       5.76       1.38      10.33     214.43     207.50     210.97       3.99      82.92       2.11       9.93       9.61     184.18     355.91
   634.30     215.90       6.32       1.36       8.80     214.90     207.13     211.01       3.68      87.18       2.12       9.38       9.39     182.68     353.18
   634.40     215.90       6.72       1.33       8.01     215.29     207.23     211.26       3.49      87.59       2.15       8.98       9.39     180.99     350.45
   634.50     215.90       7.05       1.34       8.13     214.99     207.37     211.18       3.42      87.18       2.16       8.79       9.40     179.04     353.41
   634.60     215.90       6.79       1.38       9.77     214.78     207.53     211.16       4.37      86.14       2.17       8.86       9.37     176.94     356.36
   634.70     215.90       6.66       1.40      11.99     214.76     207.63     211.20       5.09      89.98       2.16       9.17       9.23     174.75     364.33
   634.80     215.90       6.02       1.38      14.35     214.71     207.93     211.32       5.23      94.38       2.13       9.68       8.97     172.77     372.30
   634.90     215.90       5.56       1.43      16.35     214.69     208.10     211.40       4.84      96.43       2.12      10.26       8.65     171.04     382.64
   635.00     215.90       5.23       1.43      17.80     214.47     208.40     211.43       3.85     101.75       2.10      10.89       8.26     169.51     392.99
   635.10     215.90       5.23       1.44      19.21     213.79     208.59     211.19       4.44     108.89       2.11      11.54       8.01     168.35     402.59
   635.20     215.90       5.41       1.47      20.26     212.62     208.94     210.78       4.18     112.86       2.12      12.20       7.58     167.36     412.19
   635.30     215.90       5.42       1.39      20.69     211.96     209.73     210.85       3.99     114.45       2.11      12.52       7.12     166.57     418.90
   635.40     215.90       5.39       1.38      21.21     212.01     210.27     211.14       4.40     114.03       2.11      12.68       6.83     166.09     425.61
   635.50     215.90       5.52       1.35      21.42     212.17     210.60     211.39       4.04     116.78       2.12      13.83       6.60     165.93     428.82
   635.60     215.90       5.41       1.35      20.43     211.12     210.61     210.86       3.58     115.58       2.13      14.40       6.42     166.13     432.03
   635.70     215.90       5.42       1.38      17.37     209.87     210.94     210.41       3.56     113.71       2.14      14.77       6.34     166.80     432.29
   635.80     215.90       5.26       1.36      13.62     209.68     211.83     210.76       3.28     111.25       2.16      15.05       6.42     167.89     432.55
   635.90     215.90       5.53       1.39       9.21     210.62     212.07     211.34       2.59     108.26       2.16      15.06       6.62     169.39     430.84
   636.00     215.90       5.83       1.36       7.05     211.36     211.71     211.53       2.83     107.88       2.17      14.89       6.96     171.08     429.13
   636.10     215.90       6.15       1.37       6.65     211.42     210.78     211.10       3.20     115.60       2.18      14.54       7.33     172.85     426.20
   636.20     215.90       6.45       1.32       6.68     211.04     210.15     210.59       3.28     130.98       2.20      14.08       7.72     174.63     423.27
   636.30     215.90       6.52       1.32       6.47     211.20     209.81     210.50       2.79     147.05       2.21      13.61       8.12     176.53     419.46
   636.40     215.90       6.34       1.35       6.12     211.51     210.00     210.75       2.43     157.25       2.23      13.10       8.55     178.36     415.64
   636.50     215.90       6.52       1.33       6.25     212.22     210.27     211.24       2.80     162.02       2.23      12.70       8.70     179.99     411.17
   636.60     215.90       6.64       1.37       7.42     212.50     210.87     211.68       3.90     167.38       2.24      12.52       9.15     181.37     406.70
   636.70     215.90       6.51       1.38       9.40     212.39     211.05     211.72       5.45     169.59       2.25      12.55       9.20     182.41     402.10
   636.80     215.90       6.28       1.36      11.21     212.37     211.01     211.69       4.64     167.43       2.24      12.53       9.02     183.03     397.50
   636.90     215.90       5.95       1.31      10.90     212.20     210.90     211.55       4.84     151.25       2.24      12.37       8.71     183.37     393.73
   637.00     215.90       6.26       1.30       9.68     212.26     210.59     211.43       4.06     138.49       2.24      11.94       8.41     182.94     389.97
   637.10     215.90       6.49       1.34       8.23     212.39     210.55     211.47       3.74     127.01       2.26      11.33       8.21     182.35     387.97
