~Version information
  VERS.                            1.20: CWLS LAS  -  VERSION 1.20
  WRAP.                              NO: One line per depth step
~Well information
# MNEM.UNIT
# ====.================================:===================
  STRT.M                           0.20: First depth in file
  STOP.M                         936.80: Last depth in file
  STEP.M                           0.10: Depth increment
  NULL.                           -9999: Null values
  COMP.                         COMPANY:
  WELL.                            WELL: 332
  FLD .                           FIELD: Karatobe
  CNTY.                          COUNTY: 
  STAT.                           STATE: 
  DATE.                        LOG DATE: 26-27.07.2007
  SRVC.                 SERVICE COMPANY: 
  UWI.           Unique Well Identifier: 
~Parametr information block
# MNEM.UNIT
# ====.================================:===================
~Other information
# ------------------------- REMARKS  AREA ------------------
~Curve information
# MNEM.UNIT
# ====.================================:===================
  DEPT.M                               : Depth curve
BS    .MM                              :
GR    .UR/H                            : 
NGL   .C.U                             :
LL3   .OHMM                            : 
C1    .MM                              : 
C2    .MM                              : 
CALI  .MM                              :
MLL   .OHMM                            : 
CILR  .MMHO                            : 
RHOB  .G/C3                            : 
GZ3   .OHMM                            : 
GZ3B  .OHMM                            : 
SP    .MV                              : 
DT    .US/M                            :
~ASCII Log Data
# ...
   225.60     215.90       7.96       1.19       6.16     225.90     228.12     227.01       3.17     116.28       2.07       6.12       5.95     164.05     455.75
   225.70     215.90       8.09       1.21       6.40     226.87     231.21     229.04       2.93     117.65       2.07       6.15       5.91     164.33     456.11
   225.80     215.90       7.88       1.18       6.30     229.17     231.01     230.09       2.74     117.30       2.08       6.17       5.93     164.85     456.47
   225.90     215.90       7.91       1.19       6.12     231.55     230.10     230.83       2.66     117.11       2.09       6.15       6.03     165.60     458.18
   226.00     215.90       8.06       1.18       5.98     227.49     225.75     226.62       2.64     115.95       2.09       6.13       6.12     166.61     459.89
   226.10     215.90       8.43       1.16       5.87     225.29     225.01     225.15       2.69     116.04       2.07       6.13       6.21     168.05     463.21
   226.20     215.90       9.00       1.17       5.72     223.16     224.19     223.67       2.58     115.72       2.06       6.15       6.29     170.17     466.52
   226.30     215.90       8.50       1.15       5.66     221.56     223.68     222.62       2.65     115.87       2.05       6.14       6.35     172.90     470.79
   226.40     215.90       8.23       1.18       5.68     219.24     223.24     221.24       2.80     116.00       2.05       6.08       6.35     175.97     475.06
   226.50     215.90       7.95       1.16       5.70     216.67     221.52     219.09       2.71     115.89       2.06       5.97       6.21     178.96     478.91
   226.60     215.90       7.93       1.19       5.73     215.99     220.01     218.00       2.54     115.57       2.08       5.82       6.04     181.67     482.76
   226.70     215.90       7.73       1.18       5.80     216.03     218.83     217.43       2.23     114.47       2.08       5.69       5.91     184.19     485.68
   226.80     215.90       7.74       1.21       5.81     216.81     219.08     217.94       2.12     114.58       2.04       5.60       5.88     186.47     488.61
   226.90     215.90       7.60       1.23       5.77     215.59     219.21     217.40       2.29     114.68       2.03       5.63       5.94     188.36     491.50
   227.00     215.90       7.49       1.21       5.87     214.34     218.77     216.55       2.60     115.59       2.04       5.70       6.06     190.02     494.39
   227.10     215.90       7.52       1.16       5.98     212.98     218.59     215.78       2.73     115.39       2.04       5.78       6.17     191.48     498.69
   227.20     215.90       7.58       1.17       6.02     213.25     218.15     215.70       2.82     114.35       2.05       5.78       6.20     192.74     502.98
   227.30     215.90       7.95       1.18       6.06     214.54     217.16     215.85       2.58     114.01       2.07       5.76       6.20     193.76     509.01
   227.40     215.90       7.93       1.18       6.07     217.06     216.05     216.56       2.32     112.47       2.07       5.76       6.21     194.32     515.05
   227.50     215.90       7.75       1.21       6.01     219.20     216.52     217.86       2.38     112.02       2.09       5.87       6.32     194.23     521.64
   227.60     215.90       7.72       1.21       6.00     221.02     217.70     219.36       2.35     110.54       2.09       5.98       6.44     193.63     528.22
   227.70     215.90       7.59       1.22       6.16     220.78     217.69     219.24       2.79     112.02       2.10       6.05       6.48     192.54     533.42
   227.80     215.90       7.44       1.24       7.06     220.64     216.90     218.77      15.49     113.58       2.11       6.04       6.27     191.66     538.63
   227.90     215.90       7.38       1.24       7.92     219.80     216.38     218.09       6.14     115.47       2.13       5.96       5.98     191.04     540.68
   228.00     215.90       7.36       1.26       7.55     219.19     217.83     218.51       2.17     113.88       2.14       5.83       5.72     190.63     542.74
   228.10     215.90       7.29       1.23       6.44     219.02     220.62     219.82       1.89     108.98       2.13       5.67       5.60     190.41     541.50
   228.20     215.90       7.22       1.23       5.76     218.05     223.80     220.92       1.91     103.18       2.13       5.66       5.67     190.50     540.26
   228.30     215.90       7.53       1.23       5.70     218.49     226.38     222.44       2.08     101.34       2.10       5.79       5.82     190.86     536.80
   228.40     215.90       7.76       1.19       6.04     217.61     226.66     222.13       3.06     105.67       2.10       6.11       6.00     191.33     533.34
   228.50     215.90       7.73       1.20       6.43     218.36     226.06     222.21       3.49     112.55       2.11       6.33       6.02     191.84     529.42
   228.60     215.90       7.74       1.22       6.57     217.34     224.05     220.69       3.18     115.98       2.13       6.43       5.93     192.63     525.50
   228.70     215.90       7.85       1.21       6.51     217.60     221.58     219.59       3.03     114.48       2.15       6.40       5.71     193.75     522.10
   228.80     215.90       7.67       1.18       6.40     217.48     218.86     218.17       2.48     111.41       2.15       6.30       5.42     195.23     518.70
   228.90     215.90       7.87       1.17       6.19     218.09     217.08     217.58       2.38     109.77       2.13       6.09       5.19     196.40     515.84
   229.00     215.90       8.02       1.16       6.03     217.74     215.69     216.72       2.15     110.08       2.12       5.92       5.01     197.11     512.98
   229.10     215.90       8.14       1.14       5.98     217.02     213.45     215.24       2.02     110.85       2.13       5.81       4.94     197.30     510.01
   229.20     215.90       8.23       1.14       5.92     215.18     210.30     212.74       1.96     111.79       2.12       5.82       5.01     197.00     507.03
   229.30     215.90       8.33       1.13       5.92     215.52     207.41     211.47       2.03     113.39       2.11       5.94       5.18     196.21     503.03
   229.40     215.90       8.23       1.13       5.96     214.89     208.18     211.54       2.04     114.00       2.12       6.09       5.39     195.16     499.03
   229.50     215.90       8.13       1.17       5.98     216.76     212.31     214.54       2.13     114.29       2.11       6.23       5.56     194.05     493.72
   229.60     215.90       8.09       1.19       5.98     217.80     217.04     217.42       2.19     115.09       2.10       6.33       5.72     192.92     488.41
   229.70     215.90       8.39       1.18       5.97     219.72     219.53     219.62       2.30     113.81       2.09       6.40       5.85     191.44     482.59
   229.80     215.90       8.05       1.20       5.94     219.94     219.88     219.91       2.36     109.66       2.08       6.43       6.02     189.47     476.77
   229.90     215.90       8.07       1.20       5.81     218.00     221.24     219.62       2.15     107.23       2.08       6.47       6.16     186.93     473.33
   230.00     215.90       8.02       1.19       5.64     216.38     223.36     219.87       2.04     105.70       2.07       6.51       6.33     184.04     469.88
   230.10     215.90       7.99       1.23       5.69     217.08     226.34     221.71       2.12     111.09       2.06       6.53       6.45     181.25     470.04
   230.20     215.90       7.86       1.24       5.98     220.36     230.01     225.19       2.16     115.69       2.04       6.52       6.61     178.96     470.20
   230.30     215.90       7.88       1.23       6.33     223.61     232.28     227.95       2.32     114.65       2.03       6.47       6.82     177.04     473.22
   230.40     215.90       7.83       1.23       6.68     224.04     235.36     229.70       2.48     109.65       2.02       6.45       6.96     175.38     476.25
