~Version information
  VERS.                            1.20: CWLS LAS  -  VERSION 1.20
  WRAP.                              NO: One line per depth step
~Well information
# MNEM.UNIT
# ====.================================:===================
  STRT.M                           0.20: First depth in file
  STOP.M                         936.80: Last depth in file
  STEP.M                           0.10: Depth increment
  NULL.                           -9999: Null values
  COMP.                         COMPANY:
  WELL.                            WELL: 332
  FLD .                           FIELD: Karatobe
  CNTY.                          COUNTY: 
  STAT.                           STATE: 
  DATE.                        LOG DATE: 26-27.07.2007
  SRVC.                 SERVICE COMPANY: 
  UWI.           Unique Well Identifier: 
~Parametr information block
# MNEM.UNIT
# ====.================================:===================
~Other information
# ------------------------- REMARKS  AREA ------------------
~Curve information
# MNEM.UNIT
# ====.================================:===================
  DEPT.M                               : Depth curve
BS    .MM                              :
GR    .UR/H                            : 
NGL   .C.U                             :
LL3   .OHMM                            : 
C1    .MM                              : 
C2    .MM                              : 
CALI  .MM                              :
MLL   .OHMM                            : 
CILR  .MMHO                            : 
RHOB  .G/C3                            : 
GZ3   .OHMM                            : 
GZ3B  .OHMM                            : 
SP    .MV                              : 
DT    .US/M                            :
~ASCII Log Data
# ...
   720.50     215.90       5.44       1.80       9.50     217.38     212.72     215.05       9.09      71.77       2.61       4.86       7.78     179.83     299.69
   720.60     215.90       4.95       1.84      10.14     219.37     212.04     215.71      12.09      75.25       2.62       5.06       7.75     178.02     309.09
   720.70     215.90       4.73       1.91      11.24     220.12     212.60     216.36       7.18      76.60       2.60       5.30       7.67     176.02     323.09
   720.80     215.90       4.18       1.97      11.82     219.31     212.89     216.10       8.52      74.93       2.58       5.63       7.51     174.00     337.08
   720.90     215.90       4.10       2.01      12.50     217.37     212.06     214.72      16.22      75.28       2.56       5.98       7.32     172.12     355.27
   721.00     215.90       3.73       2.07      15.00     216.30     209.67     212.98      20.74      80.84       2.52       6.42       7.11     170.44     373.45
   721.10     215.90       3.57       2.15      20.44     215.65     207.60     211.62      27.40      88.34       2.54       6.94       6.78     169.00     395.20
   721.20     215.90       3.43       2.22      30.04     215.69     206.57     211.13      28.12      92.60       2.58       7.54       6.50     167.71     416.94
   721.30     215.90       3.55       2.24      38.60     215.52     206.04     210.78      30.14      91.49       2.59       8.01       6.21     166.72     441.26
   721.40     215.90       3.31       2.27      41.05     214.68     206.06     210.37      31.27      91.05       2.60       8.53       5.89     165.96     465.57
   721.50     215.90       3.63       2.27      34.86     214.71     205.86     210.29      31.49      91.33       2.57       8.89       5.54     165.62     491.49
   721.60     215.90       3.73       2.27      28.15     214.31     206.60     210.45      12.20      96.08       2.55       9.18       5.18     165.75     517.41
   721.70     215.90       3.84       2.20      19.38     214.61     207.49     211.05       4.41      99.41       2.54       9.23       4.82     166.21     541.03
   721.80     215.90       4.32       2.11      11.28     220.20     208.07     214.14       3.78     104.22       2.49       9.08       4.45     167.10     564.64
   721.90     215.90       4.45       2.11       9.25     229.22     207.67     218.44       3.70     111.45       2.47       8.81       4.17     168.35     581.42
   722.00     215.90       4.67       2.00       7.91     235.65     207.13     221.39       3.60     112.27       2.44       8.41       3.92     169.73     598.19
   722.10     215.90       4.78       1.88       6.93     232.71     207.45     220.08       3.21     109.97       2.42       8.04       3.71     171.08     604.61
   722.20     215.90       4.75       1.81       6.56     226.63     207.65     217.14       3.47     106.48       2.40       7.76       3.62     172.45     611.03
   722.30     215.90       4.80       1.71       6.53     220.27     207.46     213.86       3.57     115.22       2.39       7.57       3.59     173.82     607.40
   722.40     215.90       5.10       1.66       6.60     217.03     206.30     211.67       3.24     130.30       2.40       7.44       3.60     175.15     603.77
   722.50     215.90       5.67       1.66       6.55     213.62     204.74     209.18       2.82     144.48       2.40       7.41       3.63     176.35     591.92
   722.60     215.90       5.75       1.64       6.42     212.83     203.77     208.30       2.93     154.22       2.39       7.42       3.67     177.23     580.08
   722.70     215.90       5.79       1.70       6.38     212.60     203.40     208.00       3.18     159.36       2.38       7.47       3.71     177.76     561.56
   722.80     215.90       5.68       1.69       6.42     212.79     203.74     208.27       3.29     161.50       2.38       7.52       3.71     177.99     543.04
   722.90     215.90       5.67       1.70       6.98     212.98     204.15     208.57       3.16     156.26       2.39       7.55       3.69     177.86     520.35
   723.00     215.90       5.81       1.69       7.12     215.03     204.84     209.94       2.90     147.64       2.40       7.52       3.63     177.46     497.65
   723.10     215.90       6.13       1.68       7.01     221.66     206.39     214.02       2.69     137.31       2.40       7.32       3.52     176.98     474.34
   723.20     215.90       6.54       1.58       6.69     233.32     214.44     223.88       2.17     132.96       2.38       7.04       3.37     176.56     451.03
   723.30     215.90       7.06       1.57       6.29     245.88     227.51     236.70       2.42     131.11       2.39       6.69       3.21     176.12     431.70
   723.40     215.90       7.43       1.55       5.81     251.97     239.26     245.62       2.64     133.07       2.38       6.32       3.10     175.64     412.38
   723.50     215.90       7.77       1.57       5.68     249.66     244.87     247.27       2.57     138.47       2.39       6.05       3.05     175.23     399.30
   723.60     215.90       7.73       1.59       5.79     243.65     240.55     242.10       3.53     147.70       2.38       5.85       3.04     175.01     386.22
   723.70     215.90       7.48       1.54       6.13     239.90     233.70     236.80       4.70     157.50       2.39       5.77       3.06     175.00     380.48
   723.80     215.90       7.17       1.60       6.38     242.50     225.55     234.02       5.03     164.30       2.40       5.68       3.07     175.14     374.73
   723.90     215.90       7.20       1.63       6.38     243.53     220.94     232.24       2.63     168.01       2.38       5.57       3.08     175.47     376.84
   724.00     215.90       7.18       1.61       6.13     240.65     221.00     230.83       2.44     169.55       2.35       5.42       3.10     176.04     378.95
   724.10     215.90       7.03       1.57       5.82     233.78     219.21     226.49       1.67     171.83       2.33       5.34       3.12     176.78     389.99
   724.20     215.90       7.15       1.59       5.61     228.05     219.01     223.53       1.73     171.33       2.31       5.13       3.15     177.61     401.02
   724.30     215.90       7.36       1.55       5.55     224.90     215.33     220.11       1.83     170.74       2.30       5.04       3.19     178.43     420.73
   724.40     215.90       7.22       1.51       5.55     222.73     214.49     218.61       1.92     168.58       2.33       4.93       3.24     179.26     440.43
   724.50     215.90       7.05       1.51       5.52     221.48     214.68     218.08       1.93     168.66       2.36       4.82       3.29     180.12     465.17
   724.60     215.90       7.29       1.52       5.50     222.74     213.62     218.18       1.85     169.32       2.37       4.71       3.33     180.84     489.91
   724.70     215.90       7.53       1.45       5.45     220.88     212.38     216.63       1.89     168.64       2.39       4.58       3.34     181.28     513.04
   724.80     215.90       7.63       1.47       5.39     219.49     210.88     215.19       1.82     166.41       2.40       4.47       3.34     181.56     536.18
   724.90     215.90       7.67       1.49       5.33     215.04     213.47     214.25       1.70     161.59       2.39       4.37       3.31     181.68     551.00
   725.00     215.90       7.83       1.45       5.29     214.52     213.59     214.06       1.84     159.00       2.41       4.29       3.29     181.41     565.81
   725.10     215.90       7.85       1.51       5.17     213.42     212.22     212.82       1.87     159.84       2.41       4.24       3.32     180.79     569.40
   725.20     215.90       7.78       1.44       4.98     213.56     209.58     211.57       1.95     161.22       2.41       4.16       3.39     179.97     572.98
   725.30     215.90       7.86       1.42       4.86     213.74     210.92     212.33       1.93     161.11       2.42       4.09       3.49     178.90     569.23
