~Version
 VERS              .         3.0                           : CWLS LOG ASCII STANDARD - VERSION 3.0
 WRAP              .         NO                            : ONE LINE PER DEPTH STEP
 DLM               .         SPACE                         : DELIMITING CHARACTER(SPACE TAB OR COMMA)
~Well Information
#_______________________________________________________________________________
#
#PARAMETER_NAME    .UNIT     VALUE                         : DESCRIPTION
#_______________________________________________________________________________
STRT               .m        122                           : First reference value
STOP               .m        788                           : Last reference value
STEP               .m        0.1                           : Step increment
NULL               .         -9999                         : Missing value
COMP               .         ICPetroleum                   : Company
WELL               .         310                           : Well name
FLD                .         Karatobe                      : Field
LOC                .                                       : Location
SRVC               .         KF GIS "Kazpromgeophizika"    : Service Company
CTRY               .         KZ                            : Country
DATE               .         12.12.2004                    : Service Date
LATI               .         0                             : Latitude
LONG               .         0                             : Longitude
GDAT               .         WGS 84                        : Geodetic Datum
API                .                                       : API NUMBER
CNTY               .         Kyzyl-Orda                    : 
COORDIN            .                                       : Grid System
COUNTRY            .         Kazakhstan                    : 
COUNTRY            .         Kazakhstan                    : 
EREF               .m        133.5                         : 
KB                 .         134.7                         : KB Elevation
ORIGINALWELLNAME   .         310                           : 
PROV               .                                       : PROVINCE
RWS                .         -999                          : Def_Rw
UWI                .         _                             : 
WST                .         -999                          : Def_Rwt
X                  .km       466595.6                      : 
XCOORD             .                                       : X or East-West Coordinate
Y                  .km       5308644.6                     : 
YCOORD             .                                       : Y or North-South Coordinate
~Parameter Information Block
#_______________________________________________________________________________
#
#PARAMETER_NAME    .UNIT     VALUE                         : DESCRIPTION
#_______________________________________________________________________________
SET                .         Las                           : 
TLFamily_DEPT      .         Measured Depth                : 
TLFamily_PHI_FINAL .         Porosity                      : 
TLFamily_SW_AR     .         Water Saturation              : 
TLFamily_VSH_FINAL .         Shale Volume                  : 
~Curve Information
#_______________________________________________________________________________
#
#LOGNAME           .UNIT     LOG_ID                        : DESCRIPTION
#_______________________________________________________________________________
DEPT               .m                                      : DEPTH {F}
PHI_FINAL          .m3/m3                                  : Porosity {F}
SW_AR              .m3/m3                                  :  {F}
VSH_FINAL          .unitless                               : Vshale {F}
~Ascii
# ...
431.3      0.1398399  1          0.7135733 
431.4      0.1329588  1          0.7605096 
431.5      0.135444   1          0.7660552 
431.6      0.1255482  1          0.8109767 
431.7      0.08261423 1          0.9011078 
431.8      0.1000992  1          0.871033  
431.9      0.1039966  1          0.8547742 
432        0.08926908 1          0.8707848 
432.1      0.091754   1          0.8289309 
432.2      0.06391232 1          0.8888596 
432.3      0.06533882 1          0.8727722 
432.4      0.05631597 1          0.8902874 
432.5      0.04140339 1          0.941749  
432.6      0.03664582 1          0.9540948 
432.7      0.04200573 1          0.9374316 
432.8      0.08864881 1          0.8299191 
432.9      0.1046481  1          0.7970237 
433        0.124427   1          0.727413  
433.1      0.09357633 1          0.8026912 
433.2      0.1012401  1          0.7653168 
433.3      0.09653942 1          0.7498462 
433.4      0.1007937  1          0.7186589 
433.5      0.09504056 1          0.6852192 
433.6      0.06268986 1          0.7356725 
433.7      0.04909758 1          0.758949  
433.8      0.02659076 1          0.828304  
433.9      0.01942016 1          0.8420187 
434        0.007962573 1          0.9184505 
434.1      0.01021222 1          0.9084758 
434.2      0.008247608 1          0.9191743 
434.3      0.01171991 1          0.9128749 
434.4      0.01225859 1          0.9316041 
434.5      0.004534395 1          1         
434.6      0.006187229 1          1         
434.7      0.01344618 1          0.9593737 
434.8      0.01362444 1          0.9719163 
434.9      0.01508592 1          0.9728155 
435        0.01250096 1          0.9950546 
435.1      0.02037959 1          0.924672  
435.2      0.02443806 1          0.9350362 
435.3      0.03075984 1          0.9194446 
435.4      0.03048539 1          0.9410629 
435.5      0.03566791 1          0.9130157 
435.6      0.04372657 1          0.8807325 
435.7      0.04866195 1          0.8863299 
435.8      0.04674998 1          0.8987175 
435.9      0.03434722 1          0.900285  
436        0.0363658  1          0.9099051 
436.1      0.0382496  1          0.8930193 
436.2      0.03323849 1          0.8950603 
436.3      0.03879901 1          0.8619722 
436.4      0.02397517 1          0.9128138 
436.5      0.01016931 1          1         
436.6      0.02146645 1          0.9495583 
436.7      0.04951699 1          0.84532   
436.8      0.03590649 1          0.8615946 
436.9      0.0308504  1          0.881714  
437        0.03268707 1          0.8735361 
437.1      0.02047689 1          0.9257249 
437.2      0.007594739 1          1         
437.3      0.009066504 1          1         
437.4      0.007280142 1          1         
437.5      0.01605804 1          0.9488225 
437.6      0.02902821 1          0.8782245 
437.7      0.009243029 1          0.970385  
437.8      0.00897315 1          0.9749254 
437.9      0.005214123 1          1         
438        0.01145807 1          0.9614301 
438.1      0.0317077  1          0.8731126 
438.2      0.1014138  1          0.7075821 
438.3      0.1031578  1          0.7250131 
438.4      0.09881266 1          0.7467017 
438.5      0.08372641 1          0.7861419 
438.6      0.02596647 1          0.974563  
438.7      0.01877278 1          1         
438.8      0.02152514 1          1         
438.9      0.02432507 1          1         
439        0.0504506  1          0.9030691 
439.1      0.02656879 1          0.9840493 
439.2      0.03089282 1          0.9594901 
439.3      0.02068079 1          1         
439.4      0.04555201 1          0.903522  
439.5      0.02860863 1          0.95344   
439.6      0.03065072 1          0.929592  
439.7      0.03682984 1          0.891068  
439.8      0.04811867 1          0.8432344 
439.9      0.01635993 1          0.9417247 
440        0.01379821 1          0.9288051 
440.1      0.002023417 1          1         
440.2      0.00731719 1          0.9210947 
440.3      0.006080203 1          0.9259162 
440.4      0.02546818 1          0.8107364 
440.5      0.0325641  1          0.7822735 
440.6      0.06141943 1          0.6840745 
440.7      0.08113663 1          0.591197  
440.8      0.07008459 1          0.5781444 
440.9      0.07657861 1          0.5016909 
441        0.1017878  1          0.3976479 
441.1      0.1010326  1          0.3804184 
441.2      0.1010487  1          0.4048243 
441.3      0.1058496  1          0.428999  
441.4      0.127729   1          0.4496315 
441.5      0.1056053  1          0.5454584 
441.6      0.08880267 1          0.6399633 
441.7      0.05081608 1          0.7863125 
441.8      0.04150209 1          0.8324996 
441.9      0.03449492 1          0.8846983 
442        0.02338988 1          0.9471876 
442.1      0.01429302 1          1         
442.2      0.03924662 1          0.9127973 
442.3      0.04972406 1          0.8754355 
442.4      0.0350204  1          0.9169501 
442.5      0.05961277 1          0.8377762 
442.6      0.0676837  1          0.8179561 
442.7      0.05362917 1          0.8457236 
442.8      0.02950251 1          0.9176518 
442.9      0.05064108 1          0.8528174 
443        0.03593886 1          0.8979104 
443.1      0.02760691 1          0.9167644 
443.2      0.03257792 1          0.9022433 
443.3      0.0301446  1          0.9009046 
443.4      0.008633942 1          0.9864972 
443.5      0.01225706 1          0.9438657 
443.6      0.004300457 1          1         
443.7      0.006829663 1          1         
443.8      0.005480315 1          1         
443.9      0.006184344 1          0.99051   
444        0.01240845 1          0.954843  
444.1      0.02444032 1          0.9230796 
444.2      0.02419966 1          0.9269078 
444.3      0.05121125 1          0.8513681 
444.4      0.06673649 1          0.8161318 
444.5      0.08661145 1          0.7824404 
444.6      0.1104517  1          0.7491968 
444.7      0.07201854 1          0.8564091 
444.8      0.1090118  1          0.7732424 
444.9      0.1017044  1          0.7903336 
445        0.07887611 1          0.8362021 
445.1      0.08051801 1          0.8129157 
445.2      0.07444684 1          0.8274353 
445.3      0.0710154  1          0.8444622 
445.4      0.06116556 1          0.8989275 
445.5      0.08831712 1          0.8177552 
445.6      0.07981539 1          0.847755  
445.7      0.09425952 1          0.8173071 
445.8      0.0844783  1          0.8482023 
445.9      0.1077355  1          0.7935386 
446        0.1108427  1          0.7857209 
446.1      0.1477122  1          0.6885356 
446.2      0.172435   1          0.6246137 
446.3      0.1656329  1          0.6410406 
446.4      0.1733687  1          0.6196101 
446.5      0.1668769  1          0.6398101 
446.6      0.1519104  1          0.6798028 
446.7      0.1837546  1          0.5891998 
446.8      0.1758168  1          0.6012686 
446.9      0.1868537  1          0.5327083 
447        0.1835168  1          0.4983061 
447.1      0.1455646  1          0.5101989 
447.2      0.1224632  1          0.4994707 
447.3      0.07845952 1          0.504719  
447.4      0.05416975 1          0.4527693 
447.5      0.04506718 1          0.4224729 
447.6      0.05061661 1          0.3774624 
447.7      0.05422886 1          0.3716998 
447.8      0.07772151 1          0.3578296 
447.9      0.09823247 1          0.3952824 
448        0.1400046  1          0.3777474 
448.1      0.1749975  1          0.408624  
448.2      0.2039762  1          0.4141516 
448.3      0.2126122  1          0.4323406 
448.4      0.2032748  1          0.4744654 
448.5      0.2074172  1          0.4822502 
448.6      0.1827556  1          0.537351  
448.7      0.1651445  1          0.5772796 
448.8      0.1781287  1          0.5322245 
448.9      0.1617028  1          0.5606844 
449        0.1534164  1          0.5695058 
449.1      0.1630958  1          0.5460485 
449.2      0.160344   1          0.5701633 
449.3      0.1559992  1          0.596863  
449.4      0.1317291  1          0.6671312 
