~Version
 VERS              .         3.0                           : CWLS LOG ASCII STANDARD - VERSION 3.0
 WRAP              .         NO                            : ONE LINE PER DEPTH STEP
 DLM               .         SPACE                         : DELIMITING CHARACTER(SPACE TAB OR COMMA)
~Well Information
#_______________________________________________________________________________
#
#PARAMETER_NAME    .UNIT     VALUE                         : DESCRIPTION
#_______________________________________________________________________________
STRT               .m        122                           : First reference value
STOP               .m        788                           : Last reference value
STEP               .m        0.1                           : Step increment
NULL               .         -9999                         : Missing value
COMP               .         ICPetroleum                   : Company
WELL               .         310                           : Well name
FLD                .         Karatobe                      : Field
LOC                .                                       : Location
SRVC               .         KF GIS "Kazpromgeophizika"    : Service Company
CTRY               .         KZ                            : Country
DATE               .         12.12.2004                    : Service Date
LATI               .         0                             : Latitude
LONG               .         0                             : Longitude
GDAT               .         WGS 84                        : Geodetic Datum
API                .                                       : API NUMBER
CNTY               .         Kyzyl-Orda                    : 
COORDIN            .                                       : Grid System
COUNTRY            .         Kazakhstan                    : 
COUNTRY            .         Kazakhstan                    : 
EREF               .m        133.5                         : 
KB                 .         134.7                         : KB Elevation
ORIGINALWELLNAME   .         310                           : 
PROV               .                                       : PROVINCE
RWS                .         -999                          : Def_Rw
UWI                .         _                             : 
WST                .         -999                          : Def_Rwt
X                  .km       466595.6                      : 
XCOORD             .                                       : X or East-West Coordinate
Y                  .km       5308644.6                     : 
YCOORD             .                                       : Y or North-South Coordinate
~Parameter Information Block
#_______________________________________________________________________________
#
#PARAMETER_NAME    .UNIT     VALUE                         : DESCRIPTION
#_______________________________________________________________________________
SET                .         Las                           : 
TLFamily_DEPT      .         Measured Depth                : 
TLFamily_PHI_FINAL .         Porosity                      : 
TLFamily_SW_AR     .         Water Saturation              : 
TLFamily_VSH_FINAL .         Shale Volume                  : 
~Curve Information
#_______________________________________________________________________________
#
#LOGNAME           .UNIT     LOG_ID                        : DESCRIPTION
#_______________________________________________________________________________
DEPT               .m                                      : DEPTH {F}
PHI_FINAL          .m3/m3                                  : Porosity {F}
SW_AR              .m3/m3                                  :  {F}
VSH_FINAL          .unitless                               : Vshale {F}
~Ascii
# ...
631.4      0.2869272  0.8996473  0.05721485
631.5      0.2759931  0.9351986  0.0553749 
631.6      0.2774629  0.9340801  0.05518611
631.7      0.2747095  0.9514294  0.05325122
631.8      0.2767586  0.9568262  0.05490175
631.9      0.279853   0.9757192  0.05654093
632        0.2800251  1          0.05870506
632.1      0.2783312  1          0.0654742 
632.2      0.2882063  1          0.06470919
632.3      0.2916816  1          0.06576465
632.4      0.2904223  1          0.06851021
632.5      0.2928144  1          0.06655582
632.6      0.2906457  1          0.06347736
632.7      0.3001366  0.9414421  0.05760778
632.8      0.3021385  0.9211117  0.05122251
632.9      0.3062854  0.9021144  0.04484196
633        0.3124929  0.8634012  0.04107079
633.1      0.3139522  0.8253908  0.04251732
633.2      0.315706   0.7824942  0.04092757
633.3      0.3127221  0.7737251  0.03727258
633.4      0.3060044  0.7853725  0.03851192
633.5      0.3120017  0.7852756  0.04105879
633.6      0.3154148  0.8114582  0.04130588
633.7      0.3221228  0.8357329  0.04219456
633.8      0.3222127  0.8482819  0.04359711
633.9      0.318389   0.8430215  0.04235737
634        0.3128192  0.8312098  0.04642024
634.1      0.3144814  0.8240768  0.04942689
634.2      0.3111463  0.8563032  0.05323081
634.3      0.313558   0.8748453  0.0566441 
634.4      0.3112182  0.907142   0.05902899
634.5      0.31041    0.9036789  0.05598433
634.6      0.3148012  0.8774325  0.05598088
634.7      0.3157403  0.8581431  0.05351882
634.8      0.3154423  0.8531955  0.05538614
634.9      0.312178   0.8545251  0.05257145
635        0.3060309  0.852071   0.06082422
635.1      0.3015743  0.8305776  0.05439168
635.2      0.2993528  0.7949752  0.05310724
635.3      0.2914599  0.7944586  0.05295229
635.4      0.2907754  0.7915852  0.0477158 
635.5      0.2921498  0.7977791  0.04101086
635.6      0.295516   0.8184356  0.04528424
635.7      0.2882715  0.88737    0.05176221
635.8      0.2830846  0.9293756  0.05513633
635.9      0.2732905  0.9799139  0.05531789
636        0.2621264  1          0.05553055
636.1      0.2348484  1          0.05839804
636.2      0.2115865  1          0.06304012
636.3      0.1958823  0.9555748  0.06051861
636.4      0.1779892  0.922239   0.05392041
636.5      0.1753143  0.9866573  0.05422268
636.6      0.1658882  1          0.05544836
636.7      0.1715921  1          0.05176088
636.8      0.1869194  1          0.0508    
636.9      0.2009208  1          0.05109546
637        0.2050333  1          0.05561997
637.1      0.217287   1          0.05754513
637.2      0.2243533  1          0.06115769
637.3      0.2317872  1          0.06805993
637.4      0.24238    0.9847887  0.0749748 
637.5      0.2431476  0.9966739  0.08361021
637.6      0.246701   1          0.088081  
637.7      0.2436654  1          0.0870112 
637.8      0.2397859  1          0.1020654 
637.9      0.2348591  1          0.1230351 
638        0.1334637  1          0.2450434 
638.1      0.1075845  1          0.2990326 
638.2      0.05640548 1          0.4505636 
638.3      0.008005269 1          0.621602  
638.4      0          1          0.9451014 
638.5      0          1          1         
638.6      0          1          1         
638.7      0          1          1         
638.8      0          1          1         
638.9      0          1          0.7917475 
639        0.01127638 1          0.6010931 
639.1      0.02851425 1          0.5463475 
639.2      0.06211872 1          0.467974  
639.3      0.05443062 1          0.4842192 
639.4      0.05111441 1          0.4857729 
639.5      0.07007529 1          0.4373896 
639.6      0.07639676 1          0.4267016 
639.7      0.09461391 1          0.3905992 
639.8      0.09984137 1          0.3869776 
639.9      0.1081088  1          0.3626973 
640        0.112077   1          0.373247  
640.1      0.1163275  1          0.3670499 
640.2      0.0952812  1          0.3787268 
640.3      0.09766074 1          0.3811436 
640.4      0.09945276 1          0.3933519 
640.5      0.08640456 1          0.4347817 
640.6      0.07049038 1          0.4817836 
640.7      0.04569408 1          0.5606638 
640.8      0.006635696 1          0.6593935 
640.9      0          1          0.7359038 
641        0          1          0.8269634 
641.1      0          1          0.8131821 
641.2      0          1          0.80095   
641.3      0          1          0.8377262 
641.4      0          1          0.8493921 
641.5      0          1          0.8133378 
641.6      0          1          0.7503707 
641.7      0          1          0.6755567 
641.8      0          1          0.7153487 
641.9      0          1          0.7859579 
642        0          1          0.7870222 
642.1      0          1          0.728527  
642.2      0          1          0.6658816 
642.3      0.04085937 1          0.5684599 
642.4      0.05266014 1          0.5617561 
642.5      0.04597569 1          0.572015  
642.6      0.06734569 1          0.5172467 
642.7      0.070087   1          0.5268769 
642.8      0.07506916 1          0.5353193 
642.9      0.06544085 1          0.5490965 
643        0.06332729 1          0.5584835 
643.1      0.05250867 1          0.5732441 
643.2      0.05001698 1          0.5823919 
643.3      0.0215282  1          0.6334673 
643.4      0.003999386 1          0.6900376 
643.5      0          1          0.7917475 
643.6      0          1          0.7922058 
643.7      0          1          0.747579  
643.8      0.00350894 1          0.6871248 
643.9      0.02229665 1          0.6152737 
644        0.03570649 1          0.5575161 
644.1      0.03059168 1          0.5596942 
644.2      0.04279327 1          0.5319089 
644.3      0.03484879 1          0.575091  
644.4      0.05008927 1          0.5305016 
644.5      0.0807364  1          0.4495014 
644.6      0.114782   1          0.3672398 
644.7      0.1440518  1          0.2975782 
644.8      0.1552984  1          0.247948  
644.9      0.1690372  1          0.205004  
645        0.1662968  1          0.2000729 
645.1      0.1666589  1          0.1829596 
645.2      0.1553339  1          0.2060979 
645.3      0.1607746  1          0.1929749 
645.4      0.1707419  1          0.2344151 
645.5      0.1785576  1          0.2266298 
645.6      0.1677995  1          0.2578698 
645.7      0.1655163  1          0.2677177 
645.8      0.1533221  1          0.2854758 
645.9      0.1453561  1          0.3114889 
646        0.1415159  1          0.3342456 
646.1      0.1242153  1          0.3535147 
646.2      0.1093106  1          0.369808  
646.3      0.1092243  1          0.3765105 
646.4      0.110173   1          0.3826947 
646.5      0.09834637 1          0.3852224 
646.6      0.09998918 1          0.3535147 
646.7      0.1035298  1          0.3269593 
646.8      0.1135328  1          0.2872383 
646.9      0.1203551  1          0.2439482 
647        0.1170823  1          0.2199246 
647.1      0.1137189  1          0.2221757 
647.2      0.1113417  1          0.2436357 
647.3      0.1173963  1          0.2606783 
647.4      0.1075693  1          0.3437196 
647.5      0.08940831 1          0.4160607 
647.6      0.07703145 1          0.4845518 
647.7      0.08020675 1          0.5101237 
647.8      0.08793636 1          0.5088664 
647.9      0.09536192 1          0.4952701 
648        0.1044966  1          0.4668882 
648.1      0.1098375  1          0.4523726 
648.2      0.1064293  1          0.4639637 
648.3      0.09989923 1          0.4708043 
648.4      0.1024413  1          0.4903401 
648.5      0.08509283 1          0.5184012 
648.6      0.06316954 1          0.5455126 
648.7      0.07321481 1          0.5426559 
648.8      0.08537818 1          0.5139076 
648.9      0.08515757 1          0.4963945 
649        0.09318839 1          0.4777039 
649.1      0.09350015 1          0.473754  
649.2      0.1121935  1          0.4171791 
649.3      0.1363546  1          0.3568737 
649.4      0.1494692  1          0.302296  
649.5      0.1570626  1          0.2675549 
