~Version
 VERS              .         3.0                           : CWLS LOG ASCII STANDARD - VERSION 3.0
 WRAP              .         NO                            : ONE LINE PER DEPTH STEP
 DLM               .         SPACE                         : DELIMITING CHARACTER(SPACE TAB OR COMMA)
~Well Information
#_______________________________________________________________________________
#
#PARAMETER_NAME    .UNIT     VALUE                         : DESCRIPTION
#_______________________________________________________________________________
STRT               .m        122                           : First reference value
STOP               .m        788                           : Last reference value
STEP               .m        0.1                           : Step increment
NULL               .         -9999                         : Missing value
COMP               .         ICPetroleum                   : Company
WELL               .         310                           : Well name
FLD                .         Karatobe                      : Field
LOC                .                                       : Location
SRVC               .         KF GIS "Kazpromgeophizika"    : Service Company
CTRY               .         KZ                            : Country
DATE               .         12.12.2004                    : Service Date
LATI               .         0                             : Latitude
LONG               .         0                             : Longitude
GDAT               .         WGS 84                        : Geodetic Datum
API                .                                       : API NUMBER
CNTY               .         Kyzyl-Orda                    : 
COORDIN            .                                       : Grid System
COUNTRY            .         Kazakhstan                    : 
COUNTRY            .         Kazakhstan                    : 
EREF               .m        133.5                         : 
KB                 .         134.7                         : KB Elevation
ORIGINALWELLNAME   .         310                           : 
PROV               .                                       : PROVINCE
RWS                .         -999                          : Def_Rw
UWI                .         _                             : 
WST                .         -999                          : Def_Rwt
X                  .km       466595.6                      : 
XCOORD             .                                       : X or East-West Coordinate
Y                  .km       5308644.6                     : 
YCOORD             .                                       : Y or North-South Coordinate
~Parameter Information Block
#_______________________________________________________________________________
#
#PARAMETER_NAME    .UNIT     VALUE                         : DESCRIPTION
#_______________________________________________________________________________
SET                .         Las                           : 
TLFamily_DEPT      .         Measured Depth                : 
TLFamily_PHI_FINAL .         Porosity                      : 
TLFamily_SW_AR     .         Water Saturation              : 
TLFamily_VSH_FINAL .         Shale Volume                  : 
~Curve Information
#_______________________________________________________________________________
#
#LOGNAME           .UNIT     LOG_ID                        : DESCRIPTION
#_______________________________________________________________________________
DEPT               .m                                      : DEPTH {F}
PHI_FINAL          .m3/m3                                  : Porosity {F}
SW_AR              .m3/m3                                  :  {F}
VSH_FINAL          .unitless                               : Vshale {F}
~Ascii
# ...
231.2      0.2939413  0.7257786  0.5269141 
231.3      0.2699328  0.7986465  0.5790999 
231.4      0.2542836  0.8496078  0.6101476 
231.5      0.2424697  0.8907928  0.631882  
231.6      0.2686324  0.8139946  0.5832651 
231.7      0.2952923  0.7525886  0.5309533 
231.8      0.2876944  0.7802659  0.546536  
231.9      0.311756   0.7271159  0.5004966 
232        0.336352   0.6734675  0.4549933 
232.1      0.3655441  0.6188528  0.3957823 
232.2      0.3662436  0.6150124  0.3934858 
232.3      0.3629604  0.6165426  0.406395  
232.4      0.3999776  0.5562     0.336578  
232.5      0.3929788  0.5525435  0.3637269 
232.6      0.387372   0.5437829  0.381705  
232.7      0.3716908  0.5429244  0.4139616 
232.8      0.3676553  0.5293596  0.4198534 
232.9      0.3829548  0.5062359  0.3931384 
233        0.3846666  0.515291   0.3806158 
233.1      0.3498423  0.5792546  0.4424325 
233.2      0.3524734  0.5928455  0.4400553 
233.3      0.3384172  0.6282862  0.4632013 
233.4      0.32685    0.6542602  0.4758177 
233.5      0.2993464  0.7110856  0.5260902 
233.6      0.3070609  0.6926314  0.5148414 
233.7      0.3139336  0.6699527  0.5068918 
233.8      0.323252   0.6451326  0.4939232 
233.9      0.3200334  0.6545882  0.5054513 
234        0.3314469  0.6565464  0.4871332 
234.1      0.3569316  0.6282761  0.44171   
234.2      0.3499922  0.6388981  0.4600924 
234.3      0.3535918  0.6213439  0.457188  
234.4      0.3408262  0.6317638  0.4821671 
234.5      0.3446018  0.6214676  0.4635222 
234.6      0.3303287  0.649008   0.4846981 
234.7      0.3472928  0.6257495  0.4498341 
234.8      0.3522786  0.6238066  0.4319763 
234.9      0.3478647  0.6324886  0.4392258 
235        0.3486575  0.6249502  0.4322911 
235.1      0.3451879  0.6260602  0.4463717 
235.2      0.3449148  0.6242388  0.4492452 
235.3      0.3486316  0.6156123  0.4539103 
235.4      0.3298457  0.6455852  0.4957283 
235.5      0.337414   0.6284143  0.4869394 
235.6      0.3114064  0.6741804  0.5379733 
235.7      0.3119955  0.6692711  0.5486193 
235.8      0.3242978  0.642822   0.5414343 
235.9      0.3290283  0.6321443  0.550387  
236        0.3491492  0.5955835  0.532387  
236.1      0.3819545  0.5463614  0.4799825 
236.2      0.3820931  0.546174   0.4932815 
236.3      0.4083605  0.5137582  0.4480117 
236.4      0.4147257  0.5078348  0.4451762 
236.5      0.3857561  0.5467393  0.5057797 
236.6      0.3573086  0.5910748  0.5477591 
236.7      0.3460617  0.6124617  0.5559157 
236.8      0.3325565  0.6395466  0.5691962 
236.9      0.3225169  0.6641472  0.583302  
237        0.3063631  0.7035536  0.6088823 
237.1      0.3182018  0.6832535  0.5833208 
237.2      0.3168264  0.6882435  0.582871  
237.3      0.3169022  0.6869933  0.5974559 
237.4      0.3085351  0.7031826  0.6165913 
237.5      0.3303936  0.6600456  0.5747761 
237.6      0.3145578  0.694348   0.6045564 
237.7      0.3236707  0.6819153  0.5896545 
237.8      0.332936   0.6692139  0.5788994 
237.9      0.2865715  0.7735341  0.6706018 
238        0.2928684  0.7607824  0.6616221 
238.1      0.336448   0.6722474  0.5755604 
238.2      0.3207574  0.7138329  0.6047961 
238.3      0.3073743  0.7502402  0.6327564 
238.4      0.3100422  0.7483651  0.6238419 
238.5      0.2806843  0.8203372  0.6725041 
238.6      0.2786421  0.8212388  0.6742812 
238.7      0.2624583  0.8686445  0.6949118 
238.8      0.24611    0.9280534  0.72207   
238.9      0.2520407  0.9151171  0.715114  
239        0.2452931  0.9418602  0.7330189 
239.1      0.2717326  0.8523992  0.6790155 
239.2      0.253905   0.9007876  0.7080069 
239.3      0.2391164  0.9447191  0.7275341 
239.4      0.226923   0.9850147  0.7528202 
239.5      0.2517981  0.8868833  0.7100888 
239.6      0.2391576  0.9284322  0.7325791 
239.7      0.2657662  0.8414231  0.6921687 
239.8      0.2462018  0.9116073  0.7434366 
239.9      0.2074014  1          0.830961  
240        0.2243088  1          0.8067424 
240.1      0.2646155  0.8710645  0.7302327 
240.2      0.2479905  0.9231908  0.7667482 
240.3      0.2938539  0.784753   0.6851803 
240.4      0.3224364  0.719602   0.6441271 
240.5      0.3221641  0.7205283  0.6514776 
240.6      0.2690763  0.8532215  0.7620808 
240.7      0.2908472  0.7917842  0.728231  
240.8      0.2694532  0.8533381  0.7702619 
240.9      0.2817529  0.821669   0.7467531 
241        0.2857372  0.81296    0.739591  
241.1      0.2687387  0.8594015  0.7635936 
241.2      0.2969815  0.777059   0.7067626 
241.3      0.3296616  0.7027375  0.6394976 
241.4      0.3415936  0.6807052  0.6073391 
241.5      0.343993   0.6791893  0.597634  
241.6      0.2722151  0.8502705  0.7355347 
241.7      0.3167384  0.738824   0.6499351 
241.8      0.2446285  0.9433441  0.793332  
241.9      0.2451957  0.939265   0.8097541 
242        0.1877123  1          0.917845  
242.1      0.2405872  0.9536117  0.8196248 
242.2      0.232561   0.9811878  0.8413525 
242.3      0.2266433  1          0.860482  
242.4      0.2316347  0.9804444  0.84236   
242.5      0.1969084  1          0.8956142 
242.6      0.2626769  0.8718832  0.7714259 
242.7      0.226543   0.999024   0.8338604 
242.8      0.2169217  1          0.8408145 
242.9      0.2249956  0.9679133  0.8139066 
243        0.2636237  0.8184871  0.7455168 
243.1      0.2734961  0.7885729  0.7222776 
243.2      0.2381274  0.9140678  0.776841  
243.3      0.2110672  1          0.8153739 
243.4      0.2377514  0.9232858  0.7443827 
243.5      0.1991939  1          0.7992193 
243.6      0.1406048  1          0.887886  
243.7      0.1418427  1          0.8676813 
243.8      0.1192618  1          0.911632  
243.9      0.1061365  1          0.9241349 
244        0.1439648  1          0.835693  
244.1      0.1412767  1          0.8355622 
244.2      0.1622048  1          0.8007798 
244.3      0.1492192  1          0.8358054 
244.4      0.1834822  1          0.7763573 
244.5      0.2140586  0.9430023  0.7296413 
244.6      0.189236   1          0.7818013 
244.7      0.250024   0.8338614  0.6717744 
244.8      0.2095675  0.9916363  0.7448508 
244.9      0.1514277  1          0.8554112 
245        0.179205   1          0.8171692 
245.1      0.1947905  1          0.7902653 
245.2      0.2071961  0.9970084  0.7627742 
245.3      0.2227565  0.9238194  0.7363766 
245.4      0.1864203  1          0.8083036 
245.5      0.1949981  1          0.7948247 
245.6      0.2376592  0.8703364  0.7273228 
245.7      0.2496766  0.8333669  0.7225568 
245.8      0.2190994  0.9436299  0.7817864 
245.9      0.2066675  0.9969679  0.8045058 
246        0.1000077  1          0.8275698 
246.1      0.1294423  1          0.7418021 
246.2      0.1263065  1          0.74441   
246.3      0.1305704  1          0.7102875 
246.4      0.1434417  1          0.6641326 
246.5      0.1573796  1          0.5945263 
246.6      0.1874681  0.8339326  0.4994089 
246.7      0.2077999  0.6276596  0.4327076 
246.8      0.19834    0.5907254  0.3986096 
246.9      0.194609   0.6248752  0.3741072 
247        0.1951702  0.7044855  0.3540786 
247.1      0.1833597  0.8304431  0.3750187 
247.2      0.1614482  0.9846882  0.4251316 
247.3      0.18648    0.8670755  0.387012  
247.4      0.2038975  0.792881   0.3485492 
247.5      0.2194719  0.7382036  0.3250347 
247.6      0.2172503  0.7461199  0.3532228 
247.7      0.2305764  0.7037966  0.3391801 
247.8      0.2206737  0.7312962  0.3651355 
247.9      0.2322263  0.7068155  0.3776697 
248        0.2464703  0.6936548  0.361499  
248.1      0.2596817  0.7037875  0.3641429 
248.2      0.2779072  0.7005683  0.3677896 
248.3      0.2892692  0.7010666  0.3717147 
248.4      0.304068   0.6838437  0.3512119 
248.5      0.3179337  0.6597419  0.3335717 
248.6      0.3206869  0.6551782  0.3377763 
248.7      0.3198138  0.6574924  0.3525141 
248.8      0.3385645  0.6218166  0.3176722 
248.9      0.3366851  0.6225842  0.3285365 
249        0.3403511  0.6144308  0.3129067 
249.1      0.3326339  0.6274892  0.3272208 
249.2      0.3420473  0.6118744  0.2930698 
249.3      0.3527501  0.5953308  0.259788  
