~Version
 VERS              .         3.0                           : CWLS LOG ASCII STANDARD - VERSION 3.0
 WRAP              .         NO                            : ONE LINE PER DEPTH STEP
 DLM               .         SPACE                         : DELIMITING CHARACTER(SPACE TAB OR COMMA)
~Well Information
#_______________________________________________________________________________
#
#PARAMETER_NAME    .UNIT     VALUE                         : DESCRIPTION
#_______________________________________________________________________________
STRT               .m        122                           : First reference value
STOP               .m        788                           : Last reference value
STEP               .m        0.1                           : Step increment
NULL               .         -9999                         : Missing value
COMP               .         ICPetroleum                   : Company
WELL               .         310                           : Well name
FLD                .         Karatobe                      : Field
LOC                .                                       : Location
SRVC               .         KF GIS "Kazpromgeophizika"    : Service Company
CTRY               .         KZ                            : Country
DATE               .         12.12.2004                    : Service Date
LATI               .         0                             : Latitude
LONG               .         0                             : Longitude
GDAT               .         WGS 84                        : Geodetic Datum
API                .                                       : API NUMBER
CNTY               .         Kyzyl-Orda                    : 
COORDIN            .                                       : Grid System
COUNTRY            .         Kazakhstan                    : 
COUNTRY            .         Kazakhstan                    : 
EREF               .m        133.5                         : 
KB                 .         134.7                         : KB Elevation
ORIGINALWELLNAME   .         310                           : 
PROV               .                                       : PROVINCE
RWS                .         -999                          : Def_Rw
UWI                .         _                             : 
WST                .         -999                          : Def_Rwt
X                  .km       466595.6                      : 
XCOORD             .                                       : X or East-West Coordinate
Y                  .km       5308644.6                     : 
YCOORD             .                                       : Y or North-South Coordinate
~Parameter Information Block
#_______________________________________________________________________________
#
#PARAMETER_NAME    .UNIT     VALUE                         : DESCRIPTION
#_______________________________________________________________________________
SET                .         Las                           : 
TLFamily_DEPT      .         Measured Depth                : 
TLFamily_PHI_FINAL .         Porosity                      : 
TLFamily_SW_AR     .         Water Saturation              : 
TLFamily_VSH_FINAL .         Shale Volume                  : 
~Curve Information
#_______________________________________________________________________________
#
#LOGNAME           .UNIT     LOG_ID                        : DESCRIPTION
#_______________________________________________________________________________
DEPT               .m                                      : DEPTH {F}
PHI_FINAL          .m3/m3                                  : Porosity {F}
SW_AR              .m3/m3                                  :  {F}
VSH_FINAL          .unitless                               : Vshale {F}
~Ascii
# ...
504        0.03112482 1          0.9824475 
504.1      0.03085766 1          1         
504.2      0.05343285 1          0.9370042 
504.3      0.06499447 1          0.9083881 
504.4      0.06647213 1          0.9002717 
504.5      0.05454636 1          0.9283925 
504.6      0.04789148 1          0.9425632 
504.7      0.05812565 1          0.8882709 
504.8      0.05498349 1          0.9011772 
504.9      0.08177492 1          0.8185413 
505        0.08329367 1          0.7886877 
505.1      0.09439361 1          0.7622359 
505.2      0.09327683 1          0.7857864 
505.3      0.1084017  1          0.7717407 
505.4      0.1354291  1          0.7317314 
505.5      0.1423484  1          0.7390336 
505.6      0.1525995  1          0.7665697 
505.7      0.1494423  1          0.8074348 
505.8      0.1812406  1          0.7426625 
505.9      0.2233543  1          0.6692504 
506        0.2572718  1          0.6010693 
506.1      0.282822   0.9449929  0.5502695 
506.2      0.3034425  0.8933315  0.4870243 
506.3      0.3084718  0.8701192  0.4697491 
506.4      0.2873791  0.8910277  0.514102  
506.5      0.2913667  0.8356808  0.4875333 
506.6      0.2995349  0.8296989  0.4434248 
506.7      0.2516971  1          0.4956159 
506.8      0.216488   1          0.5513143 
506.9      0.158153   1          0.6176777 
507        0.1071729  1          0.7371961 
507.1      0.0665333  1          0.8379676 
507.2      0.04876621 1          0.8785639 
507.3      0.03185483 1          0.9358492 
507.4      0.02269016 1          0.9627025 
507.5      0.03196452 1          0.9137958 
507.6      0.03088039 1          0.8981587 
507.7      0.02309727 1          0.9309793 
507.8      0.01093937 1          1         
507.9      0.01953877 1          0.9404005 
508        0.02723799 1          0.9011633 
508.1      0.02770199 1          0.88665   
508.2      0.02835925 1          0.8835381 
508.3      0.01405905 1          0.9410895 
508.4      0.01613938 1          0.9238327 
508.5      0.04164204 1          0.8229397 
508.6      0.02402674 1          0.876877  
508.7      0.009620443 1          0.962429  
508.8      0.01264422 1          0.9472591 
508.9      0.01629326 1          0.9371448 
509        0.01413281 1          0.9615263 
509.1      0.01358592 1          0.973112  
509.2      0.02279939 1          0.9348166 
509.3      0.03236253 1          0.9056295 
509.4      0.04141226 1          0.904097  
509.5      0.03827935 1          0.9349083 
509.6      0.05071721 1          0.9111364 
509.7      0.04837657 1          0.92503   
509.8      0.06380694 1          0.8947377 
509.9      0.0971757  1          0.8107195 
510        0.1032519  1          0.8030081 
510.1      0.1150511  1          0.7817121 
510.2      0.1319598  1          0.7458445 
510.3      0.1480088  1          0.7165752 
510.4      0.1753636  1          0.6684682 
510.5      0.1995641  1          0.619083  
510.6      0.2225558  1          0.5839337 
510.7      0.2593393  1          0.4989555 
510.8      0.2784235  0.9640612  0.4526566 
510.9      0.3145914  0.8521011  0.3620171 
511        0.3258098  0.7817774  0.3381503 
511.1      0.3288756  0.7467055  0.3447604 
511.2      0.3059611  0.8304706  0.3876303 
511.3      0.285316   0.9308332  0.4303888 
511.4      0.2408818  1          0.4787565 
511.5      0.1952731  1          0.5690683 
511.6      0.1746849  1          0.6099744 
511.7      0.1707418  1          0.6148463 
511.8      0.1542016  1          0.635763  
511.9      0.1211143  1          0.7028887 
512        0.1283855  1          0.6697879 
512.1      0.08972497 1          0.7538562 
512.2      0.07378662 1          0.7832283 
512.3      0.0696446  1          0.780869  
512.4      0.06607401 1          0.7875492 
512.5      0.09413169 1          0.7143525 
512.6      0.1171211  1          0.6637717 
512.7      0.1181508  1          0.6681257 
512.8      0.1086091  1          0.7033802 
512.9      0.1367413  1          0.620741  
513        0.1407836  1          0.610565  
513.1      0.1497356  1          0.5777621 
513.2      0.1605088  1          0.5395415 
513.3      0.1469133  1          0.5678336 
513.4      0.1610633  1          0.5115922 
513.5      0.1612876  1          0.5002315 
513.6      0.1579199  1          0.4928966 
513.7      0.157593   1          0.4825647 
513.8      0.1692538  1          0.4518881 
513.9      0.2261145  0.8259612  0.3525415 
514        0.2674539  0.7292255  0.3105182 
514.1      0.3010211  0.7166857  0.3092771 
514.2      0.3094588  0.7274687  0.3386289 
514.3      0.3264011  0.6964342  0.3568506 
514.4      0.3639488  0.6275865  0.3120736 
514.5      0.3779779  0.619761   0.2995224 
514.6      0.3670103  0.6699704  0.3307758 
514.7      0.3289096  0.7512394  0.4019868 
514.8      0.3234711  0.7400581  0.3892524 
514.9      0.2591284  0.8912753  0.4788326 
515        0.2366493  0.9475678  0.5162853 
515.1      0.190525   1          0.5550206 
515.2      0.1726087  1          0.5884221 
515.3      0.1717945  1          0.593295  
515.4      0.2000347  0.9524147  0.5214558 
515.5      0.1984767  0.9832059  0.534992  
515.6      0.2275504  0.8604385  0.4519857 
515.7      0.2148648  0.8880156  0.4725788 
515.8      0.2170733  0.8507414  0.4635275 
515.9      0.2302493  0.7901247  0.4418035 
516        0.2219747  0.810272   0.4486281 
516.1      0.2262065  0.7553073  0.4268955 
516.2      0.241126   0.6865558  0.3718976 
516.3      0.2394803  0.6714934  0.3835197 
516.4      0.2403053  0.6601251  0.3738676 
516.5      0.2451037  0.6452305  0.356444  
516.6      0.2422997  0.6546053  0.3626877 
516.7      0.2408214  0.662024   0.3519231 
516.8      0.2471164  0.6505253  0.3184724 
516.9      0.2388527  0.6733338  0.315979  
517        0.2486714  0.6438517  0.2773705 
517.1      0.229643   0.6711352  0.2865782 
517.2      0.2180722  0.6672494  0.287951  
517.3      0.1940004  0.6735603  0.2864346 
517.4      0.1854348  0.6352824  0.2617615 
517.5      0.1760707  0.6367717  0.2415655 
517.6      0.1663984  0.6679023  0.2488365 
517.7      0.1581728  0.7187208  0.2553084 
517.8      0.153173   0.7952813  0.2782634 
517.9      0.166685   0.7987059  0.2872275 
518        0.1626645  0.9030811  0.3352229 
518.1      0.1835761  0.8697768  0.3431715 
518.2      0.195745   0.8383489  0.3665177 
518.3      0.2129713  0.7732261  0.3787541 
518.4      0.2256236  0.7254054  0.3596935 
518.5      0.2293873  0.7248844  0.3504427 
518.6      0.2215233  0.7815112  0.3705235 
518.7      0.1936496  0.954989   0.443153  
518.8      0.1842652  1          0.4716992 
518.9      0.1567443  1          0.5943694 
519        0.129324   1          0.6826537 
519.1      0.09775636 1          0.8151362 
519.2      0.08827117 1          0.8439097 
519.3      0.07574686 1          0.8706689 
519.4      0.04767011 1          0.9384009 
519.5      0.04607161 1          0.9172617 
519.6      0.04625904 1          0.882322  
519.7      0.06644508 1          0.7748971 
519.8      0.05034443 1          0.7651261 
519.9      0.0411867  1          0.7430852 
520        0.02483346 1          0.7387084 
520.1      0.01257241 1          0.7291611 
520.2      0.01170683 1          0.7435759 
520.3      0.01068491 1          0.78242   
520.4      0.01419245 1          0.7467057 
520.5      0.01843172 1          0.7188793 
520.6      0.03656134 1          0.7159527 
520.7      0.08695537 1          0.6189253 
520.8      0.1054806  1          0.6305422 
520.9      0.1500354  1          0.5913302 
521        0.181921   1          0.5687273 
521.1      0.2527926  0.9763156  0.4641036 
521.2      0.2888453  0.8267059  0.436864  
521.3      0.3562402  0.6235282  0.3291966 
521.4      0.3910687  0.545346   0.2655012 
521.5      0.4153649  0.5195972  0.2090233 
521.6      0.4018735  0.5830457  0.2231868 
521.7      0.3766703  0.645125   0.2554588 
521.8      0.3520954  0.6949294  0.290511  
521.9      0.2843354  0.8420228  0.3799192 
522        0.2514034  0.9543476  0.4009833 
522.1      0.2109404  1          0.4502077 
