~Version
 VERS              .         3.0                           : CWLS LOG ASCII STANDARD - VERSION 3.0
 WRAP              .         NO                            : ONE LINE PER DEPTH STEP
 DLM               .         SPACE                         : DELIMITING CHARACTER(SPACE TAB OR COMMA)
~Well Information
#_______________________________________________________________________________
#
#PARAMETER_NAME    .UNIT     VALUE                         : DESCRIPTION
#_______________________________________________________________________________
STRT               .m        122                           : First reference value
STOP               .m        788                           : Last reference value
STEP               .m        0.1                           : Step increment
NULL               .         -9999                         : Missing value
COMP               .         ICPetroleum                   : Company
WELL               .         310                           : Well name
FLD                .         Karatobe                      : Field
LOC                .                                       : Location
SRVC               .         KF GIS "Kazpromgeophizika"    : Service Company
CTRY               .         KZ                            : Country
DATE               .         12.12.2004                    : Service Date
LATI               .         0                             : Latitude
LONG               .         0                             : Longitude
GDAT               .         WGS 84                        : Geodetic Datum
API                .                                       : API NUMBER
CNTY               .         Kyzyl-Orda                    : 
COORDIN            .                                       : Grid System
COUNTRY            .         Kazakhstan                    : 
COUNTRY            .         Kazakhstan                    : 
EREF               .m        133.5                         : 
KB                 .         134.7                         : KB Elevation
ORIGINALWELLNAME   .         310                           : 
PROV               .                                       : PROVINCE
RWS                .         -999                          : Def_Rw
UWI                .         _                             : 
WST                .         -999                          : Def_Rwt
X                  .km       466595.6                      : 
XCOORD             .                                       : X or East-West Coordinate
Y                  .km       5308644.6                     : 
YCOORD             .                                       : Y or North-South Coordinate
~Parameter Information Block
#_______________________________________________________________________________
#
#PARAMETER_NAME    .UNIT     VALUE                         : DESCRIPTION
#_______________________________________________________________________________
SET                .         Las                           : 
TLFamily_DEPT      .         Measured Depth                : 
TLFamily_PHI_FINAL .         Porosity                      : 
TLFamily_SW_AR     .         Water Saturation              : 
TLFamily_VSH_FINAL .         Shale Volume                  : 
~Curve Information
#_______________________________________________________________________________
#
#LOGNAME           .UNIT     LOG_ID                        : DESCRIPTION
#_______________________________________________________________________________
DEPT               .m                                      : DEPTH {F}
PHI_FINAL          .m3/m3                                  : Porosity {F}
SW_AR              .m3/m3                                  :  {F}
VSH_FINAL          .unitless                               : Vshale {F}
~Ascii
# ...
467.7      0.006115563 1          1         
467.8      0.00640579 1          1         
467.9      0.006053108 1          1         
468        0.008999122 1          0.9688588 
468.1      0.03090793 1          0.8549511 
468.2      0.04191756 1          0.8184799 
468.3      0.0434223  1          0.8192423 
468.4      0.03831656 1          0.8441933 
468.5      0.03062389 1          0.8730721 
468.6      0.02041529 1          0.9088419 
468.7      0.01392275 1          0.9544637 
468.8      0.02273485 1          0.9061833 
468.9      0.004816861 1          1         
469        0.01183024 1          0.9336401 
469.1      0.0115295  1          0.9298174 
469.2      0.003675325 1          0.9864532 
469.3      0.008617613 1          0.9347197 
469.4      0.01870758 1          0.8680469 
469.5      0.01691433 1          0.8704644 
469.6      0.005044609 1          0.9623128 
469.7      0.005402153 1          0.9480856 
469.8      0.005276989 1          0.9412266 
469.9      0.008589325 1          0.8995237 
470        0.006800608 1          0.9350201 
470.1      0.003591982 1          0.9735854 
470.2      0.007535159 1          0.9224988 
470.3      0.02129818 1          0.842648  
470.4      0.03159829 1          0.8066962 
470.5      0.01262245 1          0.8925991 
470.6      0.01955016 1          0.8677455 
470.7      0.01928419 1          0.8745575 
470.8      0.01549357 1          0.900525  
470.9      0.01331143 1          0.9155182 
471        0.02055523 1          0.8783724 
471.1      0.006160751 1          0.9840034 
471.2      0.004998826 1          1         
471.3      0.005219614 1          1         
471.4      0.006996688 1          1         
471.5      0.006998261 1          1         
471.6      0.00786695 1          1         
471.7      0.005273806 1          1         
471.8      0.004320814 1          1         
471.9      0.003686917 1          1         
472        0.003593293 1          1         
472.1      0.004001644 1          1         
472.2      0.003609161 1          1         
472.3      0.003797444 1          1         
472.4      0.004456507 1          1         
472.5      0.002818191 1          1         
472.6      0.002081863 1          1         
472.7      0.001638531 1          1         
472.8      0.001910108 1          0.9833946 
472.9      0.003531652 1          0.9512385 
473        0.002266748 1          0.958887  
473.1      0          1          1         
473.2      0          1          1         
473.3      0          1          1         
473.4      0          1          1         
473.5      0.000618828 1          0.8959233 
473.6      0.005436407 1          0.8070481 
473.7      0.01245322 1          0.7569579 
473.8      0.04184769 1          0.6076211 
473.9      0.06173171 1          0.557982  
474        0.08114611 1          0.5161017 
474.1      0.1094145  1          0.4796763 
474.2      0.1148229  1          0.5036524 
474.3      0.09237854 1          0.5852367 
474.4      0.0776665  1          0.6096709 
474.5      0.07077524 1          0.5976439 
474.6      0.0603047  1          0.5955979 
474.7      0.05616137 1          0.603774  
474.8      0.05458284 1          0.6176134 
474.9      0.04995152 1          0.6332867 
475        0.04416098 1          0.6870626 
475.1      0.04439032 1          0.7165551 
475.2      0.04323202 1          0.7108778 
475.3      0.03886015 1          0.7262785 
475.4      0.05639486 1          0.6956844 
475.5      0.02149562 1          0.8099091 
475.6      0.02446989 1          0.834509  
475.7      0.03937982 1          0.7976924 
475.8      0.03938062 1          0.8078546 
475.9      0.02800447 1          0.8264428 
476        0.01057353 1          0.893255  
476.1      0.02009139 1          0.8529552 
476.2      0.01940124 1          0.8683342 
476.3      0.02148484 1          0.8682133 
476.4      0.02188015 1          0.8720051 
476.5      0.01290041 1          0.9352348 
476.6      0.005520196 1          1         
476.7      0.008664297 1          1         
476.8      0.01018178 1          1         
476.9      0.01157516 1          1         
477        0.0149601  1          1         
477.1      0.02102642 1          1         
477.2      0.03005505 1          1         
477.3      0.03777798 1          1         
477.4      0.0430134  1          1         
477.5      0.05705495 1          1         
477.6      0.0643133  1          1         
477.7      0.1942896  1          0.6885569 
477.8      0.2553515  0.9905612  0.5507243 
477.9      0.2698866  0.9489343  0.5328683 
478        0.3216708  0.799175   0.424209  
478.1      0.3443414  0.7434963  0.3625266 
478.2      0.3545919  0.71885    0.3085398 
478.3      0.3289825  0.7713802  0.3464092 
478.4      0.2844533  0.8843035  0.4219429 
478.5      0.2436938  1          0.4703673 
478.6      0.2172036  1          0.5168825 
478.7      0.2295215  1          0.5103452 
478.8      0.2342152  1          0.5306608 
478.9      0.2183242  1          0.5804695 
479        0.1972061  1          0.6511171 
479.1      0.1756728  1          0.7118385 
479.2      0.1593947  1          0.7562608 
479.3      0.2088345  1          0.6565524 
479.4      0.2156636  1          0.6625556 
479.5      0.2955916  0.9137722  0.4814046 
479.6      0.3465362  0.7699488  0.3434578 
479.7      0.3541379  0.7432114  0.2903771 
479.8      0.3379133  0.7808958  0.2642161 
479.9      0.3084088  0.8577343  0.3080036 
480        0.2372379  1          0.4092959 
480.1      0.2089895  1          0.4624818 
480.2      0.2048575  1          0.4718426 
480.3      0.1823588  1          0.5089477 
480.4      0.1778594  1          0.528019  
480.5      0.1769935  1          0.521803  
480.6      0.1662445  1          0.5391834 
480.7      0.1592791  1          0.5532169 
480.8      0.1596129  1          0.556839  
480.9      0.153006   1          0.5704807 
481        0.1306283  1          0.6391189 
481.1      0.1265959  1          0.6681362 
481.2      0.1061284  1          0.7315664 
481.3      0.09910987 1          0.7499217 
481.4      0.09579483 1          0.7769347 
481.5      0.09588949 1          0.8003411 
481.6      0.08122505 1          0.8816252 
481.7      0.1146625  1          0.8381404 
481.8      0.1488206  1          0.8062044 
481.9      0.1786508  1          0.7764128 
482        0.1934927  1          0.7955579 
482.1      0.2317557  1          0.745127  
482.2      0.290178   0.8049036  0.6400588 
482.3      0.3698219  0.624009   0.4546677 
482.4      0.4052925  0.5754219  0.3485309 
482.5      0.4512061  0.528569   0.2164101 
482.6      0.4522187  0.5380203  0.1828227 
482.7      0.404143   0.608774   0.21854   
482.8      0.3588098  0.6854244  0.2650315 
482.9      0.3108476  0.7801988  0.3036032 
483        0.2640305  0.9006465  0.3839623 
483.1      0.2573658  0.9176178  0.3848203 
483.2      0.2351421  0.9913203  0.4188315 
483.3      0.2100026  1          0.4648511 
483.4      0.2019223  1          0.4661173 
483.5      0.1868456  1          0.4946586 
483.6      0.1843289  1          0.4958527 
483.7      0.1965     1          0.4511042 
483.8      0.1633106  1          0.5131172 
483.9      0.1800196  1          0.4650567 
484        0.1755837  1          0.4788854 
484.1      0.1625543  1          0.4865858 
484.2      0.1493488  1          0.506317  
484.3      0.1554192  1          0.4811555 
484.4      0.1591841  1          0.4719492 
484.5      0.1613481  1          0.4708279 
484.6      0.1582204  1          0.4761258 
484.7      0.1824193  1          0.4328009 
484.8      0.1849411  1          0.4086545 
484.9      0.1937751  1          0.3971609 
485        0.2193841  1          0.349961  
485.1      0.2417587  0.9380886  0.3169044 
485.2      0.2617186  0.8677711  0.2776009 
485.3      0.2764403  0.8224216  0.2674049 
485.4      0.2795457  0.821633   0.2789353 
485.5      0.3001304  0.7832811  0.2391617 
485.6      0.2964732  0.8130654  0.2484858 
485.7      0.301882   0.8095713  0.2447389 
