~Version
 VERS              .         3.0                           : CWLS LOG ASCII STANDARD - VERSION 3.0
 WRAP              .         NO                            : ONE LINE PER DEPTH STEP
 DLM               .         SPACE                         : DELIMITING CHARACTER(SPACE TAB OR COMMA)
~Well Information
#_______________________________________________________________________________
#
#PARAMETER_NAME    .UNIT     VALUE                         : DESCRIPTION
#_______________________________________________________________________________
STRT               .m        122                           : First reference value
STOP               .m        788                           : Last reference value
STEP               .m        0.1                           : Step increment
NULL               .         -9999                         : Missing value
COMP               .         ICPetroleum                   : Company
WELL               .         310                           : Well name
FLD                .         Karatobe                      : Field
LOC                .                                       : Location
SRVC               .         KF GIS "Kazpromgeophizika"    : Service Company
CTRY               .         KZ                            : Country
DATE               .         12.12.2004                    : Service Date
LATI               .         0                             : Latitude
LONG               .         0                             : Longitude
GDAT               .         WGS 84                        : Geodetic Datum
API                .                                       : API NUMBER
CNTY               .         Kyzyl-Orda                    : 
COORDIN            .                                       : Grid System
COUNTRY            .         Kazakhstan                    : 
COUNTRY            .         Kazakhstan                    : 
EREF               .m        133.5                         : 
KB                 .         134.7                         : KB Elevation
ORIGINALWELLNAME   .         310                           : 
PROV               .                                       : PROVINCE
RWS                .         -999                          : Def_Rw
UWI                .         _                             : 
WST                .         -999                          : Def_Rwt
X                  .km       466595.6                      : 
XCOORD             .                                       : X or East-West Coordinate
Y                  .km       5308644.6                     : 
YCOORD             .                                       : Y or North-South Coordinate
~Parameter Information Block
#_______________________________________________________________________________
#
#PARAMETER_NAME    .UNIT     VALUE                         : DESCRIPTION
#_______________________________________________________________________________
SET                .         Las                           : 
TLFamily_DEPT      .         Measured Depth                : 
TLFamily_PHI_FINAL .         Porosity                      : 
TLFamily_SW_AR     .         Water Saturation              : 
TLFamily_VSH_FINAL .         Shale Volume                  : 
~Curve Information
#_______________________________________________________________________________
#
#LOGNAME           .UNIT     LOG_ID                        : DESCRIPTION
#_______________________________________________________________________________
DEPT               .m                                      : DEPTH {F}
PHI_FINAL          .m3/m3                                  : Porosity {F}
SW_AR              .m3/m3                                  :  {F}
VSH_FINAL          .unitless                               : Vshale {F}
~Ascii
# ...
267.6      0.3702995  0.5886583  0.2132934 
267.7      0.3612683  0.6026549  0.2081782 
267.8      0.3638144  0.6004655  0.2047847 
267.9      0.3644265  0.601759   0.1953329 
268        0.3608027  0.6075625  0.208983  
268.1      0.3591368  0.6062108  0.2088035 
268.2      0.3424182  0.6279266  0.2322839 
268.3      0.3408177  0.6257348  0.2119387 
268.4      0.3407934  0.6246567  0.2057521 
268.5      0.3466599  0.6172908  0.1974086 
268.6      0.3543087  0.6089135  0.1833992 
268.7      0.3628149  0.599797   0.1864278 
268.8      0.3602687  0.6078876  0.2182856 
268.9      0.3585844  0.6127121  0.2375331 
269        0.3658461  0.6007657  0.2426685 
269.1      0.3767757  0.5814078  0.239397  
269.2      0.3834319  0.5682735  0.2252892 
269.3      0.381181   0.5685472  0.2285372 
269.4      0.3818573  0.5665596  0.2231632 
269.5      0.3913758  0.5543721  0.192472  
269.6      0.3879126  0.5596825  0.2003926 
269.7      0.3819081  0.5657748  0.1969423 
269.8      0.3806358  0.5627018  0.1924142 
269.9      0.3864429  0.5486115  0.1828757 
270        0.3842171  0.5474225  0.1808511 
270.1      0.3856624  0.5446854  0.1663956 
270.2      0.3878837  0.5438294  0.148938  
270.3      0.3851581  0.5498976  0.1409093 
270.4      0.3794004  0.5583903  0.1468492 
270.5      0.3833919  0.5509595  0.1530097 
270.6      0.3741401  0.5616586  0.1680751 
270.7      0.3828633  0.5504256  0.1464356 
270.8      0.3793163  0.5613924  0.1634681 
270.9      0.3795729  0.5701041  0.166605  
271        0.3821028  0.5712798  0.16835   
271.1      0.3848763  0.5665778  0.1706551 
271.2      0.3840125  0.5663359  0.1684535 
271.3      0.3837554  0.5693582  0.1771505 
271.4      0.3822165  0.5774023  0.1767818 
271.5      0.3649583  0.6071829  0.2163773 
271.6      0.3500953  0.6309823  0.2658473 
271.7      0.3198967  0.6853776  0.3257984 
271.8      0.2595345  0.8366338  0.4415866 
271.9      0.2269521  0.9540391  0.525926  
272        0.1841577  1          0.6423908 
272.1      0.1582023  1          0.6978335 
272.2      0.1523031  1          0.7004789 
272.3      0.1749282  1          0.629684  
272.4      0.1782176  1          0.603513  
272.5      0.1711711  1          0.6210853 
272.6      0.1366986  1          0.6937482 
272.7      0.1291387  1          0.6968005 
272.8      0.1364039  1          0.666546  
272.9      0.1415975  1          0.6347492 
273        0.1409655  1          0.6279066 
273.1      0.1422732  1          0.6044058 
273.2      0.1272143  1          0.6338976 
273.3      0.1360702  1          0.6023832 
273.4      0.1420602  1          0.5863866 
273.5      0.1357137  1          0.60481   
273.6      0.1139327  1          0.6476043 
273.7      0.113151   1          0.660646  
273.8      0.1169128  1          0.6661932 
273.9      0.1144786  1          0.6616613 
274        0.1288838  1          0.6450694 
274.1      0.133135   1          0.6516892 
274.2      0.13099    1          0.6543772 
274.3      0.1199765  1          0.6889004 
274.4      0.1359586  1          0.6664266 
274.5      0.1158974  1          0.7197129 
274.6      0.1045597  1          0.7388945 
274.7      0.1037468  1          0.743678  
274.8      0.1118076  1          0.7331515 
274.9      0.105902   1          0.7452428 
275        0.1113564  1          0.7408977 
275.1      0.107296   1          0.7775887 
275.2      0.1479922  1          0.6756214 
275.3      0.1571784  1          0.6497811 
275.4      0.1288141  1          0.7082333 
275.5      0.1052658  1          0.7761931 
275.6      0.1181127  1          0.7491673 
275.7      0.1483363  1          0.6637702 
275.8      0.1358403  1          0.6795467 
275.9      0.1399752  1          0.6567662 
276        0.1550426  1          0.6358306 
276.1      0.1265434  1          0.7210498 
276.2      0.1194796  1          0.7645683 
276.3      0.1136673  1          0.7761862 
276.4      0.1153888  1          0.7705294 
276.5      0.1087297  1          0.7866696 
276.6      0.1118244  1          0.8031132 
276.7      0.14222    1          0.7217141 
276.8      0.1468652  1          0.717714  
276.9      0.1417129  1          0.7223692 
277        0.155914   1          0.6625322 
277.1      0.1433948  1          0.6832097 
277.2      0.1270047  1          0.6812554 
277.3      0.1429774  1          0.6080935 
277.4      0.1361663  1          0.5916367 
277.5      0.1479338  1          0.5568606 
277.6      0.1698727  1          0.5061615 
277.7      0.1835608  1          0.4952464 
277.8      0.1556216  1          0.5940382 
277.9      0.1555773  1          0.609446  
278        0.1446085  1          0.6099203 
278.1      0.1369791  1          0.6272152 
278.2      0.1078826  1          0.6981536 
278.3      0.1332715  1          0.6462211 
278.4      0.1120603  1          0.6981606 
278.5      0.1133178  1          0.7018535 
278.6      0.1094659  1          0.7119583 
278.7      0.0627808  1          0.8325219 
278.8      0.09476428 1          0.7385054 
278.9      0.08814318 1          0.7508717 
279        0.1010539  1          0.7045153 
279.1      0.09623954 1          0.7135785 
279.2      0.0950992  1          0.7218778 
279.3      0.08275836 1          0.74128   
279.4      0.06206752 1          0.7940288 
279.5      0.04813575 1          0.8443888 
279.6      0.05919626 1          0.8071003 
279.7      0.05519965 1          0.8069779 
279.8      0.07166614 1          0.7536861 
279.9      0.06637157 1          0.7551508 
280        0.05138402 1          0.791661  
280.1      0.04583875 1          0.8173208 
280.2      0.03993066 1          0.856025  
280.3      0.01714782 1          0.9290587 
280.4      0.008714403 1          1         
280.5      0.008269579 1          1         
280.6      0.009049933 1          1         
280.7      0.02418282 1          0.9211549 
280.8      0.009658758 1          0.9974821 
280.9      0.01210139 1          0.9843292 
281        0.06750941 1          0.8089782 
281.1      0.06426059 1          0.7988421 
281.2      0.05157251 1          0.8434308 
281.3      0.07293744 1          0.7986007 
281.4      0.06236331 1          0.8288448 
281.5      0.06487    1          0.8235868 
281.6      0.09806644 1          0.75257   
281.7      0.06003668 1          0.8621407 
281.8      0.04698946 1          0.9003494 
281.9      0.07597896 1          0.8395452 
282        0.069262   1          0.8835667 
282.1      0.05058584 1          0.9373302 
282.2      0.08256878 1          0.8491227 
282.3      0.05549387 1          0.9132017 
282.4      0.04142758 1          0.948735  
282.5      0.06095925 1          0.8782207 
282.6      0.07016403 1          0.8476003 
282.7      0.09833883 1          0.7719858 
282.8      0.1262712  1          0.7193675 
282.9      0.1071936  1          0.7779752 
283        0.09104395 1          0.8295143 
283.1      0.1020521  1          0.8271855 
283.2      0.1115854  1          0.8129962 
283.3      0.1227476  1          0.7592227 
283.4      0.1189543  1          0.7684308 
283.5      0.1157598  1          0.787966  
283.6      0.1225657  1          0.7647806 
283.7      0.1281626  1          0.7366959 
283.8      0.1371912  1          0.72653   
283.9      0.1216304  1          0.7749666 
284        0.08288965 1          0.8795322 
284.1      0.06206027 1          0.9456285 
284.2      0.06268092 1          0.9347709 
284.3      0.09505983 1          0.8281152 
284.4      0.140176   1          0.7196203 
284.5      0.1153672  1          0.7793465 
284.6      0.0994264  1          0.8257839 
284.7      0.08269911 1          0.8840103 
284.8      0.08981864 1          0.8743234 
284.9      0.08975194 1          0.8558788 
285        0.09730551 1          0.8151059 
285.1      0.1095912  1          0.793565  
285.2      0.1077266  1          0.7899266 
285.3      0.08735272 1          0.821259  
285.4      0.09963097 1          0.7707084 
285.5      0.1100196  1          0.7329924 
285.6      0.149553   1          0.6594004 
285.7      0.138653   1          0.6823459 
