~Version
 VERS              .         3.0                           : CWLS LOG ASCII STANDARD - VERSION 3.0
 WRAP              .         NO                            : ONE LINE PER DEPTH STEP
 DLM               .         SPACE                         : DELIMITING CHARACTER(SPACE TAB OR COMMA)
~Well Information
#_______________________________________________________________________________
#
#PARAMETER_NAME    .UNIT     VALUE                         : DESCRIPTION
#_______________________________________________________________________________
STRT               .m        122                           : First reference value
STOP               .m        788                           : Last reference value
STEP               .m        0.1                           : Step increment
NULL               .         -9999                         : Missing value
COMP               .         ICPetroleum                   : Company
WELL               .         310                           : Well name
FLD                .         Karatobe                      : Field
LOC                .                                       : Location
SRVC               .         KF GIS "Kazpromgeophizika"    : Service Company
CTRY               .         KZ                            : Country
DATE               .         12.12.2004                    : Service Date
LATI               .         0                             : Latitude
LONG               .         0                             : Longitude
GDAT               .         WGS 84                        : Geodetic Datum
API                .                                       : API NUMBER
CNTY               .         Kyzyl-Orda                    : 
COORDIN            .                                       : Grid System
COUNTRY            .         Kazakhstan                    : 
COUNTRY            .         Kazakhstan                    : 
EREF               .m        133.5                         : 
KB                 .         134.7                         : KB Elevation
ORIGINALWELLNAME   .         310                           : 
PROV               .                                       : PROVINCE
RWS                .         -999                          : Def_Rw
UWI                .         _                             : 
WST                .         -999                          : Def_Rwt
X                  .km       466595.6                      : 
XCOORD             .                                       : X or East-West Coordinate
Y                  .km       5308644.6                     : 
YCOORD             .                                       : Y or North-South Coordinate
~Parameter Information Block
#_______________________________________________________________________________
#
#PARAMETER_NAME    .UNIT     VALUE                         : DESCRIPTION
#_______________________________________________________________________________
SET                .         Las                           : 
TLFamily_DEPT      .         Measured Depth                : 
TLFamily_PHI_FINAL .         Porosity                      : 
TLFamily_SW_AR     .         Water Saturation              : 
TLFamily_VSH_FINAL .         Shale Volume                  : 
~Curve Information
#_______________________________________________________________________________
#
#LOGNAME           .UNIT     LOG_ID                        : DESCRIPTION
#_______________________________________________________________________________
DEPT               .m                                      : DEPTH {F}
PHI_FINAL          .m3/m3                                  : Porosity {F}
SW_AR              .m3/m3                                  :  {F}
VSH_FINAL          .unitless                               : Vshale {F}
~Ascii
# ...
595        0.02803602 1          0.7805449 
595.1      0.03698964 1          0.7802495 
595.2      0.06406414 1          0.7223051 
595.3      0.134501   1          0.595329  
595.4      0.190217   1          0.4874745 
595.5      0.222082   1          0.4450997 
595.6      0.2863639  1          0.3454709 
595.7      0.316294   0.9702465  0.2705437 
595.8      0.3020574  1          0.2761084 
595.9      0.2274917  1          0.3724872 
596        0.1587498  1          0.4453405 
596.1      0.07307133 1          0.5647917 
596.2      0.02665723 1          0.6412122 
596.3      0.005586783 1          0.70539   
596.4      0.003824661 1          0.7152199 
596.5      0.00590845 1          0.6720729 
596.6      0.00826812 1          0.6585565 
596.7      0.005850345 1          0.6948998 
596.8      0.003786611 1          0.7436593 
596.9      0.002096863 1          0.8006755 
597        0.01031262 1          0.7400995 
597.1      0.004321336 1          0.7908875 
597.2      0.002263851 1          0.8336979 
597.3      0          1          0.9142008 
597.4      0          1          0.8890281 
597.5      0.001348172 1          0.8655707 
597.6      0.002188433 1          0.8399515 
597.7      0.002003965 1          0.8234298 
597.8      0          1          0.8605049 
597.9      0          1          0.8561166 
598        0.0009985055 1          0.7891887 
598.1      0.009658543 1          0.6972432 
598.2      0.01585208 1          0.6475985 
598.3      0.0387247  1          0.5812157 
598.4      0.02615177 1          0.6218605 
598.5      0.01885341 1          0.6158901 
598.6      0.03780124 1          0.5831268 
598.7      0.04857567 1          0.5504628 
598.8      0.06889095 1          0.5168105 
598.9      0.06181019 1          0.5440421 
599        0.06514473 1          0.5517132 
599.1      0.03841058 1          0.6186312 
599.2      0.04122705 1          0.6390764 
599.3      0.0375368  1          0.6956869 
599.4      0.02659239 1          0.7588287 
599.5      0.02140115 1          0.791447  
599.6      0.02353493 1          0.7852164 
599.7      0.01328316 1          0.8225439 
599.8      0.002021008 1          0.8809599 
599.9      0          1          0.8874279 
600        0          1          0.9046373 
600.1      0          1          0.8555828 
600.2      0.002396324 1          0.8277827 
600.3      0.01056705 1          0.7845187 
600.4      0.03192043 1          0.7233154 
600.5      0.03820485 1          0.7069327 
600.6      0.01223108 1          0.7979007 
600.7      0.003925484 1          0.8613189 
600.8      0.002012802 1          0.9640914 
600.9      0.002657454 1          0.9585145 
601        0.004839757 1          0.9256117 
601.1      0.009020329 1          0.9179692 
601.2      0.006119842 1          0.9880621 
601.3      0.007440688 1          0.8893175 
601.4      0.00405751 1          0.9618905 
601.5      0.0001177406 1          0.9796795 
601.6      0.0000996  1          0.9602121 
601.7      0.001384075 1          0.9380891 
601.8      0.002649207 1          0.9209786 
601.9      0.003860473 1          0.8565593 
602        0.01217674 1          0.8065029 
602.1      0.003836427 1          0.8047882 
602.2      0.01015592 1          0.7653441 
602.3      0.01477922 1          0.7111074 
602.4      0.01132815 1          0.7368029 
602.5      0.005360638 1          0.7927895 
602.6      0          1          0.9532715 
602.7      0          1          1         
602.8      0          1          1         
602.9      0          1          1         
603        0          1          1         
603.1      0          1          1         
603.2      0          1          1         
603.3      0.002839215 1          0.9305626 
603.4      0.002721768 1          0.9394315 
603.5      0.008292262 1          0.8588243 
603.6      0.01100968 1          0.8447393 
603.7      0.01118939 1          0.8446301 
603.8      0.01060883 1          0.8593428 
603.9      0.01006774 1          0.8690977 
604        0.01043318 1          0.8518929 
604.1      0.01728958 1          0.8067569 
604.2      0.02793301 1          0.7689975 
604.3      0.0612798  1          0.6608515 
604.4      0.06538557 1          0.6449449 
604.5      0.07549707 1          0.6137479 
604.6      0.07750729 1          0.6117854 
604.7      0.09798984 1          0.566834  
604.8      0.1047901  1          0.5497856 
604.9      0.09553187 1          0.5742475 
605        0.1027862  1          0.5744787 
605.1      0.1161757  1          0.5419128 
605.2      0.1164277  1          0.5380445 
605.3      0.114611   1          0.5439142 
605.4      0.1179476  1          0.5281639 
605.5      0.1161937  1          0.5396908 
605.6      0.1239301  1          0.4991605 
605.7      0.1130981  1          0.5255018 
605.8      0.1118529  1          0.5112926 
605.9      0.103626   1          0.5123122 
606        0.1021185  1          0.4875973 
606.1      0.111233   1          0.4549529 
606.2      0.1252373  1          0.4213188 
606.3      0.1591286  1          0.3369441 
606.4      0.178159   1          0.2998066 
606.5      0.1782512  1          0.3112895 
606.6      0.1594724  1          0.355478  
606.7      0.146906   1          0.3730398 
606.8      0.1280162  1          0.4095587 
606.9      0.1342787  1          0.4106309 
607        0.132908   1          0.4234774 
607.1      0.1241985  1          0.4560452 
607.2      0.1194349  1          0.4676989 
607.3      0.1630603  1          0.3900311 
607.4      0.1738665  1          0.3850974 
607.5      0.1651175  1          0.4117139 
607.6      0.1621509  1          0.4278078 
607.7      0.1820117  1          0.403093  
607.8      0.1909388  1          0.3995481 
607.9      0.1822554  1          0.4178413 
608        0.1855741  1          0.4020895 
608.1      0.1923925  1          0.3746771 
608.2      0.1899607  1          0.3662365 
608.3      0.1710225  1          0.3925228 
608.4      0.1842353  1          0.3553334 
608.5      0.1831618  1          0.3535188 
608.6      0.1725875  1          0.3534835 
608.7      0.1778578  1          0.337572  
608.8      0.1773353  1          0.3589695 
608.9      0.1799477  1          0.3549579 
609        0.173423   1          0.3730966 
609.1      0.181168   1          0.3607621 
609.2      0.1856085  1          0.3570327 
609.3      0.1680495  1          0.39427   
609.4      0.1712534  1          0.3920784 
609.5      0.1758522  1          0.3884042 
609.6      0.1645088  1          0.4251802 
609.7      0.1701644  1          0.4189765 
609.8      0.1738763  1          0.415206  
609.9      0.163149   1          0.4499582 
610        0.1580125  1          0.4568128 
610.1      0.1391007  1          0.4965511 
610.2      0.1426123  1          0.5000396 
610.3      0.1306749  1          0.5128918 
610.4      0.1214743  1          0.5274028 
610.5      0.1124671  1          0.5592896 
610.6      0.08779145 1          0.615641  
610.7      0.06451962 1          0.6743616 
610.8      0.06142    1          0.6837398 
610.9      0.05409121 1          0.7089829 
611        0.08110625 1          0.6140918 
611.1      0.08345085 1          0.6015485 
611.2      0.08385806 1          0.5778012 
611.3      0.09075966 1          0.5419151 
611.4      0.1034687  1          0.4979328 
611.5      0.1142626  1          0.4981401 
611.6      0.09811877 1          0.534723  
611.7      0.1124643  1          0.5361975 
611.8      0.09666017 1          0.5765079 
611.9      0.09160313 1          0.5887536 
612        0.06435125 1          0.6566013 
612.1      0.06288985 1          0.6566895 
612.2      0.09452531 1          0.5778799 
612.3      0.1156364  1          0.5449737 
612.4      0.1312432  1          0.5302172 
612.5      0.1584381  1          0.4857967 
612.6      0.1958114  1          0.4035677 
612.7      0.195461   1          0.4186778 
612.8      0.1944529  1          0.4211285 
612.9      0.1974821  1          0.4241625 
613        0.1963424  1          0.415727  
613.1      0.2033942  1          0.4048961 
