~Version
 VERS              .         3.0                           : CWLS LOG ASCII STANDARD - VERSION 3.0
 WRAP              .         NO                            : ONE LINE PER DEPTH STEP
 DLM               .         SPACE                         : DELIMITING CHARACTER(SPACE TAB OR COMMA)
~Well Information
#_______________________________________________________________________________
#
#PARAMETER_NAME    .UNIT     VALUE                         : DESCRIPTION
#_______________________________________________________________________________
STRT               .m        122                           : First reference value
STOP               .m        788                           : Last reference value
STEP               .m        0.1                           : Step increment
NULL               .         -9999                         : Missing value
COMP               .         ICPetroleum                   : Company
WELL               .         310                           : Well name
FLD                .         Karatobe                      : Field
LOC                .                                       : Location
SRVC               .         KF GIS "Kazpromgeophizika"    : Service Company
CTRY               .         KZ                            : Country
DATE               .         12.12.2004                    : Service Date
LATI               .         0                             : Latitude
LONG               .         0                             : Longitude
GDAT               .         WGS 84                        : Geodetic Datum
API                .                                       : API NUMBER
CNTY               .         Kyzyl-Orda                    : 
COORDIN            .                                       : Grid System
COUNTRY            .         Kazakhstan                    : 
COUNTRY            .         Kazakhstan                    : 
EREF               .m        133.5                         : 
KB                 .         134.7                         : KB Elevation
ORIGINALWELLNAME   .         310                           : 
PROV               .                                       : PROVINCE
RWS                .         -999                          : Def_Rw
UWI                .         _                             : 
WST                .         -999                          : Def_Rwt
X                  .km       466595.6                      : 
XCOORD             .                                       : X or East-West Coordinate
Y                  .km       5308644.6                     : 
YCOORD             .                                       : Y or North-South Coordinate
~Parameter Information Block
#_______________________________________________________________________________
#
#PARAMETER_NAME    .UNIT     VALUE                         : DESCRIPTION
#_______________________________________________________________________________
SET                .         Las                           : 
TLFamily_DEPT      .         Measured Depth                : 
TLFamily_PHI_FINAL .         Porosity                      : 
TLFamily_SW_AR     .         Water Saturation              : 
TLFamily_VSH_FINAL .         Shale Volume                  : 
~Curve Information
#_______________________________________________________________________________
#
#LOGNAME           .UNIT     LOG_ID                        : DESCRIPTION
#_______________________________________________________________________________
DEPT               .m                                      : DEPTH {F}
PHI_FINAL          .m3/m3                                  : Porosity {F}
SW_AR              .m3/m3                                  :  {F}
VSH_FINAL          .unitless                               : Vshale {F}
~Ascii
# ...
667.8      0.06536465 1          0.2734424 
667.9      0.06929327 1          0.2052226 
668        0.07034013 1          0.2016633 
668.1      0.07188194 1          0.2044215 
668.2      0.07102004 1          0.1993516 
668.3      0.08168511 1          0.1870974 
668.4      0.07124159 1          0.2017357 
668.5      0.06497317 1          0.2150785 
668.6      0.05112822 1          0.247476  
668.7      0.04720536 1          0.2685322 
668.8      0.01699121 1          0.3457409 
668.9      0          1          0.4100908 
669        0          1          0.4730976 
669.1      0          1          0.5004557 
669.2      0          1          0.4965071 
669.3      0.0006283869 1          0.5041959 
669.4      0.06314059 1          0.4005783 
669.5      0.06894001 1          0.3822096 
669.6      0.08865369 1          0.3107032 
669.7      0.09486146 1          0.2691846 
669.8      0.0868793  1          0.2510255 
669.9      0.08545241 1          0.2621279 
670        0.09421479 1          0.2883319 
670.1      0.085086   1          0.3400599 
670.2      0.07058468 1          0.381531  
670.3      0.03861419 1          0.4249519 
670.4      0.02938508 1          0.4158576 
670.5      0.03536771 1          0.3775696 
670.6      0.040241   1          0.3485995 
670.7      0.05154819 1          0.3231238 
670.8      0.04960425 1          0.2838019 
670.9      0.0467     1          0.2540399 
671        0.03987487 1          0.2532451 
671.1      0.0362446  1          0.2910322 
671.2      0.02830453 1          0.2885846 
671.3      0.003349419 1          0.3154319 
671.4      0.003404693 1          0.3032438 
671.5      0          1          0.2555529 
671.6      0          1          0.2524514 
671.7      0          1          0.2138182 
671.8      0          1          0.1888607 
671.9      0          1          0.1751268 
672        0.005557023 1          0.1659258 
672.1      0.005199831 1          0.1668721 
672.2      0.005367044 1          0.170812  
672.3      0.01208035 1          0.1779549 
672.4      0          1          0.1777474 
672.5      0          1          0.2002895 
672.6      0          1          0.244652  
672.7      0          1          0.2741001 
672.8      0          1          0.3399686 
672.9      0          1          0.4037687 
673        0          1          0.4779238 
673.1      0          1          0.5309706 
673.2      0          1          0.5695617 
673.3      0          1          0.5596942 
673.4      0          1          0.5390981 
673.5      0          1          0.5245463 
673.6      0          1          0.5449166 
673.7      0          1          0.5704196 
673.8      0          1          0.5994462 
673.9      0.0009371787 1          0.5986873 
674        0.00725624 1          0.5538978 
674.1      0.03844935 1          0.4607269 
674.2      0.04446915 1          0.4057699 
674.3      0.05731604 1          0.3161354 
674.4      0.05534916 1          0.2826328 
674.5      0.02900884 1          0.2581901 
674.6      0.04017311 1          0.2422314 
674.7      0.03835288 1          0.2324203 
674.8      0.04596824 1          0.2285279 
674.9      0.04923362 1          0.2314256 
675        0.05668794 1          0.2655241 
675.1      0.03649394 1          0.3504502 
675.2      0.03767589 1          0.4017732 
675.3      0.03124784 1          0.4824471 
675.4      0.00255096 1          0.5860021 
675.5      0.005468905 1          0.598308  
675.6      0.01198614 1          0.556067  
675.7      0.01057547 1          0.5188634 
675.8      0.02476315 1          0.4663458 
675.9      0.03789066 1          0.4524792 
676        0.03314269 1          0.4567528 
676.1      0.02755506 1          0.4524792 
676.2      0.03724534 1          0.4541859 
676.3      0.01422206 1          0.5039687 
676.4      0.03171861 1          0.4726602 
676.5      0.04569364 1          0.4473814 
676.6      0.04980801 1          0.4375986 
676.7      0.03951225 1          0.4498199 
676.8      0.03841603 1          0.4780338 
676.9      0.006428048 1          0.556912  
677        0          1          0.6064336 
677.1      0.01250643 1          0.5150575 
677.2      0.03112757 1          0.4619121 
677.3      0.04455824 1          0.3950284 
677.4      0.0496303  1          0.3643973 
677.5      0.04742461 1          0.319576  
677.6      0.05202955 1          0.2699193 
677.7      0.04166639 1          0.2551543 
677.8      0.03905718 1          0.2020254 
677.9      0.04386239 1          0.1936875 
678        0.04797536 1          0.1817038 
678.1      0.04655175 1          0.194544  
678.2      0.07999243 1          0.1765734 
678.3      0.08885217 1          0.1784393 
678.4      0.09376819 1          0.1732731 
678.5      0.08918921 1          0.164577  
678.6      0.04234437 1          0.1862531 
678.7      0.007001645 1          0.1929037 
678.8      0          1          0.1819826 
678.9      0          1          0.1895678 
679        0          1          0.1576886 
679.1      0          1          0.147308  
679.2      0          1          0.1352438 
679.3      0          1          0.1411089 
679.4      0          1          0.1409165 
679.5      0          1          0.1491313 
679.6      0.01306442 1          0.1482839 
679.7      0.04376744 1          0.1307046 
679.8      0.06416377 1          0.1339152 
679.9      0.08574587 1          0.133284  
680        0.0881125  1          0.1232376 
680.1      0.08786542 1          0.1300777 
680.2      0.09312068 1          0.1262098 
680.3      0.0877187  1          0.1365761 
680.4      0.1039135  1          0.1295142 
680.5      0.09718414 1          0.1423937 
680.6      0.0928609  1          0.1510927 
680.7      0.07201611 1          0.155965  
680.8      0.08073306 1          0.1443275 
680.9      0.0560716  1          0.1501764 
681        0.03844599 1          0.1381034 
681.1      0.05483177 1          0.1443921 
681.2      0.05477006 1          0.1526018 
681.3      0.05101779 1          0.1433596 
681.4      0.05630219 1          0.1493924 
681.5      0.06752057 1          0.1539179 
681.6      0.07460338 1          0.1466584 
681.7      0.08811036 1          0.1450385 
681.8      0.07848679 1          0.155965  
681.9      0.06557045 1          0.1458802 
682        0.0697789  1          0.1395718 
682.1      0.0666437  1          0.1342312 
682.2      0.06063016 1          0.1386775 
682.3      0.048965   1          0.152339  
682.4      0.05003179 1          0.1647117 
682.5      0.05710591 1          0.1806597 
682.6      0.05287412 1          0.2070478 
682.7      0.05397503 1          0.2233047 
682.8      0.07400198 1          0.2292129 
682.9      0.09192201 1          0.248578  
683        0.08774411 1          0.3047979 
683.1      0.07848057 1          0.3567802 
683.2      0.06978847 1          0.3978972 
683.3      0.0756821  1          0.3974018 
683.4      0.06769006 1          0.4018728 
683.5      0.06890421 1          0.3891288 
683.6      0.07981388 1          0.369808  
683.7      0.07072899 1          0.3584656 
683.8      0.06331506 1          0.347953  
683.9      0.06555233 1          0.3317178 
684        0.06238755 1          0.3135012 
684.1      0.06782884 1          0.3143781 
684.2      0.06787935 1          0.3004047 
684.3      0.0597196  1          0.3317178 
684.4      0.05019626 1          0.361378  
684.5      0.04142958 1          0.4200334 
684.6      0.02624321 1          0.5048777 
684.7      0.03677748 1          0.5390981 
684.8      0.03856787 1          0.5640663 
684.9      0.0239097  1          0.619531  
685        0.008775011 1          0.6372796 
685.1      0          1          0.6780245 
685.2      0          1          0.6842204 
685.3      0          1          0.7034596 
685.4      0          1          0.6822888 
685.5      0.0005851686 1          0.6815998 
685.6      0.0194715  1          0.654153  
685.7      0.009806409 1          0.6788484 
685.8      0.008027852 1          0.6828402 
685.9      0          1          0.6860174 
