~Version
 VERS              .         3.0                           : CWLS LOG ASCII STANDARD - VERSION 3.0
 WRAP              .         NO                            : ONE LINE PER DEPTH STEP
 DLM               .         SPACE                         : DELIMITING CHARACTER(SPACE TAB OR COMMA)
~Well Information
#_______________________________________________________________________________
#
#PARAMETER_NAME    .UNIT     VALUE                         : DESCRIPTION
#_______________________________________________________________________________
STRT               .m        122                           : First reference value
STOP               .m        788                           : Last reference value
STEP               .m        0.1                           : Step increment
NULL               .         -9999                         : Missing value
COMP               .         ICPetroleum                   : Company
WELL               .         310                           : Well name
FLD                .         Karatobe                      : Field
LOC                .                                       : Location
SRVC               .         KF GIS "Kazpromgeophizika"    : Service Company
CTRY               .         KZ                            : Country
DATE               .         12.12.2004                    : Service Date
LATI               .         0                             : Latitude
LONG               .         0                             : Longitude
GDAT               .         WGS 84                        : Geodetic Datum
API                .                                       : API NUMBER
CNTY               .         Kyzyl-Orda                    : 
COORDIN            .                                       : Grid System
COUNTRY            .         Kazakhstan                    : 
COUNTRY            .         Kazakhstan                    : 
EREF               .m        133.5                         : 
KB                 .         134.7                         : KB Elevation
ORIGINALWELLNAME   .         310                           : 
PROV               .                                       : PROVINCE
RWS                .         -999                          : Def_Rw
UWI                .         _                             : 
WST                .         -999                          : Def_Rwt
X                  .km       466595.6                      : 
XCOORD             .                                       : X or East-West Coordinate
Y                  .km       5308644.6                     : 
YCOORD             .                                       : Y or North-South Coordinate
~Parameter Information Block
#_______________________________________________________________________________
#
#PARAMETER_NAME    .UNIT     VALUE                         : DESCRIPTION
#_______________________________________________________________________________
SET                .         Las                           : 
TLFamily_DEPT      .         Measured Depth                : 
TLFamily_PHI_FINAL .         Porosity                      : 
TLFamily_SW_AR     .         Water Saturation              : 
TLFamily_VSH_FINAL .         Shale Volume                  : 
~Curve Information
#_______________________________________________________________________________
#
#LOGNAME           .UNIT     LOG_ID                        : DESCRIPTION
#_______________________________________________________________________________
DEPT               .m                                      : DEPTH {F}
PHI_FINAL          .m3/m3                                  : Porosity {F}
SW_AR              .m3/m3                                  :  {F}
VSH_FINAL          .unitless                               : Vshale {F}
~Ascii
# ...
304        0.1473024  1          0.536369  
304.1      0.1240922  1          0.6103981 
304.2      0.1207346  1          0.6112342 
304.3      0.1166977  1          0.6213516 
304.4      0.1116645  1          0.6409643 
304.5      0.1043913  1          0.6513171 
304.6      0.08018156 1          0.6846809 
304.7      0.05907995 1          0.6968953 
304.8      0.07788941 1          0.6333503 
304.9      0.0785028  1          0.6236404 
305        0.09205613 1          0.5909798 
305.1      0.1124438  1          0.5425141 
305.2      0.1209151  1          0.5471023 
305.3      0.1333603  1          0.5544216 
305.4      0.1120331  1          0.641988  
305.5      0.1223838  1          0.6298927 
305.6      0.1157922  1          0.6724086 
305.7      0.09367939 1          0.7339597 
305.8      0.02538843 1          0.9316149 
305.9      0.01306455 1          0.978503  
306        0.007869327 1          1         
306.1      0.01456921 1          0.9186264 
306.2      0.009587351 1          0.9369634 
306.3      0.006544235 1          0.9341186 
306.4      0.008623434 1          0.8894405 
306.5      0.009234834 1          0.8721972 
306.6      0.04606522 1          0.7412564 
306.7      0.07394874 1          0.6795993 
306.8      0.06143192 1          0.7203494 
306.9      0.09083134 1          0.6632231 
307        0.07720553 1          0.7154748 
307.1      0.1005699  1          0.670582  
307.2      0.07322811 1          0.7351735 
307.3      0.05693325 1          0.7700215 
307.4      0.02802185 1          0.8664625 
307.5      0.04338629 1          0.8159351 
307.6      0.05930843 1          0.759582  
307.7      0.1119431  1          0.6132542 
307.8      0.1604583  1          0.5017179 
307.9      0.1746475  1          0.4970279 
308        0.1766135  1          0.5194975 
308.1      0.1277119  1          0.6920753 
308.2      0.1269579  1          0.7108691 
308.3      0.1176844  1          0.745979  
308.4      0.1038714  1          0.7909241 
308.5      0.1300619  1          0.7554679 
308.6      0.1269088  1          0.7932361 
308.7      0.07910945 1          0.9309034 
308.8      0.1060428  1          0.8608629 
308.9      0.1119652  1          0.8564972 
309        0.09494147 1          0.9131904 
309.1      0.07099958 1          1         
309.2      0.07142422 1          1         
309.3      0.1014583  1          0.9064655 
309.4      0.1133506  1          0.8585827 
309.5      0.1139927  1          0.842406  
309.6      0.06530352 1          0.9691877 
309.7      0.05314832 1          1         
309.8      0.04810801 1          1         
309.9      0.03951362 1          1         
310        0.03390127 1          1         
310.1      0.02728539 1          1         
310.2      0.0187806  1          1         
310.3      0.01295622 1          1         
310.4      0.00836367 1          1         
310.5      0.006488217 1          1         
310.6      0.003296008 1          1         
310.7      0.001924995 1          1         
310.8      0.001243173 1          1         
310.9      0.004349242 1          1         
311        0.004803791 1          1         
311.1      0.00563712 1          1         
311.2      0.005182571 1          1         
311.3      0.00581933 1          1         
311.4      0.006365852 1          1         
311.5      0.006776705 1          1         
311.6      0.01260459 1          1         
311.7      0.02241291 1          1         
311.8      0.02816299 1          1         
311.9      0.03232478 1          1         
312        0.0359423  1          1         
312.1      0.04153713 1          1         
312.2      0.04455443 1          1         
312.3      0.04792478 1          1         
312.4      0.04561493 1          1         
312.5      0.04461596 1          1         
312.6      0.04264519 1          1         
312.7      0.03914469 1          1         
312.8      0.03303544 1          1         
312.9      0.0280708  1          1         
313        0.01990394 1          1         
313.1      0.02265455 1          1         
313.2      0.03797146 1          0.9348501 
313.3      0.07123639 1          0.8390527 
313.4      0.09945893 1          0.7522809 
313.5      0.118653   1          0.7046508 
313.6      0.1357958  1          0.6670287 
313.7      0.1339103  1          0.6641697 
313.8      0.1298961  1          0.6771991 
313.9      0.1403127  1          0.6561415 
314        0.1144183  1          0.713127  
314.1      0.07228938 1          0.7967231 
314.2      0.03579341 1          0.8650293 
314.3      0.01036403 1          0.9276422 
314.4      0.002500944 1          0.9853276 
314.5      0          1          1         
314.6      0          1          1         
314.7      0          1          1         
314.8      0          1          1         
314.9      0.001153271 1          0.9046619 
315        0.003524743 1          0.8895364 
315.1      0.04221901 1          0.7438537 
315.2      0.07381583 1          0.6938762 
315.3      0.07742249 1          0.6962385 
315.4      0.0844404  1          0.6996387 
315.5      0.08551894 1          0.7191699 
315.6      0.1132647  1          0.6508976 
315.7      0.1358898  1          0.5927031 
315.8      0.1429956  1          0.5626815 
315.9      0.1622787  1          0.5091467 
316        0.1518064  1          0.5252103 
316.1      0.1655135  1          0.4905885 
316.2      0.1395034  1          0.5556146 
316.3      0.1472815  1          0.5366473 
316.4      0.1520558  1          0.5284688 
316.5      0.1622014  1          0.5068827 
316.6      0.1661726  1          0.5089962 
316.7      0.1569925  1          0.5263318 
316.8      0.1584376  1          0.5187671 
316.9      0.1559865  1          0.5098902 
317        0.135617   1          0.5506693 
317.1      0.1513426  1          0.5092897 
317.2      0.1474397  1          0.5145497 
317.3      0.1581226  1          0.4907394 
317.4      0.1439608  1          0.5306777 
317.5      0.1497543  1          0.534335  
317.6      0.1666635  1          0.5122412 
317.7      0.1836662  0.9378858  0.4865757 
317.8      0.2157906  0.8140709  0.4350216 
317.9      0.2214481  0.7963151  0.429273  
318        0.2243122  0.7854201  0.438196  
318.1      0.2154732  0.8093396  0.4712462 
318.2      0.2213766  0.7739947  0.4597833 
318.3      0.2268646  0.7377393  0.4601541 
318.4      0.2569092  0.638465   0.3921388 
318.5      0.2493886  0.6258041  0.4247966 
318.6      0.2521296  0.5869049  0.4228775 
318.7      0.2557963  0.5606533  0.4183209 
318.8      0.2573682  0.5533133  0.4165583 
318.9      0.2700849  0.5422055  0.3843437 
319        0.2706744  0.555052   0.3854055 
319.1      0.2795062  0.5408502  0.3757272 
319.2      0.2607792  0.5782967  0.4199139 
319.3      0.2514682  0.6119604  0.442857  
319.4      0.2341836  0.6998661  0.4688721 
319.5      0.202539   0.9073777  0.5313142 
319.6      0.1807676  1          0.5669735 
319.7      0.1524747  1          0.6278648 
319.8      0.09777305 1          0.7829511 
319.9      0.08375113 1          0.812942  
320        0.05895675 1          0.9022685 
320.1      0.05067517 1          0.9387951 
320.2      0.03559209 1          1         
320.3      0.03568494 1          1         
320.4      0.03742044 1          1         
320.5      0.03689609 1          1         
320.6      0.03894536 1          1         
320.7      0.03998908 1          1         
320.8      0.04052913 1          1         
320.9      0.04115486 1          1         
321        0.0400438  1          1         
321.1      0.0410109  1          1         
321.2      0.04471865 1          1         
321.3      0.04533906 1          1         
321.4      0.06262124 1          0.9444381 
321.5      0.07739811 1          0.8981361 
321.6      0.08101649 1          0.9057597 
321.7      0.1052965  1          0.8350409 
321.8      0.1150423  1          0.8212765 
321.9      0.13006    1          0.7898887 
322        0.1317916  1          0.7838335 
322.1      0.1388403  1          0.7432697 
