~Version
 VERS              .         3.0                           : CWLS LOG ASCII STANDARD - VERSION 3.0
 WRAP              .         NO                            : ONE LINE PER DEPTH STEP
 DLM               .         SPACE                         : DELIMITING CHARACTER(SPACE TAB OR COMMA)
~Well Information
#_______________________________________________________________________________
#
#PARAMETER_NAME    .UNIT     VALUE                         : DESCRIPTION
#_______________________________________________________________________________
STRT               .m        122                           : First reference value
STOP               .m        788                           : Last reference value
STEP               .m        0.1                           : Step increment
NULL               .         -9999                         : Missing value
COMP               .         ICPetroleum                   : Company
WELL               .         310                           : Well name
FLD                .         Karatobe                      : Field
LOC                .                                       : Location
SRVC               .         KF GIS "Kazpromgeophizika"    : Service Company
CTRY               .         KZ                            : Country
DATE               .         12.12.2004                    : Service Date
LATI               .         0                             : Latitude
LONG               .         0                             : Longitude
GDAT               .         WGS 84                        : Geodetic Datum
API                .                                       : API NUMBER
CNTY               .         Kyzyl-Orda                    : 
COORDIN            .                                       : Grid System
COUNTRY            .         Kazakhstan                    : 
COUNTRY            .         Kazakhstan                    : 
EREF               .m        133.5                         : 
KB                 .         134.7                         : KB Elevation
ORIGINALWELLNAME   .         310                           : 
PROV               .                                       : PROVINCE
RWS                .         -999                          : Def_Rw
UWI                .         _                             : 
WST                .         -999                          : Def_Rwt
X                  .km       466595.6                      : 
XCOORD             .                                       : X or East-West Coordinate
Y                  .km       5308644.6                     : 
YCOORD             .                                       : Y or North-South Coordinate
~Parameter Information Block
#_______________________________________________________________________________
#
#PARAMETER_NAME    .UNIT     VALUE                         : DESCRIPTION
#_______________________________________________________________________________
SET                .         Las                           : 
TLFamily_DEPT      .         Measured Depth                : 
TLFamily_PHI_FINAL .         Porosity                      : 
TLFamily_SW_AR     .         Water Saturation              : 
TLFamily_VSH_FINAL .         Shale Volume                  : 
~Curve Information
#_______________________________________________________________________________
#
#LOGNAME           .UNIT     LOG_ID                        : DESCRIPTION
#_______________________________________________________________________________
DEPT               .m                                      : DEPTH {F}
PHI_FINAL          .m3/m3                                  : Porosity {F}
SW_AR              .m3/m3                                  :  {F}
VSH_FINAL          .unitless                               : Vshale {F}
~Ascii
# ...
758.8      0          1          0         
758.9      0          1          0         
759        0          1          0         
759.1      0          1          0         
759.2      0          1          0         
759.3      0          1          0         
759.4      0          1          0         
759.5      0          1          0         
759.6      0          1          0         
759.7      0          1          0         
759.8      0          1          0         
759.9      0          1          0         
760        0          1          0         
760.1      0          1          0         
760.2      0          1          0         
760.3      0          1          0         
760.4      0          1          0         
760.5      0          1          0         
760.6      0          1          0         
760.7      0          1          0         
760.8      0          1          0         
760.9      0          1          0         
761        0          1          0         
761.1      0          1          0         
761.2      0          1          0         
761.3      0          1          0         
761.4      0          1          0         
761.5      0          1          0         
761.6      0          1          0         
761.7      0          1          0         
761.8      0          1          0         
761.9      0          1          0         
762        0          1          0         
762.1      0          1          0         
762.2      0          1          0         
762.3      0          1          0         
762.4      0          1          0         
762.5      0          1          0         
762.6      0          1          0         
762.7      0          1          0         
762.8      0          1          0         
762.9      0          1          0         
763        0          1          0         
763.1      0          1          0         
763.2      0          1          0         
763.3      0          1          0         
763.4      0          1          0         
763.5      0          1          0         
763.6      0          1          0         
763.7      0          1          0         
763.8      0          1          0         
763.9      0          1          0         
764        0          1          0         
764.1      0          1          0         
764.2      0          1          0         
764.3      0          1          0         
764.4      0.006997982 1          0         
764.5      0.005314079 1          0         
764.6      0.001685429 1          0         
764.7      0          1          0         
764.8      0          1          0         
764.9      0          1          0         
765        0          1          0         
765.1      0          1          0         
765.2      0          1          0         
765.3      0          1          0         
765.4      0          1          0         
765.5      0          1          0         
765.6      0          1          0         
765.7      0          1          0         
765.8      0          1          0         
765.9      0          1          0         
766        0          1          0         
766.1      0          1          0         
766.2      0          1          0         
766.3      0          1          0         
766.4      0          1          0         
766.5      0          1          0         
766.6      0          1          0         
766.7      0          1          0         
766.8      0          1          0         
766.9      0          1          0         
767        0          1          0         
767.1      0          1          0         
767.2      0          1          0         
767.3      0          1          0         
767.4      0          1          0         
767.5      0          1          0         
767.6      0          1          0         
767.7      0          1          0         
767.8      0          1          0         
767.9      0          1          0         
768        0          1          0         
768.1      0          1          0         
768.2      0          1          0         
768.3      0          1          0         
768.4      0          1          0         
768.5      0          1          0         
768.6      0          1          0         
768.7      0          1          0         
768.8      0          1          0         
768.9      0          1          0         
769        0          1          0         
769.1      0          1          0         
769.2      0          1          0         
769.3      0          1          0         
769.4      0          1          0         
769.5      0          1          0         
769.6      0          1          0         
769.7      0          1          0         
769.8      0          1          0         
769.9      0          1          0         
770        0          1          0         
770.1      0          1          0         
770.2      0          1          0         
770.3      0          1          0         
770.4      0          1          0         
770.5      0          1          0         
770.6      0          1          0         
770.7      0          1          0         
770.8      0          1          0         
770.9      0          1          0         
771        0          1          0         
771.1      0          1          0         
771.2      0          1          0         
771.3      0          1          0         
771.4      0          1          0         
771.5      0          1          0         
771.6      0          1          0         
771.7      0          1          0         
771.8      0          1          0         
771.9      0          1          0         
772        0          1          0         
772.1      0          1          0         
772.2      0          1          0         
772.3      0          1          0         
772.4      0          1          0         
772.5      0          1          0         
772.6      0          1          0         
772.7      0          1          0         
772.8      0          1          0         
772.9      0          1          0         
773        0          1          0         
773.1      0          1          0         
773.2      0          1          0         
773.3      0          1          0         
773.4      0          1          0         
773.5      0          1          0         
773.6      0          1          0         
773.7      0          1          0         
773.8      0          1          0         
773.9      0          1          0         
774        0          1          0         
774.1      0          1          0         
774.2      0          1          0         
774.3      0          1          0         
774.4      0          1          0         
774.5      0          1          0         
774.6      0          1          0         
774.7      0          1          0         
774.8      0          1          0         
774.9      0          1          0         
775        0          1          0         
775.1      0          1          0         
775.2      0          1          0         
775.3      0          1          0         
775.4      0          1          0         
775.5      0          1          0         
775.6      0          1          0         
775.7      0          1          0         
775.8      0          1          0         
775.9      0          1          0         
776        0          1          0         
776.1      0          1          0         
776.2      0          1          0.002404345
776.3      0          1          0.00691585
776.4      0          1          0.01055982
776.5      0          1          0.007237148
776.6      0          1          0.002404345
776.7      0          1          0.00249489
776.8      0          1          0.007880687
776.9      0          1          0.006503204
