~Version
 VERS              .         3.0                           : CWLS LOG ASCII STANDARD - VERSION 3.0
 WRAP              .         NO                            : ONE LINE PER DEPTH STEP
 DLM               .         SPACE                         : DELIMITING CHARACTER(SPACE TAB OR COMMA)
~Well Information
#_______________________________________________________________________________
#
#PARAMETER_NAME    .UNIT     VALUE                         : DESCRIPTION
#_______________________________________________________________________________
STRT               .m        122                           : First reference value
STOP               .m        788                           : Last reference value
STEP               .m        0.1                           : Step increment
NULL               .         -9999                         : Missing value
COMP               .         ICPetroleum                   : Company
WELL               .         310                           : Well name
FLD                .         Karatobe                      : Field
LOC                .                                       : Location
SRVC               .         KF GIS "Kazpromgeophizika"    : Service Company
CTRY               .         KZ                            : Country
DATE               .         12.12.2004                    : Service Date
LATI               .         0                             : Latitude
LONG               .         0                             : Longitude
GDAT               .         WGS 84                        : Geodetic Datum
API                .                                       : API NUMBER
CNTY               .         Kyzyl-Orda                    : 
COORDIN            .                                       : Grid System
COUNTRY            .         Kazakhstan                    : 
COUNTRY            .         Kazakhstan                    : 
EREF               .m        133.5                         : 
KB                 .         134.7                         : KB Elevation
ORIGINALWELLNAME   .         310                           : 
PROV               .                                       : PROVINCE
RWS                .         -999                          : Def_Rw
UWI                .         _                             : 
WST                .         -999                          : Def_Rwt
X                  .km       466595.6                      : 
XCOORD             .                                       : X or East-West Coordinate
Y                  .km       5308644.6                     : 
YCOORD             .                                       : Y or North-South Coordinate
~Parameter Information Block
#_______________________________________________________________________________
#
#PARAMETER_NAME    .UNIT     VALUE                         : DESCRIPTION
#_______________________________________________________________________________
SET                .         Las                           : 
TLFamily_DEPT      .         Measured Depth                : 
TLFamily_PHI_FINAL .         Porosity                      : 
TLFamily_SW_AR     .         Water Saturation              : 
TLFamily_VSH_FINAL .         Shale Volume                  : 
~Curve Information
#_______________________________________________________________________________
#
#LOGNAME           .UNIT     LOG_ID                        : DESCRIPTION
#_______________________________________________________________________________
DEPT               .m                                      : DEPTH {F}
PHI_FINAL          .m3/m3                                  : Porosity {F}
SW_AR              .m3/m3                                  :  {F}
VSH_FINAL          .unitless                               : Vshale {F}
~Ascii
# ...
395        0.05443729 1          0.5726469 
395.1      0.04823072 1          0.5757218 
395.2      0.0448303  1          0.5788107 
395.3      0.08391929 1          0.5157021 
395.4      0.1012477  1          0.4854816 
395.5      0.1120572  1          0.5031778 
395.6      0.1362134  1          0.4960656 
395.7      0.1295107  1          0.5429103 
395.8      0.1315969  1          0.558495  
395.9      0.1472517  1          0.5332246 
396        0.1504661  1          0.5306776 
396.1      0.1269575  1          0.6030937 
396.2      0.1213969  1          0.6246139 
396.3      0.1134481  1          0.6453367 
396.4      0.1182719  1          0.6287407 
396.5      0.1141024  1          0.6584964 
396.6      0.1177107  1          0.6543098 
396.7      0.1178296  1          0.6669618 
396.8      0.1190656  1          0.6725614 
396.9      0.1145713  1          0.687463  
397        0.08522819 1          0.7759393 
397.1      0.06117973 1          0.8465202 
397.2      0.05234048 1          0.888283  
397.3      0.03517183 1          0.9478907 
397.4      0.03547217 1          0.9436044 
397.5      0.05926178 1          0.8649405 
397.6      0.0395353  1          0.9410006 
397.7      0.04448651 1          0.8999332 
397.8      0.03394103 1          0.9253707 
397.9      0.03356073 1          0.9221922 
398        0.03922305 1          0.8882237 
398.1      0.03990796 1          0.8549342 
398.2      0.04895722 1          0.8137134 
398.3      0.09645859 1          0.7008199 
398.4      0.1045071  1          0.6756837 
398.5      0.1269939  1          0.6126707 
398.6      0.09603873 1          0.689178  
398.7      0.08909798 1          0.7073697 
398.8      0.08164511 1          0.7407804 
398.9      0.03854255 1          0.8682022 
399        0.02222449 1          0.922467  
399.1      0.02334203 1          0.9271486 
399.2      0.04409936 1          0.8728622 
399.3      0.05047048 1          0.8553417 
399.4      0.03810394 1          0.8913016 
399.5      0.01245132 1          1         
399.6      0.01574165 1          1         
399.7      0.01966253 1          1         
399.8      0.02390421 1          1         
399.9      0.02823097 1          1         
400        0.03281828 1          1         
400.1      0.03458972 1          1         
400.2      0.03470789 1          1         
400.3      0.04451881 1          0.9439338 
400.4      0.04232135 1          0.9430194 
400.5      0.04407728 1          0.9171552 
400.6      0.02957695 1          0.9688565 
400.7      0.02397978 1          0.9793414 
400.8      0.01652982 1          1         
400.9      0.01322556 1          1         
401        0.0108182  1          1         
401.1      0.008990349 1          1         
401.2      0.008015137 1          1         
401.3      0.007336061 1          0.9889166 
401.4      0.006698351 1          0.9917352 
401.5      0.003958832 1          1         
401.6      0.001975169 1          1         
401.7      0.0009097637 1          1         
401.8      0.0000049  1          1         
401.9      0          1          1         
402        0          1          1         
402.1      0          1          1         
402.2      0          1          1         
402.3      0          1          1         
402.4      0.00132596 1          0.8477811 
402.5      0.003209832 1          0.7859845 
402.6      0.006317733 1          0.7193806 
402.7      0.004031889 1          0.7068868 
402.8      0.01208933 1          0.6066334 
402.9      0.01066657 1          0.5717915 
403        0.009615104 1          0.5384011 
403.1      0.01714718 1          0.4610517 
403.2      0.01480837 1          0.4631861 
403.3      0.006673657 1          0.5106018 
403.4      0.01218408 1          0.4937929 
403.5      0.02579693 1          0.4998451 
403.6      0.03034365 1          0.5375276 
403.7      0.05708616 1          0.510796  
403.8      0.04945884 1          0.5952075 
403.9      0.04908703 1          0.6601855 
404        0.05848208 1          0.7050425 
404.1      0.03413025 1          0.8452483 
404.2      0.03090883 1          0.920208  
404.3      0.02037882 1          1         
404.4      0.02364155 1          1         
404.5      0.02495438 1          1         
404.6      0.02392613 1          1         
404.7      0.02071591 1          1         
404.8      0.01837223 1          1         
404.9      0.01654887 1          1         
405        0.01414505 1          1         
405.1      0.0139938  1          0.987316  
405.2      0.01468738 1          0.9690719 
405.3      0.01942265 1          0.9326349 
405.4      0.01506777 1          0.9522967 
405.5      0.008699031 1          0.9977793 
405.6      0.008389276 1          1         
405.7      0.008007575 1          1         
405.8      0.007783436 1          1         
405.9      0.007586829 1          1         
406        0.007199347 1          1         
406.1      0.00614589 1          1         
406.2      0.004932826 1          1         
406.3      0.002610234 1          1         
406.4      0.00146801 1          1         
406.5      0.001343361 1          1         
406.6      0.001437973 1          1         
406.7      0.002036746 1          1         
406.8      0.004758576 1          1         
406.9      0.00823219 1          1         
407        0.01033724 1          1         
407.1      0.0108324  1          1         
407.2      0.01106426 1          1         
407.3      0.01072683 1          1         
407.4      0.01020319 1          1         
407.5      0.009535521 1          1         
407.6      0.008277484 1          1         
407.7      0.006931465 1          1         
407.8      0.004700927 1          1         
407.9      0.003151025 1          1         
408        0.001819062 1          1         
408.1      0.001047652 1          1         
408.2      0.0003541776 1          1         
408.3      0          1          1         
408.4      0          1          1         
408.5      0.003466513 1          0.9084479 
408.6      0.007009104 1          0.8651116 
408.7      0.007587048 1          0.8590728 
408.8      0.0182834  1          0.7795058 
408.9      0.01245187 1          0.8052478 
409        0.004219565 1          0.8767866 
409.1      0          1          0.9702962 
409.2      0          1          0.979151  
409.3      0          1          0.9771462 
409.4      0          1          1         
409.5      0          1          1         
409.6      0.003918709 1          0.8791511 
409.7      0.01161238 1          0.8175352 
409.8      0.01081441 1          0.8481163 
409.9      0.02447911 1          0.7821959 
410        0.02585459 1          0.7914421 
410.1      0.04242706 1          0.7242761 
410.2      0.0686278  1          0.6596703 
410.3      0.08719813 1          0.6394311 
410.4      0.08396733 1          0.6619128 
410.5      0.1006053  1          0.6472539 
410.6      0.08806296 1          0.6817414 
410.7      0.08362813 1          0.6860602 
410.8      0.07428911 1          0.7085984 
410.9      0.07484771 1          0.6926335 
411        0.09194741 1          0.6408296 
411.1      0.05260028 1          0.7112828 
411.2      0.0530918  1          0.676052  
411.3      0.07224981 1          0.6162157 
411.4      0.06976139 1          0.5865469 
411.5      0.04704014 1          0.6047896 
411.6      0.03147475 1          0.6260039 
411.7      0.05468768 1          0.5205305 
411.8      0.06857299 1          0.4437575 
411.9      0.0637536  1          0.4352189 
412        0.06072257 1          0.4254201 
412.1      0.05382667 1          0.4392759 
412.2      0.04820459 1          0.4555224 
412.3      0.04276416 1          0.4786906 
412.4      0.0595525  1          0.425984  
412.5      0.06783757 1          0.4347829 
412.6      0.07752953 1          0.4388871 
412.7      0.08402716 1          0.4866528 
412.8      0.09448998 1          0.5298416 
412.9      0.1220023  1          0.5160055 
413        0.1308389  1          0.5685334 
