~Version
 VERS              .         3.0                           : CWLS LOG ASCII STANDARD - VERSION 3.0
 WRAP              .         NO                            : ONE LINE PER DEPTH STEP
 DLM               .         SPACE                         : DELIMITING CHARACTER(SPACE TAB OR COMMA)
~Well Information
#_______________________________________________________________________________
#
#PARAMETER_NAME    .UNIT     VALUE                         : DESCRIPTION
#_______________________________________________________________________________
STRT               .m        122                           : First reference value
STOP               .m        788                           : Last reference value
STEP               .m        0.1                           : Step increment
NULL               .         -9999                         : Missing value
COMP               .         ICPetroleum                   : Company
WELL               .         310                           : Well name
FLD                .         Karatobe                      : Field
LOC                .                                       : Location
SRVC               .         KF GIS "Kazpromgeophizika"    : Service Company
CTRY               .         KZ                            : Country
DATE               .         12.12.2004                    : Service Date
LATI               .         0                             : Latitude
LONG               .         0                             : Longitude
GDAT               .         WGS 84                        : Geodetic Datum
API                .                                       : API NUMBER
CNTY               .         Kyzyl-Orda                    : 
COORDIN            .                                       : Grid System
COUNTRY            .         Kazakhstan                    : 
COUNTRY            .         Kazakhstan                    : 
EREF               .m        133.5                         : 
KB                 .         134.7                         : KB Elevation
ORIGINALWELLNAME   .         310                           : 
PROV               .                                       : PROVINCE
RWS                .         -999                          : Def_Rw
UWI                .         _                             : 
WST                .         -999                          : Def_Rwt
X                  .km       466595.6                      : 
XCOORD             .                                       : X or East-West Coordinate
Y                  .km       5308644.6                     : 
YCOORD             .                                       : Y or North-South Coordinate
~Parameter Information Block
#_______________________________________________________________________________
#
#PARAMETER_NAME    .UNIT     VALUE                         : DESCRIPTION
#_______________________________________________________________________________
SET                .         Las                           : 
TLFamily_DEPT      .         Measured Depth                : 
TLFamily_PHI_FINAL .         Porosity                      : 
TLFamily_SW_AR     .         Water Saturation              : 
TLFamily_VSH_FINAL .         Shale Volume                  : 
~Curve Information
#_______________________________________________________________________________
#
#LOGNAME           .UNIT     LOG_ID                        : DESCRIPTION
#_______________________________________________________________________________
DEPT               .m                                      : DEPTH {F}
PHI_FINAL          .m3/m3                                  : Porosity {F}
SW_AR              .m3/m3                                  :  {F}
VSH_FINAL          .unitless                               : Vshale {F}
~Ascii
# ...
140.2      0.0647549  -9999      0.1057969 
140.3      0.0610008  -9999      0.1270134 
140.4      0.06389478 -9999      0.1191011 
140.5      0.06378098 -9999      0.1202763 
140.6      0.06296601 -9999      0.1213982 
140.7      0.06038095 -9999      0.1220456 
140.8      0.06311693 -9999      0.107737  
140.9      0.06742797 -9999      0.09836534
141        0.07213509 -9999      0.09384982
141.1      0.07005333 -9999      0.09363453
141.2      0.0679941  -9999      0.1018199 
141.3      0.06840857 -9999      0.1080778 
141.4      0.06979106 -9999      0.1056243 
141.5      0.07295652 -9999      0.1024959 
141.6      0.07190289 -9999      0.1113731 
141.7      0.06891951 -9999      0.116255  
141.8      0.06625585 -9999      0.1186474 
141.9      0.06221227 -9999      0.1248626 
142        0.06696237 -9999      0.1119575 
142.1      0.06708685 -9999      0.1165608 
142.2      0.06578929 -9999      0.1153863 
142.3      0.06802805 -9999      0.1156656 
142.4      0.07151921 -9999      0.1090311 
142.5      0.06991725 1          0.108069  
142.6      0.06785803 1          0.1118376 
142.7      0.06670119 1          0.1155639 
142.8      0.06722901 1          0.1161341 
142.9      0.06539916 1          0.1258991 
143        0.06163716 1          0.1544099 
143.1      0.06014393 1          0.1546024 
143.2      0.05842408 1          0.1585062 
143.3      0.0608528  1          0.1492181 
143.4      0.05605724 1          0.1643284 
143.5      0.05086415 1          0.176676  
143.6      0.05152014 1          0.1789429 
143.7      0.04582775 1          0.1989311 
143.8      0.04701193 1          0.2017229 
143.9      0.03901551 1          0.2176822 
144        0.04319889 1          0.2030955 
144.1      0.04626364 1          0.195734  
144.2      0.04542042 1          0.2067499 
144.3      0.04833369 1          0.1962616 
144.4      0.05150404 1          0.1785621 
144.5      0.05031295 1          0.1963005 
144.6      0.05289286 1          0.1829126 
144.7      0.05309354 1          0.1949566 
144.8      0.05995578 1          0.1869399 
144.9      0.0619814  1          0.1697632 
145        0.06042921 1          0.1772307 
145.1      0.05610821 1          0.1728446 
145.2      0.04281076 1          0.1870174 
145.3      0.03474494 1          0.2204247 
145.4      0.03269493 1          0.2320377 
145.5      0.04209471 1          0.2191385 
145.6      0.06337929 1          0.2003321 
145.7      0.09455304 1          0.1992378 
145.8      0.1758778  1          0.1677684 
145.9      0.2420202  1          0.1601875 
146        0.2902136  1          0.1633119 
146.1      0.3018497  1          0.1972646 
146.2      0.2593541  1          0.2757677 
146.3      0.1871651  1          0.3560774 
146.4      0.08149546 1          0.5000654 
146.5      0.002252007 1          0.7617753 
146.6      0          1          0.8439818 
146.7      0          1          0.7796955 
146.8      0          1          0.8702803 
146.9      0          1          0.8759868 
147        0          1          0.8777977 
147.1      0.01342794 1          0.881297  
147.2      0.04119656 1          0.8772224 
147.3      0.1187252  1          0.820868  
147.4      0.1589473  1          0.8165284 
147.5      0.2014628  1          0.7536901 
147.6      0.2004621  1          0.7436342 
147.7      0.193025   1          0.6738961 
147.8      0.1699952  1          0.6151154 
147.9      0.09657263 1          0.614006  
148        0.05262073 1          0.5708408 
148.1      0.03476558 1          0.5466461 
148.2      0.02322667 1          0.5109388 
148.3      0.02707524 1          0.4379159 
148.4      0.03006409 1          0.386422  
148.5      0.03139937 1          0.4016501 
148.6      0.03125336 1          0.4389502 
148.7      0.04087385 1          0.4655337 
148.8      0.04980956 1          0.491624  
148.9      0.05891851 1          0.5390851 
149        0.09461752 1          0.5673383 
149.1      0.1474561  1          0.5821882 
149.2      0.1853     1          0.6180831 
149.3      0.2142014  1          0.6511938 
149.4      0.19952    1          0.7479957 
149.5      0.1980499  1          0.7981864 
149.6      0.2037971  1          0.8138358 
149.7      0.2271766  0.9819733  0.7639892 
149.8      0.2209082  0.9931975  0.7710422 
149.9      0.2666727  0.8212342  0.6893615 
150        0.280051   0.7818696  0.6776579 
150.1      0.294807   0.7475667  0.6819903 
150.2      0.3207094  0.6931151  0.665594  
150.3      0.3389042  0.6565839  0.6617986 
150.4      0.4020834  0.5549954  0.5595888 
150.5      0.4015586  0.5493829  0.5531839 
150.6      0.3941879  0.5532804  0.5420991 
150.7      0.3244879  0.6627461  0.608787  
150.8      0.2985059  0.7185062  0.6074892 
150.9      0.2640805  0.8076085  0.6396463 
151        0.2422146  0.8752957  0.6395483 
151.1      0.1873117  1          0.7250181 
151.2      0.1584762  1          0.7790155 
151.3      0.130402   1          0.8409016 
151.4      0.08249152 1          0.9340605 
151.5      0.05168214 1          1         
151.6      0.1015522  1          0.9054764 
151.7      0.09869384 1          0.9133988 
151.8      0.1187728  1          0.8749146 
151.9      0.1363285  1          0.8462551 
152        0.1098008  1          0.8994242 
152.1      0.1835443  1          0.7600563 
152.2      0.1957822  1          0.7482597 
152.3      0.1542463  1          0.8309714 
152.4      0.1790813  1          0.782012  
152.5      0.2250982  0.9527674  0.7064873 
152.6      0.251863   0.854843   0.6453506 
152.7      0.2635282  0.8131338  0.6270797 
152.8      0.247817   0.8579007  0.6432518 
152.9      0.238709   0.8858241  0.6593586 
153        0.2324242  0.9023825  0.6670572 
153.1      0.1898009  1          0.7603016 
153.2      0.1713766  1          0.8025867 
153.3      0.1447442  1          0.8644289 
153.4      0.1401299  1          0.8845753 
153.5      0.0795785  1          1         
153.6      0.0809526  1          1         
153.7      0.07924326 1          1         
153.8      0.07695881 1          1         
153.9      0.07877141 1          1         
154        0.07568476 1          1         
154.1      0.07748886 1          0.9959053 
154.2      0.1327445  1          0.887884  
154.3      0.1455426  1          0.8646354 
154.4      0.1356685  1          0.8906877 
154.5      0.167828   1          0.8237405 
154.6      0.1698799  1          0.8154882 
154.7      0.1747229  1          0.800366  
154.8      0.1559637  1          0.827286  
154.9      0.1323069  1          0.864869  
155        0.1224858  1          0.8794056 
155.1      0.1341031  1          0.8615624 
155.2      0.126208   1          0.8721604 
155.3      0.120986   1          0.8837172 
155.4      0.1108948  1          0.899107  
155.5      0.1334546  1          0.8417538 
155.6      0.1118347  1          0.8624879 
155.7      0.1035874  1          0.8528005 
155.8      0.09402078 1          0.8357263 
155.9      0.116371   1          0.7647142 
156        0.09437291 1          0.7819643 
156.1      0.08812122 1          0.7952251 
156.2      0.1145173  1          0.7526394 
156.3      0.146323   1          0.7211609 
156.4      0.1656787  1          0.7157056 
156.5      0.1792237  1          0.7179101 
156.6      0.2246043  0.931815   0.6509159 
156.7      0.2385163  0.8856283  0.6325504 
156.8      0.2403861  0.881717   0.6332837 
156.9      0.2601711  0.8196639  0.5999576 
157        0.2449084  0.8711222  0.6351682 
157.1      0.2633069  0.8143625  0.6079346 
157.2      0.2903086  0.7412542  0.5588442 
157.3      0.2840565  0.7516522  0.5789613 
157.4      0.2806419  0.7546818  0.5959598 
157.5      0.2608528  0.8042701  0.6332313 
157.6      0.2368747  0.8775839  0.6811246 
157.7      0.2417423  0.8582838  0.6796926 
157.8      0.2204344  0.9388629  0.7363563 
157.9      0.2157746  0.9636992  0.7607921 
158        0.2319781  0.9117891  0.7435063 
158.1      0.2403069  0.8818673  0.7371916 
158.2      0.267314   0.7944338  0.6922927 
158.3      0.2813631  0.7546366  0.6764172 
