~Version
 VERS              .         3.0                           : CWLS LOG ASCII STANDARD - VERSION 3.0
 WRAP              .         NO                            : ONE LINE PER DEPTH STEP
 DLM               .         SPACE                         : DELIMITING CHARACTER(SPACE TAB OR COMMA)
~Well Information
#_______________________________________________________________________________
#
#PARAMETER_NAME    .UNIT     VALUE                         : DESCRIPTION
#_______________________________________________________________________________
STRT               .m        122                           : First reference value
STOP               .m        788                           : Last reference value
STEP               .m        0.1                           : Step increment
NULL               .         -9999                         : Missing value
COMP               .         ICPetroleum                   : Company
WELL               .         310                           : Well name
FLD                .         Karatobe                      : Field
LOC                .                                       : Location
SRVC               .         KF GIS "Kazpromgeophizika"    : Service Company
CTRY               .         KZ                            : Country
DATE               .         12.12.2004                    : Service Date
LATI               .         0                             : Latitude
LONG               .         0                             : Longitude
GDAT               .         WGS 84                        : Geodetic Datum
API                .                                       : API NUMBER
CNTY               .         Kyzyl-Orda                    : 
COORDIN            .                                       : Grid System
COUNTRY            .         Kazakhstan                    : 
COUNTRY            .         Kazakhstan                    : 
EREF               .m        133.5                         : 
KB                 .         134.7                         : KB Elevation
ORIGINALWELLNAME   .         310                           : 
PROV               .                                       : PROVINCE
RWS                .         -999                          : Def_Rw
UWI                .         _                             : 
WST                .         -999                          : Def_Rwt
X                  .km       466595.6                      : 
XCOORD             .                                       : X or East-West Coordinate
Y                  .km       5308644.6                     : 
YCOORD             .                                       : Y or North-South Coordinate
~Parameter Information Block
#_______________________________________________________________________________
#
#PARAMETER_NAME    .UNIT     VALUE                         : DESCRIPTION
#_______________________________________________________________________________
SET                .         Las                           : 
TLFamily_DEPT      .         Measured Depth                : 
TLFamily_PHI_FINAL .         Porosity                      : 
TLFamily_SW_AR     .         Water Saturation              : 
TLFamily_VSH_FINAL .         Shale Volume                  : 
~Curve Information
#_______________________________________________________________________________
#
#LOGNAME           .UNIT     LOG_ID                        : DESCRIPTION
#_______________________________________________________________________________
DEPT               .m                                      : DEPTH {F}
PHI_FINAL          .m3/m3                                  : Porosity {F}
SW_AR              .m3/m3                                  :  {F}
VSH_FINAL          .unitless                               : Vshale {F}
~Ascii
# ...
558.6      0.3439582  1          0.05738678
558.7      0.3455431  1          0.05246481
558.8      0.340619   0.9994752  0.06478475
558.9      0.3503883  0.9670828  0.05611374
559        0.346224   0.9841626  0.05993025
559.1      0.3503756  0.9976009  0.05176334
559.2      0.353047   0.9976773  0.05282507
559.3      0.3526071  0.9815573  0.05797976
559.4      0.3548231  0.9510282  0.05465431
559.5      0.3557847  0.9360322  0.0607736 
559.6      0.3521654  0.9541419  0.06325352
559.7      0.3450252  0.9822527  0.05865171
559.8      0.3432001  0.9758359  0.05731013
559.9      0.3399023  0.9499841  0.05588491
560        0.3353068  0.9324601  0.05707566
560.1      0.3366668  0.9323039  0.06008616
560.2      0.3403012  0.9455596  0.06299205
560.3      0.3501267  0.9298247  0.06288663
560.4      0.35596    0.9129326  0.0627813 
560.5      0.3547984  0.9221343  0.06389451
560.6      0.3513259  0.9416695  0.05943922
560.7      0.3525702  0.9534099  0.05979832
560.8      0.3518231  0.9617932  0.05864294
560.9      0.3513774  0.9595394  0.06148515
561        0.3463009  0.9725276  0.07068573
561.1      0.3457252  0.9712565  0.07754835
561.2      0.3493323  0.9529766  0.08122356
561.3      0.3468208  0.9523503  0.09212329
561.4      0.3386024  0.9760163  0.1034863 
561.5      0.3293035  1          0.1238347 
561.6      0.3187553  1          0.1387341 
561.7      0.3092397  1          0.1519727 
561.8      0.290183   1          0.1854329 
561.9      0.2720126  1          0.2273629 
562        0.2338912  1          0.3177677 
562.1      0.1984557  1          0.4146641 
562.2      0.1551871  1          0.5318397 
562.3      0.1185845  1          0.6362592 
562.4      0.09433805 1          0.7045739 
562.5      0.1225668  1          0.6182135 
562.6      0.1152591  1          0.6243241 
562.7      0.1095884  1          0.6270329 
562.8      0.1266899  1          0.5798611 
562.9      0.1356348  1          0.5618139 
563        0.1674852  1          0.502654  
563.1      0.1659275  1          0.4904121 
563.2      0.150842   1          0.5445684 
563.3      0.1542017  1          0.5616995 
563.4      0.1870869  1          0.5114213 
563.5      0.2225883  1          0.4510693 
563.6      0.2367805  1          0.4579732 
563.7      0.298327   0.9234071  0.3556742 
563.8      0.3349364  0.8221129  0.2869743 
563.9      0.3565385  0.7535983  0.2600337 
564        0.351627   0.7508257  0.2790581 
564.1      0.3378228  0.7818952  0.2904972 
564.2      0.2972947  0.8985428  0.3314664 
564.3      0.2198662  1          0.4456443 
564.4      0.1568952  1          0.5185682 
564.5      0.1236328  1          0.5667355 
564.6      0.1089088  1          0.5795456 
564.7      0.1127802  1          0.5519223 
564.8      0.1087093  1          0.550394  
564.9      0.1310266  1          0.455201  
565        0.117013   1          0.454406  
565.1      0.1011005  1          0.448312  
565.2      0.07978237 1          0.4255841 
565.3      0.07082519 1          0.3816527 
565.4      0.05598833 1          0.3445683 
565.5      0.05288136 1          0.3129062 
565.6      0.04414373 1          0.3178398 
565.7      0.06057634 1          0.3154108 
565.8      0.07556975 1          0.336998  
565.9      0.09282601 1          0.3947838 
566        0.09691685 1          0.457013  
566.1      0.1340867  1          0.4353555 
566.2      0.1414969  1          0.4691314 
566.3      0.1614915  1          0.4344248 
566.4      0.1580646  1          0.4368903 
566.5      0.1369681  1          0.4738353 
566.6      0.1327937  1          0.4814118 
566.7      0.1385301  1          0.4688714 
566.8      0.1567221  1          0.4374203 
566.9      0.1441891  1          0.4741383 
567        0.1529813  1          0.4411795 
567.1      0.1332741  1          0.4967054 
567.2      0.09319515 1          0.5877479 
567.3      0.06602907 1          0.6534998 
567.4      0.05516962 1          0.6782817 
567.5      0.07639442 1          0.6315967 
567.6      0.08166947 1          0.6217041 
567.7      0.07884076 1          0.6239071 
567.8      0.0622567  1          0.6692255 
567.9      0.02625459 1          0.7381905 
568        0.02386241 1          0.7382863 
568.1      0.03740621 1          0.6906031 
568.2      0.05594298 1          0.6563509 
568.3      0.07558759 1          0.6143965 
568.4      0.07849769 1          0.6162539 
568.5      0.07330639 1          0.6246088 
568.6      0.06186562 1          0.6536495 
568.7      0.0728993  1          0.6225048 
568.8      0.08210254 1          0.5861722 
568.9      0.06785454 1          0.6301988 
569        0.06774157 1          0.6148445 
569.1      0.07855373 1          0.5952755 
569.2      0.07669522 1          0.623268  
569.3      0.07958357 1          0.6298942 
569.4      0.07480248 1          0.6668722 
569.5      0.05943718 1          0.6911848 
569.6      0.06120189 1          0.688429  
569.7      0.06626819 1          0.6737388 
569.8      0.06170167 1          0.6864843 
569.9      0.06607103 1          0.6775905 
570        0.05313232 1          0.6877324 
570.1      0.02982715 1          0.7429563 
570.2      0.04021011 1          0.71299   
570.3      0.05687931 1          0.6781319 
570.4      0.07351839 1          0.635811  
570.5      0.07741474 1          0.6229426 
570.6      0.07665188 1          0.6343347 
570.7      0.08992328 1          0.6083205 
570.8      0.06028391 1          0.6836906 
570.9      0.09332754 1          0.6099273 
571        0.1103725  1          0.573072  
571.1      0.1104702  1          0.5601477 
571.2      0.1068215  1          0.5697749 
571.3      0.1089131  1          0.5613505 
571.4      0.1146545  1          0.5297609 
571.5      0.1104802  1          0.5299821 
571.6      0.1148274  1          0.5080385 
571.7      0.1186018  1          0.4866204 
571.8      0.1180382  1          0.4873527 
571.9      0.1007771  1          0.5351195 
572        0.1117642  1          0.5017237 
572.1      0.13282    1          0.4809279 
572.2      0.1662294  1          0.4492397 
572.3      0.1724803  1          0.4546042 
572.4      0.1753743  1          0.493089  
572.5      0.1942249  1          0.4659992 
572.6      0.2266534  1          0.4321859 
572.7      0.2400254  1          0.4205435 
572.8      0.2412074  1          0.4073579 
572.9      0.2342539  1          0.3983774 
573        0.2222465  1          0.3760675 
573.1      0.1731531  1          0.4056529 
573.2      0.08248211 1          0.4909284 
573.3      0.07134928 1          0.4569543 
573.4      0.05224923 1          0.421851  
573.5      0.03629459 1          0.4346146 
573.6      0.03357914 1          0.3980839 
573.7      0.03052244 1          0.3962761 
573.8      0.02620757 1          0.4061388 
573.9      0.04041633 1          0.3604783 
574        0.05409776 1          0.3280538 
574.1      0.07619913 1          0.3147333 
574.2      0.07440688 1          0.342207  
574.3      0.07952524 1          0.3550651 
574.4      0.09593242 1          0.3633605 
574.5      0.08536124 1          0.4476263 
574.6      0.1011151  1          0.4722719 
574.7      0.1042651  1          0.4972589 
574.8      0.07004045 1          0.6137837 
574.9      0.06849922 1          0.6594847 
575        0.06070058 1          0.684196  
575.1      0.0583777  1          0.6924384 
575.2      0.03164931 1          0.7430962 
575.3      0.02444473 1          0.7575468 
575.4      0.03840966 1          0.7271276 
575.5      0.04490605 1          0.7048368 
575.6      0.04274114 1          0.6991611 
575.7      0.06470877 1          0.6523957 
575.8      0.08131683 1          0.6183447 
575.9      0.06727207 1          0.67835   
576        0.08680467 1          0.6364612 
576.1      0.07686244 1          0.6485427 
576.2      0.07441031 1          0.6333414 
576.3      0.06488805 1          0.6308027 
576.4      0.05404921 1          0.6434541 
576.5      0.06174633 1          0.617183  
576.6      0.05622048 1          0.6353404 
576.7      0.03059588 1          0.7125006 
