~Version
 VERS              .         3.0                           : CWLS LOG ASCII STANDARD - VERSION 3.0
 WRAP              .         NO                            : ONE LINE PER DEPTH STEP
 DLM               .         SPACE                         : DELIMITING CHARACTER(SPACE TAB OR COMMA)
~Well Information
#_______________________________________________________________________________
#
#PARAMETER_NAME    .UNIT     VALUE                         : DESCRIPTION
#_______________________________________________________________________________
STRT               .m        122                           : First reference value
STOP               .m        788                           : Last reference value
STEP               .m        0.1                           : Step increment
NULL               .         -9999                         : Missing value
COMP               .         ICPetroleum                   : Company
WELL               .         310                           : Well name
FLD                .         Karatobe                      : Field
LOC                .                                       : Location
SRVC               .         KF GIS "Kazpromgeophizika"    : Service Company
CTRY               .         KZ                            : Country
DATE               .         12.12.2004                    : Service Date
LATI               .         0                             : Latitude
LONG               .         0                             : Longitude
GDAT               .         WGS 84                        : Geodetic Datum
API                .                                       : API NUMBER
CNTY               .         Kyzyl-Orda                    : 
COORDIN            .                                       : Grid System
COUNTRY            .         Kazakhstan                    : 
COUNTRY            .         Kazakhstan                    : 
EREF               .m        133.5                         : 
KB                 .         134.7                         : KB Elevation
ORIGINALWELLNAME   .         310                           : 
PROV               .                                       : PROVINCE
RWS                .         -999                          : Def_Rw
UWI                .         _                             : 
WST                .         -999                          : Def_Rwt
X                  .km       466595.6                      : 
XCOORD             .                                       : X or East-West Coordinate
Y                  .km       5308644.6                     : 
YCOORD             .                                       : Y or North-South Coordinate
~Parameter Information Block
#_______________________________________________________________________________
#
#PARAMETER_NAME    .UNIT     VALUE                         : DESCRIPTION
#_______________________________________________________________________________
SET                .         Las                           : 
TLFamily_DEPT      .         Measured Depth                : 
TLFamily_PHI_FINAL .         Porosity                      : 
TLFamily_SW_AR     .         Water Saturation              : 
TLFamily_VSH_FINAL .         Shale Volume                  : 
~Curve Information
#_______________________________________________________________________________
#
#LOGNAME           .UNIT     LOG_ID                        : DESCRIPTION
#_______________________________________________________________________________
DEPT               .m                                      : DEPTH {F}
PHI_FINAL          .m3/m3                                  : Porosity {F}
SW_AR              .m3/m3                                  :  {F}
VSH_FINAL          .unitless                               : Vshale {F}
~Ascii
# ...
340.4      0.09253837 1          0.6236576 
340.5      0.07458    1          0.6969147 
340.6      0.06922149 1          0.7206828 
340.7      0.05774318 1          0.7680805 
340.8      0.05377442 1          0.8131304 
340.9      0.0784634  1          0.7605941 
341        0.08244883 1          0.7431335 
341.1      0.1107912  1          0.6669309 
341.2      0.1279573  1          0.623347  
341.3      0.1535885  1          0.5814368 
341.4      0.1431782  1          0.6220777 
341.5      0.1465091  1          0.6431809 
341.6      0.1291367  1          0.7031559 
341.7      0.1323595  1          0.6898986 
341.8      0.08525364 1          0.8151972 
341.9      0.08638881 1          0.7979841 
342        0.07609482 1          0.8140256 
342.1      0.04744263 1          0.8893391 
342.2      0.04960284 1          0.8655178 
342.3      0.05204118 1          0.8497601 
342.4      0.0826298  1          0.7726153 
342.5      0.08425532 1          0.7729479 
342.6      0.06473339 1          0.8182082 
342.7      0.05477348 1          0.8480459 
342.8      0.04934737 1          0.8741365 
342.9      0.09242984 1          0.7630067 
343        0.1410521  1          0.6469572 
343.1      0.1720726  1          0.5708195 
343.2      0.1889167  1          0.5462758 
343.3      0.1996813  1          0.5374495 
343.4      0.2017945  1          0.5336885 
343.5      0.1927813  1          0.5526246 
343.6      0.1931293  1          0.5677354 
343.7      0.175905   1          0.5984108 
343.8      0.1583675  1          0.6534718 
343.9      0.152797   1          0.6875799 
344        0.1353033  1          0.7506975 
344.1      0.1280192  1          0.7756054 
344.2      0.1331723  1          0.7683978 
344.3      0.137506   1          0.7477854 
344.4      0.1375215  1          0.7357025 
344.5      0.148036   1          0.6896042 
344.6      0.1510615  1          0.6573461 
344.7      0.14609    1          0.639432  
344.8      0.1232051  1          0.6754252 
344.9      0.111684   1          0.6914243 
345        0.1078218  1          0.6787842 
345.1      0.1388605  1          0.5883551 
345.2      0.162893   1          0.5160764 
345.3      0.1613702  1          0.5107547 
345.4      0.1754476  1          0.462588  
345.5      0.1863268  1          0.4094481 
345.6      0.1861145  1          0.399921  
345.7      0.1888233  1          0.3982496 
345.8      0.1700801  1          0.4358901 
345.9      0.1766875  1          0.4137366 
346        0.1625409  1          0.4402384 
346.1      0.1793627  1          0.4019399 
346.2      0.1766458  1          0.4224133 
346.3      0.1795634  1          0.4508921 
346.4      0.192436   0.9778251  0.4394817 
346.5      0.2073868  0.9140882  0.4312385 
346.6      0.1831606  1          0.494     
346.7      0.1384118  1          0.6078975 
346.8      0.1225295  1          0.6481283 
346.9      0.1055479  1          0.6863016 
347        0.1237167  1          0.6609356 
347.1      0.1314857  1          0.6779883 
347.2      0.1485371  1          0.6644213 
347.3      0.178083   1          0.6127908 
347.4      0.1756555  1          0.6387599 
347.5      0.1971808  1          0.5768425 
347.6      0.1821229  1          0.6120033 
347.7      0.1826322  1          0.5837281 
347.8      0.1569196  1          0.638225  
347.9      0.1425723  1          0.6530344 
348        0.139641   1          0.6284123 
348.1      0.1189332  1          0.6441475 
348.2      0.1126933  1          0.6423679 
348.3      0.1188165  1          0.6094529 
348.4      0.0978158  1          0.6484112 
348.5      0.0697125  1          0.7153636 
348.6      0.07718524 1          0.6824973 
348.7      0.07119858 1          0.705312  
348.8      0.02557034 1          0.8354177 
348.9      0.03020209 1          0.8213862 
349        0.01963203 1          0.8587434 
349.1      0.04582469 1          0.7842686 
349.2      0.05178716 1          0.7752306 
349.3      0.03809441 1          0.8239488 
349.4      0.03755262 1          0.8339681 
349.5      0.04642873 1          0.8218333 
349.6      0.03848226 1          0.8287583 
349.7      0.03706025 1          0.8204235 
349.8      0.03216505 1          0.8304019 
349.9      0.01983033 1          0.8725479 
350        0.0205033  1          0.8603917 
350.1      0.02470727 1          0.8300357 
350.2      0.02294799 1          0.8382102 
350.3      0.08020987 1          0.6773424 
350.4      0.1056926  1          0.6169013 
350.5      0.09738084 1          0.6360688 
350.6      0.09129854 1          0.6580535 
350.7      0.1070502  1          0.6281356 
350.8      0.08531423 1          0.6901435 
350.9      0.08121856 1          0.6888498 
351        0.0765553  1          0.6975774 
351.1      0.06965233 1          0.7152217 
351.2      0.05478234 1          0.7413151 
351.3      0.04135065 1          0.7566831 
351.4      0.03087134 1          0.7861447 
351.5      0.03878869 1          0.7757667 
351.6      0.04258088 1          0.7707895 
351.7      0.05369653 1          0.757769  
351.8      0.06804849 1          0.7307457 
351.9      0.05867079 1          0.7711186 
352        0.05414552 1          0.7883834 
352.1      0.06020361 1          0.772221  
352.2      0.0919369  1          0.6872076 
352.3      0.08706014 1          0.7048094 
352.4      0.1059758  1          0.6467578 
352.5      0.1219182  1          0.5950873 
352.6      0.1181034  1          0.6130973 
352.7      0.0861     1          0.6953215 
352.8      0.07867325 1          0.7242768 
352.9      0.08197144 1          0.7239665 
353        0.103735   1          0.6701372 
353.1      0.1118661  1          0.6571363 
353.2      0.1626262  1          0.5353824 
353.3      0.1844726  1          0.4950422 
353.4      0.1958843  1          0.4865414 
353.5      0.2186621  1          0.438652  
353.6      0.2306828  0.957717   0.4220457 
353.7      0.2457944  0.9146154  0.3963525 
353.8      0.2426495  0.9410256  0.4122686 
353.9      0.2341792  1          0.4357556 
354        0.2277346  1          0.447748  
354.1      0.233824   1          0.4455077 
354.2      0.2412289  1          0.443413  
354.3      0.2307679  1          0.4748052 
354.4      0.2454526  1          0.462372  
354.5      0.2489734  1          0.4567191 
354.6      0.2653454  0.9537475  0.4372604 
354.7      0.2573231  0.9849169  0.4737071 
354.8      0.2618516  0.9659683  0.4736482 
354.9      0.2526381  0.9879835  0.4986757 
355        0.2349667  1          0.5312842 
355.1      0.2405131  1          0.5228813 
355.2      0.2403679  1          0.5332091 
355.3      0.2195838  1          0.5809608 
355.4      0.2146815  1          0.5819115 
355.5      0.2087746  1          0.6089307 
355.6      0.1908607  1          0.6737636 
355.7      0.185579   1          0.6908264 
355.8      0.1845874  1          0.6843767 
355.9      0.188196   1          0.6787663 
356        0.150836   1          0.7745131 
356.1      0.1405216  1          0.7900053 
356.2      0.1461177  1          0.7736285 
356.3      0.1387942  1          0.8077211 
356.4      0.1595099  1          0.7400981 
356.5      0.1763335  1          0.7047329 
356.6      0.1881693  1          0.6710853 
356.7      0.2107039  1          0.6174501 
356.8      0.2000849  1          0.6425191 
356.9      0.2010392  1          0.6456145 
357        0.2212415  1          0.6103829 
357.1      0.224912   1          0.6344559 
357.2      0.2282111  1          0.6643481 
357.3      0.2317545  1          0.6700512 
357.4      0.2321662  1          0.6838491 
357.5      0.1949733  1          0.7754957 
357.6      0.1707487  1          0.8464528 
357.7      0.1701627  1          0.839417  
357.8      0.1742456  1          0.8284378 
357.9      0.2009989  1          0.7724046 
358        0.2340165  1          0.6797398 
358.1      0.2360695  1          0.6646822 
358.2      0.2689241  1          0.5716296 
358.3      0.2739489  1          0.5670226 
358.4      0.2852785  0.9703097  0.5351418 
358.5      0.2848371  0.9684288  0.531426  
