~Version
 VERS              .         3.0                           : CWLS LOG ASCII STANDARD - VERSION 3.0
 WRAP              .         NO                            : ONE LINE PER DEPTH STEP
 DLM               .         SPACE                         : DELIMITING CHARACTER(SPACE TAB OR COMMA)
~Well Information
#_______________________________________________________________________________
#
#PARAMETER_NAME    .UNIT     VALUE                         : DESCRIPTION
#_______________________________________________________________________________
STRT               .m        122                           : First reference value
STOP               .m        788                           : Last reference value
STEP               .m        0.1                           : Step increment
NULL               .         -9999                         : Missing value
COMP               .         ICPetroleum                   : Company
WELL               .         310                           : Well name
FLD                .         Karatobe                      : Field
LOC                .                                       : Location
SRVC               .         KF GIS "Kazpromgeophizika"    : Service Company
CTRY               .         KZ                            : Country
DATE               .         12.12.2004                    : Service Date
LATI               .         0                             : Latitude
LONG               .         0                             : Longitude
GDAT               .         WGS 84                        : Geodetic Datum
API                .                                       : API NUMBER
CNTY               .         Kyzyl-Orda                    : 
COORDIN            .                                       : Grid System
COUNTRY            .         Kazakhstan                    : 
COUNTRY            .         Kazakhstan                    : 
EREF               .m        133.5                         : 
KB                 .         134.7                         : KB Elevation
ORIGINALWELLNAME   .         310                           : 
PROV               .                                       : PROVINCE
RWS                .         -999                          : Def_Rw
UWI                .         _                             : 
WST                .         -999                          : Def_Rwt
X                  .km       466595.6                      : 
XCOORD             .                                       : X or East-West Coordinate
Y                  .km       5308644.6                     : 
YCOORD             .                                       : Y or North-South Coordinate
~Parameter Information Block
#_______________________________________________________________________________
#
#PARAMETER_NAME    .UNIT     VALUE                         : DESCRIPTION
#_______________________________________________________________________________
SET                .         Las                           : 
TLFamily_DEPT      .         Measured Depth                : 
TLFamily_PHI_FINAL .         Porosity                      : 
TLFamily_SW_AR     .         Water Saturation              : 
TLFamily_VSH_FINAL .         Shale Volume                  : 
~Curve Information
#_______________________________________________________________________________
#
#LOGNAME           .UNIT     LOG_ID                        : DESCRIPTION
#_______________________________________________________________________________
DEPT               .m                                      : DEPTH {F}
PHI_FINAL          .m3/m3                                  : Porosity {F}
SW_AR              .m3/m3                                  :  {F}
VSH_FINAL          .unitless                               : Vshale {F}
~Ascii
# ...
722.4      0.0009421301 1          0.3496167 
722.5      0          1          0.3394215 
722.6      0.009667096 1          0.3019517 
722.7      0.03980706 1          0.2854758 
722.8      0.03466274 1          0.2809666 
722.9      0.03142677 1          0.283969  
723        0.06526713 1          0.2589114 
723.1      0.06632283 1          0.2613221 
723.2      0.04832426 1          0.2605175 
723.3      0.06387576 1          0.2536423 
723.4      0.083962   1          0.2313491 
723.5      0.03810553 1          0.2352612 
723.6      0.04309477 1          0.2462977 
723.7      0.06708365 1          0.2487356 
723.8      0.04081905 1          0.2600352 
723.9      0.02552143 1          0.2720471 
724        0.05226065 1          0.2831335 
724.1      0.01411187 1          0.3168396 
724.2      0          1          0.3150804 
724.3      0          1          0.2939991 
724.4      0          1          0.28305   
724.5      0          1          0.263177  
724.6      0          1          0.2681248 
724.7      0          1          0.2768209 
724.8      0          1          0.2997183 
724.9      0          1          0.3368739 
725        0          1          0.3843464 
725.1      0          1          0.3947323 
725.2      0          1          0.3990876 
725.3      0          1          0.4021718 
725.4      0          1          0.3814341 
725.5      0          1          0.3665755 
725.6      0          1          0.3366016 
725.7      0          1          0.3451891 
725.8      0          1          0.3656276 
725.9      0          1          0.4073747 
726        0          1          0.4257747 
726.1      0          1          0.4327016 
726.2      0          1          0.4242326 
726.3      0          1          0.4243353 
726.4      0          1          0.4168739 
726.5      0          1          0.3950284 
726.6      0          1          0.3668601 
726.7      0          1          0.3699033 
726.8      0          1          0.3881502 
726.9      0          1          0.3757413 
727        0          1          0.4007773 
727.1      0          1          0.3833744 
727.2      0          1          0.3633579 
727.3      0          1          0.370094  
727.4      0          1          0.3692364 
727.5      0          1          0.3523058 
727.6      0          1          0.3339743 
727.7      0          1          0.324281  
727.8      0          1          0.3342456 
727.9      0          1          0.3510063 
728        0.00462928 1          0.325976  
728.1      0.004647035 1          0.3290201 
728.2      0          1          0.2879111 
728.3      0          1          0.2907785 
728.4      0.008042298 1          0.247476  
728.5      0.01258529 1          0.2580299 
728.6      0.03732754 1          0.2179064 
728.7      0.02768996 1          0.2206739 
728.8      0.04433002 1          0.2020978 
728.9      0.02446674 1          0.2076332 
729        0.02211634 1          0.1976244 
729.1      0.02824841 1          0.1987752 
729.2      0.03079895 1          0.1801037 
729.3      0.02686221 1          0.1998564 
729.4      0.003315129 1          0.227692  
729.5      0.004964424 1          0.2042033 
729.6      0.002381441 1          0.1898508 
729.7      0          1          0.2055142 
729.8      0          1          0.2283759 
729.9      0          1          0.2433233 
730        0          1          0.2362627 
730.1      0          1          0.2348764 
730.2      0.001603563 1          0.2107168 
730.3      0.01375824 1          0.205806  
730.4      0.03157708 1          0.1866047 
730.5      0.03641719 1          0.187027  
730.6      0.04658532 1          0.1733416 
730.7      0.0544522  1          0.1516826 
730.8      0.04608339 1          0.1421365 
730.9      0.06415805 1          0.1226825 
731        0.05665432 1          0.136195  
731.1      0.04059282 1          0.1391244 
731.2      0.02568921 1          0.1416225 
731.3      0.01476381 1          0.1431019 
731.4      0.01119655 1          0.1280773 
731.5      0.002691737 1          0.1192436 
731.6      0.001573306 1          0.1102204 
731.7      0.01519248 1          0.1058067 
731.8      0.02933158 1          0.1018487 
731.9      0.03786715 1          0.1127454 
732        0.05599359 1          0.1074715 
732.1      0.07582667 1          0.1062817 
732.2      0.07622676 1          0.1156487 
732.3      0.06407007 1          0.1149817 
732.4      0.06848284 1          0.1199783 
732.5      0.07152479 1          0.1216357 
732.6      0.06679506 1          0.1177168 
732.7      0.05312296 1          0.1022017 
732.8      0.06465431 1          0.1069952 
732.9      0.06885491 1          0.08671317
733        0.07342727 1          0.08716737
733.1      0.04734444 1          0.1018487 
733.2      0.02734448 1          0.1018487 
733.3      0.007015049 1          0.1329686 
733.4      0.01545495 1          0.1522733 
733.5      0.0181652  1          0.1750581 
733.6      0          1          0.2147817 
733.7      0          1          0.2653619 
733.8      0          1          0.346017  
733.9      0          1          0.3986906 
734        0          1          0.4254661 
734.1      0          1          0.4288685 
734.2      0          1          0.4423167 
734.3      0          1          0.4345733 
734.4      0          1          0.4382261 
734.5      0          1          0.4202377 
734.6      0          1          0.4287651 
734.7      0          1          0.4199313 
734.8      0          1          0.4182991 
734.9      0          1          0.3981946 
735        0          1          0.411705  
735.1      0          1          0.3832772 
735.2      0          1          0.3475838 
735.3      0          1          0.3419787 
735.4      0          1          0.3252618 
735.5      0          1          0.3313574 
735.6      0          1          0.3498944 
735.7      0          1          0.353794  
735.8      0          1          0.3603432 
735.9      0          1          0.3685703 
736        0          1          0.3898146 
736.1      0          1          0.3726727 
736.2      0          1          0.3872707 
736.3      0          1          0.3674297 
736.4      0          1          0.3169277 
736.5      0          1          0.3056629 
736.6      0          1          0.2761602 
736.7      0          1          0.2605175 
736.8      0          1          0.2540399 
736.9      0          1          0.2545968 
737        0          1          0.241764  
737.1      0          1          0.2343383 
737.2      0          1          0.2378843 
737.3      0          1          0.2605175 
737.4      0          1          0.281466  
737.5      0          1          0.3073965 
737.6      0          1          0.3715254 
737.7      0          1          0.3888351 
737.8      0          1          0.3994848 
737.9      0          1          0.3856121 
738        0          1          0.3599672 
738.1      0          1          0.304625  
738.2      0          1          0.2793879 
738.3      0          1          0.254995  
738.4      0          1          0.2480268 
738.5      0          1          0.2255696 
738.6      0          1          0.2518173 
738.7      0          1          0.2257966 
738.8      0          1          0.1988472 
738.9      0          1          0.1941156 
739        0          1          0.1598851 
739.1      0          1          0.1353705 
739.2      0          1          0.123917  
739.3      0          1          0.1310812 
739.4      0          1          0.1148    
739.5      0          1          0.1040891 
739.6      0          1          0.09070428
739.7      0          1          0.04426279
739.8      0          1          0.008755996
739.9      0          1          0         
740        0          1          0         
740.1      0          1          0         
740.2      0          1          0         
740.3      0          1          0         
740.4      0          1          0         
740.5      0          1          0         
