~Version
 VERS              .         3.0                           : CWLS LOG ASCII STANDARD - VERSION 3.0
 WRAP              .         NO                            : ONE LINE PER DEPTH STEP
 DLM               .         SPACE                         : DELIMITING CHARACTER(SPACE TAB OR COMMA)
~Well Information
#_______________________________________________________________________________
#
#PARAMETER_NAME    .UNIT     VALUE                         : DESCRIPTION
#_______________________________________________________________________________
STRT               .m        122                           : First reference value
STOP               .m        788                           : Last reference value
STEP               .m        0.1                           : Step increment
NULL               .         -9999                         : Missing value
COMP               .         ICPetroleum                   : Company
WELL               .         310                           : Well name
FLD                .         Karatobe                      : Field
LOC                .                                       : Location
SRVC               .         KF GIS "Kazpromgeophizika"    : Service Company
CTRY               .         KZ                            : Country
DATE               .         12.12.2004                    : Service Date
LATI               .         0                             : Latitude
LONG               .         0                             : Longitude
GDAT               .         WGS 84                        : Geodetic Datum
API                .                                       : API NUMBER
CNTY               .         Kyzyl-Orda                    : 
COORDIN            .                                       : Grid System
COUNTRY            .         Kazakhstan                    : 
COUNTRY            .         Kazakhstan                    : 
EREF               .m        133.5                         : 
KB                 .         134.7                         : KB Elevation
ORIGINALWELLNAME   .         310                           : 
PROV               .                                       : PROVINCE
RWS                .         -999                          : Def_Rw
UWI                .         _                             : 
WST                .         -999                          : Def_Rwt
X                  .km       466595.6                      : 
XCOORD             .                                       : X or East-West Coordinate
Y                  .km       5308644.6                     : 
YCOORD             .                                       : Y or North-South Coordinate
~Parameter Information Block
#_______________________________________________________________________________
#
#PARAMETER_NAME    .UNIT     VALUE                         : DESCRIPTION
#_______________________________________________________________________________
SET                .         Las                           : 
TLFamily_DEPT      .         Measured Depth                : 
TLFamily_PHI_FINAL .         Porosity                      : 
TLFamily_SW_AR     .         Water Saturation              : 
TLFamily_VSH_FINAL .         Shale Volume                  : 
~Curve Information
#_______________________________________________________________________________
#
#LOGNAME           .UNIT     LOG_ID                        : DESCRIPTION
#_______________________________________________________________________________
DEPT               .m                                      : DEPTH {F}
PHI_FINAL          .m3/m3                                  : Porosity {F}
SW_AR              .m3/m3                                  :  {F}
VSH_FINAL          .unitless                               : Vshale {F}
~Ascii
# ...
176.6      0.5344961  0.5116618  0.2632666 
176.7      0.5227954  0.5265757  0.2700392 
176.8      0.5028118  0.5509263  0.2944526 
176.9      0.4920862  0.5616739  0.2995269 
177        0.4755669  0.5676559  0.3194739 
177.1      0.4596729  0.5509677  0.3271054 
177.2      0.4420334  0.5393843  0.3390855 
177.3      0.4304252  0.5479901  0.3488124 
177.4      0.4145553  0.5890083  0.3698931 
177.5      0.4033674  0.622655   0.3892908 
177.6      0.4057193  0.6294898  0.3903219 
177.7      0.4109506  0.6241568  0.3905419 
177.8      0.4088715  0.6276376  0.4015863 
177.9      0.4263663  0.6041724  0.3710824 
178        0.4309308  0.5988054  0.364846  
178.1      0.4258401  0.6023454  0.3702091 
178.2      0.4251251  0.5921415  0.3696438 
178.3      0.4182177  0.5933747  0.3765059 
178.4      0.4114405  0.6032647  0.3848067 
178.5      0.3989483  0.6331435  0.3979073 
178.6      0.411597   0.6263415  0.3659765 
178.7      0.4140478  0.6303942  0.3565349 
178.8      0.4135559  0.637274   0.3661397 
178.9      0.4175839  0.6377454  0.3628961 
179        0.4255086  0.6315479  0.3463463 
179.1      0.4233062  0.6386344  0.364207  
179.2      0.4282593  0.6337731  0.3619941 
179.3      0.4434658  0.6146231  0.3359185 
179.4      0.439004   0.6207935  0.3470316 
179.5      0.4257904  0.6381912  0.3645326 
179.6      0.4210608  0.6440177  0.361683  
179.7      0.4348279  0.6247129  0.3327721 
179.8      0.4490734  0.6080047  0.3031986 
179.9      0.4361152  0.6348417  0.3217943 
180        0.4181876  0.6683289  0.3451779 
180.1      0.4370635  0.6443065  0.302208  
180.2      0.4406095  0.6346973  0.2960617 
180.3      0.4373885  0.6324033  0.3109209 
180.4      0.4194895  0.6468451  0.3430543 
180.5      0.4227096  0.6392193  0.3257367 
180.6      0.4246596  0.6367089  0.3164689 
180.7      0.4181033  0.6466917  0.3330719 
180.8      0.4230988  0.6360044  0.3207472 
180.9      0.4250031  0.6279785  0.3130613 
181        0.4308106  0.6179482  0.3016611 
181.1      0.4431346  0.6020464  0.2782194 
181.2      0.4381094  0.609197   0.2904492 
181.3      0.4240068  0.6284749  0.3147206 
181.4      0.4231451  0.6316208  0.3230524 
181.5      0.4300504  0.6274493  0.3184056 
181.6      0.4514595  0.612409   0.2852339 
181.7      0.4676706  0.6072245  0.2600511 
181.8      0.4910083  0.5842829  0.2244322 
181.9      0.4913687  0.5845513  0.238395  
182        0.4974161  0.5729486  0.2375444 
182.1      0.4987655  0.5659724  0.2421211 
182.2      0.502251   0.5568085  0.2411681 
182.3      0.5199921  0.537057   0.228455  
182.4      0.5196661  0.5404461  0.2419466 
182.5      0.5121018  0.5511592  0.2465847 
182.6      0.5079471  0.5562903  0.249293  
182.7      0.4943228  0.5678728  0.2655661 
182.8      0.4881088  0.5703084  0.2598199 
182.9      0.4808291  0.5731199  0.2511074 
183        0.4772993  0.574425   0.2419683 
183.1      0.471856   0.5790936  0.2451989 
183.2      0.4665559  0.5850673  0.2486501 
183.3      0.4737763  0.5756571  0.235288  
183.4      0.4651237  0.5836955  0.251536  
183.5      0.465256   0.5830508  0.2547639 
183.6      0.4477988  0.6061776  0.2894098 
183.7      0.4467213  0.611292   0.2912902 
183.8      0.4444323  0.6158406  0.3025106 
183.9      0.4480771  0.6122775  0.3039045 
184        0.4391359  0.6254039  0.3220243 
184.1      0.4481233  0.6153867  0.3041621 
184.2      0.4496416  0.6144843  0.3007223 
184.3      0.4439367  0.621278   0.3066329 
184.4      0.4483705  0.6107227  0.2958726 
184.5      0.4372001  0.6178676  0.3092306 
184.6      0.4344022  0.6116235  0.3007966 
184.7      0.4283692  0.613464   0.3030621 
184.8      0.4315361  0.6095678  0.2816574 
184.9      0.4150199  0.6386101  0.2988358 
185        0.4052189  0.660737   0.3051567 
185.1      0.4119821  0.6552274  0.291232  
185.2      0.423329   0.6419723  0.2736219 
185.3      0.4371023  0.6241422  0.2568426 
185.4      0.4418574  0.6224287  0.2601175 
185.5      0.4485017  0.6189201  0.2585289 
185.6      0.4460913  0.6264822  0.2668609 
185.7      0.4534832  0.6190167  0.2537413 
185.8      0.4661655  0.6045597  0.232381  
185.9      0.464758   0.6068357  0.237694  
186        0.4669413  0.6061956  0.2293826 
186.1      0.4582767  0.6302485  0.2431612 
186.2      0.444991   0.6649323  0.2669743 
186.3      0.4174464  0.7181233  0.3190558 
186.4      0.4249268  0.7022435  0.3018961 
186.5      0.421955   0.6889316  0.311278  
186.6      0.4137413  0.6636557  0.3280724 
186.7      0.4048867  0.6596151  0.3486382 
186.8      0.404475   0.6582211  0.353532  
186.9      0.4047723  0.6713426  0.3568518 
187        0.4205096  0.6571059  0.3284958 
187.1      0.4383917  0.6363216  0.2945995 
187.2      0.4353932  0.63723    0.3002968 
187.3      0.4458025  0.6217846  0.2838434 
187.4      0.4381699  0.6360636  0.2968626 
187.5      0.4415803  0.6298865  0.281801  
187.6      0.44543    0.6177053  0.2643636 
187.7      0.4370733  0.6235194  0.2713127 
187.8      0.431894   0.630724   0.2775792 
187.9      0.4351767  0.6284919  0.2708472 
188        0.4296972  0.6375695  0.2816356 
188.1      0.4216783  0.6498692  0.3135955 
188.2      0.4153633  0.663502   0.3438412 
188.3      0.4127466  0.6742566  0.3647915 
188.4      0.4288495  0.6534759  0.354808  
188.5      0.4445353  0.6285564  0.3547634 
188.6      0.4609997  0.601852   0.3434277 
188.7      0.452037   0.6106097  0.3680527 
188.8      0.471787   0.5837553  0.3325818 
188.9      0.4698605  0.5835202  0.3408849 
189        0.4670188  0.5876291  0.3454415 
189.1      0.4304614  0.6386932  0.4079604 
189.2      0.4186593  0.6581302  0.4263674 
189.3      0.4266834  0.6450164  0.4068789 
189.4      0.4145374  0.6586157  0.421935  
189.5      0.4173157  0.6547474  0.4056612 
189.6      0.41633    0.6652347  0.3979018 
189.7      0.4090984  0.6845075  0.4036174 
189.8      0.3837799  0.7229423  0.4499823 
189.9      0.3869391  0.6992388  0.4416667 
190        0.388235   0.6889024  0.4352439 
190.1      0.4140258  0.6446407  0.3816818 
190.2      0.4123048  0.6467879  0.3765188 
190.3      0.4124375  0.6475202  0.3597039 
190.4      0.4178008  0.641369   0.3312214 
190.5      0.4341739  0.6183385  0.290645  
190.6      0.4342305  0.614594   0.294982  
190.7      0.4439333  0.605472   0.2801268 
190.8      0.4678828  0.5785053  0.2401343 
190.9      0.474027   0.570107   0.2486506 
191        0.4747984  0.567354   0.2569079 
191.1      0.4832345  0.5525451  0.2443891 
191.2      0.4886667  0.5434468  0.2393862 
191.3      0.5026839  0.5278366  0.2206356 
191.4      0.5205202  0.5106097  0.1991113 
191.5      0.5316638  0.5032896  0.1926068 
191.6      0.5410371  0.5005969  0.1992292 
191.7      0.5610832  0.4825741  0.2074886 
191.8      0.5707737  0.4700394  0.230663  
191.9      0.5818247  0.4458247  0.2552033 
192        0.6041688  0.3952527  0.266975  
192.1      0.6151585  0.3526954  0.3119702 
192.2      0.6416403  0.3330035  0.3251334 
192.3      0.680529   0.3317789  0.3215239 
192.4      0.7089131  0.3376116  0.3271409 
192.5      0.7454535  0.3224487  0.3165469 
192.6      0.7655331  0.312555   0.3372959 
192.7      0.7882292  0.2940338  0.3528999 
192.8      0.8168823  0.2801855  0.3589492 
192.9      0.828962   0.2764813  0.3523179 
193        0.8292404  0.2798865  0.3756955 
193.1      0.8389415  0.2816442  0.3554473 
193.2      0.8445041  0.2810054  0.3525558 
193.3      0.8559209  0.2766095  0.3197615 
193.4      0.8567307  0.2755632  0.3130488 
193.5      0.8553928  0.2741428  0.2993449 
193.6      0.8536755  0.2696443  0.2973653 
193.7      0.8507498  0.2618308  0.2971147 
193.8      0.8445045  0.2513217  0.3103276 
193.9      0.8385863  0.2512148  0.3155592 
194        0.8304368  0.2662171  0.326038  
194.1      0.8232853  0.3035426  0.3365534 
194.2      0.8219515  0.3194927  0.332611  
194.3      0.8213944  0.3301455  0.3165359 
194.4      0.8146892  0.3184181  0.3255317 
194.5      0.8113251  0.2914165  0.3204362 
194.6      0.8133289  0.2551765  0.3198269 
194.7      0.8203627  0.2419921  0.3256437 
