~Version Information 
VERS.                                     2.00: CWLS log ASCII Standard -Version 2.00
WRAP.                                       NO: One line per depth step
~Well Information Block 
#MNEM.UNIT              Data Type        Information
#----------------------------------------------------------------------
STRT.M                                  122.00:
STOP.M                                  788.00:
STEP.M                                    0.10:
NULL.                                  -999.25:
WELL.                                      310: Well Name 
FLD .                                 KARATUBE: Field Name 
SRVC.                                         : Service company 
DATE.                                 30.08.04: Log date 
~Curve Information Block
#MNEM.UNIT                               Curve Description
#----------------------------------------------------------------------
DEPT.M                                        : Depth Curve
LL3.OHMM                                      : Appar.resist.laterolog,3 electrodes
MLL.OHMM                                      : Microlaterolog sonde
RHOB.G/C3                                     : Bulk density by gamma-gamma log
GZ3.OHMM                                      : App.resistivity by lateral A2.0M0.5N
GZ3B.OHMM                                     : App.resistivity by lateral N0.5M2.0A
SP.MV                                         : Spontaneous potential
C1.MM                                         : Diameter from profile1
C2.MM                                         : Diameter from profile2
CALI.MM                                       : Caliper
CILR.MMHO                                     : Conduct. by sonde 7I1.6,react.signal
CILA.MMHO                                     : Conduct. by sonde 7I1.6,active signal
GR.UR/H                                       : Gamma-ray log
NGLD.UE                                       : Neutron-gamma log/device DRST-90
DTP.US/M                                      : Interval travel time (P-wave)
T1.US                                         : Travel time1
T2.US                                         : Travel time2
~Parameter Information Block
#MNEM.UNIT              Value            Description
#----------------------------------------------------------------------
TDL .M                                    0.00: Total Depth-Logger
BS  .MM                                 215.90: Bit Size
DFD .G/C3                                 39.00: Drilling Fluid Density
TDD .M                                  780.00: Total Depth Driller
#----------------------------------------------------------------------
~ASCII Log Data
# ...
     351.80         2.3820       1.6780       2.2170       4.3540       4.7100      -4.5540     222.3010     221.6730     221.9870      93.5710     153.1230       9.9470       1.3830     452.3720    1530.15      1706.72   
     351.90         2.4040       1.8010       2.1900       4.3340       4.7220      -4.4420     221.6890     221.3700     221.5290      93.0370     153.4590      10.1350       1.4080     456.1510    1529.50      1704.14   
     352.00         2.4610       1.8670       2.1850       4.3100       4.7300      -4.0110     222.4060     221.3240     221.8650      93.0220     153.4400      10.2130       1.4250     459.5210    1529.38      1703.35   
     352.10         2.5050       1.9330       2.1860       4.3000       4.7370      -2.8730     221.7150     220.5870     221.1510      93.3350     153.3380      10.1410       1.4450     461.9380    1529.38      1703.19   
     352.20         2.5330       2.1250       2.1840       4.3060       4.7530      -1.3530     220.8890     220.2140     220.5510      94.3030     152.4930       9.7360       1.4780     463.1470    1529.64      1704.51   
     352.30         2.5740       2.6430       2.1800       4.3490       4.7760       0.9270     221.6210     223.6240     222.6220      95.8730     152.8940       9.8240       1.4480     461.5360    1529.58      1706.27   
     352.40         2.6890       2.9240       2.1970       4.4040       4.7950       3.4900     224.1370     223.5810     223.8590      95.2730     154.1200       9.5280       1.4110     458.7600    1528.77      1709.04   
     352.50         2.6950       2.4940       2.2070       4.4940       4.8110       7.5710     224.1050     222.3790     223.2420      95.0400     152.3790       9.2440       1.3920     453.2660    1528.00      1712.06   
     352.60         2.5720       2.0260       2.1890       4.5440       4.8160      12.0760     222.6270     224.4870     223.5570      95.8640     150.3140       9.3460       1.3640     447.5750    1527.34      1715.65   
     352.70         2.3940       1.7710       2.1800       4.5330       4.8070      16.6000     222.6270     223.0170     222.8220      95.2640     149.1000       9.7790       1.3530     441.4230    1526.88      1719.60   
     352.80         2.3970       1.8150       2.1470       4.4680       4.7690      19.8920     222.2230     222.6420     222.4330      95.0470     146.6360       9.9210       1.3720     436.6120    1526.87      1724.40   
     352.90         2.4600       1.9280       2.1040       4.3800       4.7300      21.8580     221.1030     221.9110     221.5070      94.5480     144.0560       9.9200       1.4220     434.9270    1527.80      1729.44   
     353.00         2.5590       1.9600       2.0940       4.2740       4.6960      22.9350     221.8960     221.0910     221.4940      94.9640     143.0050       9.6530       1.4330     434.5390    1530.91      1735.05   
     353.10         2.6190       1.9280       2.0730       4.1980       4.6990      23.8500     222.2050     220.6550     221.4300      94.8380     142.6520       9.5860       1.4600     437.1750    1534.31      1740.78   
     353.20         2.7060       1.9230       2.0650       4.1590       4.7120      24.9770     222.3760     220.9100     221.6430      95.2950     143.2840       8.8900       1.4950     441.7150    1538.40      1746.79   
     353.30         2.8540       2.0250       2.0710       4.1620       4.7630      27.2630     222.8300     221.1740     222.0020      97.4670     145.2900       8.6290       1.4900     450.6940    1542.58      1752.86   
     353.40         3.0370       2.1950       2.0660       4.1970       4.7770      29.2500     221.5760     220.8430     221.2100      99.4300     148.9410       8.5720       1.4740     460.1610    1546.98      1759.08   
     353.50         3.1920       2.3000       2.0760       4.2630       4.7700      29.7830     220.7460     220.8010     220.7730     101.3280     153.7640       8.2320       1.4660     470.7640    1551.25      1765.43   
     353.60         3.2360       2.3240       2.0720       4.3230       4.7190      29.3360     220.7390     220.8190     220.7790     103.1080     156.6990       8.1070       1.4870     481.7930    1555.19      1772.08   
     353.70         3.1460       2.2630       2.0790       4.3680       4.6530      28.2660     220.2750     220.8620     220.5680     105.8290     159.6200       7.9050       1.4740     493.8170    1559.45      1778.91   
     353.80         3.0440       2.1380       2.0860       4.3940       4.5580      27.4990     218.2970     221.2500     219.7740     107.2030     161.2590       8.0320       1.4860     504.1050    1564.46      1786.19   
     353.90         2.8740       1.9880       2.0890       4.4020       4.4870      27.6400     219.8420     221.1920     220.5170     107.3890     162.6240       8.2120       1.5220     510.3430    1570.03      1793.59   
     354.00         2.7700       1.8650       2.1050       4.3870       4.4000      28.0090     218.6480     222.0510     220.3500     108.8150     160.3850       8.3010       1.5380     516.1560    1576.88      1801.29   
     354.10         2.7020       1.7930       2.1080       4.3660       4.3480      28.9880     219.3560     221.4350     220.3950     109.8000     158.2680       8.2850       1.4750     520.9780    1584.11      1809.06   
     354.20         2.6500       1.7550       2.0960       4.3460       4.2960      29.9480     219.0510     221.3700     220.2110     110.0550     160.8210       8.2700       1.4550     525.7160    1592.19      1816.97   
     354.30         2.6120       1.6680       2.0970       4.3220       4.2650      32.1050     218.7190     220.4590     219.5890     110.3570     163.9060       8.4950       1.4650     530.2600    1600.40      1824.89   
     354.40         2.5710       1.7250       2.0780       4.3030       4.2500      34.3170     218.9080     220.8510     219.8790     111.6470     167.6560       8.4080       1.4230     535.4670    1608.90      1832.82   
     354.50         2.5350       1.5800       2.0890       4.2790       4.2490      37.4320     218.4400     222.0200     220.2300     111.7570     167.1080       8.3680       1.4120     542.2220    1617.27      1840.78   
     354.60         2.4910       1.6720       2.0700       4.2570       4.2570      40.5900     219.1150     221.9980     220.5560     112.2630     165.8220       8.2260       1.3970     548.6520    1625.36      1848.78   
     354.70         2.4750       1.7400       2.0600       4.2520       4.2600      43.6080     221.1100     221.7580     221.4340     112.2410     163.8050       8.4890       1.3900     554.3210    1633.26      1856.80   
     354.80         2.4900       1.7070       2.0500       4.2470       4.2280      47.6590     223.3300     223.1350     223.2330     112.4180     160.4990       8.4890       1.3950     558.9220    1640.73      1864.89   
     354.90         2.5490       1.8760       2.0500       4.2410       4.1820      51.8550     224.8080     224.1730     224.4910     112.4580     161.1890       8.6600       1.4070     561.0310    1648.07      1872.99   
     355.00         2.5500       1.8200       2.0680       4.2050       4.0740      60.2240     236.9450     224.0670     230.5060     112.1630     163.3970       8.8720       1.4300     562.3750    1655.14      1881.14   
     355.10         2.4850       1.5790       2.0570       4.1530       3.9700      68.4690     256.0380     222.3510     239.1950     111.9560     165.1910       8.8190       1.4330     561.9360    1662.18      1889.29   
     355.20         2.3880       1.3130       2.0420       4.0810       3.8630      77.6690     251.9570     222.8440     237.4000     111.5290     165.9500       8.8850       1.4270     561.2100    1669.17      1897.46   
     355.30         2.3390       1.0700       2.0540       4.0030       3.7930      85.4070     253.2720     236.1600     244.7160     110.5060     165.6830       9.1750       1.4100     559.8190    1676.21      1905.38   
