~Version Information 
VERS.                                     2.00: CWLS log ASCII Standard -Version 2.00
WRAP.                                       NO: One line per depth step
~Well Information Block 
#MNEM.UNIT              Data Type        Information
#----------------------------------------------------------------------
STRT.M                                  122.00:
STOP.M                                  788.00:
STEP.M                                    0.10:
NULL.                                  -999.25:
WELL.                                      310: Well Name 
FLD .                                 KARATUBE: Field Name 
SRVC.                                         : Service company 
DATE.                                 30.08.04: Log date 
~Curve Information Block
#MNEM.UNIT                               Curve Description
#----------------------------------------------------------------------
DEPT.M                                        : Depth Curve
LL3.OHMM                                      : Appar.resist.laterolog,3 electrodes
MLL.OHMM                                      : Microlaterolog sonde
RHOB.G/C3                                     : Bulk density by gamma-gamma log
GZ3.OHMM                                      : App.resistivity by lateral A2.0M0.5N
GZ3B.OHMM                                     : App.resistivity by lateral N0.5M2.0A
SP.MV                                         : Spontaneous potential
C1.MM                                         : Diameter from profile1
C2.MM                                         : Diameter from profile2
CALI.MM                                       : Caliper
CILR.MMHO                                     : Conduct. by sonde 7I1.6,react.signal
CILA.MMHO                                     : Conduct. by sonde 7I1.6,active signal
GR.UR/H                                       : Gamma-ray log
NGLD.UE                                       : Neutron-gamma log/device DRST-90
DTP.US/M                                      : Interval travel time (P-wave)
T1.US                                         : Travel time1
T2.US                                         : Travel time2
~Parameter Information Block
#MNEM.UNIT              Value            Description
#----------------------------------------------------------------------
TDL .M                                    0.00: Total Depth-Logger
BS  .MM                                 215.90: Bit Size
DFD .G/C3                                 39.00: Drilling Fluid Density
TDD .M                                  780.00: Total Depth Driller
#----------------------------------------------------------------------
~ASCII Log Data
# ...
     564.20         2.2550       2.2490       1.8360       2.7560       3.3650     131.7480     224.1800     220.9920     222.5860     118.7220     152.8490       8.0710       1.1260     433.6800    1496.44      1648.73   
     564.30         2.1820       2.1170       1.9870       2.7930       3.3140     132.0070     221.4550     217.4680     219.4620     116.9010     152.8910       9.1250       1.1780     423.6880    1494.30      1638.96   
     564.40         2.1480       2.0970       2.1580       2.8060       3.2980     132.5910     219.3970     216.0720     217.7340     116.5120     154.8340       9.6850       1.2270     415.4910    1489.80      1625.54   
     564.50         2.1290       2.0230       2.1960       2.8080       3.3470     132.7790     218.8530     215.5480     217.2010     117.9880     158.6350      10.0190       1.2650     411.4800    1483.80      1611.12   
     564.60         2.0860       2.0260       2.2120       2.8000       3.4590     132.0910     219.2100     215.4210     217.3150     121.5980     164.2680      10.1040       1.3100     408.6010    1474.28      1594.37   
     564.70         2.0310       2.0330       2.2380       2.7990       3.6270     129.9650     219.9530     215.3620     217.6570     125.9030     171.1670       9.9200       1.3180     408.3650    1462.81      1578.89   
     564.80         1.9830       1.9650       2.2320       2.8110       3.9190     126.6360     219.4660     215.1810     217.3230     128.0120     174.8040       9.9100       1.3810     407.5330    1446.82      1566.36   
     564.90         1.9530       1.9060       2.2670       2.8780       4.2230     123.3860     220.0460     215.5100     217.7780     132.1700     179.5090       9.2050       1.4500     405.3110    1430.57      1555.09   
     565.00         1.9850       1.8590       2.2950       2.9960       4.7850     119.4570     219.9630     215.5170     217.7400     137.8210     183.5240       9.1990       1.5110     398.4440    1413.74      1546.73   
     565.10         2.1260       2.0100       2.3140       3.2510       5.1630     115.2490     219.4870     215.5770     217.5320     141.2360     184.1450       9.1500       1.5710     380.7390    1397.68      1539.05   
     565.20         2.8880       2.2840       2.3850       3.4840       5.4010     110.2860     220.5500     216.0890     218.3200     145.3320     181.7930       8.9610       1.6200     361.6540    1383.40      1532.97   
     565.30         5.1010      16.6590       2.4200       3.9500       5.4830     106.5190     221.2680     216.5980     218.9330     147.4740     176.1500       8.5700       1.7050     339.3480    1370.44      1526.64   
     565.40        10.1770      73.9070       2.4830       4.2560       5.4410     104.1350     221.4270     216.0980     218.7620     145.5970     162.6170       8.2100       1.7810     318.3100    1360.54      1519.70   
     565.50        19.9580      98.1280       2.4840       4.5610       5.1300      99.7830     221.6780     216.3980     219.0380     141.4500     151.7550       7.8770       1.8190     300.2320    1351.56      1512.87   
     565.60        18.3140     103.7390       2.4880       5.1310       4.7330      98.1990     220.7920     215.6380     218.2150     136.5950     140.3170       7.9310       1.8320     290.1830    1344.76      1506.27   
     565.70        15.4020      98.1120       2.4490       5.4160       4.3420      95.4750     220.5640     216.6640     218.6140     127.0040     126.3980       7.9050       1.7800     298.8710    1338.54      1500.19   
     565.80         3.9150      16.6010       2.4010       5.5560       3.9580      91.5350     221.5380     215.8950     218.7170     123.6580     122.8280       8.1340       1.6860     311.3030    1333.69      1495.30   
     565.90         2.2070       2.8860       2.3140       5.3650       3.6390      86.9580     219.8140     215.1080     217.4610     124.2520     123.9190       8.6930       1.5650     332.4720    1329.37      1490.90   
     566.00         1.9330       1.8870       2.2640       5.1120       3.3030      80.7290     219.3840     215.2860     217.3350     127.1160     132.9380       9.2240       1.5010     353.4370    1326.28      1487.65   
     566.10         1.7800       1.6270       2.2080       4.6840       3.0560      74.2500     219.6130     215.0670     217.3400     135.3840     146.8470       9.0470       1.4410     373.9230    1323.40      1484.62   
     566.20         1.7440       1.6050       2.1740       4.1490       2.9270      65.8810     219.7840     215.1240     217.4540     148.2090     167.5980       9.3210       1.4030     390.4900    1320.99      1482.12   
     566.30         1.7660       1.6360       2.1650       3.6720       2.8750      57.5070     220.4190     215.1880     217.8040     157.9120     181.8680       9.0400       1.4010     397.9100    1318.89      1480.17   
     566.40         1.8320       1.6710       2.1840       3.4170       2.8550      51.7110     220.1760     215.3090     217.7430     167.4320     194.3610       9.0610       1.4150     403.2640    1317.55      1479.48   
     566.50         1.8840       1.8280       2.2060       3.1860       2.8590      47.1080     219.9430     215.1180     217.5300     172.5420     199.7790       9.3590       1.4430     403.7980    1317.44      1480.03   
     566.60         1.9000       1.9160       2.2100       3.0210       2.8690      44.1720     220.5490     215.2150     217.8820     174.3050     200.5920       9.4180       1.4520     404.1400    1320.22      1483.44   
     566.70         1.8740       1.8790       2.2150       2.8850       2.8790      43.5320     220.2590     215.0780     217.6690     173.1930     199.1110       9.3210       1.4230     404.0320    1324.91      1488.95   
     566.80         1.8320       1.7430       2.2020       2.7470       2.8990      45.9280     219.9590     215.8870     217.9230     172.3780     196.8100       9.0670       1.3790     403.8290    1334.07      1499.35   
     566.90         1.8210       1.8310       2.1850       2.6940       2.9250      50.4160     219.3790     215.4490     217.4140     168.9190     194.6840       9.3630       1.4040     403.4070    1344.74      1510.76   
     567.00         1.8420       1.6280       2.1940       2.6350       2.9690      56.5110     220.7900     215.0170     217.9040     166.3010     193.3080       9.0990       1.4290     403.0470    1358.90      1524.49   
     567.10         1.9180       1.8500       2.1870       2.6250       3.0150      62.8460     220.7880     215.3170     218.0520     165.3630     191.0150       9.5360       1.4290     402.8330    1372.63      1537.94   
     567.20         1.9720       1.8920       2.2070       2.6430       3.0550      71.4380     220.7720     215.4900     218.1310     164.2070     192.2680      10.1690       1.4370     403.1820    1385.36      1550.73   
     567.30         1.9820       1.9430       2.2140       2.7200       3.0710      82.2620     219.3280     215.5870     217.4580     163.3600     192.0250      10.5750       1.4550     404.8430    1396.43      1561.61   
     567.40         1.9950       1.8690       2.2270       2.8250       3.1110      89.0590     219.2620     215.4180     217.3400     161.5150     188.9020      10.7190       1.4470     406.4800    1403.64      1568.03   
     567.50         2.0190       1.9250       2.2170       2.9770       3.1690      94.0110     219.4100     215.4030     217.4060     160.1710     188.2530      10.4450       1.4460     408.0650    1409.25      1573.09   
     567.60         2.0660       2.0020       2.2230       3.0490       3.2000      95.5530     219.1540     215.4230     217.2880     159.3760     186.0240      10.3850       1.4220     410.1030    1411.13      1574.98   
     567.70         2.0910       1.9080       2.2420       3.2460       3.2300      90.4400     218.4900     214.7750     216.6330     156.1040     182.9360      10.3990       1.4160     413.1990    1412.27      1576.13   
