~Version Information 
VERS.                                     2.00: CWLS log ASCII Standard -Version 2.00
WRAP.                                       NO: One line per depth step
~Well Information Block 
#MNEM.UNIT              Data Type        Information
#----------------------------------------------------------------------
STRT.M                                  122.00:
STOP.M                                  788.00:
STEP.M                                    0.10:
NULL.                                  -999.25:
WELL.                                      310: Well Name 
FLD .                                 KARATUBE: Field Name 
SRVC.                                         : Service company 
DATE.                                 30.08.04: Log date 
~Curve Information Block
#MNEM.UNIT                               Curve Description
#----------------------------------------------------------------------
DEPT.M                                        : Depth Curve
LL3.OHMM                                      : Appar.resist.laterolog,3 electrodes
MLL.OHMM                                      : Microlaterolog sonde
RHOB.G/C3                                     : Bulk density by gamma-gamma log
GZ3.OHMM                                      : App.resistivity by lateral A2.0M0.5N
GZ3B.OHMM                                     : App.resistivity by lateral N0.5M2.0A
SP.MV                                         : Spontaneous potential
C1.MM                                         : Diameter from profile1
C2.MM                                         : Diameter from profile2
CALI.MM                                       : Caliper
CILR.MMHO                                     : Conduct. by sonde 7I1.6,react.signal
CILA.MMHO                                     : Conduct. by sonde 7I1.6,active signal
GR.UR/H                                       : Gamma-ray log
NGLD.UE                                       : Neutron-gamma log/device DRST-90
DTP.US/M                                      : Interval travel time (P-wave)
T1.US                                         : Travel time1
T2.US                                         : Travel time2
~Parameter Information Block
#MNEM.UNIT              Value            Description
#----------------------------------------------------------------------
TDL .M                                    0.00: Total Depth-Logger
BS  .MM                                 215.90: Bit Size
DFD .G/C3                                 39.00: Drilling Fluid Density
TDD .M                                  780.00: Total Depth Driller
#----------------------------------------------------------------------
~ASCII Log Data
# ...
     395.00         3.6930       2.9690       2.2850       5.1070       6.7190     132.9100     221.8050     219.5190     220.6620      74.5670     126.7990       9.3030       1.5090     365.3800    1513.48      1695.16   
     395.10         3.6760       5.0780       2.3310       5.2010       6.6230     132.9270     220.2090     218.9960     219.6020      74.6120     128.0300       9.3220       1.4650     369.3460    1508.52      1691.29   
     395.20         4.1730       9.2780       2.3500       5.2960       6.5140     133.3090     222.1930     220.4900     221.3420      76.6310     129.7490       9.3410       1.5050     377.1810    1505.08      1688.87   
     395.30         4.3000       5.2810       2.3240       5.3980       6.3490     133.8550     224.6760     220.5910     222.6330      75.7760     131.6470       8.9440       1.5190     394.0400    1502.11      1687.02   
     395.40         4.2470       5.6410       2.3380       5.5050       6.2040     134.2360     219.8160     220.8460     220.3310      76.2050     135.3040       8.7390       1.5230     409.9200    1500.22      1686.50   
     395.50         4.0060       4.5900       2.3010       5.5430       6.0830     134.2540     218.8040     221.5120     220.1580      77.7360     138.4120       8.8610       1.4980     423.5180    1498.56      1686.27   
     395.60         3.7220       3.5340       2.2580       5.5470       5.8280     134.4040     217.8230     221.3830     219.6030      81.3710     141.0690       8.8130       1.4260     435.6760    1497.47      1686.72   
     395.70         3.4550       3.3150       2.2400       5.5000       5.6880     134.9550     218.6150     222.0490     220.3320      83.3680     143.4300       9.1220       1.3950     444.4750    1496.39      1687.31   
     395.80         3.2110       2.9330       2.2130       5.4320       5.6090     135.9590     219.2840     223.1890     221.2370      84.0890     143.1050       9.2200       1.4180     451.4620    1495.34      1688.24   
     395.90         3.0500       2.7790       2.2000       5.3400       5.5730     137.9520     220.3490     224.1150     222.2320      84.8290     143.2280       9.0610       1.3970     454.2200    1494.45      1689.29   
     396.00         2.9660       2.7340       2.1990       5.2910       5.5670     139.9780     222.0040     222.5780     222.2910      84.4160     143.6830       9.0450       1.3900     456.9130    1493.97      1690.64   
     396.10         2.9790       2.6500       2.1940       5.2390       5.5650     141.6900     221.2070     221.2000     221.2030      84.3040     143.2180       9.4880       1.3690     459.4570    1493.84      1692.24   
     396.20         3.0530       2.6150       2.1870       5.2360       5.5500     142.2500     221.9590     222.8720     222.4150      84.7070     143.7610       9.6110       1.3740     462.2700    1494.52      1694.41   
     396.30         3.1280       2.7550       2.1920       5.2750       5.5090     142.9620     223.0540     222.2520     222.6530      85.3020     144.3330       9.7260       1.3840     465.7090    1495.74      1696.96   
     396.40         3.1710       2.6300       2.1940       5.3380       5.4470     144.4170     223.7370     222.2320     222.9850      86.8540     147.7430       9.6350       1.4230     469.2710    1498.20      1700.37   
     396.50         3.1550       2.6500       2.1830       5.4110       5.3690     145.5540     222.6450     222.4430     222.5440      88.5480     149.3840       9.7980       1.3890     473.1190    1501.02      1704.05   
     396.60         3.1160       2.6940       2.1790       5.4910       5.2500     147.0380     220.4420     223.0110     221.7270      88.3760     151.1960       9.7760       1.4060     477.2990    1504.69      1708.33   
     396.70         3.0670       2.6000       2.1830       5.5660       5.1670     147.7710     221.0650     223.2930     222.1790      88.8310     154.4260       9.8440       1.3630     482.2510    1509.01      1712.62   
     396.80         2.9600       2.4990       2.1810       5.6040       5.1040     147.6510     221.9090     224.0680     222.9880      88.8950     155.6560       9.8740       1.3590     487.0940    1514.85      1716.93   
     396.90         2.9240       2.7730       2.1860       5.6490       5.0430     146.5360     221.9850     224.5590     223.2720      88.9560     157.5620       9.9520       1.3610     491.6790    1521.05      1720.98   
     397.00         2.9590       2.5530       2.1700       5.6640       4.9940     145.9130     223.3080     223.6280     223.4680      89.5920     158.2930      10.3840       1.3800     496.0030    1528.09      1724.46   
     397.10         2.9360       2.5330       2.1680       5.6710       4.9310     145.5940     222.0330     221.8190     221.9260      89.9620     159.5460      10.6980       1.3850     499.7170    1535.35      1727.54   
     397.20         2.9140       2.4030       2.1560       5.6680       4.8920     146.1560     221.4710     223.5360     222.5030      91.6200     161.5410      10.8730       1.3920     503.0360    1543.12      1729.71   
     397.30         2.8660       2.6110       2.1700       5.6490       4.8510     146.9110     222.0000     222.2500     222.1250      92.5620     160.3240      11.1100       1.3860     505.4320    1550.02      1731.57   
     397.40         2.7810       3.0980       2.1810       5.6020       4.8260     148.1180     221.2310     224.0400     222.6350      91.1820     160.1230      11.0940       1.3900     507.5700    1554.90      1732.68   
     397.50         2.6460       2.5810       2.1810       5.5330       4.8200     149.0770     219.7340     226.5540     223.1440      93.2020     158.9130      10.7780       1.3740     509.1040    1558.99      1733.66   
     397.60         2.5300       2.3740       2.1660       5.4350       4.8520     150.1330     220.2110     226.8030     223.5070      94.3600     154.6190      11.0850       1.3710     509.0270    1561.25      1734.33   
     397.70         2.4590       2.4040       2.1950       5.3190       4.9150     150.4180     220.2930     226.0170     223.1550      94.0390     147.5340      10.9230       1.3840     505.1900    1562.87      1735.07   
     397.80         2.4970       2.2110       2.1950       5.2090       5.0030     150.5420     221.4450     226.6620     224.0530      93.4230     143.8620      11.0250       1.3930     499.8280    1562.97      1735.96   
     397.90         2.5600       2.0910       2.1750       5.0970       5.1490     149.9310     222.0710     225.5730     223.8220      90.7750     137.6910      11.0130       1.3870     490.9100    1563.04      1737.08   
     398.00         2.5910       1.9800       2.1610       5.0510       5.3070     148.9670     222.7670     225.6860     224.2270      88.8100     131.0580      10.8770       1.3980     480.4740    1563.00      1738.76   
     398.10         2.7540       1.8980       2.1560       5.0890       5.5230     147.8070     221.8310     226.6610     224.2460      86.9810     125.7320      10.7390       1.4600     466.4970    1562.95      1740.63   
     398.20         3.3540       2.5720       2.1500       5.1900       5.6530     146.6060     223.1150     225.2640     224.1890      85.4350     124.5360      10.5610       1.4430     453.8850    1562.85      1742.92   
     398.30         3.9210       3.1700       2.1210       5.3700       5.7110     145.0810     219.5900     224.1690     221.8790      86.1950     125.1890      10.0270       1.4010     444.4570    1562.71      1745.33   
     398.40         4.4280       3.3860       2.1110       5.5630       5.6650     142.6900     220.4580     225.1050     222.7820      89.1970     128.4850       9.8980       1.3750     436.6650    1562.51      1748.03   
     398.50         4.7150       3.4860       2.1020       5.7400       5.5730     140.8110     220.2080     224.9760     222.5920      92.0040     133.5890       9.5540       1.3890     432.6930    1562.12      1750.72   
