~Version Information 
VERS.                                     2.00: CWLS log ASCII Standard -Version 2.00
WRAP.                                       NO: One line per depth step
~Well Information Block 
#MNEM.UNIT              Data Type        Information
#----------------------------------------------------------------------
STRT.M                                  122.00:
STOP.M                                  788.00:
STEP.M                                    0.10:
NULL.                                  -999.25:
WELL.                                      310: Well Name 
FLD .                                 KARATUBE: Field Name 
SRVC.                                         : Service company 
DATE.                                 30.08.04: Log date 
~Curve Information Block
#MNEM.UNIT                               Curve Description
#----------------------------------------------------------------------
DEPT.M                                        : Depth Curve
LL3.OHMM                                      : Appar.resist.laterolog,3 electrodes
MLL.OHMM                                      : Microlaterolog sonde
RHOB.G/C3                                     : Bulk density by gamma-gamma log
GZ3.OHMM                                      : App.resistivity by lateral A2.0M0.5N
GZ3B.OHMM                                     : App.resistivity by lateral N0.5M2.0A
SP.MV                                         : Spontaneous potential
C1.MM                                         : Diameter from profile1
C2.MM                                         : Diameter from profile2
CALI.MM                                       : Caliper
CILR.MMHO                                     : Conduct. by sonde 7I1.6,react.signal
CILA.MMHO                                     : Conduct. by sonde 7I1.6,active signal
GR.UR/H                                       : Gamma-ray log
NGLD.UE                                       : Neutron-gamma log/device DRST-90
DTP.US/M                                      : Interval travel time (P-wave)
T1.US                                         : Travel time1
T2.US                                         : Travel time2
~Parameter Information Block
#MNEM.UNIT              Value            Description
#----------------------------------------------------------------------
TDL .M                                    0.00: Total Depth-Logger
BS  .MM                                 215.90: Bit Size
DFD .G/C3                                 39.00: Drilling Fluid Density
TDD .M                                  780.00: Total Depth Driller
#----------------------------------------------------------------------
~ASCII Log Data
# ...
     650.60         1.6620       2.2160       2.2210       1.5710       2.5840     109.5490     217.3640     215.0900     216.2270     290.9080     196.1930       5.2010       1.5880     358.4580    1344.87      1490.59   
     650.70         1.8410       2.6380       2.2150       1.5760       2.5040     106.4980     217.9920     215.9990     216.9950     288.8180     191.7330       4.5980       1.5510     362.4200    1343.55      1490.41   
     650.80         2.0060       2.7530       2.1990       1.5890       2.4420     106.0600     218.4690     216.0000     217.2350     288.6880     190.3240       4.5870       1.5110     365.5600    1341.47      1490.83   
     650.90         2.1680       2.9010       2.2020       1.6110       2.3870     106.3540     218.2950     216.5970     217.4460     289.4850     189.7040       4.5640       1.5170     366.7820    1339.22      1491.12   
     651.00         2.2230       2.9420       2.2070       1.6400       2.3390     108.8870     217.8950     216.2310     217.0630     290.1220     190.9150       4.6780       1.5270     367.2360    1336.54      1491.10   
     651.10         2.2090       3.0090       2.2370       1.6680       2.3230     111.0060     219.2460     215.2990     217.2720     290.8220     191.9240       4.8010       1.5500     365.8950    1333.64      1490.65   
     651.20         2.1380       3.0020       2.2480       1.7050       2.3070     112.3180     221.4110     218.4070     219.9090     290.1480     196.3950       4.5920       1.5710     364.5800    1330.27      1489.17   
     651.30         2.0420       3.0210       2.2490       1.7350       2.3020     113.6290     221.5480     218.1680     219.8580     289.4240     200.5690       4.5690       1.6100     363.3220    1326.81      1487.04   
     651.40         1.8720       2.8050       2.2510       1.7470       2.3020     115.4230     221.8250     216.1800     219.0020     287.7440     205.8800       4.5250       1.5840     362.8700    1323.14      1483.36   
     651.50         1.6960       2.5970       2.2490       1.7600       2.3050     115.1560     222.6270     216.2380     219.4320     284.8460     210.1260       4.7530       1.5940     364.3000    1319.50      1479.41   
     651.60         1.6030       2.8180       2.2630       1.7480       2.3090     114.1120     225.2550     215.2720     220.2640     282.6760     212.7150       5.0970       1.6630     367.1690    1315.95      1474.81   
     651.70         1.5560       2.9870       2.2740       1.7270       2.3320     111.9260     222.6510     215.0980     218.8740     282.1990     215.6670       5.3790       1.6120     373.3950    1312.63      1470.26   
     651.80         1.5610       2.7740       2.2770       1.7050       2.3660     109.6470     221.1070     215.8830     218.4950     281.6870     217.7830       5.0970       1.5730     379.7530    1309.87      1465.81   
     651.90         1.6070       2.5810       2.2680       1.6970       2.4070     106.9050     223.0640     215.2200     219.1420     281.8620     216.5240       4.9080       1.6410     386.4170    1307.25      1461.53   
     652.00         1.6540       2.4680       2.2690       1.7050       2.4490     104.0570     224.8620     214.4510     219.6560     280.0940     217.5460       4.8280       1.6220     392.5070    1304.96      1457.67   
     652.10         1.6960       2.5780       2.2780       1.7240       2.4790     102.0860     223.0450     214.2790     218.6620     281.7230     221.1700       5.0810       1.6330     397.2620    1302.63      1453.91   
     652.20         1.8510       2.9320       2.3170       1.7900       2.5000     100.3240     224.5530     215.7720     220.1630     280.5340     226.7450       4.7000       1.6820     400.5850    1300.19      1450.40   
     652.30         1.9860       2.9790       2.3350       1.8660       2.5020      98.3150     223.9950     217.1190     220.5570     280.9460     231.4390       4.5390       1.7760     400.5680    1297.49      1446.91   
     652.40         2.1460       3.6060       2.3330       1.9640       2.4890      95.9260     222.3430     216.7680     219.5560     279.9900     234.2790       4.2550       1.7730     399.7740    1294.21      1443.46   
     652.50         2.2280       3.9480       2.3420       2.0530       2.4780      91.9640     222.7340     217.3300     220.0320     276.9590     232.1370       4.1790       1.7530     397.1690    1290.86      1440.03   
     652.60         2.2300       4.2360       2.3280       2.1310       2.4690      89.7190     223.0050     216.0730     219.5390     274.6560     228.4610       4.3600       1.8100     394.0770    1287.34      1436.65   
     652.70         2.0980       4.2080       2.3450       2.2050       2.4910      85.7750     222.1180     215.8790     218.9990     263.9860     219.8180       4.4880       1.7640     389.8460    1283.68      1433.30   
     652.80         1.9090       4.0670       2.3500       2.2520       2.5210      84.4470     223.0890     214.7390     218.9140     259.5320     213.5240       4.5670       1.7500     385.7040    1279.67      1430.02   
     652.90         1.7240       3.3220       2.3410       2.2610       2.5590      83.1300     220.8960     213.8650     217.3800     250.2490     201.2520       4.6550       1.7470     381.7700    1275.77      1426.71   
     653.00         1.6400       2.5840       2.3560       2.2490       2.6000      81.8370     220.9010     214.0120     217.4560     244.3120     196.4150       4.5740       1.7320     378.2140    1272.13      1423.33   
     653.10         1.5830       2.7710       2.3510       2.2250       2.6400      80.4430     219.8950     214.5190     217.2070     239.3890     194.9850       4.6930       1.7820     375.5370    1268.71      1420.15   
     653.20         1.5860       3.0520       2.3440       2.2000       2.6590      78.9870     221.1110     214.8940     218.0020     240.6100     197.5870       4.6240       1.7800     373.5390    1265.79      1417.44   
     653.30         1.6170       2.8130       2.3470       2.1820       2.6510      77.9980     221.7800     214.8350     218.3070     245.6340     198.2950       4.5680       1.7470     373.1230    1263.68      1415.22   
     653.40         1.7780       3.3780       2.3400       2.1850       2.5990      77.1370     220.3890     214.4040     217.3960     252.2730     199.9030       4.7340       1.7780     372.9350    1263.45      1414.17   
     653.50         2.0820       3.9870       2.3470       2.1880       2.5320      74.6270     219.4670     214.3890     216.9280     259.3320     200.7460       4.5910       1.7760     373.2740    1264.01      1414.00   
     653.60         2.2360       4.1500       2.3490       2.2120       2.4600      73.2720     221.5620     214.4340     217.9980     265.6420     198.0440       4.5000       1.7720     374.0550    1266.42      1415.86   
     653.70         2.1680       4.1410       2.3140       2.2210       2.3950      71.1950     220.5290     214.8300     217.6800     268.3360     191.6400       4.5280       1.7610     375.8680    1269.59      1418.41   
     653.80         1.9740       3.4570       2.3000       2.2010       2.3570      68.0670     220.6420     214.5660     217.6040     267.2640     186.1680       4.8140       1.6940     377.3360    1274.50      1422.56   
     653.90         1.6840       3.4040       2.2490       2.1430       2.3360      64.3950     220.6840     214.7510     217.7170     265.6590     182.1620       4.7930       1.6900     377.9970    1279.58      1426.80   
     654.00         1.5270       2.5630       2.2430       2.0750       2.3290      60.3360     222.1450     216.4640     219.3050     259.5290     174.8880       5.0170       1.6460     378.6100    1285.03      1431.28   
     654.10         1.4850       2.5990       2.2220       2.0150       2.3210      57.4450     223.2490     217.7960     220.5220     256.3550     176.1600       4.9930       1.6280     379.1090    1290.44      1435.43   
