~Version Information 
VERS.                                     2.00: CWLS log ASCII Standard -Version 2.00
WRAP.                                       NO: One line per depth step
~Well Information Block 
#MNEM.UNIT              Data Type        Information
#----------------------------------------------------------------------
STRT.M                                  122.00:
STOP.M                                  788.00:
STEP.M                                    0.10:
NULL.                                  -999.25:
WELL.                                      310: Well Name 
FLD .                                 KARATUBE: Field Name 
SRVC.                                         : Service company 
DATE.                                 30.08.04: Log date 
~Curve Information Block
#MNEM.UNIT                               Curve Description
#----------------------------------------------------------------------
DEPT.M                                        : Depth Curve
LL3.OHMM                                      : Appar.resist.laterolog,3 electrodes
MLL.OHMM                                      : Microlaterolog sonde
RHOB.G/C3                                     : Bulk density by gamma-gamma log
GZ3.OHMM                                      : App.resistivity by lateral A2.0M0.5N
GZ3B.OHMM                                     : App.resistivity by lateral N0.5M2.0A
SP.MV                                         : Spontaneous potential
C1.MM                                         : Diameter from profile1
C2.MM                                         : Diameter from profile2
CALI.MM                                       : Caliper
CILR.MMHO                                     : Conduct. by sonde 7I1.6,react.signal
CILA.MMHO                                     : Conduct. by sonde 7I1.6,active signal
GR.UR/H                                       : Gamma-ray log
NGLD.UE                                       : Neutron-gamma log/device DRST-90
DTP.US/M                                      : Interval travel time (P-wave)
T1.US                                         : Travel time1
T2.US                                         : Travel time2
~Parameter Information Block
#MNEM.UNIT              Value            Description
#----------------------------------------------------------------------
TDL .M                                    0.00: Total Depth-Logger
BS  .MM                                 215.90: Bit Size
DFD .G/C3                                 39.00: Drilling Fluid Density
TDD .M                                  780.00: Total Depth Driller
#----------------------------------------------------------------------
~ASCII Log Data
# ...
     308.60         2.5980       1.7330       2.1700       4.7410       4.7270     124.1990     218.0380     207.4970     212.7670      94.8120     156.7110      10.0140       1.2520     566.0940    1606.05      1831.92   
     308.70         2.5970       1.7480       2.1700       4.6430       4.7490     124.7570     217.9260     205.3690     211.6470      93.3310     157.7430      10.5660       1.2670     572.1230    1610.85      1834.05   
     308.80         2.6160       1.7620       2.1680       4.5770       4.7580     124.9010     217.3070     205.5770     211.4420      91.6280     158.6830      10.2960       1.2650     577.2580    1615.26      1835.63   
     308.90         2.6180       1.7350       2.1560       4.4910       4.7590     124.7420     217.3650     204.9130     211.1390      89.3820     158.5600      10.2790       1.2640     580.3090    1619.86      1836.71   
     309.00         2.6130       1.6980       2.1500       4.4270       4.7490     123.5130     215.6810     205.8490     210.7650      87.8730     158.9340      10.5010       1.2430     582.2160    1624.87      1836.63   
     309.10         2.5980       1.6890       2.1400       4.3720       4.7310     121.7470     217.0290     204.9180     210.9740      87.8900     159.9490      10.8480       1.2130     581.4530    1629.84      1836.31   
     309.20         2.5750       1.7210       2.1360       4.3140       4.7070     119.3550     217.4270     206.0700     211.7490      85.8990     159.3830      10.9400       1.1990     579.7390    1634.69      1835.44   
     309.30         2.5500       1.7460       2.1410       4.2610       4.7010     118.0730     217.3410     205.3440     211.3420      85.2600     157.7400      10.4770       1.1960     575.8060    1639.16      1833.51   
     309.40         2.5250       1.6860       2.1440       4.2090       4.7250     116.5660     215.8540     206.4400     211.1470      84.1330     155.5530      10.2900       1.2240     571.1150    1642.75      1829.10   
     309.50         2.4880       1.5870       2.1500       4.1600       4.7820     114.9720     215.7950     205.7430     210.7690      83.5500     153.8040      10.2250       1.2320     564.6550    1644.92      1824.24   
     309.60         2.4430       1.5060       2.1490       4.1200       4.8650     113.1270     215.8450     204.7440     210.2950      82.7490     152.2730      10.7110       1.2370     558.0070    1643.80      1818.33   
     309.70         2.3940       1.5050       2.1350       4.0730       4.9540     111.1600     216.6980     203.3680     210.0330      80.1270     150.6800      11.1830       1.2730     550.9200    1641.46      1811.48   
     309.80         2.3620       1.5540       2.1320       4.0390       5.0390     109.4710     218.8840     210.0410     214.4630      79.5440     147.7910      11.1520       1.3030     542.1370    1636.29      1802.46   
     309.90         2.3720       1.6240       2.1450       4.0080       5.1270     107.9380     225.2400     215.7220     220.4810      78.5610     142.9250      11.1290       1.3230     529.3950    1630.41      1794.06   
     310.00         2.3980       1.6900       2.1400       3.9730       5.2140     106.6120     222.9940     215.3730     219.1840      77.3120     137.3880      11.3350       1.3240     516.1850    1622.88      1787.15   
     310.10         2.4110       1.6710       2.1420       3.9470       5.2810     105.6210     221.8140     217.7160     219.7650      75.6710     131.3960      11.4710       1.3010     501.8860    1615.41      1780.55   
     310.20         2.4030       1.6380       2.1450       3.9250       5.3860     105.2490     221.2640     217.6990     219.4820      70.5110     123.5010      11.4010       1.3100     485.8780    1608.08      1774.69   
     310.30         2.4000       1.6550       2.1360       3.9060       5.4500     105.2330     222.0100     217.4590     219.7340      68.8260     119.3100      11.4110       1.3520     465.8850    1600.67      1769.86   
     310.40         2.4220       1.6610       2.1330       3.8980       5.5140     104.9130     224.3960     214.9160     219.6560      66.2350     113.8440      11.4010       1.3800     448.2980    1593.06      1767.46   
     310.50         2.4900       1.7040       2.1260       3.9150       5.6660     104.4910     238.3750     218.6550     228.5150      66.0850     111.8170      11.4720       1.3840     436.3240    1585.54      1765.39   
     310.60         2.6410       1.7660       2.1370       3.9610       5.9260     104.0610     228.0430     217.7600     222.9020      67.3190     113.1410      12.1120       1.3770     425.0540    1578.24      1764.06   
     310.70         2.9750       2.0100       2.1510       4.0790       6.1250     104.3590     227.4030     219.7270     223.5650      70.1780     117.8090      12.3960       1.4170     415.4240    1571.06      1763.34   
     310.80         3.4370       2.2430       2.1600       4.2050       6.2350     106.2620     223.9430     217.9440     220.9430      74.0770     123.6870      12.7520       1.4420     409.1450    1564.17      1763.99   
     310.90         3.9750       2.5740       2.1190       4.3940       6.3080     109.7360     222.0850     216.7780     219.4310      80.3240     133.7190      13.5450       1.4350     410.6830    1558.19      1764.48   
     311.00         4.5370       3.0900       2.1130       4.6170       6.2890     113.7410     220.9310     216.5270     218.7290      83.4520     138.7790      14.2700       1.4240     412.8580    1554.33      1764.63   
     311.10         4.7150       3.1870       2.1020       4.8160       6.1790     116.9900     220.7490     215.8850     218.3170      85.4800     143.6230      15.3940       1.4360     416.5200    1551.17      1764.87   
     311.20         4.4380       3.0220       2.1080       4.9440       5.9640     120.0980     221.2350     215.9930     218.6140      85.6790     144.4640      16.4500       1.4710     422.9910    1549.64      1765.33   
     311.30         3.8100       2.5150       2.1340       5.0210       5.7780     121.9220     221.7310     217.0080     219.3700      84.2410     141.5610      17.3150       1.4710     436.0180    1549.19      1765.74   
     311.40         3.1870       2.0450       2.1520       5.0090       5.6100     123.7140     221.2430     215.8410     218.5420      82.7760     135.9980      18.5470       1.4460     449.6210    1551.32      1766.03   
     311.50         2.7030       1.6790       2.1650       4.9280       5.5220     124.9980     222.6710     215.9770     219.3240      82.0820     132.4560      18.9660       1.4160     464.5670    1554.17      1766.86   
     311.60         2.5190       1.5820       2.1510       4.7990       5.4720     125.9700     223.2750     216.2060     219.7400      82.2190     130.2050      19.1150       1.4230     480.6840    1558.71      1769.00   
     311.70         2.6400       1.9680       2.1380       4.6810       5.4790     126.4770     224.8880     217.5790     221.2340      82.7700     129.7510      18.3170       1.4830     499.5340    1563.62      1771.15   
     311.80         3.1250       2.6500       2.1440       4.5930       5.5010     126.2540     222.8460     214.7950     218.8200      83.1700     132.7570      17.1320       1.5360     515.7310    1569.39      1773.34   
     311.90         3.5710       2.8640       2.1430       4.6010       5.5240     125.2170     222.6390     215.4890     219.0640      85.1760     139.1650      15.3440       1.5730     525.7380    1574.80      1775.51   
     312.00         3.8480       2.7270       2.1470       4.6580       5.5050     123.9690     224.2960     214.5520     219.4240      86.5400     146.0920      14.6740       1.5630     534.2430    1579.40      1777.60   
     312.10         3.9120       2.5740       2.1310       4.7390       5.4350     122.7250     224.8630     214.7770     219.8200      88.8530     151.8700      13.4320       1.5240     539.2450    1583.15      1779.30   
