~Version Information 
VERS.                                     2.00: CWLS log ASCII Standard -Version 2.00
WRAP.                                       NO: One line per depth step
~Well Information Block 
#MNEM.UNIT              Data Type        Information
#----------------------------------------------------------------------
STRT.M                                  122.00:
STOP.M                                  788.00:
STEP.M                                    0.10:
NULL.                                  -999.25:
WELL.                                      310: Well Name 
FLD .                                 KARATUBE: Field Name 
SRVC.                                         : Service company 
DATE.                                 30.08.04: Log date 
~Curve Information Block
#MNEM.UNIT                               Curve Description
#----------------------------------------------------------------------
DEPT.M                                        : Depth Curve
LL3.OHMM                                      : Appar.resist.laterolog,3 electrodes
MLL.OHMM                                      : Microlaterolog sonde
RHOB.G/C3                                     : Bulk density by gamma-gamma log
GZ3.OHMM                                      : App.resistivity by lateral A2.0M0.5N
GZ3B.OHMM                                     : App.resistivity by lateral N0.5M2.0A
SP.MV                                         : Spontaneous potential
C1.MM                                         : Diameter from profile1
C2.MM                                         : Diameter from profile2
CALI.MM                                       : Caliper
CILR.MMHO                                     : Conduct. by sonde 7I1.6,react.signal
CILA.MMHO                                     : Conduct. by sonde 7I1.6,active signal
GR.UR/H                                       : Gamma-ray log
NGLD.UE                                       : Neutron-gamma log/device DRST-90
DTP.US/M                                      : Interval travel time (P-wave)
T1.US                                         : Travel time1
T2.US                                         : Travel time2
~Parameter Information Block
#MNEM.UNIT              Value            Description
#----------------------------------------------------------------------
TDL .M                                    0.00: Total Depth-Logger
BS  .MM                                 215.90: Bit Size
DFD .G/C3                                 39.00: Drilling Fluid Density
TDD .M                                  780.00: Total Depth Driller
#----------------------------------------------------------------------
~ASCII Log Data
# ...
     137.70     -999.250   -999.250   -999.250   -999.250       0.1920   -999.250     225.4100     224.4060     224.9080   -999.250   -999.250       3.2310       1.0440    -999.2500    -999.2500    -999.2500 
     137.80     -999.250   -999.250   -999.250   -999.250       0.1940   -999.250     225.2600     224.5370     224.8980   -999.250   -999.250       3.2530       1.0210    -999.2500    -999.2500    -999.2500 
     137.90     -999.250   -999.250   -999.250   -999.250       0.1940   -999.250     225.4110     224.9300     225.1710   -999.250   -999.250       3.4020       0.9900    -999.2500    -999.2500    -999.2500 
     138.00     -999.250   -999.250   -999.250   -999.250       0.1910   -999.250     225.4430     224.4240     224.9330   -999.250   -999.250       3.4940       0.9780    -999.2500    -999.2500    -999.2500 
     138.10     -999.250   -999.250   -999.250   -999.250       0.1920   -999.250     225.4540     224.5950     225.0250   -999.250   -999.250       3.3340       1.0200    -999.2500    -999.2500    -999.2500 
     138.20     -999.250   -999.250   -999.250   -999.250       0.1920   -999.250     225.5330     224.4590     224.9960   -999.250   -999.250       3.3750       1.0670    -999.2500    -999.2500    -999.2500 
     138.30     -999.250   -999.250   -999.250   -999.250       0.1940   -999.250     225.5290     224.4090     224.9690   -999.250   -999.250       3.4620       1.0770    -999.2500    -999.2500    -999.2500 
     138.40     -999.250   -999.250   -999.250   -999.250       0.1940   -999.250     225.3860     224.3150     224.8500   -999.250   -999.250       3.5540       1.0970    -999.2500    -999.2500    -999.2500 
     138.50     -999.250   -999.250   -999.250   -999.250       0.1940   -999.250     225.5540     224.1680     224.8610   -999.250   -999.250       3.5230       1.1310    -999.2500    -999.2500    -999.2500 
     138.60     -999.250   -999.250   -999.250   -999.250       0.1930   -999.250     225.5590     224.0430     224.8010   -999.250   -999.250       3.3060       1.2010    -999.2500    -999.2500    -999.2500 
     138.70     -999.250   -999.250   -999.250   -999.250       0.1930   -999.250     225.6080     224.4380     225.0230   -999.250   -999.250       3.1480       1.2690    -999.2500    -999.2500    -999.2500 
     138.80     -999.250   -999.250   -999.250   -999.250       0.1880   -999.250     225.5290     224.9630     225.2460   -999.250   -999.250       3.1160       1.2900    -999.2500    -999.2500    -999.2500 
     138.90     -999.250   -999.250   -999.250   -999.250       0.1870   -999.250     225.3720     224.7960     225.0840   -999.250   -999.250       3.0830       1.2730    -999.2500     948.3440    1031.85   
     139.00     -999.250   -999.250   -999.250   -999.250       0.1880   -999.250     225.5390     224.9330     225.2360   -999.250   -999.250       2.9740       1.1780    -999.2500     948.5300    1032.01   
     139.10     -999.250   -999.250   -999.250   -999.250       0.1890   -999.250     225.4000     224.9960     225.1980   -999.250   -999.250       2.9270       1.1080    -999.2500     948.7160    1032.17   
     139.20     -999.250   -999.250   -999.250   -999.250       0.1900   -999.250     225.2430     225.0610     225.1520   -999.250   -999.250       3.1200       1.0350    -999.2500     948.9020    1032.32   
     139.30     -999.250   -999.250   -999.250   -999.250       0.1880     126.9380     225.3370     224.8350     225.0860   -999.250   -999.250       3.1760       1.0050    -999.2500     949.0890    1032.48   
     139.40     -999.250   -999.250   -999.250   -999.250       0.1890     136.5990     225.4090     224.6890     225.0490   -999.250   -999.250       3.2270       0.9580    -999.2500     949.2750    1032.64   
     139.50     -999.250   -999.250   -999.250   -999.250       0.1890     142.4080     225.4800     224.7060     225.0930   -999.250   -999.250       3.2120       0.9790    -999.2500     949.4610    1032.80   
     139.60     -999.250   -999.250   -999.250   -999.250       0.1890     146.2420     225.5570     224.7510     225.1540   -999.250   -999.250       3.4320       0.9810    -999.2500     949.6470    1032.96   
     139.70     -999.250   -999.250   -999.250   -999.250       0.1880     148.6820     225.6030     224.6760     225.1390   -999.250   -999.250       3.6720       1.0000    -999.2500     949.8330    1033.11   
     139.80     -999.250   -999.250   -999.250   -999.250       0.1860     149.1960     225.6300     224.7000     225.1650   -999.250   -999.250       3.7400       1.0200     208.7640     950.0190    1033.27   
     139.90     -999.250   -999.250   -999.250   -999.250       0.1880     149.1190     225.4630     224.7250     225.0940   -999.250   -999.250       3.7160       1.0070     208.6940     950.2050    1033.43   
     140.00     -999.250   -999.250   -999.250   -999.250       0.1880     151.0590     225.4410     224.5590     225.0000   -999.250   -999.250       3.5160       1.0290     208.6240     950.3910    1033.59   
     140.10     -999.250   -999.250   -999.250   -999.250       0.1880     153.2730     225.4410     224.4950     224.9680   -999.250   -999.250       3.6070       1.0380     208.5550     950.5780    1033.85   
     140.20     -999.250   -999.250   -999.250   -999.250       0.1880     154.7680     225.4390     224.8350     225.1370   -999.250   -999.250       3.9150       1.0450     208.4850     950.7640    1034.37   
     140.30     -999.250   -999.250   -999.250   -999.250       0.1880     153.9270     225.4130     224.2840     224.8480   -999.250   -999.250       4.2790       1.0270     208.4150     950.9500    1034.89   
     140.40     -999.250   -999.250   -999.250   -999.250       0.1890     153.3960     225.2320     224.8240     225.0280   -999.250   -999.250       4.1480       1.0110     208.3450     951.1360    1035.40   
     140.50     -999.250   -999.250   -999.250   -999.250       0.1900     153.1410     225.1530     224.6020     224.8780   -999.250   -999.250       4.1680       1.0080     208.2760     951.3220    1035.92   
     140.60     -999.250   -999.250   -999.250   -999.250       0.1910     153.8740     225.0340     224.2760     224.6550   -999.250   -999.250       4.1870       1.0150     208.2060     951.5080    1036.43   
     140.70     -999.250   -999.250   -999.250   -999.250       0.1910     155.1150     224.9690     224.4110     224.6900   -999.250   -999.250       4.1980       1.0500     208.1360     951.6940    1036.73   
     140.80     -999.250   -999.250   -999.250   -999.250       0.1910     156.7660     224.8020     224.4820     224.6420   -999.250   -999.250       3.9510       1.0580     208.0660     951.8800    1036.53   
     140.90     -999.250   -999.250   -999.250   -999.250       0.1920     157.5860     224.9090     224.4680     224.6890   -999.250   -999.250       3.7790       1.0250     207.9970     952.0660    1036.33   
     141.00     -999.250   -999.250   -999.250   -999.250       0.1940     161.1140     224.4280     223.8610     224.1450   -999.250   -999.250       3.6930       0.9770     208.1950     952.2520    1036.14   
     141.10     -999.250   -999.250   -999.250   -999.250       0.1950     164.3240     224.2040     223.7020     223.9530   -999.250   -999.250       3.6890       1.0150     209.0170     952.4390    1035.94   
     141.20     -999.250   -999.250   -999.250   -999.250       0.1940     167.3550     224.2130     223.0730     223.6430   -999.250   -999.250       3.8440       1.0270     209.8400     952.6250    1035.74   
     141.30     -999.250   -999.250   -999.250   -999.250       0.1950     168.0640     224.3250     223.0550     223.6900   -999.250   -999.250       3.9580       1.0100     210.6630     952.8110    1035.65   
     141.40     -999.250   -999.250   -999.250   -999.250       0.1950     166.8550     224.2820     223.2090     223.7450   -999.250   -999.250       3.9140       1.0080     211.4860     952.9970    1035.80   
     141.50     -999.250   -999.250   -999.250       0.1050       0.1940     165.1130     224.3890     223.4160     223.9030   -999.250   -999.250       3.8570       0.9840     212.3090     953.1830    1035.96   
