~Version Information 
VERS.                                     2.00: CWLS log ASCII Standard -Version 2.00
WRAP.                                       NO: One line per depth step
~Well Information Block 
#MNEM.UNIT              Data Type        Information
#----------------------------------------------------------------------
STRT.M                                  122.00:
STOP.M                                  788.00:
STEP.M                                    0.10:
NULL.                                  -999.25:
WELL.                                      310: Well Name 
FLD .                                 KARATUBE: Field Name 
SRVC.                                         : Service company 
DATE.                                 30.08.04: Log date 
~Curve Information Block
#MNEM.UNIT                               Curve Description
#----------------------------------------------------------------------
DEPT.M                                        : Depth Curve
LL3.OHMM                                      : Appar.resist.laterolog,3 electrodes
MLL.OHMM                                      : Microlaterolog sonde
RHOB.G/C3                                     : Bulk density by gamma-gamma log
GZ3.OHMM                                      : App.resistivity by lateral A2.0M0.5N
GZ3B.OHMM                                     : App.resistivity by lateral N0.5M2.0A
SP.MV                                         : Spontaneous potential
C1.MM                                         : Diameter from profile1
C2.MM                                         : Diameter from profile2
CALI.MM                                       : Caliper
CILR.MMHO                                     : Conduct. by sonde 7I1.6,react.signal
CILA.MMHO                                     : Conduct. by sonde 7I1.6,active signal
GR.UR/H                                       : Gamma-ray log
NGLD.UE                                       : Neutron-gamma log/device DRST-90
DTP.US/M                                      : Interval travel time (P-wave)
T1.US                                         : Travel time1
T2.US                                         : Travel time2
~Parameter Information Block
#MNEM.UNIT              Value            Description
#----------------------------------------------------------------------
TDL .M                                    0.00: Total Depth-Logger
BS  .MM                                 215.90: Bit Size
DFD .G/C3                                 39.00: Drilling Fluid Density
TDD .M                                  780.00: Total Depth Driller
#----------------------------------------------------------------------
~ASCII Log Data
# ...
     607.40         1.8450       2.1430       2.2190       2.5920       2.7540      92.0430     224.7800     224.5930     224.6870     136.5970     176.8970       8.7590       1.3510     401.2660    1424.95      1587.40   
     607.50         1.6630       2.0110       2.1990       2.5090       2.7540      87.6220     226.9830     223.9300     225.4560     140.9180     181.3340       9.0040       1.4050     403.6320    1423.18      1586.11   
     607.60         1.5390       1.7240       2.1930       2.4490       2.7890      80.0490     225.9100     225.1130     225.5120     144.1350     186.6500       9.1460       1.3920     405.1920    1421.37      1584.67   
     607.70         1.4220       1.2230       2.1660       2.4040       2.8410      73.9920     223.2700     224.4630     223.8660     147.6000     188.3540       8.9270       1.3350     404.8730    1419.58      1583.14   
     607.80         1.3540       1.1030       2.1580       2.3700       2.8950      72.1430     224.8330     224.7030     224.7680     146.8140     185.6250       8.8950       1.2720     404.1830    1417.82      1581.39   
     607.90         1.3760       1.0210       2.1720       2.3340       2.9490      72.4610     224.8820     225.0560     224.9690     143.7930     182.7610       9.0600       1.2520     402.6260    1416.02      1579.72   
     608.00         1.4870       1.0210       2.1900       2.3130       2.9740      74.1060     222.1620     222.1970     222.1800     142.7240     177.4930       8.9190       1.2380     401.9640    1414.14      1578.25   
     608.10         1.6270       1.2780       2.2150       2.3230       3.0100      75.1690     223.0830     218.1970     220.6400     142.7170     167.6090       8.6620       1.2290     403.3900    1412.37      1576.91   
     608.20         1.7440       1.7530       2.2330       2.3960       3.0390      74.9260     222.7140     216.5310     219.6220     142.3340     158.0450       8.5800       1.2500     404.7890    1410.87      1575.88   
     608.30         1.8590       1.9140       2.2630       2.5290       3.0870      72.5810     220.8310     215.8290     218.3300     140.9460     156.0330       8.8320       1.2770     406.1270    1409.63      1575.08   
     608.40         1.9170       1.8460       2.2680       2.7260       3.1570      68.7300     217.6730     214.4980     216.0860     141.8220     156.4000       8.4720       1.2820     407.3380    1408.98      1574.81   
     608.50         2.0220       1.7820       2.2810       2.9440       3.2220      64.9210     219.2670     215.1220     217.1950     142.3440     156.5650       8.4540       1.2760     408.2500    1408.55      1574.89   
     608.60         2.1490       2.0050       2.3080       3.1890       3.2880      59.5090     220.8080     214.8550     217.8310     143.0040     157.3890       8.4540       1.3270     408.8970    1408.66      1575.74   
     608.70         2.2730       2.1790       2.3210       3.3950       3.3170      54.0740     217.4120     214.9840     216.1980     146.4190     160.0840       8.2900       1.3030     408.9250    1408.87      1576.86   
     608.80         2.3050       2.4870       2.2850       3.5290       3.3260      51.7090     217.6770     215.7490     216.7130     149.0090     159.2940       8.5100       1.3100     409.2510    1409.34      1578.62   
     608.90         2.2750       2.1450       2.2730       3.5730       3.3080      51.0550     215.9320     217.3510     216.6410     149.2580     157.7550       8.4700       1.3350     410.2730    1409.54      1580.34   
     609.00         2.2440       1.7250       2.2730       3.5830       3.2650      53.5490     216.5870     217.5220     217.0540     149.0890     158.6750       8.6500       1.3370     411.3390    1409.11      1581.97   
     609.10         2.2340       1.7320       2.2640       3.5280       3.2000      55.9380     216.6180     216.4170     216.5170     149.7900     157.4200       8.5290       1.3330     412.5070    1408.39      1583.24   
     609.20         2.2510       1.9840       2.2580       3.4490       3.1290      57.9020     216.7120     215.2610     215.9870     151.3190     154.5720       8.4920       1.3210     413.6170    1406.99      1583.64   
     609.30         2.3020       2.1580       2.2570       3.3690       3.0510      60.9670     218.0940     215.0620     216.5780     154.0180     154.4020       8.8520       1.3690     414.5920    1405.18      1583.66   
     609.40         2.3120       2.3540       2.2320       3.2650       3.0020      63.9790     217.0630     215.1100     216.0860     161.1340     158.9350       8.8320       1.4190     415.8340    1402.41      1582.82   
     609.50         2.2440       2.6000       2.2170       3.1630       2.9530      66.3170     216.9320     215.2460     216.0890     167.7300     163.9860       8.7980       1.4350     417.7020    1399.66      1581.77   
     609.60         2.1290       2.5700       2.2170       3.0510       2.8400      67.8880     218.0740     216.2200     217.1470     174.4470     169.3970       9.1310       1.4150     419.9770    1396.93      1580.25   
     609.70         1.9540       2.5090       2.2230       2.9480       2.8180      73.9960     217.7520     217.0380     217.3950     179.0120     177.5430       9.0770       1.3790     423.2030    1394.40      1578.74   
     609.80         1.8920       2.4120       2.2290       2.8640       2.8170      78.1000     216.6220     215.9940     216.3080     181.6050     181.2430       9.0440       1.3610     427.0110    1392.37      1577.27   
     609.90         1.8660       2.3320       2.2270       2.7400       2.8450      83.4380     215.9100     216.7920     216.3510     188.5410     185.7950       9.3430       1.3700     432.1730    1390.90      1575.86   
     610.00         1.8840       2.3240       2.2390       2.6830       2.8990      88.8590     216.2650     215.9860     216.1250     194.0510     189.4300       9.4000       1.4030     437.1340    1390.70      1574.60   
     610.10         1.9130       2.3330       2.2600       2.6570       2.9770      94.0640     216.4420     215.3270     215.8840     197.0490     191.7520       9.7150       1.4230     441.6260    1390.62      1573.45   
     610.20         1.9340       2.4390       2.2700       2.6530       3.0480      97.8630     217.1940     215.5950     216.3940     200.5710     195.1850       9.7420       1.3650     446.2130    1390.80      1572.54   
     610.30         1.9390       2.4470       2.3060       2.6500       3.1250      99.2760     218.0090     215.5940     216.8010     204.2020     198.4400       9.8390       1.3850     451.0210    1391.19      1571.75   
     610.40         1.9450       2.5380       2.3230       2.6150       3.1940      99.3820     217.8900     215.6070     216.7490     206.2950     199.5630       9.9460       1.4130     455.2940    1392.11      1571.25   
     610.50         1.7860       2.6410       2.3280       2.5830       3.2640      99.2550     219.5430     216.3020     217.9230     206.9500     199.2640      10.1720       1.3790     458.3200    1392.91      1570.90   
     610.60         1.6020       2.1800       2.3260       2.5080       3.3840     100.4910     219.5490     216.9750     218.2620     205.5740     197.2440      10.5450       1.4440     460.8530    1393.44      1570.90   
     610.70         1.4800       1.7720       2.3230       2.4530       3.5340     102.8490     220.0280     217.9010     218.9650     203.3080     198.0550      10.9030       1.4770     462.2360    1394.13      1571.06   
     610.80         1.5130       1.7750       2.3320       2.4090       3.7360     106.3940     218.1750     216.9260     217.5510     202.1600     200.8960      10.9580       1.5110     462.4080    1395.23      1571.62   
     610.90         1.6410       2.0690       2.3230       2.4050       3.9750     109.5220     216.5370     215.3490     215.9430     205.4820     205.6590      11.1020       1.5180     459.7560    1396.19      1572.30   
