~Version Information 
VERS.                                     2.00: CWLS log ASCII Standard -Version 2.00
WRAP.                                       NO: One line per depth step
~Well Information Block 
#MNEM.UNIT              Data Type        Information
#----------------------------------------------------------------------
STRT.M                                  122.00:
STOP.M                                  788.00:
STEP.M                                    0.10:
NULL.                                  -999.25:
WELL.                                      310: Well Name 
FLD .                                 KARATUBE: Field Name 
SRVC.                                         : Service company 
DATE.                                 30.08.04: Log date 
~Curve Information Block
#MNEM.UNIT                               Curve Description
#----------------------------------------------------------------------
DEPT.M                                        : Depth Curve
LL3.OHMM                                      : Appar.resist.laterolog,3 electrodes
MLL.OHMM                                      : Microlaterolog sonde
RHOB.G/C3                                     : Bulk density by gamma-gamma log
GZ3.OHMM                                      : App.resistivity by lateral A2.0M0.5N
GZ3B.OHMM                                     : App.resistivity by lateral N0.5M2.0A
SP.MV                                         : Spontaneous potential
C1.MM                                         : Diameter from profile1
C2.MM                                         : Diameter from profile2
CALI.MM                                       : Caliper
CILR.MMHO                                     : Conduct. by sonde 7I1.6,react.signal
CILA.MMHO                                     : Conduct. by sonde 7I1.6,active signal
GR.UR/H                                       : Gamma-ray log
NGLD.UE                                       : Neutron-gamma log/device DRST-90
DTP.US/M                                      : Interval travel time (P-wave)
T1.US                                         : Travel time1
T2.US                                         : Travel time2
~Parameter Information Block
#MNEM.UNIT              Value            Description
#----------------------------------------------------------------------
TDL .M                                    0.00: Total Depth-Logger
BS  .MM                                 215.90: Bit Size
DFD .G/C3                                 39.00: Drilling Fluid Density
TDD .M                                  780.00: Total Depth Driller
#----------------------------------------------------------------------
~ASCII Log Data
# ...
     182.60         2.1300       1.8980       2.0500       3.3100       3.8360      43.3020     234.1950     218.6500     226.4230     114.2250     161.8800       5.9730       1.2950     536.8300    1685.54      1892.09   
     182.70         2.1530       1.9360       2.0520       3.2960       3.8310      42.7980     231.1220     218.0110     224.5670     114.4380     162.5460       6.1410       1.2650     531.5720    1686.33      1893.11   
     182.80         2.1880       1.9880       2.0190       3.2900       3.8290      42.9480     236.1060     221.3850     228.7460     115.3080     162.8010       6.0830       1.2700     526.2330    1687.18      1894.26   
     182.90         2.2310       2.0160       2.0150       3.2870       3.8330      43.2130     228.5750     224.2420     226.4080     115.9880     163.0300       5.9930       1.2960     520.7050    1688.18      1895.47   
     183.00         2.2530       2.1340       2.0320       3.2850       3.8360      43.4450     226.6730     225.2890     225.9810     116.6830     163.7120       5.8960       1.3110     516.5660    1689.51      1896.83   
     183.10         2.2660       2.1700       2.0280       3.2830       3.8360      43.6690     227.4870     225.1610     226.3240     117.6580     164.2840       5.9310       1.3330     515.6700    1690.75      1898.09   
     183.20         2.2680       2.0760       2.0240       3.2800       3.8300      44.3910     231.6480     226.3140     228.9810     119.4510     165.0250       5.9680       1.3590     515.1440    1691.77      1899.13   
     183.30         2.2760       2.1440       2.0160       3.2830       3.8200      44.8640     235.3090     228.0070     231.6580     120.1330     165.5160       5.8240       1.3620     515.4820    1692.86      1900.16   
     183.40         2.2930       2.2560       2.0140       3.2850       3.7990      45.2550     235.6220     227.2740     231.4480     120.8150     164.9900       5.9990       1.3700     515.8720    1694.15      1901.16   
     183.50         2.2970       2.2520       2.0320       3.2880       3.7880      45.3680     238.4850     228.5640     233.5250     121.6520     164.5040       6.0330       1.3600     516.3820    1695.38      1901.92   
     183.60         2.2840       2.2260       2.0270       3.2960       3.7680      45.4340     241.5710     227.9580     234.7650     121.5210     164.3820       6.3760       1.3630     516.9620    1696.49      1902.09   
     183.70         2.2550       2.0040       2.0310       3.3080       3.7590      45.5200     239.2620     226.9120     233.0870     121.3570     164.1240       6.3940       1.3760     517.7050    1697.47      1902.01   
     183.80         2.2430       1.9950       2.0160       3.3200       3.7530      45.3860     235.4650     227.5680     231.5170     121.7130     164.1260       6.4980       1.3490     518.2420    1698.17      1901.32   
     183.90         2.2340       2.1130       1.9950       3.3240       3.7480      44.4880     232.8200     230.1130     231.4660     124.5050     164.7970       6.5110       1.3080     518.2980    1698.52      1900.28   
     184.00         2.2240       2.1010       2.0020       3.3230       3.7440      43.6030     230.2060     233.2640     231.7350     125.2160     165.8910       6.6720       1.3040     518.3540    1698.07      1898.41   
     184.10         2.2100       1.9730       2.0000       3.3150       3.7430      42.7330     232.0210     240.3200     236.1710     126.1610     167.2190       6.5140       1.3080     518.4100    1697.20      1896.58   
     184.20         2.2020       1.9000       1.9830       3.3060       3.7580      42.4480     235.2220     245.4250     240.3230     128.1540     167.9720       6.4830       1.3080     518.2380    1695.36      1894.84   
     184.30         2.2070       1.8630       1.9730       3.3100       3.7780      42.3900     234.6280     245.2490     239.9390     128.3290     168.9880       6.5370       1.3220     517.5360    1693.34      1893.23   
     184.40         2.2430       1.8660       1.9480       3.3280       3.8170      42.0960     237.1860     240.4450     238.8150     128.8650     170.6640       6.4390       1.3150     516.3440    1690.92      1891.90   
     184.50         2.3010       1.9630       1.9110       3.3590       3.8440      41.4480     238.1070     243.2110     240.6590     129.0570     171.8590       6.5610       1.3190     514.0060    1688.72      1890.91   
     184.60         2.3800       2.1440       1.8770       3.4040       3.8670      41.2410     234.7320     248.6950     241.7130     128.8550     172.3110       6.4850       1.3470     511.3330    1687.03      1890.71   
     184.70         2.4310       2.2260       1.8400       3.4510       3.8530      41.9140     235.1170     250.1880     242.6520     129.2770     173.9640       6.5060       1.3400     507.8810    1685.79      1890.68   
     184.80         2.4280       2.1030       1.8620       3.4890       3.8190      43.4990     236.2250     250.5430     243.3840     129.4180     175.4350       6.3060       1.3640     504.4020    1685.60      1891.04   
     184.90         2.3800       1.9150       1.8730       3.5180       3.7750      46.0380     237.1010     243.8670     240.4840     129.3740     178.1890       6.4680       1.3830     500.8600    1685.77      1891.50   
     185.00         2.3240       1.8710       1.9180       3.5240       3.7120      48.4050     239.0360     246.8700     242.9530     129.6090     184.2530       6.5260       1.4110     498.4590    1686.77      1892.19   
     185.10         2.2890       1.8830       1.9580       3.5060       3.6030      50.2200     239.9320     249.9450     244.9390     130.7900     188.9540       6.3980       1.4210     498.7180    1687.86      1892.82   
     185.20         2.2640       1.8060       1.9620       3.4820       3.5580      51.4840     240.1640     251.0130     245.5890     132.5410     195.2340       6.2290       1.4150     499.7150    1689.18      1893.29   
     185.30         2.2540       1.7850       1.9360       3.4570       3.5320      52.1860     239.5970     247.0450     243.3210     132.2390     196.9540       6.0600       1.4080     502.4330    1690.33      1893.65   
     185.40         2.2190       1.7970       1.9220       3.4270       3.5190      53.1440     241.0610     239.5890     240.3250     131.9080     195.6110       6.0940       1.3910     505.4580    1691.10      1893.74   
     185.50         2.1800       1.6400       1.9770       3.4140       3.5180      53.1650     239.9710     231.1720     235.5710     128.1030     189.0500       6.0780       1.3930     509.1970    1691.60      1893.73   
     185.60         2.1480       1.5640       1.9980       3.4040       3.5210      52.5760     233.9950     224.6890     229.3420     124.4270     182.7400       6.1630       1.4240     512.2260    1691.50      1893.48   
     185.70         2.1320       1.7120       2.0010       3.3880       3.5280      51.4380     237.6960     223.0840     230.3900     120.9150     175.1540       6.0290       1.4420     513.5950    1690.99      1893.11   
     185.80         2.1210       1.7720       2.0410       3.3670       3.5390      49.5900     240.5100     225.9150     233.2130     119.2030     171.5280       5.7990       1.4380     514.3220    1689.53      1892.42   
     185.90         2.1170       1.8550       2.0410       3.3420       3.5630      47.1780     241.9260     228.4010     235.1630     117.9110     168.4530       5.8580       1.4100     513.5530    1687.97      1891.70   
     186.00         2.1020       1.9250       2.0520       3.3170       3.5940      45.4420     240.0970     228.5730     234.3350     117.6110     168.2880       5.7660       1.4130     512.3850    1686.18      1890.90   
     186.10         2.0100       1.8230       2.0920       3.2930       3.6460      42.9460     242.6240     232.0660     237.3450     116.9060     168.7690       5.9180       1.3930     510.2870    1684.54      1890.15   
