~Version Information 
VERS.                                     2.00: CWLS log ASCII Standard -Version 2.00
WRAP.                                       NO: One line per depth step
~Well Information Block 
#MNEM.UNIT              Data Type        Information
#----------------------------------------------------------------------
STRT.M                                  122.00:
STOP.M                                  788.00:
STEP.M                                    0.10:
NULL.                                  -999.25:
WELL.                                      310: Well Name 
FLD .                                 KARATUBE: Field Name 
SRVC.                                         : Service company 
DATE.                                 30.08.04: Log date 
~Curve Information Block
#MNEM.UNIT                               Curve Description
#----------------------------------------------------------------------
DEPT.M                                        : Depth Curve
LL3.OHMM                                      : Appar.resist.laterolog,3 electrodes
MLL.OHMM                                      : Microlaterolog sonde
RHOB.G/C3                                     : Bulk density by gamma-gamma log
GZ3.OHMM                                      : App.resistivity by lateral A2.0M0.5N
GZ3B.OHMM                                     : App.resistivity by lateral N0.5M2.0A
SP.MV                                         : Spontaneous potential
C1.MM                                         : Diameter from profile1
C2.MM                                         : Diameter from profile2
CALI.MM                                       : Caliper
CILR.MMHO                                     : Conduct. by sonde 7I1.6,react.signal
CILA.MMHO                                     : Conduct. by sonde 7I1.6,active signal
GR.UR/H                                       : Gamma-ray log
NGLD.UE                                       : Neutron-gamma log/device DRST-90
DTP.US/M                                      : Interval travel time (P-wave)
T1.US                                         : Travel time1
T2.US                                         : Travel time2
~Parameter Information Block
#MNEM.UNIT              Value            Description
#----------------------------------------------------------------------
TDL .M                                    0.00: Total Depth-Logger
BS  .MM                                 215.90: Bit Size
DFD .G/C3                                 39.00: Drilling Fluid Density
TDD .M                                  780.00: Total Depth Driller
#----------------------------------------------------------------------
~ASCII Log Data
# ...
     265.40         3.9600       2.0780       2.0260       6.6730       7.4070      54.5250     224.8170     218.6160     221.7160      56.4900     110.8890       5.8480       1.4340     575.4040    1640.80      1882.44   
     265.50         3.9220       2.0280       2.0260       6.7050       7.3860      53.6900     224.0440     217.7310     220.8880      57.0430     111.5110       6.0040       1.4520     580.3120    1643.53      1884.03   
     265.60         3.9160       1.9950       2.0330       6.7320       7.3350      52.2670     223.7890     215.6520     219.7200      57.0270     111.9470       6.2480       1.4310     585.5250    1645.92      1885.01   
     265.70         3.9240       2.0180       2.0560       6.7380       7.2930      50.8980     223.2450     214.8610     219.0530      57.5240     111.6620       6.3240       1.4410     591.4530    1648.37      1885.82   
     265.80         3.9200       2.0670       2.0510       6.7330       7.2580      50.3110     224.0870     216.8700     220.4780      58.8100     112.4340       6.1200       1.4270     596.7840    1650.97      1886.26   
     265.90         3.8910       2.0980       2.0530       6.7180       7.1910      49.9730     224.1320     217.5070     220.8200      60.6320     112.7710       6.0320       1.4120     600.7230    1653.34      1886.37   
     266.00         3.8570       2.0980       2.0460       6.7080       7.0940      50.5840     223.6580     217.7970     220.7270      59.6160     113.4020       5.5000       1.3900     604.0850    1655.17      1885.72   
     266.10         3.7960       2.0560       2.0420       6.6750       6.9980      49.5750     222.9200     218.9920     220.9560      60.6240     113.6810       5.3110       1.3930     606.1010    1657.21      1885.22   
     266.20         3.7400       2.0220       2.0490       6.6100       6.9440      48.5760     223.3140     218.8990     221.1060      60.5230     114.7920       5.5520       1.3690     606.7290    1659.75      1885.05   
     266.30         3.6940       2.0400       2.0300       6.5540       6.8750      46.9930     223.2610     218.7630     221.0120      60.7840     114.4380       5.6720       1.3020     604.1150    1662.18      1885.03   
     266.40         3.6380       2.0080       2.0300       6.5100       6.8280      47.2910     223.6300     218.5790     221.1050      60.3860     113.6400       5.5100       1.3320     601.2340    1664.34      1885.36   
     266.50         3.5790       1.8810       2.0270       6.4810       6.7860      48.2790     223.9750     218.1220     221.0480      60.0790     114.0430       5.4370       1.3200     597.7270    1666.70      1886.18   
     266.60         3.5240       1.8010       2.0250       6.4530       6.7620      48.8900     222.3590     218.8850     220.6220      60.7030     114.3090       5.4420       1.3520     593.6430    1669.51      1888.14   
     266.70         3.4930       1.7530       2.0160       6.4330       6.7590      49.0480     222.3150     219.9160     221.1150      59.7980     116.2290       5.3840       1.3810     588.2130    1672.56      1890.08   
     266.80         3.4870       1.6750       2.0150       6.4150       6.7640      48.2210     223.3520     217.6860     220.5190      58.1130     117.0530       5.5000       1.3710     582.5600    1676.16      1891.98   
     266.90         3.4940       1.6840       2.0260       6.4070       6.7860      47.0760     224.7730     219.0190     221.8960      57.7870     116.9530       5.4140       1.3520     576.3880    1680.02      1893.74   
     267.00         3.5100       1.7220       2.0130       6.4120       6.8060      46.4730     225.1740     219.9170     222.5450      56.9430     116.8570       5.5940       1.3420     570.0310    1684.49      1895.15   
     267.10         3.5220       1.7810       2.0080       6.4160       6.8070      46.7320     224.8060     219.6250     222.2160      58.5750     116.4350       5.5920       1.3450     563.2430    1688.99      1896.49   
     267.20         3.5100       1.8060       2.0050       6.4110       6.8020      47.3150     224.0150     219.0540     221.5340      59.6370     117.3850       5.6030       1.3180     557.1210    1693.57      1897.64   
     267.30         3.4790       1.7970       1.9910       6.3990       6.7970      48.2590     223.3910     218.8170     221.1040      59.4160     117.5420       5.4340       1.3390     552.5560    1697.57      1898.70   
     267.40         3.4640       1.7830       1.9990       6.3910       6.8120      50.0490     223.5570     217.4470     220.5020      58.7500     117.3030       5.5310       1.3090     548.7170    1700.25      1899.53   
     267.50         3.4790       1.7720       1.9960       6.3940       6.8400      52.0690     225.0640     217.2970     221.1810      59.4920     116.8370       5.7080       1.3340     546.5740    1702.20      1900.63   
     267.60         3.5000       1.7580       1.9930       6.4100       6.8950      53.9220     223.5180     217.7450     220.6320      59.1160     116.1030       5.8040       1.3530     543.8010    1702.44      1902.34   
     267.70         3.4990       1.6860       2.0220       6.4380       6.9530      55.7030     223.4860     217.2700     220.3780      57.5740     115.1340       5.7400       1.3760     539.5590    1701.96      1904.17   
     267.80         3.4780       1.6030       2.0180       6.4620       7.0000      56.4240     225.4600     216.8880     221.1740      56.4570     114.3050       5.6970       1.3330     534.2970    1699.77      1906.26   
     267.90         3.4520       1.5920       2.0150       6.4770       7.0190      56.2410     225.0470     215.9060     220.4770      57.9370     113.8270       5.5740       1.3310     526.6550    1697.34      1908.67   
     268.00         3.4510       1.6580       2.0020       6.4710       7.0770      56.7320     224.4580     215.1510     219.8050      60.6090     113.8420       5.7510       1.2980     518.7390    1694.34      1911.81   
     268.10         3.4970       1.7660       1.9930       6.4580       7.1280      57.2220     222.3340     216.7860     219.5600      57.4770     113.0380       5.7490       1.2880     510.1850    1691.52      1914.77   
     268.20         3.5670       1.8730       2.0060       6.4390       7.1430      60.8100     220.9270     217.5340     219.2310      61.3880     113.3710       6.0350       1.3000     502.8120    1689.10      1917.31   
     268.30         3.6240       1.9250       2.0220       6.4110       7.1490      63.3440     220.6680     216.0480     218.3580      61.2670     113.3400       5.7890       1.3440     498.1900    1687.28      1919.60   
     268.40         3.6370       1.9350       2.0260       6.4000       7.1390      64.3770     222.3240     215.8550     219.0890      60.5510     112.8230       5.7110       1.3480     496.0590    1686.87      1921.31   
     268.50         3.6060       1.9820       2.0240       6.3840       7.1250      64.7540     222.9330     217.5030     220.2180      60.7820     111.0720       5.6030       1.3440     499.7410    1686.95      1922.70   
     268.60         3.5560       2.0610       2.0170       6.3570       7.0910      65.8200     221.3090     218.5340     219.9220      58.0030     110.2380       5.4140       1.3810     505.5280    1688.21      1923.34   
     268.70         3.5040       2.0270       2.0110       6.3190       7.0730      68.4420     221.0610     218.5330     219.7970      58.1170     109.7480       5.4560       1.3410     516.2300    1689.89      1923.89   
     268.80         3.4570       1.8940       1.9980       6.2740       7.0630      71.7980     220.9430     217.3060     219.1250      57.5090     111.3880       5.8690       1.3390     528.3230    1692.55      1924.22   
     268.90         3.4330       1.8250       1.9950       6.2250       7.0780      72.9810     221.0480     216.5680     218.8080      59.4030     111.9060       6.0980       1.3820     543.6640    1695.02      1924.51   
