~Version Information 
VERS.                                     2.00: CWLS log ASCII Standard -Version 2.00
WRAP.                                       NO: One line per depth step
~Well Information Block 
#MNEM.UNIT              Data Type        Information
#----------------------------------------------------------------------
STRT.M                                  122.00:
STOP.M                                  788.00:
STEP.M                                    0.10:
NULL.                                  -999.25:
WELL.                                      310: Well Name 
FLD .                                 KARATUBE: Field Name 
SRVC.                                         : Service company 
DATE.                                 30.08.04: Log date 
~Curve Information Block
#MNEM.UNIT                               Curve Description
#----------------------------------------------------------------------
DEPT.M                                        : Depth Curve
LL3.OHMM                                      : Appar.resist.laterolog,3 electrodes
MLL.OHMM                                      : Microlaterolog sonde
RHOB.G/C3                                     : Bulk density by gamma-gamma log
GZ3.OHMM                                      : App.resistivity by lateral A2.0M0.5N
GZ3B.OHMM                                     : App.resistivity by lateral N0.5M2.0A
SP.MV                                         : Spontaneous potential
C1.MM                                         : Diameter from profile1
C2.MM                                         : Diameter from profile2
CALI.MM                                       : Caliper
CILR.MMHO                                     : Conduct. by sonde 7I1.6,react.signal
CILA.MMHO                                     : Conduct. by sonde 7I1.6,active signal
GR.UR/H                                       : Gamma-ray log
NGLD.UE                                       : Neutron-gamma log/device DRST-90
DTP.US/M                                      : Interval travel time (P-wave)
T1.US                                         : Travel time1
T2.US                                         : Travel time2
~Parameter Information Block
#MNEM.UNIT              Value            Description
#----------------------------------------------------------------------
TDL .M                                    0.00: Total Depth-Logger
BS  .MM                                 215.90: Bit Size
DFD .G/C3                                 39.00: Drilling Fluid Density
TDD .M                                  780.00: Total Depth Driller
#----------------------------------------------------------------------
~ASCII Log Data
# ...
     776.70     17130.87         3.4540       2.1270       0.6300   -999.250   -999.250     263.3460     264.4360     263.8910      12.6530      23.4860       2.2330       7.6340     224.2220    1015.65      1109.18   
     776.80     17814.63         4.8120       2.1280       0.6280   -999.250   -999.250     256.9380     263.3410     260.1390      12.4580      18.6980       2.3510       7.6200     225.2010    1014.87      1109.01   
     776.90     19957.01         3.5710       2.1350       0.6270   -999.250   -999.250     257.8050     266.8060     262.3060      12.0610       0.9850       2.3210       7.4380     226.0860    1014.08      1108.83   
     777.00     19002.90         2.8840       2.1190       0.6340   -999.250   -999.250     257.0810     261.4690     259.2750      11.9790      -9.1760       2.1130       7.3000     226.9650    1013.29      1108.66   
     777.10     17937.43         4.7420       2.1190       0.6250   -999.250   -999.250     254.4580     264.3180     259.3880      11.5790     -16.4420       2.1290       7.1900     227.8310    1012.49      1108.48   
     777.20     17564.61         5.5500       2.1080       0.6270   -999.250   -999.250     257.1920     268.0360     262.6140      12.8460     -11.4270       2.3460       7.1060     228.7680    1011.67      1108.31   
     777.30     17057.39         3.7570       2.1070       0.6230   -999.250   -999.250     262.3740     269.7400     266.0570      12.8100      -5.4290       2.6100       7.0540     229.8700    1010.83      1108.09   
     777.40     18831.34         5.6410       2.1010       0.6220   -999.250   -999.250     262.1540     268.1700     265.1620      12.7830       2.1350       2.6520       7.0280     231.0510    1009.93      1107.78   
     777.50     19844.30         6.7870       2.0830       0.6260   -999.250   -999.250     262.2720     270.0780     266.1750      12.5000       5.8990       2.7470       7.0560     232.4170    1009.01      1107.39   
     777.60     18570.89         4.0120       2.1180       0.6260   -999.250   -999.250     263.6490     267.0450     265.3470      12.7260       3.3420       2.8340       7.0170     233.8290    1008.01      1106.79   
     777.70     18133.23         3.1550       2.1260       0.6190   -999.250   -999.250     258.9030     264.8750     261.8890      12.3880      -0.6500       2.6910       6.9970     235.3480    1006.98      1106.06   
     777.80     17812.11         2.6980       2.1230   -999.250   -999.250   -999.250     256.2780     263.6020     259.9400      12.7330      -2.2110       2.7120       7.0180     236.8720    1005.90      1105.01   
     777.90     18362.95         2.5120       2.1100   -999.250   -999.250   -999.250     247.1010     259.6010     253.3510      12.5810      -2.4890       2.7370       7.0600     238.4100    1004.81      1103.87   
     778.00     18136.13         3.0120       2.1050   -999.250   -999.250   -999.250     245.2420     253.9860     249.6140      12.6640      -2.0770       2.5640       7.0640     239.9720    1003.68      1102.49   
     778.10     16252.27         2.6570       2.0980   -999.250   -999.250   -999.250     248.2440     257.2080     252.7260      12.6510      -2.4110       2.5630       7.1770     241.5900    1002.56      1101.06   
     778.20     16903.37         1.9480       2.0980   -999.250   -999.250   -999.250     247.7120     257.5830     252.6480      12.8400      -2.3350       2.5620       7.1450     243.1610    1001.43      1099.50   
     778.30     17145.87         1.7490       2.0920   -999.250   -999.250   -999.250     247.9550     259.1690     253.5620      13.1290      -1.9520       2.7330       7.1280     244.6220    1000.30      1097.97   
     778.40     17658.23         1.3000       2.0830   -999.250   -999.250   -999.250     250.4640     256.9870     253.7250      13.1530      -2.0930       2.5520       7.1540     245.9460     999.1680    1096.49   
     778.50     17437.18         1.3800       2.0690   -999.250   -999.250   -999.250     251.0910     253.1030     252.0970      12.9650      -2.0220       2.5160       7.0930     246.9520     998.0850    1095.08   
     778.60     17943.18         0.7950       2.0590   -999.250   -999.250   -999.250     242.7210     252.4730     247.5970      11.9190      -2.1250       2.6440       7.1000     247.6850     997.1110    1093.84   
     778.70     16844.21         0.4970       2.0250   -999.250   -999.250   -999.250     233.4110     252.4970     242.9540      12.9340      -2.5630       2.6510       7.1390     247.7800     996.2400    1092.71   
     778.80     16219.46         0.3600       2.0110   -999.250   -999.250   -999.250     230.5420     248.2810     239.4120      11.7440      -2.7850       2.6570       7.2910     247.6560     995.6070    1091.82   
     778.90     18431.53         0.3430       1.9680   -999.250   -999.250   -999.250     231.6200     242.7710     237.1950      12.6010      -2.4770       2.6200       7.3560     247.0200     995.1320    1091.02   
     779.00     19497.52         0.4820       1.9530   -999.250   -999.250   -999.250     230.1370     224.9920     227.5640      12.6670      -2.1940       2.7250       7.3200     246.2530     995.0240    1090.40   
     779.10     16669.95         0.3890       1.9310   -999.250   -999.250   -999.250     227.1400     226.3740     226.7570      13.1970      -1.9340       2.7020       7.2260     245.1810     995.0340    1089.83   
     779.20     17752.71         0.3880       1.9060   -999.250   -999.250   -999.250     215.2710     222.9440     219.1070      13.1380      -1.7680       2.6340       7.3230     244.1720     995.3220    1089.36   
     779.30     20479.67         0.3630       1.8750   -999.250   -999.250   -999.250     212.6470     221.2320     216.9390      13.1050      -1.4640       2.6910       7.4460     243.3090     995.6740    1088.89   
     779.40     19804.14         0.3510       1.8720   -999.250   -999.250   -999.250     210.7060     221.5570     216.1310      12.5880      -1.1410       2.6700       7.5380     242.5030     996.1730    1088.44   
     779.50     18590.79         0.3090       1.8650   -999.250   -999.250   -999.250     202.9860     217.2640     210.1250      12.5390      -0.7540       2.7170       7.6070     241.8290     996.6810    1087.99   
     779.60     16444.83         0.2650       1.8440   -999.250   -999.250   -999.250     201.4860     215.1110     208.2990      13.0790      -0.5950       2.8300       7.7610     241.1680     997.2090    1087.54   
     779.70     17376.15         0.2460       1.8430   -999.250   -999.250   -999.250     200.0070     195.1630     197.5850      12.7900      -0.2170       2.4640       7.8420     240.5370     997.7360    1087.13   
     779.80     19656.96         0.2250       1.8620   -999.250   -999.250   -999.250     196.8230     179.3570     188.0900      12.5470      -0.5190       2.4110       7.9800     239.7150     998.2640    1086.82   
     779.90     18154.38         0.2100       1.8730   -999.250   -999.250   -999.250     193.5340     170.6990     182.1160      12.2930       0.2300       2.3510       8.0590     238.4470     998.7910    1086.60   
     780.00     16356.97         0.2140       1.8620   -999.250   -999.250   -999.250     193.7670     170.6460     182.2070      12.6110       0.6000       2.6590       8.0650     236.9900     998.7910    1086.60   
     780.10     17991.89         0.2200       1.8690   -999.250   -999.250   -999.250     193.6090     170.4860     182.0470      12.5200       0.9580       2.6250       8.0630     235.0920     998.7910    1086.60   
     780.20     19315.98         0.2110       1.8850   -999.250   -999.250   -999.250     193.5130     170.4840     181.9990      12.2420       1.0690       2.6180       8.1590     233.0500    -999.2500    -999.2500 
     780.30     17506.02         0.2320       1.8740   -999.250   -999.250   -999.250     193.3890     170.3790     181.8840      11.9090       1.4440       2.5260       8.2200     230.6710    -999.2500    -999.2500 
