~Version Information 
VERS.                                     2.00: CWLS log ASCII Standard -Version 2.00
WRAP.                                       NO: One line per depth step
~Well Information Block 
#MNEM.UNIT              Data Type        Information
#----------------------------------------------------------------------
STRT.M                                  122.00:
STOP.M                                  788.00:
STEP.M                                    0.10:
NULL.                                  -999.25:
WELL.                                      310: Well Name 
FLD .                                 KARATUBE: Field Name 
SRVC.                                         : Service company 
DATE.                                 30.08.04: Log date 
~Curve Information Block
#MNEM.UNIT                               Curve Description
#----------------------------------------------------------------------
DEPT.M                                        : Depth Curve
LL3.OHMM                                      : Appar.resist.laterolog,3 electrodes
MLL.OHMM                                      : Microlaterolog sonde
RHOB.G/C3                                     : Bulk density by gamma-gamma log
GZ3.OHMM                                      : App.resistivity by lateral A2.0M0.5N
GZ3B.OHMM                                     : App.resistivity by lateral N0.5M2.0A
SP.MV                                         : Spontaneous potential
C1.MM                                         : Diameter from profile1
C2.MM                                         : Diameter from profile2
CALI.MM                                       : Caliper
CILR.MMHO                                     : Conduct. by sonde 7I1.6,react.signal
CILA.MMHO                                     : Conduct. by sonde 7I1.6,active signal
GR.UR/H                                       : Gamma-ray log
NGLD.UE                                       : Neutron-gamma log/device DRST-90
DTP.US/M                                      : Interval travel time (P-wave)
T1.US                                         : Travel time1
T2.US                                         : Travel time2
~Parameter Information Block
#MNEM.UNIT              Value            Description
#----------------------------------------------------------------------
TDL .M                                    0.00: Total Depth-Logger
BS  .MM                                 215.90: Bit Size
DFD .G/C3                                 39.00: Drilling Fluid Density
TDD .M                                  780.00: Total Depth Driller
#----------------------------------------------------------------------
~ASCII Log Data
# ...
     477.80         2.4830       2.0990       1.8920       4.6170       4.1410      26.8600     223.7590     218.2190     220.9890     108.5700     161.9580       9.5310       1.1540     520.5700    1580.86      1783.18   
     477.90         2.4350       2.1700       1.8640       4.5090       4.1400      29.1580     220.1400     213.3620     216.7510     111.1690     165.1050       9.4130       1.1260     521.2180    1582.12      1784.01   
     478.00         2.4640       2.1880       1.8170       4.4450       4.1490      31.6020     221.6280     216.7190     219.1730     112.7280     166.0180       8.6090       1.1010     521.2780    1582.79      1784.65   
     478.10         2.5040       2.2590       1.8130       4.3740       4.1420      33.8680     222.3610     216.3910     219.3760     115.3590     167.0850       8.0720       1.1080     519.9640    1583.50      1785.25   
     478.20         2.5350       2.3570       1.8590       4.3030       4.1290      35.2950     223.6440     214.3010     218.9730     116.9830     167.5300       7.5370       1.1390     518.2160    1584.28      1785.73   
     478.30         2.5370       2.2610       1.9520       4.2070       4.0900      35.6360     222.1230     212.0180     217.0710     117.2760     168.1890       7.9200       1.1180     515.4540    1585.44      1786.12   
     478.40         2.5420       2.2920       1.9990       4.1160       4.0770      34.0540     227.6710     212.0620     219.8670     118.0930     166.8360       8.5920       1.1870     512.6580    1587.47      1786.30   
     478.50         2.5540       2.2810       2.0930       4.0510       4.0830      31.5700     237.5390     212.4100     224.9740     118.0590     164.3790       8.9720       1.1920     509.7820    1590.00      1786.72   
     478.60         2.5620       2.3080       2.1210       3.9990       4.1270      27.8010     237.3210     210.1970     223.7590     118.2750     162.2760       9.3070       1.2050     507.3150    1593.66      1787.72   
     478.70         2.5910       2.4020       2.0720       4.0120       4.1830      22.7490     229.7590     208.9300     219.3440     117.8860     161.4930       9.2620       1.2030     505.7990    1597.33      1788.67   
     478.80         2.5880       2.3780       2.0120       4.0500       4.2730      21.4930     222.9130     209.5880     216.2500     118.0030     161.6120       9.4020       1.1940     504.7190    1601.02      1789.52   
     478.90         2.5640       2.0250       2.0050       4.1210       4.3270      22.2370     224.7240     210.6820     217.7030     118.5960     162.8170       9.7260       1.1670     504.6520    1604.17      1790.07   
     479.00         2.5260       2.0610       1.9770       4.1670       4.3580      23.3490     218.7820     210.1450     214.4630     119.4790     164.1210      10.1460       1.1420     504.3790    1606.04      1789.93   
     479.10         2.4810       1.9580       1.9510       4.2000       4.3810      25.9530     218.2970     208.8200     213.5590     119.5920     166.6280      10.4760       1.1470     503.6280    1607.11      1788.99   
     479.20         2.3350       1.8130       1.9280       4.2110       4.4010      28.6980     223.0730     209.8330     216.4530     119.0960     171.2150      10.7020       1.1520     501.7060    1606.34      1786.21   
     479.30         2.2250       1.7100       1.8780       4.2260       4.4330      32.5570     224.3290     207.7720     216.0510     120.3300     174.8370      10.1780       1.1010     497.0530    1605.14      1783.19   
     479.40         2.1770       1.8220       1.8500       4.2310       4.4680      36.4140     222.2930     207.1390     214.7160     124.3420     179.5480      10.2120       1.0480     491.8010    1602.95      1779.63   
     479.50         2.2020       2.0340       1.7660       4.2310       4.4970      40.8180     220.9150     208.9720     214.9430     126.0680     180.7750       9.0580       1.0340     485.1510    1600.90      1776.53   
     479.60         2.3000       2.1380       1.7540       4.2210       4.5030      46.1890     220.2930     210.7620     215.5270     127.0670     181.8040       7.8960       1.0350     478.3640    1599.16      1774.48   
     479.70         2.3720       2.2050       1.7830       4.1760       4.4870      50.7990     219.2350     211.3240     215.2800     126.1080     182.8320       7.3450       1.0620     471.2560    1597.75      1772.84   
     479.80         2.3470       2.0330       1.9290       4.1080       4.4080      57.9490     219.7420     202.3170     211.0300     125.2900     181.8770       7.0440       1.0860     464.7670    1597.10      1772.13   
     479.90         2.3110       1.6590       2.0200       3.9750       4.2960      66.1880     219.3290     207.6370     213.4830     123.1380     177.8870       7.5370       1.0820     459.7250    1596.64      1771.77   
     480.00         2.2670       1.5540       2.1660       3.8600       4.1990      73.8000     219.8900     212.4210     216.1560     122.1090     173.5850       8.4930       1.0950     454.6900    1596.61      1772.20   
     480.10         2.2480       1.5470       2.1930       3.6430       4.1160      82.7720     219.1800     212.5110     215.8460     121.3400     170.6090       8.9190       1.0920     449.6720    1596.36      1772.43   
     480.20         2.2430       1.5670       2.1880       3.4930       4.0480      88.3170     220.2030     211.7280     215.9660     120.0240     167.8420       8.9900       1.0880     445.1300    1595.63      1772.18   
     480.30         2.2190       1.4930       2.1840       3.3580       4.0180      93.2290     219.6600     213.6450     216.6530     118.9090     168.2090       9.2590       1.1310     441.6990    1594.45      1772.14   
     480.40         2.1870       1.4440       2.1800       3.2740       4.0140      97.1930     219.4290     214.8510     217.1400     117.8350     170.2800       9.3910       1.1110     439.0670    1592.26      1772.59   
     480.50         2.1420       1.4410       2.1800       3.2060       4.0330      98.6930     218.6400     216.1170     217.3780     116.7220     169.9660       9.3490       1.1280     438.3010    1589.55      1773.11   
     480.60         2.1210       1.4310       2.1700       3.1360       4.0770      96.7300     219.4840     216.0770     217.7810     115.9970     169.0550       9.4670       1.1680     437.7200    1585.64      1773.78   
     480.70         2.1270       1.5500       2.1810       3.1140       4.1280      92.1530     218.2180     216.0920     217.1550     114.2230     167.8900       9.5600       1.1620     437.5690    1581.55      1774.81   
     480.80         2.1660       1.6150       2.1790       3.0990       4.2070      87.2860     216.6710     216.4110     216.5410     112.4840     166.9800       9.5840       1.1540     437.8140    1577.03      1776.67   
     480.90         2.2100       1.5360       2.1850       3.1100       4.2780      83.2480     214.9530     218.1620     216.5580     109.2130     165.3300       9.6720       1.1590     438.9840    1572.74      1778.49   
     481.00         2.2420       1.6170       2.1810       3.1330       4.3610      81.6460     217.4940     215.0010     216.2470     106.8740     164.0600      10.0870       1.1440     440.1680    1568.98      1780.21   
     481.10         2.2710       1.6570       2.1590       3.1850       4.4550      83.3040     219.1690     214.3240     216.7470     105.6300     163.0630      10.2510       1.1340     441.3860    1565.88      1781.86   
     481.20         2.2750       1.6330       2.1330       3.2420       4.5380      82.8120     220.2400     214.5780     217.4090     103.9070     164.2090      10.5880       1.1570     444.2210    1564.30      1783.35   
     481.30         2.2660       1.6240       2.1060       3.3040       4.6380      80.4780     217.0700     214.6910     215.8800     103.5260     165.7660      10.6810       1.2210     450.8330    1563.46      1784.64   
