~Version Information 
VERS.                                     2.00: CWLS log ASCII Standard -Version 2.00
WRAP.                                       NO: One line per depth step
~Well Information Block 
#MNEM.UNIT              Data Type        Information
#----------------------------------------------------------------------
STRT.M                                  122.00:
STOP.M                                  788.00:
STEP.M                                    0.10:
NULL.                                  -999.25:
WELL.                                      310: Well Name 
FLD .                                 KARATUBE: Field Name 
SRVC.                                         : Service company 
DATE.                                 30.08.04: Log date 
~Curve Information Block
#MNEM.UNIT                               Curve Description
#----------------------------------------------------------------------
DEPT.M                                        : Depth Curve
LL3.OHMM                                      : Appar.resist.laterolog,3 electrodes
MLL.OHMM                                      : Microlaterolog sonde
RHOB.G/C3                                     : Bulk density by gamma-gamma log
GZ3.OHMM                                      : App.resistivity by lateral A2.0M0.5N
GZ3B.OHMM                                     : App.resistivity by lateral N0.5M2.0A
SP.MV                                         : Spontaneous potential
C1.MM                                         : Diameter from profile1
C2.MM                                         : Diameter from profile2
CALI.MM                                       : Caliper
CILR.MMHO                                     : Conduct. by sonde 7I1.6,react.signal
CILA.MMHO                                     : Conduct. by sonde 7I1.6,active signal
GR.UR/H                                       : Gamma-ray log
NGLD.UE                                       : Neutron-gamma log/device DRST-90
DTP.US/M                                      : Interval travel time (P-wave)
T1.US                                         : Travel time1
T2.US                                         : Travel time2
~Parameter Information Block
#MNEM.UNIT              Value            Description
#----------------------------------------------------------------------
TDL .M                                    0.00: Total Depth-Logger
BS  .MM                                 215.90: Bit Size
DFD .G/C3                                 39.00: Drilling Fluid Density
TDD .M                                  780.00: Total Depth Driller
#----------------------------------------------------------------------
~ASCII Log Data
# ...
     438.20         2.6060       2.3000       2.1330       3.6270       4.0970     146.4240     221.0960     215.8550     218.4760     125.9820     171.0050      10.2550       1.3760     460.2410    1609.67      1811.22   
     438.30         2.7540       2.5840       2.1210       3.6340       4.0930     145.7300     220.1600     214.8560     217.5080     128.1150     170.5240      10.3440       1.3520     467.2500    1610.88      1810.02   
     438.40         2.5330       2.4380       2.1300       3.6420       4.0980     145.3060     220.8910     213.7790     217.3350     131.2600     173.5610      10.4520       1.3220     474.8270    1612.06      1808.17   
     438.50         2.2610       1.8590       2.1470       3.6370       4.1570     144.7400     220.5500     215.7890     218.1690     132.5060     176.6150      10.6410       1.3310     483.7290    1613.16      1806.12   
     438.60         2.0490       1.5810       2.1540       3.6230       4.2240     144.3230     221.6770     217.4920     219.5840     133.5640     178.3890      11.4380       1.3310     491.9100    1614.03      1803.63   
     438.70         1.9700       1.5800       2.1770       3.5610       4.3330     143.7610     221.9210     216.9030     219.4120     133.6460     177.9730      11.6340       1.3640     498.4050    1614.41      1801.03   
     438.80         1.9970       1.5640       2.1810       3.4880       4.4000     143.1900     221.2940     217.9420     219.6180     133.0000     176.9700      11.6090       1.3650     504.1350    1613.66      1798.19   
     438.90         2.0890       1.5970       2.1760       3.4290       4.4440     142.8720     220.9000     215.8610     218.3800     131.5850     174.3140      11.5980       1.3320     508.0770    1612.84      1795.36   
     439.00         2.1610       1.7790       2.1780       3.3800       4.4430     143.1620     221.9230     215.5780     218.7510     129.6680     171.9560      11.1560       1.3290     509.2310    1611.90      1792.54   
     439.10         2.2230       1.8020       2.1680       3.3410       4.4200     143.8670     221.1800     214.2490     217.7150     127.6270     169.4580      11.4770       1.3630     503.8770    1610.88      1789.73   
     439.20         2.2590       1.8550       2.1490       3.2920       4.3530     145.2390     221.3590     215.4670     218.4130     124.4910     169.0780      11.3830       1.4290     497.8520    1609.70      1786.95   
     439.30         2.2810       1.9020       2.1260       3.2540       4.0420     146.5460     220.9910     214.8640     217.9280     122.6660     169.8490      11.5760       1.4400     490.2620    1608.42      1784.05   
     439.40         2.3160       2.1460       2.0910       3.2280       3.8940     147.7920     219.9400     213.3350     216.6380     120.5550     171.3090      11.1600       1.4410     482.4190    1606.93      1780.89   
     439.50         2.3360       1.9440       2.0830       3.2020       3.7760     149.6940     218.3150     212.1970     215.2560     119.1820     173.0100      11.3610       1.4480     473.9850    1604.93      1777.67   
     439.60         2.3350       1.8170       2.0760       3.1830       3.7020     150.2750     218.9830     211.8820     215.4320     117.3120     176.1040      11.2670       1.4540     466.5270    1601.75      1774.31   
     439.70         2.3380       1.6780       2.0870       3.2000       3.6480     150.3470     217.8600     210.4400     214.1500     117.7540     177.9780      11.1100       1.4640     461.3440    1598.01      1769.81   
     439.80         2.2640       1.5700       2.1060       3.2250       3.6550     149.5890     217.8590     210.8510     214.3550     118.9570     179.8110      10.9060       1.4460     456.3050    1592.93      1762.66   
     439.90         2.1030       1.4610       2.1440       3.2490       3.6950     148.1780     219.5870     210.7210     215.1540     121.4270     181.9470      11.3170       1.4370     451.6010    1586.70      1754.68   
     440.00         1.9750       1.4590       2.1690       3.2570       3.7700     146.0580     221.3130     215.2770     218.2950     120.7750     183.2000      11.2660       1.4330     447.1110    1577.79      1744.76   
     440.10         1.8970       1.5370       2.2020       3.2540       3.8740     143.7380     221.1190     214.9200     218.0200     120.4230     184.2480      11.6200       1.4210     443.1190    1568.35      1733.66   
     440.20         1.9530       1.6850       2.2170       3.2420       4.0310     141.4020     220.7460     215.9880     218.3670     119.5810     183.1740      11.2360       1.4050     439.0760    1557.68      1719.80   
     440.30         2.0160       1.8570       2.2210       3.2290       4.1890     139.1360     221.5910     218.1180     219.8540     119.6050     181.6570      11.2560       1.3940     434.9140    1546.26      1706.90   
     440.40         2.0130       1.8220       2.2260       3.2260       4.3550     137.8190     220.4150     214.4950     217.4550     119.4580     177.7580      10.7640       1.3870     431.8620    1533.07      1696.28   
     440.50         1.9860       1.5990       2.2290       3.2300       4.5830     136.3340     219.8370     216.4720     218.1540     119.4180     170.1150      10.6330       1.4020     431.3970    1520.32      1686.44   
     440.60         1.9740       1.6670       2.2510       3.2410       4.8340     134.7660     219.7450     217.6700     218.7080     118.6760     162.9060      10.1440       1.4380     429.5130    1508.58      1678.39   
     440.70         2.0490       1.6880       2.3020       3.2850       5.1480     132.6380     220.4260     217.9090     219.1670     114.4810     150.9930       9.6200       1.4600     424.3150    1497.25      1671.69   
     440.80         2.2880       1.7100       2.3510       3.3780       5.3730     131.0400     222.0300     215.7760     218.9030     110.5000     143.0050       9.5410       1.4980     419.9290    1486.85      1668.09   
     440.90         2.9930       1.9000       2.4680       3.5160       5.5120     129.1580     223.6570     215.2320     219.4440     105.1840     131.1370       9.0420       1.5830     417.4360    1477.79      1664.76   
     441.00         4.1610       2.5360       2.4830       3.7430       5.5030     127.2060     221.9660     217.4930     219.7290     101.4750     122.9580       8.2460       1.6580     413.2890    1471.86      1662.04   
     441.10         6.9900       8.9820       2.4790       4.0060       5.3990     125.7490     221.3410     217.5860     219.4640      99.9960     122.5580       8.0980       1.6960     405.2840    1466.72      1659.60   
     441.20         8.9180      16.6840       2.4130       4.3740       5.0880     124.2450     223.9200     221.3830     222.6510     101.3860     128.1560       8.3070       1.6910     401.6080    1463.39      1657.82   
     441.30         8.2260      24.0540       2.3810       4.6260       4.7330     123.7590     222.8750     217.2400     220.0570     103.5330     133.1740       8.5040       1.6300     408.0360    1460.66      1656.04   
     441.40         4.8110      23.5190       2.2850       4.7880       4.3750     123.9670     223.8130     216.8090     220.3110     109.7130     144.2670       8.6650       1.5580     415.3030    1459.33      1654.30   
     441.50         3.1620       8.5540       2.2610       4.7970       4.0410     124.2280     222.7590     216.8270     219.7930     114.6710     152.5120       9.3380       1.4940     424.5280    1458.04      1652.56   
     441.60         2.4200       2.0310       2.2200       4.6670       3.8140     124.1820     222.9930     214.8090     218.9010     117.9490     163.4570       9.9080       1.4390     436.0910    1456.81      1650.82   
     441.70         2.2470       1.8220       2.1970       4.4050       3.5840     124.4710     219.4640     217.7330     218.5980     122.8510     169.4130      10.6580       1.3930     453.1070    1455.57      1649.08   
