~Version Information 
VERS.                                     2.00: CWLS log ASCII Standard -Version 2.00
WRAP.                                       NO: One line per depth step
~Well Information Block 
#MNEM.UNIT              Data Type        Information
#----------------------------------------------------------------------
STRT.M                                  122.00:
STOP.M                                  788.00:
STEP.M                                    0.10:
NULL.                                  -999.25:
WELL.                                      310: Well Name 
FLD .                                 KARATUBE: Field Name 
SRVC.                                         : Service company 
DATE.                                 30.08.04: Log date 
~Curve Information Block
#MNEM.UNIT                               Curve Description
#----------------------------------------------------------------------
DEPT.M                                        : Depth Curve
LL3.OHMM                                      : Appar.resist.laterolog,3 electrodes
MLL.OHMM                                      : Microlaterolog sonde
RHOB.G/C3                                     : Bulk density by gamma-gamma log
GZ3.OHMM                                      : App.resistivity by lateral A2.0M0.5N
GZ3B.OHMM                                     : App.resistivity by lateral N0.5M2.0A
SP.MV                                         : Spontaneous potential
C1.MM                                         : Diameter from profile1
C2.MM                                         : Diameter from profile2
CALI.MM                                       : Caliper
CILR.MMHO                                     : Conduct. by sonde 7I1.6,react.signal
CILA.MMHO                                     : Conduct. by sonde 7I1.6,active signal
GR.UR/H                                       : Gamma-ray log
NGLD.UE                                       : Neutron-gamma log/device DRST-90
DTP.US/M                                      : Interval travel time (P-wave)
T1.US                                         : Travel time1
T2.US                                         : Travel time2
~Parameter Information Block
#MNEM.UNIT              Value            Description
#----------------------------------------------------------------------
TDL .M                                    0.00: Total Depth-Logger
BS  .MM                                 215.90: Bit Size
DFD .G/C3                                 39.00: Drilling Fluid Density
TDD .M                                  780.00: Total Depth Driller
#----------------------------------------------------------------------
~ASCII Log Data
# ...
     733.40         3.3830       2.8890       2.5740       4.0700      13.4000     174.1940     225.9480     218.1970     222.0720      66.2040     142.3920       4.9640       1.9490     256.1620    1115.60      1213.21   
     733.50         4.1250       2.9960       2.5580       4.2080      13.6780     174.7250     226.3610     218.7700     222.5650      64.9650     141.2560       5.3030       1.9840     255.2720    1113.67      1210.01   
     733.60         4.8060       5.6310       2.5780       4.3250      13.8650     175.0650     225.1190     219.9470     222.5330      63.2220     140.5650       5.8590       1.9860     254.4700    1111.61      1206.48   
     733.70         5.3050       6.0610       2.5730       4.4980      14.0960     174.9750     228.2020     217.6750     222.9380      59.5670     139.2940       6.5110       1.9790     253.8730    1109.31      1202.77   
     733.80         5.3540       5.7600       2.5510       4.6130      14.2810     174.4530     225.2400     217.2220     221.2310      57.6080     137.7080       7.4440       1.9770     253.1490    1106.45      1198.63   
     733.90         5.2890       5.1300       2.5430       4.7450      14.5450     173.1700     223.6990     217.3860     220.5420      55.5700     131.4670       7.9950       1.9940     252.1270    1103.24      1194.47   
     734.00         5.2870       5.7060       2.5750       4.8540      14.7440     171.6610     223.3180     217.8800     220.5990      54.3590     124.3690       8.2600       1.9720     250.8860    1099.21      1190.25   
     734.10         5.4150       5.3590       2.5740       4.9810      14.9760     170.3990     222.7530     217.0960     219.9250      52.8640     118.3460       8.2930       2.0020     249.1340    1094.98      1186.21   
     734.20         5.6040       5.1530       2.5890       5.1480      15.2000     169.3880     223.0330     216.8880     219.9610      51.3970     111.4140       8.4220       2.0060     247.0110    1090.32      1182.57   
     734.30         5.7690       5.6170       2.5680       5.2690      15.4210     169.0190     222.8040     216.9990     219.9020      49.2380     106.0140       8.3480       1.9660     244.0230    1085.58      1179.14   
     734.40         5.8360       5.8500       2.5620       5.3860      15.7510     167.3030     223.9870     217.6580     220.8230      47.0620     101.5860       8.3830       2.0280     240.8350    1080.69      1176.18   
     734.50         5.8360       4.7510       2.5440       5.5150      16.0870     166.2150     223.5890     217.8030     220.6960      44.9150      99.3460       8.2090       2.0450     237.1820    1075.89      1173.32   
     734.60         5.8170       5.2290       2.5410       5.6080      16.4760     165.2180     223.2650     217.1270     220.1960      43.8180      96.1290       8.2920       2.0130     233.6610    1071.31      1170.74   
     734.70         5.2570       4.3520       2.5440       5.7060      16.8510     164.1490     225.0300     218.8820     221.9560      42.2210      94.4710       8.2060       2.0370     230.4490    1066.88      1168.14   
     734.80         5.1020       4.1850       2.5710       5.7750      17.2120     163.1210     226.2450     218.6130     222.4290      41.3360      93.8670       8.1900       2.0890     228.0630    1062.77      1165.47   
     734.90         5.0560       4.0810       2.5600       5.8630      17.6780     162.1940     224.7680     217.7020     221.2350      41.3260      92.7330       7.9900       2.1050     227.6080    1058.85      1162.72   
     735.00         5.0960       4.1900       2.5740       5.9760      18.1530     161.7030     223.7940     217.9640     220.8790      39.3280      90.0930       8.1250       2.1040     228.0630    1055.41      1159.76   
     735.10         5.1500       4.9330       2.5830       6.1300      18.5950     161.3280     223.6010     218.4010     221.0010      39.4030      90.4380       7.8380       2.1300     230.6420    1052.17      1156.67   
     735.20         5.2220       5.4430       2.5920       6.2940      18.9490     160.6960     224.0040     217.0160     220.5100      39.6660      90.8100       7.4610       2.1450     233.8960    1049.40      1153.26   
     735.30         5.2530       5.4590       2.5790       6.4510      19.3040     160.4090     223.7550     216.1010     219.9280      40.2430      91.6010       7.4000       2.1350     238.7210    1046.83      1149.74   
     735.40         5.2800       5.6620       2.5530       6.6300      19.8700     159.4380     223.9470     216.2660     220.1060      39.3730      90.0440       7.2150       2.1400     243.5930    1044.71      1146.00   
     735.50         5.2650       5.9710       2.5490       6.8080      20.4060     158.0180     225.0710     216.1840     220.6270      37.2700      90.2530       7.2830       2.1420     248.5720    1042.78      1142.19   
     735.60         5.2440       5.6500       2.5690       6.9710      20.9200     156.4720     225.3610     216.1370     220.7490      37.2690      91.5160       7.4860       2.1260     253.1440    1041.28      1138.26   
     735.70         5.2960       5.4510       2.5910       7.1960      21.4420     156.6990     224.8320     216.1860     220.5090      36.1490      90.8140       7.5280       2.0720     256.7630    1039.87      1134.32   
     735.80         5.4370       5.4920       2.5930       7.3680      21.9150     157.4950     225.5240     215.4900     220.5070      35.0120      90.4560       7.5980       2.0500     259.6610    1038.66      1130.37   
     735.90         5.5870       5.4540       2.5890       7.5670      22.7990     158.5940     225.6490     216.6530     221.1510      33.8920      88.1730       7.6850       2.0660     260.8780    1037.39      1126.45   
     736.00         5.7440       5.5430       2.6010       7.7050      23.5410     160.6630     224.8900     217.3270     221.1090      34.0090      88.2440       7.9050       2.1180     261.2480    1035.98      1122.63   
     736.10         5.7930       5.6260       2.5940       7.8340      24.4290     163.2170     226.6650     216.8500     221.7580      31.4960      88.0470       7.7280       2.1150     259.6430    1034.36      1118.90   
     736.20         5.8150       6.0550       2.6030       8.0020      25.4160     166.7430     226.7270     217.5340     222.1300      31.5680      85.4290       7.8790       2.1020     257.2960    1032.24      1115.37   
     736.30         5.8450       5.6430       2.6320       8.1650      26.5430     168.3690     228.8400     216.7750     222.8080      31.0120      83.2910       7.6730       2.0640     253.2180    1029.89      1111.98   
     736.40         5.9280       4.9300       2.6240       8.3950      27.9590     169.3350     226.1210     217.1700     221.6450      29.5910      80.7530       7.1210       2.0600     248.5380    1027.01      1108.90   
     736.50         6.1740       5.7070       2.6140       8.6190      29.3060     169.3020     224.3690     216.3320     220.3500      28.2140      79.6670       6.9920       2.0790     242.4560    1023.99      1105.93   
     736.60         6.5420       7.3290       2.5840       8.9380      30.5980     168.5170     224.0410     216.4570     220.2490      26.9180      77.9510       6.6430       2.1010     236.1380    1020.63      1103.19   
     736.70         7.1190       8.1310       2.6000       9.3790      31.7900     165.6730     224.5490     215.9990     220.2740      25.6590      75.3770       6.4510       2.0980     229.2680    1017.20      1100.51   
     736.80         7.8070       7.0060       2.6180       9.8060      32.6600     162.8480     224.8730     216.1000     220.4860      23.9860      72.3300       6.3700       2.1190     222.6500    1013.61      1097.95   
     736.90         8.7980       6.6690       2.6240      10.4170      33.2910     160.2350     221.5670     216.2030     218.8850      24.6610      69.8900       6.3770       2.1760     216.6190    1010.06      1095.46   
