~Version Information 
VERS.                                     2.00: CWLS log ASCII Standard -Version 2.00
WRAP.                                       NO: One line per depth step
~Well Information Block 
#MNEM.UNIT              Data Type        Information
#----------------------------------------------------------------------
STRT.M                                  122.00:
STOP.M                                  788.00:
STEP.M                                    0.10:
NULL.                                  -999.25:
WELL.                                      310: Well Name 
FLD .                                 KARATUBE: Field Name 
SRVC.                                         : Service company 
DATE.                                 30.08.04: Log date 
~Curve Information Block
#MNEM.UNIT                               Curve Description
#----------------------------------------------------------------------
DEPT.M                                        : Depth Curve
LL3.OHMM                                      : Appar.resist.laterolog,3 electrodes
MLL.OHMM                                      : Microlaterolog sonde
RHOB.G/C3                                     : Bulk density by gamma-gamma log
GZ3.OHMM                                      : App.resistivity by lateral A2.0M0.5N
GZ3B.OHMM                                     : App.resistivity by lateral N0.5M2.0A
SP.MV                                         : Spontaneous potential
C1.MM                                         : Diameter from profile1
C2.MM                                         : Diameter from profile2
CALI.MM                                       : Caliper
CILR.MMHO                                     : Conduct. by sonde 7I1.6,react.signal
CILA.MMHO                                     : Conduct. by sonde 7I1.6,active signal
GR.UR/H                                       : Gamma-ray log
NGLD.UE                                       : Neutron-gamma log/device DRST-90
DTP.US/M                                      : Interval travel time (P-wave)
T1.US                                         : Travel time1
T2.US                                         : Travel time2
~Parameter Information Block
#MNEM.UNIT              Value            Description
#----------------------------------------------------------------------
TDL .M                                    0.00: Total Depth-Logger
BS  .MM                                 215.90: Bit Size
DFD .G/C3                                 39.00: Drilling Fluid Density
TDD .M                                  780.00: Total Depth Driller
#----------------------------------------------------------------------
~ASCII Log Data
# ...
     521.00         2.6670       2.4540       1.9120       5.3460       5.1000     135.2880     222.2440     219.4330     220.8390     100.5220     158.4660       9.8390       1.2250     433.1670    1520.71      1702.90   
     521.10         2.6090       2.2260       1.7880       5.2920       5.2130     138.3870     224.0070     219.3850     221.6960     100.4900     157.4650       9.0980       1.1810     446.7710    1522.78      1700.96   
     521.20         2.8330       2.0490       1.7350       5.2370       5.2800     139.4910     226.3470     217.6950     222.0210      99.9720     154.3790       8.8820       1.0990     458.6960    1524.63      1698.53   
     521.30         3.3560       3.4610       1.6150       5.2200       5.3120     139.5240     224.1770     216.2390     220.2080      98.2910     152.8920       7.8990       1.0680     466.7070    1526.24      1696.45   
     521.40         3.6780       4.1380       1.5570       5.2090       5.3040     139.9980     223.3750     215.9890     219.6820      96.2140     150.2580       7.1880       1.0760     473.0460    1527.30      1695.22   
     521.50         3.6150       4.2120       1.5410       5.2120       5.2910     140.8600     223.4200     216.3540     219.8870      95.0500     145.9780       6.4390       1.0840     475.4850    1528.20      1694.53   
     521.60         3.0530       3.7540       1.6020       5.1920       5.2730     141.3230     222.7880     217.6620     220.2250      93.7640     143.9740       6.6400       1.0870     475.8180    1528.78      1695.08   
     521.70         2.8150       2.2620       1.7110       5.1540       5.2320     140.6630     218.8470     218.5520     218.6990      93.4260     142.8960       7.0650       1.0630     471.2330    1529.59      1696.32   
     521.80         2.7550       2.1370       1.7960       5.0740       5.1830     138.4180     219.2580     216.5900     217.9240      92.3080     143.4590       7.4830       1.0430     465.1230    1530.91      1699.16   
     521.90         2.8130       2.5950       1.9500       4.9740       5.1050     134.4150     224.1230     217.9460     221.0350      91.9540     147.0540       8.3930       1.0840     455.4520    1532.79      1702.09   
     522.00         2.7630       2.4170       2.0340       4.8570       5.0440     131.4060     224.0350     222.5280     223.2820      92.6070     148.9740       8.5820       1.1400     445.4640    1535.94      1705.27   
     522.10         2.6310       2.0370       2.1170       4.7520       5.0020     129.4130     227.3280     227.2610     227.2950      93.5120     150.2260       8.9930       1.1610     434.7360    1539.73      1708.12   
     522.20         2.5090       1.9070       2.1760       4.6360       4.9840     128.0720     224.5350     226.7910     225.6630      94.3580     151.5270       9.1600       1.1870     425.5150    1545.02      1710.24   
     522.30         2.3830       1.7570       2.1760       4.5660       4.9790     127.4710     227.1400     228.9710     228.0550      94.2720     152.4110       9.8540       1.1860     419.8110    1549.84      1711.85   
     522.40         2.3800       1.6730       2.1750       4.4890       4.9870     128.8050     227.5550     221.7510     224.6530      93.5020     152.7250       9.8330       1.1810     415.8010    1553.56      1712.28   
     522.50         2.4420       1.8330       2.1720       4.4170       4.9940     130.2970     226.8350     219.9680     223.4010      92.8470     152.4730      10.1320       1.1970     415.7450    1555.89      1712.32   
     522.60         2.5220       2.0670       2.1690       4.3630       5.0260     130.2760     224.7190     219.3790     222.0490      92.9030     152.4220      10.8660       1.2040     416.8390    1554.94      1711.44   
     522.70         2.5660       2.1240       2.1590       4.3270       5.0580     129.5580     228.2920     221.3060     224.7990      93.0370     151.9800      10.9440       1.1700     420.6130    1553.08      1710.34   
     522.80         2.5760       2.0940       2.1230       4.3030       5.0830     128.5540     229.6710     222.3310     226.0010      92.7810     151.7440      11.3860       1.1540     423.2710    1549.05      1708.70   
     522.90         2.5940       2.0030       2.0870       4.2920       5.0970     127.3590     228.6120     222.3360     225.4740      91.4030     151.4610      11.6780       1.1590     423.3210    1544.49      1706.31   
     523.00         2.6790       2.0200       2.0420       4.3090       5.0890     128.3170     226.2080     222.6940     224.4510      91.0250     149.3060      11.9400       1.1910     420.9770    1538.69      1702.18   
     523.10         2.7660       1.9300       1.9900       4.3200       5.0640     134.1980     228.9730     227.1910     228.0820      90.3000     147.2100      11.7320       1.2260     413.0480    1532.59      1697.50   
     523.20         2.7380       3.4030       2.0060       4.3240       5.0290     144.0950     225.9970     228.2270     227.1120      89.8740     143.3520      11.3860       1.2400     405.0270    1525.79      1691.57   
     523.30         2.6860       1.8970       2.0240       4.3230       4.9870     146.7420     224.7250     226.4340     225.5800      89.9670     142.4170      11.2790       1.2800     396.7900    1519.71      1685.46   
     523.40         2.6890       2.0030       2.1040       4.3170       4.9150     148.5390     224.8230     222.2150     223.5190      90.3870     143.8730      11.4910       1.3300     391.0770    1515.29      1678.93   
     523.50         2.7520       2.1340       2.1590       4.3030       4.8490     149.0600     221.8620     227.1030     224.4830      90.0350     145.9970      12.0020       1.3790     391.2490    1511.76      1672.78   
     523.60         2.7510       2.1820       2.1680       4.2880       4.8190     147.8280     221.7160     235.3280     228.5220      89.4250     147.4540      12.2930       1.3920     393.1610    1510.31      1667.51   
     523.70         2.7290       2.2070       2.1790       4.2730       4.8390     144.3210     222.8730     234.4760     228.6740      91.3260     148.9450      12.2560       1.4070     399.1360    1509.35      1662.63   
     523.80         2.7380       2.0550       2.2000       4.3090       4.9040     141.5230     226.5710     235.7880     231.1800      92.5510     148.4050      12.2080       1.3910     404.5630    1509.53      1658.65   
     523.90         2.7910       2.2800       2.2210       4.3770       5.0170     139.3810     223.4340     224.9220     224.1780      95.1010     146.8290      11.6170       1.3580     408.7150    1508.62      1654.52   
     524.00         3.0030       2.9110       2.1750       4.5080       5.1240     138.2890     222.4170     218.2870     220.3520      96.2980     147.3190      11.4990       1.3390     412.2710    1505.19      1650.03   
     524.10         2.9530       2.8880       2.1450       4.6950       5.2260     136.3830     222.1500     223.2000     222.6750      97.2070     149.6530      11.4870       1.3250     414.4380    1500.82      1645.46   
     524.20         2.8590       2.3710       2.1470       4.8730       5.3140     133.8220     220.1520     226.1380     223.1450      97.0580     149.4950      11.0220       1.3370     414.3700    1494.31      1640.68   
     524.30         2.7310       2.2710       2.1120       4.9220       5.3330     130.8660     218.9860     220.3380     219.6620      97.8110     147.9530      11.2600       1.3610     409.0890    1487.89      1635.73   
     524.40         2.6620       2.4640       2.1080       4.9240       5.2640     127.6740     226.5820     224.7970     225.6900      99.1330     148.4210      10.9220       1.3750     402.5320    1481.72      1630.36   
     524.50         2.6230       2.1720       2.1280       4.8650       5.2120     124.1620     225.0790     224.8020     224.9410     101.5240     148.4990      10.9540       1.3480     392.9960    1475.70      1625.35   
