~Version Information 
VERS.                                     2.00: CWLS log ASCII Standard -Version 2.00
WRAP.                                       NO: One line per depth step
~Well Information Block 
#MNEM.UNIT              Data Type        Information
#----------------------------------------------------------------------
STRT.M                                  122.00:
STOP.M                                  788.00:
STEP.M                                    0.10:
NULL.                                  -999.25:
WELL.                                      310: Well Name 
FLD .                                 KARATUBE: Field Name 
SRVC.                                         : Service company 
DATE.                                 30.08.04: Log date 
~Curve Information Block
#MNEM.UNIT                               Curve Description
#----------------------------------------------------------------------
DEPT.M                                        : Depth Curve
LL3.OHMM                                      : Appar.resist.laterolog,3 electrodes
MLL.OHMM                                      : Microlaterolog sonde
RHOB.G/C3                                     : Bulk density by gamma-gamma log
GZ3.OHMM                                      : App.resistivity by lateral A2.0M0.5N
GZ3B.OHMM                                     : App.resistivity by lateral N0.5M2.0A
SP.MV                                         : Spontaneous potential
C1.MM                                         : Diameter from profile1
C2.MM                                         : Diameter from profile2
CALI.MM                                       : Caliper
CILR.MMHO                                     : Conduct. by sonde 7I1.6,react.signal
CILA.MMHO                                     : Conduct. by sonde 7I1.6,active signal
GR.UR/H                                       : Gamma-ray log
NGLD.UE                                       : Neutron-gamma log/device DRST-90
DTP.US/M                                      : Interval travel time (P-wave)
T1.US                                         : Travel time1
T2.US                                         : Travel time2
~Parameter Information Block
#MNEM.UNIT              Value            Description
#----------------------------------------------------------------------
TDL .M                                    0.00: Total Depth-Logger
BS  .MM                                 215.90: Bit Size
DFD .G/C3                                 39.00: Drilling Fluid Density
TDD .M                                  780.00: Total Depth Driller
#----------------------------------------------------------------------
~ASCII Log Data
# ...
     690.20         1.5440       1.7350       2.3670       1.4680       2.2460     128.5370     217.3340     218.3530     217.8440     322.6930     190.0870       9.5480       1.5660     322.4730    1331.05      1465.10   
     690.30         1.6750       1.9200       2.3590       1.4690       2.2090     128.7140     217.2770     218.6680     217.9730     323.1180     185.2840       9.9690       1.5590     321.5450    1329.89      1463.49   
     690.40         1.6550       1.9970       2.3590       1.4480       2.1600     129.1900     217.1170     220.0200     218.5690     320.2610     180.2950      10.3580       1.5540     321.1130    1329.36      1461.22   
     690.50         1.4940       2.0510       2.3490       1.4130       2.1040     130.0320     217.7850     221.0550     219.4200     317.9720     172.6430      10.4920       1.5320     321.8390    1328.98      1458.78   
     690.60         1.3230       1.8850       2.3460       1.3630       2.0650     131.4810     218.7450     220.4010     219.5730     313.7950     169.6550      10.4910       1.5650     323.3580    1328.94      1455.95   
     690.70         1.2710       1.4800       2.3530       1.3180       2.0270     132.6190     217.6860     220.8090     219.2470     307.8280     167.8630      10.7710       1.5790     326.7290    1328.88      1452.90   
     690.80         1.2760       1.1390       2.3600       1.2480       1.9440     133.5530     223.1990     220.6520     221.9260     304.0010     168.4630      11.4400       1.5890     329.9400    1328.81      1449.35   
     690.90         1.2870       1.3790       2.3660       1.1840       1.9090     134.3640     226.4240     221.0980     223.7610     303.1890     168.5450      11.3940       1.5140     332.7760    1328.68      1446.08   
     691.00         1.2100       1.6370       2.3420       1.1340       1.9060     134.9090     223.5650     221.9350     222.7500     308.0660     166.9290      11.9440       1.4830     334.8440    1328.43      1443.47   
     691.10         1.0270       1.4520       2.3420       1.0740       1.9440     135.4020     219.1410     222.5600     220.8500     315.8260     166.9570      12.3860       1.4620     335.1200    1328.10      1440.80   
     691.20         0.9320       1.0670       2.3440       0.9980       2.0000     135.3080     219.6380     223.6640     221.6510     321.5910     173.5640      12.5570       1.4770     334.0010    1327.57      1437.99   
     691.30         0.8810       0.8250       2.3490       0.9530       2.0940     134.4930     216.5090     221.9910     219.2500     322.6090     180.3720      12.1500       1.5020     329.6310    1326.97      1435.15   
     691.40         0.9080       0.7740       2.3490       0.9260       2.2440     133.5700     218.9230     223.1410     221.0320     323.5130     191.8760      11.7030       1.5360     324.4820    1326.20      1432.21   
     691.50         0.9610       0.8270       2.3570       0.9100       2.3800     131.3320     218.4250     223.9100     221.1670     322.2210     202.2450      11.5180       1.5540     317.5170    1325.38      1429.27   
     691.60         1.0120       1.1930       2.3520       0.9030       2.5960     127.7810     217.4480     223.7300     220.5890     322.6740     209.8050      11.2190       1.5580     310.0370    1324.43      1426.33   
     691.70         1.0380       1.0940       2.3370       0.9030       2.7720     125.3790     219.5440     224.0540     221.7990     322.3440     216.2950      10.6190       1.6040     301.3550    1323.42      1423.70   
     691.80         1.0510       1.1330       2.3560       0.9130       3.1540     123.8010     218.6310     224.5390     221.5850     319.0910     218.7320      10.7870       1.5810     293.5060    1322.24      1421.79   
     691.90         1.0670       1.4180       2.3810       0.9350       3.5520     123.0400     215.8910     224.9590     220.4250     313.8980     227.0850      10.4220       1.5620     287.5980    1320.95      1419.63   
     692.00         1.0590       1.5310       2.3810       0.9680       4.0000     120.6260     215.5460     224.6490     220.0970     301.1010     232.7780      10.1340       1.5300     281.7520    1319.41      1416.89   
     692.10         1.0540       1.4050       2.3930       1.0230       4.5290     116.6370     216.3550     225.0530     220.7040     287.4620     234.1450       9.7660       1.5560     276.0510    1317.71      1413.19   
     692.20         1.0660       1.2730       2.3790       1.0870       5.0730     113.0840     216.3130     227.0500     221.6810     275.2280     238.0390       9.4130       1.5600     270.4330    1315.65      1407.25   
     692.30         1.1220       1.1580       2.3960       1.1880       5.6390     108.5140     216.7360     227.4380     222.0870     266.1540     239.8280       8.6450       1.5780     265.0070    1313.12      1399.83   
     692.40         1.3800       1.4770       2.4020       1.2950       6.0160     104.8760     216.8580     227.5980     222.2280     253.9580     240.9400       8.5540       1.6850     259.7190    1309.48      1388.99   
     692.50         1.5580       1.7320       2.4050       1.3860       6.3570     100.7670     216.9870     228.0810     222.5340     242.4140     240.6340       8.1250       1.7260     254.7540    1305.31      1377.83   
     692.60         1.8220       2.0480       2.4230       1.4830       6.5550      98.4150     217.5330     229.6510     223.5920     232.9310     239.2710       7.9130       1.8770     250.7240    1299.91      1365.93   
     692.70         2.0390       2.5890       2.4360       1.5580       6.6240     100.5320     217.3640     229.8600     223.6120     218.5530     234.3170       7.3190       1.7850     248.8790    1293.48      1353.75   
     692.80         2.1020       4.0100       2.4290       1.6260       6.9440     101.4420     217.7190     230.5580     224.1380     210.5750     228.3270       7.7030       1.7340     246.6920    1284.67      1340.92   
     692.90         2.1590       3.5540       2.4100       1.6650       7.3080     100.8000     219.5910     231.5910     225.5910     188.9630     205.6480       8.0250       1.6960     243.7060    1275.01      1328.45   
     693.00         2.1650       4.4840       2.4080       1.6700       7.7880      96.9820     216.6750     228.0750     222.3750     175.2300     191.0970       8.0290       1.6280     238.7010    1263.40      1316.81   
     693.10         1.9570       4.5430       2.3870       1.6600       8.4820      86.7120     216.2140     224.4960     220.3550     159.7600     170.8700       8.2400       1.6720     228.9860    1250.45      1304.52   
     693.20         1.6590       2.9830       2.3920       1.6410       9.2370      80.1740     215.9780     224.1980     220.0880     143.8400     143.4400       8.5020       1.6300     216.7810    1234.37      1290.75   
     693.30         1.5040       1.9460       2.4140       1.6140      10.1120      74.6450     215.4700     222.9410     219.2060     133.7740     135.4770       8.5340       1.6700     198.7650    1217.80      1277.08   
     693.40         1.3880       1.8470       2.4230       1.5920      11.0950      70.5610     217.0600     225.1370     221.0980     127.3310     143.5290       8.4790       1.7340     181.2800    1200.09      1263.65   
     693.50         1.3680       1.7170       2.4520       1.5770      11.9430      68.8410     218.8970     223.9940     221.4460     123.8140     165.5690       7.6570       1.7540     165.0330    1182.42      1250.25   
     693.60         1.4330       1.7350       2.4690       1.5690      12.8580      69.0020     223.4530     224.2090     223.8310     123.7110     185.5230       7.1200       1.8730     150.6550    1164.86      1236.87   
     693.70         1.5310       2.1240       2.4990       1.5650      13.4210      68.7140     225.8680     224.4400     225.1540     124.5540     207.3260       6.4170       1.9340     140.6370    1148.33      1224.37   
