~Version Information 
VERS.                                     2.00: CWLS log ASCII Standard -Version 2.00
WRAP.                                       NO: One line per depth step
~Well Information Block 
#MNEM.UNIT              Data Type        Information
#----------------------------------------------------------------------
STRT.M                                  122.00:
STOP.M                                  788.00:
STEP.M                                    0.10:
NULL.                                  -999.25:
WELL.                                      310: Well Name 
FLD .                                 KARATUBE: Field Name 
SRVC.                                         : Service company 
DATE.                                 30.08.04: Log date 
~Curve Information Block
#MNEM.UNIT                               Curve Description
#----------------------------------------------------------------------
DEPT.M                                        : Depth Curve
LL3.OHMM                                      : Appar.resist.laterolog,3 electrodes
MLL.OHMM                                      : Microlaterolog sonde
RHOB.G/C3                                     : Bulk density by gamma-gamma log
GZ3.OHMM                                      : App.resistivity by lateral A2.0M0.5N
GZ3B.OHMM                                     : App.resistivity by lateral N0.5M2.0A
SP.MV                                         : Spontaneous potential
C1.MM                                         : Diameter from profile1
C2.MM                                         : Diameter from profile2
CALI.MM                                       : Caliper
CILR.MMHO                                     : Conduct. by sonde 7I1.6,react.signal
CILA.MMHO                                     : Conduct. by sonde 7I1.6,active signal
GR.UR/H                                       : Gamma-ray log
NGLD.UE                                       : Neutron-gamma log/device DRST-90
DTP.US/M                                      : Interval travel time (P-wave)
T1.US                                         : Travel time1
T2.US                                         : Travel time2
~Parameter Information Block
#MNEM.UNIT              Value            Description
#----------------------------------------------------------------------
TDL .M                                    0.00: Total Depth-Logger
BS  .MM                                 215.90: Bit Size
DFD .G/C3                                 39.00: Drilling Fluid Density
TDD .M                                  780.00: Total Depth Driller
#----------------------------------------------------------------------
~ASCII Log Data
# ...
     225.80         3.6180       2.1290       2.0120       5.9410       7.8450      59.3400     222.3350     217.0120     219.6730      53.8780     113.1470       7.5530       1.2910     504.5890    1682.25      1904.04   
     225.90         3.6550       2.1860       2.0140       5.9530       7.9340      60.5620     222.5060     217.4280     219.9670      53.0160     112.3700       7.6700       1.3050     505.1680    1679.55      1902.97   
     226.00         3.6790       2.1960       2.0170       5.9690       8.0020      61.2010     220.8440     219.5110     220.1780      52.9140     112.3080       7.9920       1.2970     507.0420    1677.54      1901.55   
     226.10         3.7160       2.1370       2.0010       5.9840       8.0600      61.8420     221.6040     221.1310     221.3670      52.0150     111.3430       8.1040       1.2620     511.9360    1675.81      1899.92   
     226.20         3.8080       2.1750       1.9950       6.0220       8.1160      62.7130     223.5380     219.6160     221.5770      51.1650     110.9430       8.3190       1.2410     517.4250    1674.68      1897.81   
     226.30         3.8730       2.2750       2.0100       6.0650       8.1630      63.6270     224.3200     219.1710     221.7460      51.9500     110.9210       8.2120       1.2590     524.3060    1673.69      1895.70   
     226.40         3.8860       2.2520       2.0230       6.1230       8.2070      64.5800     222.3970     218.7140     220.5560      52.0820     111.5590       7.8620       1.2710     531.8940    1673.01      1893.59   
     226.50         3.8630       2.3790       2.0420       6.2050       8.2630      65.5900     221.0440     215.5820     218.3130      51.4140     111.9540       8.0560       1.2850     541.1350    1672.24      1891.26   
     226.60         3.8860       2.4200       2.0480       6.2960       8.3140      66.2820     221.4930     215.7310     218.6120      50.8580     112.2040       8.4530       1.2720     549.1850    1671.27      1888.40   
     226.70         3.9590       2.4730       2.0530       6.3900       8.3680      66.1510     221.5480     217.1740     219.3610      52.4290     113.1510       8.4720       1.2420     554.4540    1670.21      1885.60   
     226.80         4.0780       2.5430       2.0650       6.4990       8.4060      65.4460     221.7790     217.0820     219.4310      52.8130     113.7210       8.4790       1.2440     558.5740    1668.97      1882.95   
     226.90         4.1630       2.5720       2.0840       6.5900       8.4440      64.9920     221.5240     217.1610     219.3420      52.6940     113.9280       8.8470       1.2320     560.0110    1667.77      1880.29   
     227.00         4.2310       2.6510       2.0790       6.6810       8.4480      64.9350     221.5870     217.5310     219.5590      53.3910     114.2550       8.8360       1.2380     560.2800    1666.70      1877.60   
     227.10         4.2310       2.7350       2.1010       6.7380       8.4120      65.0830     222.2600     218.1760     220.2180      53.7170     114.5400       8.7850       1.2740     557.8250    1665.80      1875.42   
     227.20         4.1750       2.6780       2.0960       6.7800       8.3510      65.2670     221.9770     218.4220     220.2000      53.6490     113.5760       9.0560       1.3030     555.0330    1665.30      1874.41   
     227.30         4.0840       2.5970       2.0830       6.7900       8.2670      65.3850     221.3040     218.5580     219.9310      53.0490     112.4020       9.2080       1.3080     551.4560    1664.98      1873.39   
     227.40         4.0300       2.5070       2.0790       6.7610       8.1720      65.4940     221.8900     218.4210     220.1550      53.2460     111.5760       9.1750       1.3010     547.5400    1665.08      1872.38   
     227.50         3.9830       2.4640       2.0680       6.7250       8.0790      65.6340     222.1550     218.1010     220.1280      54.4050     109.4020       9.3140       1.2880     542.8330    1665.23      1871.55   
     227.60         3.9480       2.4130       2.0680       6.6810       8.0370      65.8210     222.3790     217.8810     220.1300      53.5820     107.8280       9.1080       1.2870     538.4830    1665.54      1871.11   
     227.70         3.9260       2.3700       2.0640       6.6420       8.0000      65.4160     223.4860     217.5450     220.5160      54.0840     107.1410       9.3990       1.2850     534.9650    1665.79      1870.50   
     227.80         3.9260       2.3940       2.0910       6.6180       7.9970      65.0060     223.2380     217.5690     220.4040      54.6880     107.6820       9.3530       1.2690     531.2920    1665.91      1869.47   
     227.90         3.9190       2.4150       2.0880       6.6220       8.0170      63.8970     223.1790     217.7960     220.4880      55.3220     108.7970       9.2430       1.2510     527.2590    1665.97      1868.34   
     228.00         3.8950       2.3690       2.0760       6.6340       8.0980      62.7980     222.9910     218.0080     220.4990      55.4520     110.5120       9.0730       1.2700     524.0500    1665.93      1866.95   
     228.10         3.8850       2.3030       2.0710       6.6860       8.1960      61.7220     222.4630     217.9840     220.2230      56.3920     112.2640       9.0100       1.2760     522.7650    1665.69      1865.45   
     228.20         3.9750       2.2820       2.0480       6.7740       8.3060      60.1320     222.3690     217.4870     219.9280      57.1870     114.8700       8.7210       1.2750     521.0350    1665.03      1863.70   
     228.30         4.1740       2.3910       2.0430       6.8910       8.4310      58.4070     222.1610     217.4890     219.8250      57.2800     115.5930       8.4870       1.2660     518.2670    1664.31      1861.89   
     228.40         4.3380       2.5300       2.0290       7.0170       8.5110      56.5730     221.8650     217.6090     219.7370      57.6750     116.1100       8.5080       1.2790     515.7760    1663.48      1859.95   
     228.50         4.4000       2.4890       2.0210       7.1910       8.5200      54.5130     221.2820     217.2460     219.2640      57.9730     117.0410       8.0110       1.2890     513.9310    1662.53      1858.27   
     228.60         4.3710       2.5020       2.0230       7.3050       8.4810      53.2380     220.1350     217.1540     218.6450      59.0500     118.2090       7.7740       1.2900     511.7820    1661.31      1857.19   
     228.70         4.2460       2.4120       2.0150       7.4090       8.3160      52.1050     219.6450     216.5250     218.0850      59.2580     119.0520       7.8120       1.3210     508.9230    1660.12      1856.23   
     228.80         4.0860       2.2080       2.0290       7.4220       8.1040      51.4550     219.9970     215.4330     217.7150      59.7610     119.4980       7.8600       1.3090     505.9160    1659.00      1855.56   
     228.90         3.9580       2.0980       2.0480       7.3820       7.8870      50.9380     220.7620     215.4190     218.0900      61.0540     120.5790       7.6640       1.2890     502.5650    1657.91      1854.90   
     229.00         3.9550       2.1970       2.0550       7.2900       7.6610      50.6280     221.7960     215.5570     218.6760      62.1780     121.5470       7.9760       1.2760     499.4010    1656.86      1854.29   
     229.10         4.0110       2.3190       2.0580       7.2160       7.4580      50.6000     222.2560     215.7670     219.0120      62.8410     121.3970       8.2370       1.3190     496.6720    1655.92      1853.65   
     229.20         4.0380       2.3140       2.0730       7.1610       7.2620      51.0550     221.8590     215.5840     218.7220      65.4480     121.6820       8.6410       1.3340     493.9350    1655.20      1852.95   
     229.30         3.9970       2.3380       2.0740       7.1280       7.1370      51.9650     221.9750     215.3570     218.6660      64.9620     122.1940       8.6820       1.3280     491.1820    1654.62      1852.12   
