~Version
 VERS              .         3.0                           : CWLS LOG ASCII STANDARD - VERSION 3.0
 WRAP              .         NO                            : ONE LINE PER DEPTH STEP
 DLM               .         SPACE                         : DELIMITING CHARACTER(SPACE TAB OR COMMA)
~Well Information
#_______________________________________________________________________________
#
#PARAMETER_NAME    .UNIT     VALUE                         : DESCRIPTION
#_______________________________________________________________________________
STRT               .M        100                           : First reference value
STOP               .M        844                           : Last reference value
STEP               .M        0.1                           : Step increment
NULL               .         -9999                         : Missing value
COMP               .         ICPetroleum                   : Company
WELL               .         323                           : Well name
FLD                .         Karatobe                      : Field
LOC                .                                       : Location
SRVC               .                                       : Service Company
CTRY               .         KZ                            : Country
DATE               .         11.11.2005                    : Service Date
LATI               .         0                             : Latitude
LONG               .         0                             : Longitude
GDAT               .         WGS 84                        : Geodetic Datum
API                .                                       : API NUMBER
CNTY               .                                       : 
COORDIN            .                                       : Grid System
COUNT              .         Kazakhstan                    : Country
COUNTRY            .         Kazakhstan                    : 
COUNTRY            .         Kazakhstan                    : 
EREF               .m        142.3                         : 
KB                 .         141.9                         : KB Elevation
MDEC               .         0                             : Magnetic Declination
ORIGINALWELLNAME   .         323                           : 
PROV               .                                       : Province
RWS                .         0                             : Def_Rw
STAT               .                                       : 
UWI                .         KAR_323                       : Unique Well Identifier (UWI)
WST                .         0                             : Def_Rwt
X                  .km       466280.32                     : 
XCOORD             .                                       : X or East-West Coordinate
Y                  .km       5308145.37                    : 
YCOORD             .                                       : Y or North-South Coordinate
~Parameter Information Block
#_______________________________________________________________________________
#
#PARAMETER_NAME    .UNIT     VALUE                         : DESCRIPTION
#_______________________________________________________________________________
SET                .         Las                           : 
TLFamily_DEPT      .         Measured Depth                : 
TLFamily_PHI_FINAL .         Porosity                      : 
TLFamily_SW_AR     .         Water Saturation              : 
TLFamily_VSH_FINAL .         Shale Volume                  : 
~Curve Information
#_______________________________________________________________________________
#
#LOGNAME           .UNIT     LOG_ID                        : DESCRIPTION
#_______________________________________________________________________________
DEPT               .M                                      :  {F}
PHI_FINAL          .m3/m3                                  : Porosity {F}
SW_AR              .m3/m3                                  :  {F}
VSH_FINAL          .unitless                               : Vshale {F}
~Ascii
# ...
609.6      0.02993238 1          1         
609.7      0.02665641 1          1         
609.8      0.0282592  1          0.9995727 
609.9      0.06547861 1          0.8864741 
610        0.04718846 1          0.9412329 
610.1      0.05819152 1          0.8861912 
610.2      0.06758258 1          0.8597241 
610.3      0.1537787  1          0.6731979 
610.4      0.2012769  1          0.6131426 
610.5      0.2342129  1          0.5941486 
610.6      0.2484246  1          0.5577853 
610.7      0.316799   1          0.403497  
610.8      0.3434044  1          0.318175  
610.9      0.316721   1          0.3526752 
611        0.300015   1          0.3901379 
611.1      0.2713231  1          0.4451573 
611.2      0.180452   1          0.6318488 
611.3      0.1105351  1          0.7601036 
611.4      0.086905   1          0.8076912 
611.5      0.02436996 1          0.996772  
611.6      0.05430705 1          0.8840739 
611.7      0.02842385 1          0.9671444 
611.8      0.02910429 1          0.9962791 
611.9      0.02579415 1          1         
612        0.0664644  1          0.8835106 
612.1      0.04279702 1          0.9380324 
612.2      0.06351528 1          0.8570108 
612.3      0.1206655  1          0.7138758 
612.4      0.1071786  1          0.7588297 
612.5      0.1305111  1          0.713662  
612.6      0.1073701  1          0.7820662 
612.7      0.0549384  1          0.9094484 
612.8      0.03513762 1          0.9654078 
612.9      0.01898682 1          0.9944752 
613        0.01430502 1          1         
613.1      0.01227943 1          1         
613.2      0.01207186 1          1         
613.3      0.01460581 1          1         
613.4      0.02367591 1          1         
613.5      0.02122424 1          1         
613.6      0.01871794 1          1         
613.7      0.01931696 1          1         
613.8      0.02315361 1          1         
613.9      0.01652062 1          1         
614        0.01562002 1          1         
614.1      0.01418145 1          0.9925135 
614.2      0.01671318 1          0.963205  
614.3      0.01691742 1          1         
614.4      0.03261193 1          0.9069719 
614.5      0.03452685 1          0.9068267 
614.6      0.07725053 1          0.7562925 
614.7      0.07412656 1          0.7561775 
614.8      0.07336986 1          0.7560624 
614.9      0.03908244 1          0.8794451 
615        0.04871158 1          0.8278732 
615.1      0.037759   1          0.8791658 
615.2      0.01228434 1          1         
615.3      0.01811782 1          1         
615.4      0.02386227 1          0.9903955 
615.5      0.01854877 1          1         
615.6      0.03686443 1          0.9327377 
615.7      0.05809115 1          0.878329  
615.8      0.08007546 1          0.8268408 
615.9      0.02237899 1          1         
616        0.022315   1          1         
616.1      0.04609418 1          0.8777719 
616.2      0.07046524 1          0.7777582 
616.3      0.07558514 1          0.7543417 
616.4      0.1097138  1          0.6671926 
616.5      0.1176189  1          0.6467923 
616.6      0.1140542  1          0.6669971 
616.7      0.1268492  1          0.6668996 
616.8      0.05435435 1          0.8508242 
616.9      0.02471982 1          0.9589802 
617        0.01662635 1          1         
617.1      0.07859014 1          0.8251675 
617.2      0.1535862  1          0.6664118 
617.3      0.1379482  1          0.7305756 
617.4      0.2289529  1          0.5186206 
617.5      0.2188495  1          0.5352752 
617.6      0.2010997  1          0.5700532 
617.7      0.2342542  1          0.4863158 
617.8      0.2443241  1          0.4862509 
617.9      0.2008685  1          0.6257792 
618        0.2383363  1          0.5349084 
618.1      0.2323313  1          0.5696552 
618.2      0.2113953  1          0.6255097 
618.3      0.1712895  1          0.7075108 
618.4      0.1917842  1          0.6450133 
618.5      0.1225358  1          0.8233718 
618.6      0.156522   1          0.7291504 
618.7      0.17412    1          0.7070899 
618.8      0.1382581  1          0.822988  
618.9      0.1251173  1          0.8480245 
619        0.133338   1          0.7982527 
619.1      0.2199521  1          0.534103  
619.2      0.1918388  1          0.53403   
619.3      0.1232768  1          0.6643693 
619.4      0.08009718 1          0.7282758 
619.5      0.006670205 1          0.9549406 
619.6      0.008012886 1          1         
619.7      0.005437117 1          1         
619.8      0.004755314 1          1         
619.9      0.02983418 1          0.8215829 
620        0.01005834 1          1         
620.1      0.01263409 1          1         
620.2      0.01573628 1          1         
620.3      0.01393836 1          1         
620.4      0.01291186 1          1         
620.5      0.009833665 1          1         
620.6      0.006043188 1          1         
620.7      0.005361367 1          1         
620.8      0.03028229 1          0.8455048 
620.9      0.02395531 1          0.8711316 
621        0.008921965 1          1         
621.1      0.02711605 1          0.8973196 
621.2      0.03313252 1          0.8707193 
621.3      0.01149774 1          1         
621.4      0.01445465 1          1         
621.5      0.02250003 1          0.9239236 
621.6      0.006421968 1          1         
621.7      0.006725013 1          1         
621.8      0.00914667 1          0.9800758 
621.9      0.004755314 1          1         
622        0.0008916662 1          1         
622.1      0.005437117 1          1         
622.2      0.007634092 1          1         
622.3      0.008391666 1          1         
622.4      0.008240162 1          1         
622.5      0.004149243 1          1         
622.6      0.00770986 1          1         
622.7      0.005967438 1          1         
622.8      0.01473247 1          0.9220001 
622.9      0.04162758 1          0.8177709 
623        0.05094224 1          0.7933588 
623.1      0.0396555  1          0.7932371 
623.2      0.04622249 1          0.7694943 
623.3      0.08184002 1          0.6811087 
623.4      0.04631069 1          0.7692603 
623.5      0.07316624 1          0.6603164 
623.6      0.09459723 1          0.5832685 
623.7      0.06706489 1          0.6400946 
623.8      0.08112274 0.9157367  0.5651522 
623.9      0.03499064 1          0.6599326 
624        0.08093847 0.6528884  0.4822628 
624.1      0.143692   0.3867525  0.3242285 
624.2      0.1452102  0.3972144  0.3025418 
624.3      0.1391141  0.4339637  0.2921199 
624.4      0.1699115  0.4087701  0.2103445 
624.5      0.164565   0.5537495  0.22679   
624.6      0.1653533  0.7637076  0.226766  
624.7      0.1798896  1          0.2183981 
624.8      0.161949   1          0.2720259 
624.9      0.1793621  1          0.2719955 
625        0.1744941  1          0.3351475 
625.1      0.1505629  1          0.423156  
625.2      0.154235   1          0.451503  
625.3      0.1075343  1          0.6002812 
625.4      0.1027127  1          0.6385305 
625.5      0.06470369 1          0.7216644 
625.6      0.05897392 1          0.7666947 
625.7      0.03840692 1          0.8390635 
625.8      0.09255332 1          0.6996884 
625.9      0.1486968  1          0.5635086 
626        0.1576475  1          0.5634305 
626.1      0.1906495  1          0.4809248 
626.2      0.1775642  1          0.5289546 
626.3      0.179107   1          0.512415  
626.4      0.2237124  0.6535176  0.4088544 
626.5      0.2393734  0.622147   0.3579645 
626.6      0.2583296  0.5714272  0.3017071 
626.7      0.2508914  0.5844637  0.3123089 
626.8      0.2909354  0.5553379  0.1868175 
626.9      0.3123003  0.5882605  0.1460738 
627        0.3136776  0.6344925  0.1523927 
627.1      0.3046544  0.6915001  0.1724432 
627.2      0.2550154  0.8668094  0.2911566 
627.3      0.2329025  0.9479275  0.345767  
627.4      0.2340852  0.9115295  0.3341948 
627.5      0.2279431  0.8933796  0.3456843 
627.6      0.2440218  0.8087831  0.3456429 
627.7      0.2656469  0.7740739  0.3119465 
