~Version
 VERS              .         3.0                           : CWLS LOG ASCII STANDARD - VERSION 3.0
 WRAP              .         NO                            : ONE LINE PER DEPTH STEP
 DLM               .         SPACE                         : DELIMITING CHARACTER(SPACE TAB OR COMMA)
~Well Information
#_______________________________________________________________________________
#
#PARAMETER_NAME    .UNIT     VALUE                         : DESCRIPTION
#_______________________________________________________________________________
STRT               .M        100                           : First reference value
STOP               .M        844                           : Last reference value
STEP               .M        0.1                           : Step increment
NULL               .         -9999                         : Missing value
COMP               .         ICPetroleum                   : Company
WELL               .         323                           : Well name
FLD                .         Karatobe                      : Field
LOC                .                                       : Location
SRVC               .                                       : Service Company
CTRY               .         KZ                            : Country
DATE               .         11.11.2005                    : Service Date
LATI               .         0                             : Latitude
LONG               .         0                             : Longitude
GDAT               .         WGS 84                        : Geodetic Datum
API                .                                       : API NUMBER
CNTY               .                                       : 
COORDIN            .                                       : Grid System
COUNT              .         Kazakhstan                    : Country
COUNTRY            .         Kazakhstan                    : 
COUNTRY            .         Kazakhstan                    : 
EREF               .m        142.3                         : 
KB                 .         141.9                         : KB Elevation
MDEC               .         0                             : Magnetic Declination
ORIGINALWELLNAME   .         323                           : 
PROV               .                                       : Province
RWS                .         0                             : Def_Rw
STAT               .                                       : 
UWI                .         KAR_323                       : Unique Well Identifier (UWI)
WST                .         0                             : Def_Rwt
X                  .km       466280.32                     : 
XCOORD             .                                       : X or East-West Coordinate
Y                  .km       5308145.37                    : 
YCOORD             .                                       : Y or North-South Coordinate
~Parameter Information Block
#_______________________________________________________________________________
#
#PARAMETER_NAME    .UNIT     VALUE                         : DESCRIPTION
#_______________________________________________________________________________
SET                .         Las                           : 
TLFamily_DEPT      .         Measured Depth                : 
TLFamily_PHI_FINAL .         Porosity                      : 
TLFamily_SW_AR     .         Water Saturation              : 
TLFamily_VSH_FINAL .         Shale Volume                  : 
~Curve Information
#_______________________________________________________________________________
#
#LOGNAME           .UNIT     LOG_ID                        : DESCRIPTION
#_______________________________________________________________________________
DEPT               .M                                      :  {F}
PHI_FINAL          .m3/m3                                  : Porosity {F}
SW_AR              .m3/m3                                  :  {F}
VSH_FINAL          .unitless                               : Vshale {F}
~Ascii
# ...
518.6      0.2780905  0.9676725  0.369478  
518.7      0.2520616  1          0.3965662 
518.8      0.2286109  1          0.4402925 
518.9      0.2125771  1          0.4556931 
519        0.1855586  1          0.4879301 
519.1      0.1825195  1          0.4714788 
519.2      0.1984668  1          0.4250412 
519.3      0.2082492  1          0.3962495 
519.4      0.1962979  1          0.4399299 
519.5      0.1560975  1          0.5580468 
519.6      0.1209849  1          0.6371123 
519.7      0.1279396  1          0.6370147 
519.8      0.118367   1          0.658178  
519.9      0.1706807  1          0.5577179 
520        0.2216291  1          0.4549982 
520.1      0.2163476  1          0.4871709 
520.2      0.2323295  1          0.4394471 
520.3      0.2298394  1          0.4244066 
520.4      0.2603866  0.957068   0.3556626 
520.5      0.2455936  1          0.4097458 
520.6      0.2454837  1          0.4096908 
520.7      0.2711911  0.998542   0.342953  
520.8      0.2477659  1          0.3817436 
520.9      0.2562397  0.9222324  0.3554338 
521        0.2364031  0.9631348  0.3953547 
521.1      0.2533491  0.9090111  0.3427784 
521.2      0.2434136  0.9473376  0.3427347 
521.3      0.265787   0.8740366  0.2745412 
521.4      0.2545778  0.9166482  0.2959142 
521.5      0.2411906  1          0.318562  
521.6      0.2234985  1          0.3551137 
521.7      0.1926702  1          0.4090863 
521.8      0.2056253  1          0.3949349 
521.9      0.2338717  1          0.3184034 
522        0.2633561  1          0.2541342 
522.1      0.2881022  1          0.1841718 
522.2      0.2842866  1          0.2084887 
522.3      0.3067558  1          0.1413912 
522.4      0.3143955  1          0.1110358 
522.5      0.3217244  1          0.1167456 
522.6      0.3453465  1          0.07531092
522.7      0.355514   1          0.0620916 
522.8      0.3584915  0.9729068  0.0579324 
522.9      0.3635182  0.9968136  0.06208145
523        0.3665862  1          0.05388863
523.1      0.3645769  1          0.05388435
523.2      0.3641775  1          0.05388006
523.3      0.3792168  1          0.04245549
523.4      0.3903833  1          0.03198575
523.5      0.394827   1          0.04244901
523.6      0.387302   1          0.04614155
523.7      0.3608949  0.9850777  0.07990219
523.8      0.349708   0.7988594  0.08469377
523.9      0.3477884  0.6879539  0.09471043
524        0.3341061  0.6932269  0.1224594 
524.1      0.3027165  0.7698938  0.1916383 
524.2      0.2932335  0.8445284  0.2438584 
524.3      0.2880124  0.9051768  0.2948717 
524.4      0.2953349  0.8124773  0.3413434 
524.5      0.3344345  0.6611419  0.2839941 
524.6      0.3578356  0.6173437  0.3173362 
524.7      0.3680935  0.5895661  0.3537027 
524.8      0.4079336  0.560599   0.3172574 
524.9      0.3977447  0.6426479  0.3057739 
525        0.3875259  0.6579166  0.2631462 
525.1      0.3310747  0.7540397  0.3410405 
525.2      0.2389584  1          0.5003555 
525.3      0.09252029 1          0.8447363 
525.4      0.0389637  1          1         
525.5      0.03651826 1          1         
525.6      0.03022622 1          1         
525.7      0.02409981 1          1         
525.8      0.01656586 1          1         
525.9      0.01819937 1          1         
526        0.02867058 1          0.9883242 
526.1      0.08652406 1          0.8171403 
526.2      0.1658923  1          0.6307237 
526.3      0.2282181  1          0.5167081 
526.4      0.2741153  1          0.392536  
526.5      0.2527602  1          0.4208604 
526.6      0.2727293  1          0.3282987 
526.7      0.2924415  1          0.2832451 
526.8      0.2849879  1          0.3164714 
526.9      0.2770473  1          0.3281753 
527        0.2496558  1          0.3786535 
527.1      0.2395717  1          0.3921732 
527.2      0.229805   1          0.3921214 
527.3      0.135387   1          0.609321  
527.4      0.1484194  1          0.5702656 
527.5      0.1754084  1          0.5158201 
527.6      0.1373885  1          0.609046  
527.7      0.1480488  1          0.5892019 
527.8      0.1360811  1          0.6088627 
527.9      0.07511027 1          0.7891092 
528        0.04594553 1          0.8960576 
528.1      0.1238201  1          0.6713465 
528.2      0.1418389  1          0.6497188 
528.3      0.05496932 1          0.8676806 
528.4      0.07614626 1          0.7884694 
528.5      0.08778606 1          0.7393291 
528.6      0.1168742  1          0.6284276 
528.7      0.1494505  1          0.5505682 
528.8      0.06066546 1          0.7879582 
528.9      0.0306232  1          0.8947018 
529        0.01179662 1          1         
529.1      0.01735134 1          1         
529.2      0.0184404  1          1         
529.3      0.01843366 1          1         
529.4      0.01354701 1          1         
529.5      0.02020413 1          1         
529.6      0.01549385 1          1         
529.7      0.01776597 1          1         
529.8      0.02159636 1          1         
529.9      0.02102328 1          0.9816817 
530        0.02694092 1          1         
530.1      0.02814322 1          1         
530.2      0.03562488 1          1         
530.3      0.04757246 1          1         
530.4      0.2001237  1          0.6475338 
530.5      0.2222005  1          0.6688603 
530.6      0.300806   0.9201548  0.4639827 
530.7      0.2910334  0.9141161  0.4184876 
530.8      0.2775752  1          0.3902655 
530.9      0.2141091  1          0.5133184 
531        0.1930426  1          0.5487254 
531.1      0.1800366  1          0.5486455 
531.2      0.1405163  1          0.6259561 
531.3      0.1295793  1          0.6466436 
531.4      0.1097973  1          0.7126058 
531.5      0.03682727 1          0.9193506 
531.6      0.02773805 1          0.9191951 
531.7      0.03644156 1          0.890506  
531.8      0.01810625 1          1         
531.9      0.01254018 1          1         
532        0.02823767 1          0.9185735 
532.1      0.0795282  1          0.759086  
532.2      0.04011872 1          0.8897602 
532.3      0.02215617 1          0.9776303 
532.4      0.02125847 1          0.9774622 
532.5      0.01630093 1          1         
532.6      0.01821125 1          1         
532.7      0.01324025 1          1         
532.8      0.03805375 1          0.8612106 
532.9      0.08514931 1          0.7581152 
533        0.115049   1          0.6882308 
533.1      0.1368237  1          0.6241605 
533.2      0.1146219  1          0.688017  
533.3      0.1368015  1          0.6239721 
533.4      0.1680662  1          0.565254  
533.5      0.206507   1          0.4780847 
533.6      0.1946245  1          0.494442  
533.7      0.1810727  1          0.5286703 
533.8      0.1799023  1          0.5285942 
533.9      0.1861213  1          0.5285183 
534        0.08756855 1          0.7813622 
534.1      0.07943452 1          0.8065288 
534.2      0.05583455 1          0.832425  
534.3      0.02104574 1          0.9742753 
534.4      0.01926    1          1         
534.5      0.02305061 1          1         
534.6      0.02885369 1          1         
534.7      0.02775379 1          1         
534.8      0.04332983 1          0.9142416 
534.9      0.04776382 1          0.8857504 
535        0.04574226 1          0.9139334 
535.1      0.04629076 1          0.8854546 
535.2      0.1004893  1          0.7315145 
535.3      0.08983378 1          0.7797276 
535.4      0.1342884  1          0.6638325 
535.5      0.1887231  1          0.5273054 
535.6      0.2282607  1          0.4303316 
535.7      0.2119057  1          0.4766211 
535.8      0.1799092  1          0.5632705 
535.9      0.1699665  1          0.5820781 
536        0.1582745  1          0.6014305 
536.1      0.1778025  1          0.5630234 
536.2      0.1867305  1          0.5445983 
536.3      0.1528541  1          0.6417355 
536.4      0.09728307 1          0.778349  
536.5      0.04549889 1          0.9406925 
536.6      0.05558048 1          0.8832411 
536.7      0.1458706  1          0.6413454 
