~Version
 VERS              .         3.0                           : CWLS LOG ASCII STANDARD - VERSION 3.0
 WRAP              .         NO                            : ONE LINE PER DEPTH STEP
 DLM               .         SPACE                         : DELIMITING CHARACTER(SPACE TAB OR COMMA)
~Well Information
#_______________________________________________________________________________
#
#PARAMETER_NAME    .UNIT     VALUE                         : DESCRIPTION
#_______________________________________________________________________________
STRT               .M        100                           : First reference value
STOP               .M        844                           : Last reference value
STEP               .M        0.1                           : Step increment
NULL               .         -9999                         : Missing value
COMP               .         ICPetroleum                   : Company
WELL               .         323                           : Well name
FLD                .         Karatobe                      : Field
LOC                .                                       : Location
SRVC               .                                       : Service Company
CTRY               .         KZ                            : Country
DATE               .         11.11.2005                    : Service Date
LATI               .         0                             : Latitude
LONG               .         0                             : Longitude
GDAT               .         WGS 84                        : Geodetic Datum
API                .                                       : API NUMBER
CNTY               .                                       : 
COORDIN            .                                       : Grid System
COUNT              .         Kazakhstan                    : Country
COUNTRY            .         Kazakhstan                    : 
COUNTRY            .         Kazakhstan                    : 
EREF               .m        142.3                         : 
KB                 .         141.9                         : KB Elevation
MDEC               .         0                             : Magnetic Declination
ORIGINALWELLNAME   .         323                           : 
PROV               .                                       : Province
RWS                .         0                             : Def_Rw
STAT               .                                       : 
UWI                .         KAR_323                       : Unique Well Identifier (UWI)
WST                .         0                             : Def_Rwt
X                  .km       466280.32                     : 
XCOORD             .                                       : X or East-West Coordinate
Y                  .km       5308145.37                    : 
YCOORD             .                                       : Y or North-South Coordinate
~Parameter Information Block
#_______________________________________________________________________________
#
#PARAMETER_NAME    .UNIT     VALUE                         : DESCRIPTION
#_______________________________________________________________________________
SET                .         Las                           : 
TLFamily_DEPT      .         Measured Depth                : 
TLFamily_PHI_FINAL .         Porosity                      : 
TLFamily_SW_AR     .         Water Saturation              : 
TLFamily_VSH_FINAL .         Shale Volume                  : 
~Curve Information
#_______________________________________________________________________________
#
#LOGNAME           .UNIT     LOG_ID                        : DESCRIPTION
#_______________________________________________________________________________
DEPT               .M                                      :  {F}
PHI_FINAL          .m3/m3                                  : Porosity {F}
SW_AR              .m3/m3                                  :  {F}
VSH_FINAL          .unitless                               : Vshale {F}
~Ascii
# ...
427.6      0.1228538  1          0.8471537 
427.7      0.1590693  1          0.7646941 
427.8      0.2084802  1          0.6432738 
427.9      0.2451947  1          0.5587767 
428        0.2232845  1          0.6430642 
428.1      0.2310804  1          0.5994787 
428.2      0.2356621  1          0.5786332 
428.3      0.2513312  1          0.5584273 
428.4      0.2190816  1          0.6205829 
428.5      0.2185144  1          0.5582526 
428.6      0.1791146  1          0.5990004 
428.7      0.1254967  1          0.6885229 
428.8      0.09622952 1          0.7632535 
428.9      0.1366602  1          0.6421217 
429        0.1202797  1          0.6881796 
429.1      0.1017435  1          0.7371562 
429.2      0.1377393  1          0.6645233 
429.3      0.1498722  1          0.6644141 
429.4      0.1114087  1          0.7624697 
429.5      0.08403391 1          0.8161442 
429.6      0.1548165  1          0.6413903 
429.7      0.1120339  1          0.7620782 
429.8      0.1525517  1          0.6872656 
429.9      0.1382386  1          0.7361574 
430        0.121793   1          0.7881452 
430.1      0.1544965  1          0.7110382 
430.2      0.1181595  1          0.8151477 
430.3      0.09581284 1          0.8721311 
430.4      0.04546079 1          1         
430.5      0.05745267 1          1         
430.6      0.06170873 1          1         
430.7      0.06875029 1          1         
430.8      0.06963559 1          1         
430.9      0.06449549 1          1         
431        0.07417986 1          1         
431.1      0.07623143 1          1         
431.2      0.06909245 1          1         
431.3      0.07809467 1          0.9629419 
431.4      0.07045309 1          0.9954916 
431.5      0.07220089 1          1         
431.6      0.1446654  1          0.7859715 
431.7      0.1632341  1          0.7339184 
431.8      0.1680813  1          0.7337943 
431.9      0.1863668  1          0.6848761 
432        0.1188212  1          0.8695008 
432.1      0.09361893 1          0.9298545 
432.2      0.143399   1          0.7851589 
432.3      0.1124141  1          0.869038  
432.4      0.06035512 1          1         
432.5      0.08876646 1          0.9291819 
432.6      0.1178088  1          0.8397237 
432.7      0.1322798  1          0.8116056 
432.8      0.0588228  1          1         
432.9      0.06096977 1          1         
433        0.06597046 1          1         
433.1      0.0729446  1          1         
433.2      0.1408718  1          0.8109003 
433.3      0.08359085 1          0.927839  
433.4      0.06653065 1          0.9592562 
433.5      0.1056313  1          0.8383979 
433.6      0.1404103  1          0.7315675 
433.7      0.137595   1          0.7314441 
433.8      0.09376894 1          0.8379567 
433.9      0.0360909  1          1         
434        0.03216646 1          1         
434.1      0.1058169  1          0.8096332 
434.2      0.09441889 1          0.8094926 
434.3      0.04355807 1          0.9576838 
434.4      0.02673083 1          1         
434.5      0.04872683 1          0.925831  
434.6      0.0372104  1          1         
434.7      0.03994157 1          1         
434.8      0.03221622 1          1         
434.9      0.1050361  1          0.8085097 
435        0.0749054  1          0.8944819 
435.1      0.0452707  1          1         
435.2      0.04597777 1          1         
435.3      0.07624922 1          0.9244963 
435.4      0.05401464 1          1         
435.5      0.05318726 1          1         
435.6      0.05761388 1          1         
435.7      0.06529623 1          1         
435.8      0.06854691 1          1         
435.9      0.06683566 1          1         
436        0.05946201 1          1         
436.1      0.05119455 1          1         
436.2      0.030068   1          1         
436.3      0.02985151 1          1         
436.4      0.01981101 1          1         
436.5      0.02744223 1          1         
436.6      0.02610406 1          1         
436.7      0.02994226 1          1         
436.8      0.02737464 1          1         
436.9      0.03300389 1          1         
437        0.03108804 1          1         
437.1      0.03161832 1          1         
437.2      0.03486782 1          1         
437.3      0.03807969 1          1         
437.4      0.02797567 1          1         
437.5      0.02888634 1          1         
437.6      0.02103579 1          1         
437.7      0.01431388 1          1         
437.8      0.01426683 1          1         
437.9      0.01518044 1          1         
438        0.01859435 1          1         
438.1      0.02774142 1          1         
438.2      0.04036175 1          1         
438.3      0.05888857 1          1         
438.4      0.06855249 1          1         
438.5      0.07287697 1          1         
438.6      0.1096243  1          0.919024  
438.7      0.1459178  1          0.8308052 
438.8      0.1868925  1          0.7251979 
438.9      0.2124703  1          0.6318069 
439        0.1682013  1          0.7249547 
439.1      0.1369507  1          0.7759146 
439.2      0.1224715  1          0.8025156 
439.3      0.07197839 1          0.9490246 
439.4      0.07507041 1          0.9488528 
439.5      0.06673001 1          0.9807904 
439.6      0.1368837  1          0.8019617 
439.7      0.1127136  1          0.8870254 
439.8      0.09505109 1          0.9170474 
439.9      0.1262351  1          0.8290694 
440        0.2219296  1          0.5680145 
440.1      0.2313663  1          0.5107664 
440.2      0.2446327  0.9080729  0.4927776 
440.3      0.3191697  0.6100945  0.3539854 
440.4      0.3799003  0.5008221  0.2805826 
440.5      0.4138165  0.4667794  0.2589455 
440.6      0.441512   0.4957528  0.1765422 
440.7      0.4250056  0.598261   0.1845933 
440.8      0.4048835  0.694064   0.2103184 
440.9      0.3897382  0.7115453  0.2804054 
441        0.4041642  0.6819285  0.28037   
441.1      0.4127404  0.6558855  0.3152871 
441.2      0.3973395  0.604045   0.3811193 
441.3      0.4082028  0.5609422  0.3810667 
441.4      0.4399245  0.5966789  0.3403011 
441.5      0.4784983  0.6029114  0.2586262 
441.6      0.4671082  0.5813568  0.269211  
441.7      0.4643251  0.4799789  0.2801223 
441.8      0.468854   0.4054486  0.3149987 
441.9      0.4606117  0.4142379  0.3532199 
442        0.4928387  0.4768667  0.2381969 
442.1      0.4433517  0.5990973  0.3028862 
442.2      0.3625856  0.7690322  0.4251565 
442.3      0.2760518  0.9928632  0.5659837 
442.4      0.1777345  1          0.7715576 
442.5      0.1340227  1          0.8826322 
442.6      0.1296153  1          0.882476  
442.7      0.07510599 1          1         
442.8      0.06980297 1          1         
442.9      0.05867683 1          1         
443        0.04262163 1          1         
443.1      0.04111933 1          1         
443.2      0.07007816 1          0.9114848 
443.3      0.04291848 1          0.9740163 
443.4      0.07739219 1          0.8812277 
443.5      0.104021   1          0.8238978 
443.6      0.1360956  1          0.7699835 
443.7      0.1741552  1          0.6951311 
443.8      0.1513721  1          0.7697216 
443.9      0.2024537  1          0.6714883 
444        0.2649667  1          0.5077723 
444.1      0.2762768  1          0.4899197 
444.2      0.3053136  0.9716086  0.4239449 
444.3      0.3121272  0.7487815  0.4086325 
444.4      0.2891342  0.6668345  0.4557565 
444.5      0.3269907  0.5573068  0.3138909 
444.6      0.3327354  0.5608808  0.2576409 
444.7      0.3667357  0.5901292  0.1920434 
444.8      0.3712903  0.715214   0.183749  
444.9      0.3567872  0.8211026  0.227732  
445        0.3599471  0.8459601  0.247273  
445.1      0.3758878  0.8024489  0.26804   
445.2      0.3910907  0.7472811  0.257451  
445.3      0.3408711  0.8366436  0.3789684 
445.4      0.3463048  0.8250009  0.3384894 
445.5      0.3274371  0.8643895  0.3515084 
445.6      0.2988367  0.9626814  0.3931265 
445.7      0.28022    1          0.4230403 
