~Version
 VERS              .         3.0                           : CWLS LOG ASCII STANDARD - VERSION 3.0
 WRAP              .         NO                            : ONE LINE PER DEPTH STEP
 DLM               .         SPACE                         : DELIMITING CHARACTER(SPACE TAB OR COMMA)
~Well Information
#_______________________________________________________________________________
#
#PARAMETER_NAME    .UNIT     VALUE                         : DESCRIPTION
#_______________________________________________________________________________
STRT               .M        100                           : First reference value
STOP               .M        844                           : Last reference value
STEP               .M        0.1                           : Step increment
NULL               .         -9999                         : Missing value
COMP               .         ICPetroleum                   : Company
WELL               .         323                           : Well name
FLD                .         Karatobe                      : Field
LOC                .                                       : Location
SRVC               .                                       : Service Company
CTRY               .         KZ                            : Country
DATE               .         11.11.2005                    : Service Date
LATI               .         0                             : Latitude
LONG               .         0                             : Longitude
GDAT               .         WGS 84                        : Geodetic Datum
API                .                                       : API NUMBER
CNTY               .                                       : 
COORDIN            .                                       : Grid System
COUNT              .         Kazakhstan                    : Country
COUNTRY            .         Kazakhstan                    : 
COUNTRY            .         Kazakhstan                    : 
EREF               .m        142.3                         : 
KB                 .         141.9                         : KB Elevation
MDEC               .         0                             : Magnetic Declination
ORIGINALWELLNAME   .         323                           : 
PROV               .                                       : Province
RWS                .         0                             : Def_Rw
STAT               .                                       : 
UWI                .         KAR_323                       : Unique Well Identifier (UWI)
WST                .         0                             : Def_Rwt
X                  .km       466280.32                     : 
XCOORD             .                                       : X or East-West Coordinate
Y                  .km       5308145.37                    : 
YCOORD             .                                       : Y or North-South Coordinate
~Parameter Information Block
#_______________________________________________________________________________
#
#PARAMETER_NAME    .UNIT     VALUE                         : DESCRIPTION
#_______________________________________________________________________________
SET                .         Las                           : 
TLFamily_DEPT      .         Measured Depth                : 
TLFamily_PHI_FINAL .         Porosity                      : 
TLFamily_SW_AR     .         Water Saturation              : 
TLFamily_VSH_FINAL .         Shale Volume                  : 
~Curve Information
#_______________________________________________________________________________
#
#LOGNAME           .UNIT     LOG_ID                        : DESCRIPTION
#_______________________________________________________________________________
DEPT               .M                                      :  {F}
PHI_FINAL          .m3/m3                                  : Porosity {F}
SW_AR              .m3/m3                                  :  {F}
VSH_FINAL          .unitless                               : Vshale {F}
~Ascii
# ...
828        0          -9999      0         
828.1      0          -9999      0         
828.2      0          -9999      0         
828.3      0          -9999      0         
828.4      0          -9999      0         
828.5      0          -9999      0         
828.6      0          -9999      0         
828.7      0          -9999      0         
828.8      0          -9999      0         
828.9      0          -9999      0         
829        0          -9999      0         
829.1      0          -9999      0         
829.2      0          -9999      0         
829.3      0          -9999      0         
829.4      0          -9999      0         
829.5      0          -9999      0         
829.6      0          -9999      0         
829.7      0          -9999      0         
829.8      0          -9999      0         
829.9      0          -9999      0         
830        0          -9999      0         
830.1      0          -9999      0         
830.2      0          -9999      0         
830.3      0          -9999      0         
830.4      0          -9999      0         
830.5      0          -9999      0         
830.6      0          -9999      0         
830.7      0          -9999      0         
830.8      0          -9999      0         
830.9      0          -9999      0         
831        0          -9999      0         
831.1      0          -9999      0         
831.2      0          -9999      0         
831.3      0          -9999      0         
831.4      0          -9999      0         
831.5      0          -9999      0         
831.6      0          -9999      0         
831.7      0          -9999      0         
831.8      0          -9999      0         
831.9      0          -9999      0         
832        0          -9999      0         
832.1      0          -9999      0         
832.2      0          -9999      0         
832.3      0          -9999      0         
832.4      0          -9999      0         
832.5      0          -9999      0         
832.6      0          -9999      0         
832.7      0          -9999      0         
832.8      0          -9999      0         
832.9      0          -9999      0         
833        0          -9999      0         
833.1      0          -9999      0         
833.2      0          -9999      0         
833.3      0          -9999      0         
833.4      0          -9999      0         
833.5      0          -9999      0         
833.6      0          -9999      0         
833.7      0          -9999      0         
833.8      0          -9999      0         
833.9      0          -9999      0         
834        0          -9999      0         
834.1      0          -9999      0         
834.2      0          -9999      0         
834.3      0          -9999      0         
834.4      0          -9999      0         
834.5      0          -9999      0         
834.6      0          -9999      0         
834.7      0          -9999      0         
834.8      0          -9999      0         
834.9      0          -9999      0         
835        0          -9999      0         
835.1      0          -9999      0         
835.2      0          -9999      0         
835.3      0          -9999      0         
835.4      0          -9999      0         
835.5      0          -9999      0         
835.6      0          -9999      0         
835.7      0          -9999      0         
835.8      0          -9999      0         
835.9      0          -9999      0         
836        0          -9999      0         
836.1      0          -9999      0         
836.2      0          -9999      0         
836.3      0          -9999      0         
836.4      0          -9999      0         
836.5      0          -9999      0         
836.6      0          -9999      0         
836.7      0          -9999      0         
836.8      0          -9999      0         
836.9      0          -9999      0         
837        0          -9999      0         
837.1      0          -9999      0         
837.2      0          -9999      0         
837.3      0          -9999      0         
837.4      0          -9999      0         
837.5      0          -9999      0         
837.6      0          -9999      0         
837.7      0          -9999      0         
837.8      0          -9999      0         
837.9      0          -9999      0         
838        0          -9999      0         
838.1      0          -9999      0         
838.2      0          -9999      0         
838.3      0          -9999      0         
838.4      0          -9999      0         
838.5      0          -9999      0         
838.6      0          -9999      0         
838.7      0          -9999      0         
838.8      0          -9999      0         
838.9      0          -9999      0         
839        0          -9999      0         
839.1      0          -9999      0         
839.2      0          -9999      0         
839.3      0          -9999      0         
839.4      0          -9999      0         
839.5      0          -9999      0         
839.6      0          -9999      0         
839.7      0          -9999      0         
839.8      0          -9999      0         
839.9      0          -9999      0         
840        0          -9999      0         
840.1      0          -9999      0         
840.2      0          -9999      0         
840.3      0          -9999      0         
840.4      0          -9999      0         
840.5      0          -9999      0         
840.6      0          -9999      0         
840.7      0          -9999      0         
840.8      0          -9999      0         
840.9      0          -9999      0         
841        -9999      -9999      0         
841.1      -9999      -9999      0         
841.2      -9999      -9999      0         
841.3      -9999      -9999      0         
841.4      -9999      -9999      0         
841.5      -9999      -9999      0         
841.6      -9999      -9999      0         
841.7      -9999      -9999      0         
841.8      -9999      -9999      0         
841.9      -9999      -9999      0         
842        -9999      -9999      0         
842.1      -9999      -9999      0         
842.2      -9999      -9999      0         
842.3      -9999      -9999      0         
842.4      -9999      -9999      0         
842.5      -9999      -9999      0         
842.6      -9999      -9999      0         
842.7      -9999      -9999      0         
842.8      -9999      -9999      0         
842.9      -9999      -9999      0         
843        -9999      -9999      0         
843.1      -9999      -9999      0         
843.2      -9999      -9999      0         
843.3      -9999      -9999      0         
843.4      -9999      -9999      0         
843.5      -9999      -9999      0         
843.6      -9999      -9999      0         
843.7      -9999      -9999      0         
843.8      -9999      -9999      0         
843.9      -9999      -9999      0         
844        -9999      -9999      0         
