~Version
 VERS              .         3.0                           : CWLS LOG ASCII STANDARD - VERSION 3.0
 WRAP              .         NO                            : ONE LINE PER DEPTH STEP
 DLM               .         SPACE                         : DELIMITING CHARACTER(SPACE TAB OR COMMA)
~Well Information
#_______________________________________________________________________________
#
#PARAMETER_NAME    .UNIT     VALUE                         : DESCRIPTION
#_______________________________________________________________________________
STRT               .M        100                           : First reference value
STOP               .M        844                           : Last reference value
STEP               .M        0.1                           : Step increment
NULL               .         -9999                         : Missing value
COMP               .         ICPetroleum                   : Company
WELL               .         323                           : Well name
FLD                .         Karatobe                      : Field
LOC                .                                       : Location
SRVC               .                                       : Service Company
CTRY               .         KZ                            : Country
DATE               .         11.11.2005                    : Service Date
LATI               .         0                             : Latitude
LONG               .         0                             : Longitude
GDAT               .         WGS 84                        : Geodetic Datum
API                .                                       : API NUMBER
CNTY               .                                       : 
COORDIN            .                                       : Grid System
COUNT              .         Kazakhstan                    : Country
COUNTRY            .         Kazakhstan                    : 
COUNTRY            .         Kazakhstan                    : 
EREF               .m        142.3                         : 
KB                 .         141.9                         : KB Elevation
MDEC               .         0                             : Magnetic Declination
ORIGINALWELLNAME   .         323                           : 
PROV               .                                       : Province
RWS                .         0                             : Def_Rw
STAT               .                                       : 
UWI                .         KAR_323                       : Unique Well Identifier (UWI)
WST                .         0                             : Def_Rwt
X                  .km       466280.32                     : 
XCOORD             .                                       : X or East-West Coordinate
Y                  .km       5308145.37                    : 
YCOORD             .                                       : Y or North-South Coordinate
~Parameter Information Block
#_______________________________________________________________________________
#
#PARAMETER_NAME    .UNIT     VALUE                         : DESCRIPTION
#_______________________________________________________________________________
SET                .         Las                           : 
TLFamily_DEPT      .         Measured Depth                : 
TLFamily_PHI_FINAL .         Porosity                      : 
TLFamily_SW_AR     .         Water Saturation              : 
TLFamily_VSH_FINAL .         Shale Volume                  : 
~Curve Information
#_______________________________________________________________________________
#
#LOGNAME           .UNIT     LOG_ID                        : DESCRIPTION
#_______________________________________________________________________________
DEPT               .M                                      :  {F}
PHI_FINAL          .m3/m3                                  : Porosity {F}
SW_AR              .m3/m3                                  :  {F}
VSH_FINAL          .unitless                               : Vshale {F}
~Ascii
# ...
282        0.3339258  0.2406013  0.03079761
282.1      0.3312235  0.2693321  0.0269683 
282.2      0.3209648  0.3009841  0.04308878
282.3      0.3196037  0.3185911  0.04747174
282.4      0.3158899  0.3391992  0.0388421 
282.5      0.3114857  0.3786733  0.03883865
282.6      0.2998559  0.4325541  0.06155173
282.7      0.2804188  0.4834357  0.1070193 
282.8      0.261417   0.5120767  0.1348526 
282.9      0.2400092  0.547072   0.1844317 
283        0.2653311  0.4515442  0.1423963 
283.1      0.2648661  0.3950508  0.1502166 
283.2      0.2822115  0.3441286  0.1204006 
283.3      0.3188827  0.3009447  0.04304605
283.4      0.3275602  0.2923053  0.03076058
283.5      0.3378881  0.2876846  0.0269364 
283.6      0.336359   0.3136548  0.03880076
283.7      0.336941   0.3460316  0.05663364
283.8      0.3438853  0.4024491  0.06148088
283.9      0.3425782  0.5065333  0.08838472
284        0.3335051  0.6638671  0.1346669 
284.1      0.2976628  0.8848051  0.2563124 
284.2      0.2143724  1          0.5029716 
284.3      0.1261442  1          0.7413833 
284.4      0.09211118 1          0.8618817 
284.5      0.05050302 1          0.9999717 
284.6      0.05801313 1          1         
284.7      0.07097635 1          1         
284.8      0.08613117 1          1         
284.9      0.124825   1          0.9277388 
285        0.1337674  1          0.9275529 
285.1      0.1178932  1          0.9624465 
285.2      0.1123669  1          1         
285.3      0.1146151  1          0.9983358 
285.4      0.1193815  1          1         
285.5      0.2069239  1          0.7682706 
285.6      0.133597   1          0.9264388 
285.7      0.1203317  1          0.9612786 
285.8      0.1065114  1          1         
285.9      0.09250553 1          1         
286        0.1114308  1          0.9256973 
286.1      0.1884067  1          0.6846901 
286.2      0.2263626  0.897032   0.5425327 
286.3      0.152606   1          0.7110602 
286.4      0.1980024  1          0.5640379 
286.5      0.1804024  1          0.5639403 
286.6      0.1923838  1          0.5212071 
286.7      0.1904168  1          0.5008711 
286.8      0.1966225  1          0.4623135 
286.9      0.1854759  1          0.4811431 
287        0.1939652  1          0.4438948 
287.1      0.1925198  1          0.4620872 
287.2      0.2295069  0.9118424  0.3766279 
287.3      0.2289754  0.9015351  0.37657   
287.4      0.1605276  1          0.5630626 
287.5      0.1566135  1          0.5853527 
287.6      0.1424227  1          0.6323697 
287.7      0.1943605  1          0.5000352 
287.8      0.1559352  1          0.6081935 
287.9      0.1598801  1          0.6080859 
288        0.1607504  1          0.5848411 
288.1      0.142659   1          0.6078709 
288.2      0.1811844  1          0.4801121 
288.3      0.1599132  1          0.5197123 
288.4      0.1305763  1          0.5844324 
288.5      0.09789524 1          0.6560916 
288.6      0.1043776  1          0.6073339 
288.7      0.1025223  1          0.6072266 
288.8      0.1058394  1          0.6071192 
288.9      0.0626781  1          0.73502   
289        0.06288844 1          0.7631971 
289.1      0.1478151  1          0.6067977 
289.2      0.2436585  0.9451897  0.4247506 
289.3      0.1676672  1          0.6551439 
289.4      0.1911717  1          0.6064764 
289.5      0.2465174  0.9358962  0.4602844 
289.6      0.2077345  1          0.5393904 
289.7      0.2140595  1          0.4983707 
289.8      0.2185337  0.9261858  0.4788487 
289.9      0.1943358  0.9056358  0.4982047 
290        0.1856398  0.8377708  0.4981218 
290.1      0.2184934  0.7550703  0.3749584 
290.2      0.2428856  0.8069863  0.2903941 
290.3      0.245571   0.8346909  0.2903529 
290.4      0.2283714  0.9002643  0.3165784 
290.5      0.1405061  1          0.5177886 
290.6      0.1346082  1          0.5384722 
290.7      0.1108907  1          0.6288779 
290.8      0.1604706  1          0.4974593 
290.9      0.1279936  1          0.604874  
291        0.1287984  1          0.6531377 
291.1      0.1307891  1          0.7047796 
291.2      0.206636   1          0.5379225 
291.3      0.1594434  1          0.6782131 
291.4      0.1766044  1          0.652667  
291.5      0.2058201  1          0.6042351 
291.6      0.1934122  1          0.6278704 
291.7      0.2314238  1          0.5374652 
291.8      0.1624132  1          0.7038715 
291.9      0.07238837 1          0.9493439 
292        0.05161675 1          1         
292.1      0.0771609  1          1         
292.2      0.08206952 1          1         
292.3      0.08067425 1          1         
292.4      0.07540071 1          1         
292.5      0.06138065 1          1         
292.6      0.06260193 1          1         
292.7      0.0600803  1          1         
292.8      0.06461005 1          1         
292.9      0.06817758 1          1         
293        0.0926827  1          0.947252  
293.1      0.1427961  1          0.8163304 
293.2      0.07446323 1          0.9824141 
293.3      0.1138321  1          0.8791342 
293.4      0.06360105 1          1         
293.5      0.07100406 1          1         
293.6      0.07060681 1          1         
293.7      0.05627083 1          1         
293.8      0.04766469 1          1         
293.9      0.0440559  1          1         
294        0.03624067 1          1         
294.1      0.03841571 1          1         
294.2      0.06911057 1          0.9107107 
294.3      0.03380313 1          1         
294.4      0.03339213 1          1         
294.5      0.03701082 1          0.979834  
294.6      0.1267568  1          0.7551956 
294.7      0.112139   1          0.8138288 
294.8      0.1521642  1          0.700002  
294.9      0.2108346  1          0.5345542 
295        0.2451506  0.9371276  0.4382349 
295.1      0.2431848  0.9129057  0.438165  
295.2      0.1993919  1          0.5775579 
295.3      0.2453728  0.8419372  0.4937609 
295.4      0.1996746  1          0.6236464 
295.5      0.2401114  0.9787109  0.5134625 
295.6      0.2378019  1          0.5339211 
295.7      0.2140159  1          0.5997949 
295.8      0.2564531  1          0.5132049 
295.9      0.2405831  1          0.5548885 
296        0.2141409  1          0.5994799 
296.1      0.1828589  1          0.6471812 
296.2      0.2248651  1          0.5333795 
296.3      0.2216863  1          0.5332893 
296.4      0.1917131  1          0.5763593 
296.5      0.1628672  1          0.6467179 
296.6      0.1443909  1          0.6717178 
296.7      0.1262522  1          0.6975699 
296.8      0.1563253  1          0.6221024 
296.9      0.1756107  1          0.5985366 
297        0.06505983 1          0.9056849 
297.1      0.04130101 1          1         
297.2      0.06981676 1          0.9393342 
297.3      0.07176542 1          0.9743148 
297.4      0.1062437  1          0.9049707 
297.5      0.1117444  1          0.9047924 
297.6      0.1675293  0.9753842  0.8093271 
297.7      0.2785822  0.5763347  0.5115788 
297.8      0.2868861  0.5285496  0.4726173 
297.9      0.3216885  0.5376457  0.3705328 
298        0.3061422  0.6840367  0.4188863 
298.1      0.3038261  0.7820329  0.4360757 
298.2      0.2969223  0.8186925  0.4723094 
298.3      0.2731334  0.8684806  0.5314912 
298.4      0.243213   0.9650852  0.6445251 
298.5      0.2935178  0.8172344  0.5108967 
298.6      0.2701196  0.9230185  0.5967615 
298.7      0.2899337  0.9030008  0.5522406 
298.8      0.2138184  1          0.7492865 
298.9      0.2557526  1          0.64395   
299        0.2522168  1          0.6438352 
299.1      0.2390129  1          0.6686904 
299.2      0.270561   0.966428   0.5961373 
299.3      0.2560866  0.9988347  0.6193615 
299.4      0.2270283  1          0.6683286 
299.5      0.2551454  0.9327238  0.5958256 
299.6      0.2426737  0.9714292  0.619034  
299.7      0.2332123  0.9924014  0.643032  
299.8      0.2194726  1          0.6678469 
299.9      0.2694865  0.8121626  0.509707  
300        0.2490706  0.8530976  0.5299709 
300.1      0.2080258  1          0.6184887 
