~Version
 VERS              .         3.0                           : CWLS LOG ASCII STANDARD - VERSION 3.0
 WRAP              .         NO                            : ONE LINE PER DEPTH STEP
 DLM               .         SPACE                         : DELIMITING CHARACTER(SPACE TAB OR COMMA)
~Well Information
#_______________________________________________________________________________
#
#PARAMETER_NAME    .UNIT     VALUE                         : DESCRIPTION
#_______________________________________________________________________________
STRT               .M        100                           : First reference value
STOP               .M        844                           : Last reference value
STEP               .M        0.1                           : Step increment
NULL               .         -9999                         : Missing value
COMP               .         ICPetroleum                   : Company
WELL               .         323                           : Well name
FLD                .         Karatobe                      : Field
LOC                .                                       : Location
SRVC               .                                       : Service Company
CTRY               .         KZ                            : Country
DATE               .         11.11.2005                    : Service Date
LATI               .         0                             : Latitude
LONG               .         0                             : Longitude
GDAT               .         WGS 84                        : Geodetic Datum
API                .                                       : API NUMBER
CNTY               .                                       : 
COORDIN            .                                       : Grid System
COUNT              .         Kazakhstan                    : Country
COUNTRY            .         Kazakhstan                    : 
COUNTRY            .         Kazakhstan                    : 
EREF               .m        142.3                         : 
KB                 .         141.9                         : KB Elevation
MDEC               .         0                             : Magnetic Declination
ORIGINALWELLNAME   .         323                           : 
PROV               .                                       : Province
RWS                .         0                             : Def_Rw
STAT               .                                       : 
UWI                .         KAR_323                       : Unique Well Identifier (UWI)
WST                .         0                             : Def_Rwt
X                  .km       466280.32                     : 
XCOORD             .                                       : X or East-West Coordinate
Y                  .km       5308145.37                    : 
YCOORD             .                                       : Y or North-South Coordinate
~Parameter Information Block
#_______________________________________________________________________________
#
#PARAMETER_NAME    .UNIT     VALUE                         : DESCRIPTION
#_______________________________________________________________________________
SET                .         Las                           : 
TLFamily_DEPT      .         Measured Depth                : 
TLFamily_PHI_FINAL .         Porosity                      : 
TLFamily_SW_AR     .         Water Saturation              : 
TLFamily_VSH_FINAL .         Shale Volume                  : 
~Curve Information
#_______________________________________________________________________________
#
#LOGNAME           .UNIT     LOG_ID                        : DESCRIPTION
#_______________________________________________________________________________
DEPT               .M                                      :  {F}
PHI_FINAL          .m3/m3                                  : Porosity {F}
SW_AR              .m3/m3                                  :  {F}
VSH_FINAL          .unitless                               : Vshale {F}
~Ascii
# ...
191        0.2187325  0.9708245  0.7602695 
191.1      0.112794   1          0.9675865 
191.2      0.09558318 1          1         
191.3      0.09437221 1          1         
191.4      0.09753053 1          1         
191.5      0.09997539 1          1         
191.6      0.2207245  0.8614556  0.7593433 
191.7      0.1711262  1          0.8570681 
191.8      0.1688751  1          0.8568876 
191.9      0.1859284  1          0.8228967 
192        0.1138698  1          0.9656925 
192.1      0.09494352 1          1         
192.2      0.0980963  1          1         
192.3      0.09246981 1          1         
192.4      0.08877794 1          1         
192.5      0.08978485 1          1         
192.6      0.1061886  1          0.9644331 
192.7      0.1750995  1          0.8215303 
192.8      0.08848867 1          0.9640141 
192.9      0.07374523 1          1         
193        0.07995671 1          1         
193.1      0.08490485 1          1         
193.2      0.09156221 1          1         
193.3      0.09800442 1          1         
193.4      0.1050116  1          1         
193.5      0.1094897  1          1         
193.6      0.1217204  1          1         
193.7      0.1357886  1          1         
193.8      0.1441536  1          1         
193.9      0.1554541  1          1         
194        0.2475546  0.8194934  0.8529382 
194.1      0.2787567  0.4945027  0.8191481 
194.2      0.2820872  0.3095935  0.7865828 
194.3      0.3682468  0.2800134  0.5900425 
194.4      0.3873459  0.427837   0.4983529 
194.5      0.3058086  0.6023623  0.6408726 
194.6      0.2840124  0.6351941  0.6677032 
194.7      0.1046787  1          1         
194.8      0.215513   0.9459239  0.8179613 
194.9      0.1637591  1          0.9222038 
195        0.1288757  1          1         
195.1      0.16789    1          0.9218087 
195.2      0.1251261  1          1         
195.3      0.1180362  1          1         
195.4      0.117562   1          1         
195.5      0.1344375  1          1         
195.6      0.1558546  1          1         
195.7      0.1773933  1          1         
195.8      0.1710938  1          1         
195.9      0.1404763  1          0.9962672 
196        0.2044875  0.9930439  0.8493742 
196.1      0.3088581  0.4756161  0.6657532 
196.2      0.388562   0.4544142  0.518315  
196.3      0.441746   0.4936257  0.4178866 
196.4      0.482416   0.4825479  0.3497598 
196.5      0.4551882  0.5113343  0.4177449 
196.6      0.4185677  0.5552215  0.5179402 
196.7      0.4489259  0.5300643  0.5401859 
196.8      0.4869758  0.4895142  0.5632513 
196.9      0.4567355  0.517163   0.5631469 
197        0.3927115  0.5970699  0.6645879 
197.1      0.4283907  0.5534322  0.6118471 
197.2      0.3871838  0.6102976  0.7209104 
197.3      0.4228775  0.5735688  0.6642003 
197.4      0.4619945  0.5076579  0.5866164 
197.5      0.4332723  0.5421261  0.637183  
197.6      0.4233813  0.5586163  0.6370606 
197.7      0.394596   0.5972854  0.6914229 
197.8      0.4842198  0.4964732  0.5391002 
197.9      0.486195   0.4945651  0.5167255 
198        0.4106557  0.5643516  0.6365716 
198.1      0.400839   0.5691027  0.6106874 
198.2      0.4002076  0.5722455  0.5857378 
198.3      0.3479497  0.6489167  0.6629108 
198.4      0.2867988  0.7719133  0.7798657 
198.5      0.1822118  1          1         
198.6      0.1842052  1          1         
198.7      0.1961464  1          1         
198.8      0.1997838  1          1         
198.9      0.183762   1          1         
199        0.126757   1          1         
199.1      0.07981545 1          1         
199.2      0.02607175 1          1         
199.3      0.02382104 1          1         
199.4      0.02813794 1          1         
199.5      0.06800456 1          1         
199.6      0.08395714 1          1         
199.7      0.1005003  1          1         
199.8      0.1474495  1          0.9495299 
199.9      0.2932558  0.5511342  0.6608565 
200        0.2610646  0.619332   0.7169083 
200.1      0.3167756  0.53396    0.6083792 
200.2      0.2609138  0.6641699  0.716624  
200.3      0.1615285  1          0.9116354 
200.4      0.1266325  1          0.9865353 
200.5      0.1826217  1          0.9112479 
200.6      0.3934304  0.4989275  0.5363536 
200.7      0.3839309  0.5442047  0.5592058 
200.8      0.3763517  0.5743209  0.582898  
200.9      0.3746994  0.5799756  0.5827892 
201        0.237452   0.8814889  0.8405715 
201.1      0.2681157  0.7623002  0.7755981 
201.2      0.2666688  0.7701474  0.7447752 
201.3      0.2275621  0.8988354  0.7752836 
201.4      0.2472508  0.8200198  0.6864218 
201.5      0.331749   0.6477449  0.4920878 
201.6      0.274174   0.7802363  0.5820289 
201.7      0.2149296  0.9315108  0.6860189 
201.8      0.2067633  1          0.6858847 
201.9      0.2715597  0.8286755  0.5817035 
202        0.2709277  0.8216986  0.5815952 
202.1      0.2493111  0.8661408  0.6315955 
202.2      0.2522955  0.8527234  0.6059717 
202.3      0.2335273  0.9376695  0.6577952 
202.4      0.2104818  1          0.7429873 
202.5      0.2243506  0.9665123  0.7428387 
202.6      0.1153381  1          1         
202.7      0.1451654  1          0.9816214 
202.8      0.2427676  0.9206394  0.8045998 
202.9      0.3040243  0.7253606  0.6844117 
203        0.2584493  0.8375099  0.7726185 
203.1      0.225426   0.9444815  0.8369195 
203.2      0.21933    0.9676302  0.8367463 
203.3      0.2086126  1          0.836573  
203.4      0.2137422  1          0.7719936 
203.5      0.2578502  0.8793896  0.6562736 
203.6      0.3201112  0.7012116  0.5114573 
203.7      0.3243996  0.6677363  0.4901742 
203.8      0.3266445  0.6522951  0.4900875 
203.9      0.3630862  0.5737135  0.4498755 
204        0.3866233  0.5090187  0.4308061 
204.1      0.3743783  0.4639475  0.4694102 
204.2      0.3666817  0.4946088  0.5109081 
204.3      0.3436471  0.5768816  0.5791122 
204.4      0.3159235  0.6595488  0.6288329 
204.5      0.2793824  0.7573797  0.6822785 
204.6      0.1775759  1          0.8682187 
204.7      0.1563068  1          0.9031717 
204.8      0.2196291  0.9691589  0.7698133 
204.9      0.1290438  1          0.9392017 
205        0.2612789  0.8459843  0.7098547 
205.1      0.3266714  0.6736071  0.5782529 
205.2      0.3534535  0.6334601  0.5545999 
205.3      0.3697089  0.5872953  0.5317971 
205.4      0.3183375  0.6367056  0.6276382 
205.5      0.333283   0.6320775  0.577824  
205.6      0.3484398  0.5800845  0.5315084 
205.7      0.346366   0.527007   0.5314124 
205.8      0.3415621  0.5612708  0.5313163 
205.9      0.3202478  0.6821822  0.5538893 
206        0.2802483  0.8200899  0.6269232 
206.1      0.2017223  1          0.7677981 
206.2      0.1810621  1          0.7990311 
206.3      0.2469878  0.8715612  0.679892  
206.4      0.1690048  1          0.8312339 
206.5      0.1905026  1          0.7985428 
206.6      0.2868544  0.8075827  0.6262097 
206.7      0.3231483  0.705607   0.5765405 
206.8      0.3444691  0.6671639  0.5303569 
206.9      0.3772956  0.6134835  0.4475598 
207        0.3750118  0.6305801  0.4286171 
207.1      0.3385455  0.6995299  0.4872422 
207.2      0.3036862  0.7434182  0.529974  
207.3      0.3372346  0.6488787  0.4472527 
207.4      0.2432462  0.8852655  0.6252604 
207.5      0.2471447  0.8533646  0.6251419 
207.6      0.3212081  0.6283067  0.4868136 
207.7      0.1740796  1          0.7653298 
207.8      0.2446123  0.8298942  0.6247867 
207.9      0.1867493  1          0.7058169 
208        0.2222532  0.9061862  0.6506205 
208.1      0.3389925  0.6157816  0.4466394 
208.2      0.3505177  0.5992423  0.4465628 
208.3      0.2967646  0.7239341  0.574837  
208.4      0.3121954  0.7173614  0.5513643 
208.5      0.3748898  0.5803548  0.4463333 
208.6      0.2716476  0.7767938  0.6238411 
208.7      0.2319857  0.9148765  0.7047099 
208.8      0.2020913  0.9900721  0.7636406 
208.9      0.3140931  0.6167427  0.5508616 
209        0.2999192  0.6614248  0.5740944 
209.1      0.3666244  0.5630963  0.4458749 
