~Version
 VERS              .         3.0                           : CWLS LOG ASCII STANDARD - VERSION 3.0
 WRAP              .         NO                            : ONE LINE PER DEPTH STEP
 DLM               .         SPACE                         : DELIMITING CHARACTER(SPACE TAB OR COMMA)
~Well Information
#_______________________________________________________________________________
#
#PARAMETER_NAME    .UNIT     VALUE                         : DESCRIPTION
#_______________________________________________________________________________
STRT               .M        100                           : First reference value
STOP               .M        844                           : Last reference value
STEP               .M        0.1                           : Step increment
NULL               .         -9999                         : Missing value
COMP               .         ICPetroleum                   : Company
WELL               .         323                           : Well name
FLD                .         Karatobe                      : Field
LOC                .                                       : Location
SRVC               .                                       : Service Company
CTRY               .         KZ                            : Country
DATE               .         11.11.2005                    : Service Date
LATI               .         0                             : Latitude
LONG               .         0                             : Longitude
GDAT               .         WGS 84                        : Geodetic Datum
API                .                                       : API NUMBER
CNTY               .                                       : 
COORDIN            .                                       : Grid System
COUNT              .         Kazakhstan                    : Country
COUNTRY            .         Kazakhstan                    : 
COUNTRY            .         Kazakhstan                    : 
EREF               .m        142.3                         : 
KB                 .         141.9                         : KB Elevation
MDEC               .         0                             : Magnetic Declination
ORIGINALWELLNAME   .         323                           : 
PROV               .                                       : Province
RWS                .         0                             : Def_Rw
STAT               .                                       : 
UWI                .         KAR_323                       : Unique Well Identifier (UWI)
WST                .         0                             : Def_Rwt
X                  .km       466280.32                     : 
XCOORD             .                                       : X or East-West Coordinate
Y                  .km       5308145.37                    : 
YCOORD             .                                       : Y or North-South Coordinate
~Parameter Information Block
#_______________________________________________________________________________
#
#PARAMETER_NAME    .UNIT     VALUE                         : DESCRIPTION
#_______________________________________________________________________________
SET                .         Las                           : 
TLFamily_DEPT      .         Measured Depth                : 
TLFamily_PHI_FINAL .         Porosity                      : 
TLFamily_SW_AR     .         Water Saturation              : 
TLFamily_VSH_FINAL .         Shale Volume                  : 
~Curve Information
#_______________________________________________________________________________
#
#LOGNAME           .UNIT     LOG_ID                        : DESCRIPTION
#_______________________________________________________________________________
DEPT               .M                                      :  {F}
PHI_FINAL          .m3/m3                                  : Porosity {F}
SW_AR              .m3/m3                                  :  {F}
VSH_FINAL          .unitless                               : Vshale {F}
~Ascii
# ...
336.6      0.08048667 1          0.8094205 
336.7      0.1666043  1          0.5592298 
336.8      0.1361409  1          0.6257062 
336.9      0.1429209  1          0.6026803 
337        0.1066767  1          0.6989284 
337.1      0.1252689  1          0.6735216 
337.2      0.08600535 1          0.7796912 
337.3      0.181395   1          0.5586714 
337.4      0.1987769  1          0.5378349 
337.5      0.2077309  1          0.4982585 
337.6      0.243668   1          0.4101193 
337.7      0.2365533  1          0.4265274 
337.8      0.2347461  1          0.426462  
337.9      0.2387769  1          0.4099326 
338        0.2255972  1          0.4609201 
338.1      0.2207756  1          0.4790096 
338.2      0.2134149  1          0.4976979 
338.3      0.1998681  1          0.5370393 
338.4      0.2491628  1          0.4096218 
338.5      0.2676458  0.9577893  0.3489259 
338.6      0.2686663  0.9479579  0.3632928 
338.7      0.2694737  0.9524001  0.3632396 
338.8      0.2831559  0.8752008  0.3348283 
338.9      0.2490298  0.9754603  0.4093114 
339        0.2050092  1          0.5164173 
339.1      0.1922685  1          0.5363339 
339.2      0.2407245  1          0.4091254 
339.3      0.2495603  0.9985673  0.4090634 
339.4      0.2831487  0.9358085  0.3484725 
339.5      0.2631308  1          0.4253514 
339.6      0.3251911  0.9028735  0.3209702 
339.7      0.2837559  1          0.4421736 
339.8      0.2332031  1          0.5776803 
339.9      0.1685595  1          0.7758429 
340        0.08720737 1          0.9973708 
340.1      0.0788725  1          1         
340.2      0.07400728 1          1         
340.3      0.0643976  1          1         
340.4      0.1533178  1          0.7474467 
340.5      0.07846286 1          0.9278681 
340.6      0.07107289 1          0.961381  
340.7      0.05483512 1          1         
340.8      0.0514589  1          1         
340.9      0.04964564 1          1         
341        0.05498963 1          1         
341.1      0.05144146 1          0.9952178 
341.2      0.04669022 1          1         
341.3      0.04471039 1          1         
341.4      0.05038052 1          1         
341.5      0.09188904 1          0.8935518 
341.6      0.04741696 1          1         
341.7      0.07004839 1          0.9257284 
341.8      0.0381855  1          1         
341.9      0.04337322 1          1         
342        0.04947775 1          1         
342.1      0.05318301 1          1         
342.2      0.06311824 1          1         
342.3      0.1215413  1          0.8607706 
342.4      0.08897676 1          0.9580253 
342.5      0.06449714 1          0.9924889 
342.6      0.1160179  1          0.8602847 
342.7      0.1031447  1          0.8915148 
342.8      0.1642107  1          0.7175682 
342.9      0.1435737  1          0.7440789 
343        0.05008982 1          0.9234195 
343.1      0.09698902 1          0.7713228 
343.2      0.01704697 1          1         
343.3      0.01387235 1          1         
343.4      0.0141565  1          1         
343.5      0.07938397 1          0.7991623 
343.6      0.1077966  1          0.7431405 
343.7      0.1561411  1          0.6416746 
343.8      0.1388821  1          0.6905618 
343.9      0.112497   1          0.7701998 
344        0.0292975  1          1         
344.1      0.02948898 1          1         
344.2      0.03894721 1          1         
344.3      0.04722806 1          1         
344.4      0.0451073  1          1         
344.5      0.05973373 1          0.9541346 
344.6      0.08983197 1          0.857058  
344.7      0.1092058  1          0.7974004 
344.8      0.03899095 1          0.953581  
344.9      0.1193118  1          0.7148871 
345        0.1606026  1          0.594465  
345.1      0.1094597  1          0.6889817 
345.2      0.182697   1          0.4921525 
345.3      0.1807109  1          0.4735828 
345.4      0.1115353  1          0.6165568 
345.5      0.158889   1          0.4919173 
345.6      0.1622957  1          0.4918388 
345.7      0.1600816  1          0.5108503 
345.8      0.1906404  1          0.4553313 
345.9      0.2298248  0.9567169  0.374143  
346        0.2087835  1          0.4378924 
346.1      0.1986401  1          0.4729865 
346.2      0.2212775  0.9111471  0.4210235 
346.3      0.2274175  0.9573094  0.404766  
346.4      0.2249898  1          0.4208955 
346.5      0.1871181  1          0.5101926 
346.6      0.1865695  1          0.5297969 
346.7      0.1456415  1          0.6383662 
346.8      0.1058133  1          0.7388757 
346.9      0.1292306  1          0.6868038 
347        0.118041   1          0.7122231 
347.1      0.1148792  1          0.7120965 
347.2      0.05024681 1          0.8528931 
347.3      0.03564791 1          0.8527336 
347.4      0.07496744 1          0.7117173 
347.5      0.09112405 1          0.6374889 
347.6      0.102442   1          0.570203  
347.7      0.0972252  1          0.5288497 
347.8      0.1222068  1          0.4539173 
347.9      0.08830991 1          0.4716494 
348        0.1224548  1          0.3881129 
348.1      0.1133597  1          0.3441432 
348.2      0.1393188  1          0.2798256 
348.3      0.1380316  1          0.3042408 
348.4      0.1362147  1          0.3727742 
348.5      0.1480313  1          0.3878255 
348.6      0.1531385  1          0.419492  
348.7      0.1560173  1          0.4360799 
348.8      0.136259   1          0.5279055 
348.9      0.1378568  1          0.5689729 
349        0.2087272  1          0.4031297 
349.1      0.1405163  1          0.6126904 
349.2      0.06252818 1          0.8198022 
349.3      0.06464966 1          0.8196507 
349.4      0.09815595 1          0.7354409 
349.5      0.1213633  1          0.6836784 
349.6      0.1308862  1          0.6589833 
349.7      0.2118702  0.7586414  0.4525811 
349.8      0.2317736  0.7891919  0.4026471 
349.9      0.2256998  0.7271678  0.4186666 
350        0.2587427  0.6146803  0.3432106 
350.1      0.2691832  0.6464785  0.3034876 
350.2      0.240485   0.8476778  0.3717941 
350.3      0.1902118  1          0.5070882 
350.4      0.1786616  1          0.5265372 
350.5      0.179659   1          0.5069256 
350.6      0.1513268  1          0.5673713 
350.7      0.1191075  1          0.6340001 
350.8      0.1259538  1          0.5886995 
350.9      0.1521208  1          0.5462667 
351        0.115004   1          0.6818863 
351.1      0.1738408  1          0.5669017 
351.2      0.1766303  1          0.6105143 
351.3      0.185448   1          0.6333495 
351.4      0.08367533 1          0.9087282 
351.5      0.06228727 1          0.9413525 
351.6      0.04014952 1          1         
351.7      0.1097523  1          0.8160317 
351.8      0.0968478  1          0.8456065 
351.9      0.05848775 1          0.9744785 
352        0.1602045  1          0.7059468 
352.1      0.1576695  1          0.7319023 
352.2      0.1389265  1          0.8152812 
352.3      0.1605676  1          0.7585708 
352.4      0.1360565  1          0.786248  
352.5      0.06277972 1          0.9733474 
352.6      0.1533057  1          0.7312502 
352.7      0.1006713  1          0.8441929 
352.8      0.1652962  1          0.6797462 
352.9      0.05773425 1          1         
353        0.04964101 1          1         
353.1      0.04793809 1          0.9722181 
353.2      0.0316916  1          1         
353.3      0.03425667 1          0.9718423 
353.4      0.0470983  1          0.905287  
353.5      0.02775115 1          0.9377521 
353.6      0.01255637 1          0.9712789 
353.7      0.01116891 1          1         
353.8      0.007169385 1          1         
353.9      0.01810315 1          0.9370348 
354        0.01090346 1          1         
354.1      0.0135483  1          1         
354.2      0.03390917 1          0.9039167 
354.3      0.1028051  1          0.6536541 
354.4      0.1332401  1          0.585169  
354.5      0.1525232  1          0.563726  
354.6      0.1801675  1          0.5229746 
354.7      0.1298573  1          0.6774995 
