~Version
 VERS              .         3.0                           : CWLS LOG ASCII STANDARD - VERSION 3.0
 WRAP              .         NO                            : ONE LINE PER DEPTH STEP
 DLM               .         SPACE                         : DELIMITING CHARACTER(SPACE TAB OR COMMA)
~Well Information
#_______________________________________________________________________________
#
#PARAMETER_NAME    .UNIT     VALUE                         : DESCRIPTION
#_______________________________________________________________________________
STRT               .M        100                           : First reference value
STOP               .M        844                           : Last reference value
STEP               .M        0.1                           : Step increment
NULL               .         -9999                         : Missing value
COMP               .         ICPetroleum                   : Company
WELL               .         323                           : Well name
FLD                .         Karatobe                      : Field
LOC                .                                       : Location
SRVC               .                                       : Service Company
CTRY               .         KZ                            : Country
DATE               .         11.11.2005                    : Service Date
LATI               .         0                             : Latitude
LONG               .         0                             : Longitude
GDAT               .         WGS 84                        : Geodetic Datum
API                .                                       : API NUMBER
CNTY               .                                       : 
COORDIN            .                                       : Grid System
COUNT              .         Kazakhstan                    : Country
COUNTRY            .         Kazakhstan                    : 
COUNTRY            .         Kazakhstan                    : 
EREF               .m        142.3                         : 
KB                 .         141.9                         : KB Elevation
MDEC               .         0                             : Magnetic Declination
ORIGINALWELLNAME   .         323                           : 
PROV               .                                       : Province
RWS                .         0                             : Def_Rw
STAT               .                                       : 
UWI                .         KAR_323                       : Unique Well Identifier (UWI)
WST                .         0                             : Def_Rwt
X                  .km       466280.32                     : 
XCOORD             .                                       : X or East-West Coordinate
Y                  .km       5308145.37                    : 
YCOORD             .                                       : Y or North-South Coordinate
~Parameter Information Block
#_______________________________________________________________________________
#
#PARAMETER_NAME    .UNIT     VALUE                         : DESCRIPTION
#_______________________________________________________________________________
SET                .         Las                           : 
TLFamily_DEPT      .         Measured Depth                : 
TLFamily_PHI_FINAL .         Porosity                      : 
TLFamily_SW_AR     .         Water Saturation              : 
TLFamily_VSH_FINAL .         Shale Volume                  : 
~Curve Information
#_______________________________________________________________________________
#
#LOGNAME           .UNIT     LOG_ID                        : DESCRIPTION
#_______________________________________________________________________________
DEPT               .M                                      :  {F}
PHI_FINAL          .m3/m3                                  : Porosity {F}
SW_AR              .m3/m3                                  :  {F}
VSH_FINAL          .unitless                               : Vshale {F}
~Ascii
# ...
737        0          1          1         
737.1      0          1          1         
737.2      0          1          1         
737.3      0          1          1         
737.4      0          1          1         
737.5      0          1          1         
737.6      0          1          1         
737.7      0          1          1         
737.8      0          1          1         
737.9      0          1          1         
738        0          1          1         
738.1      0          1          1         
738.2      0          1          1         
738.3      0          1          1         
738.4      0          1          1         
738.5      0          1          1         
738.6      0          1          1         
738.7      0          1          1         
738.8      0          1          1         
738.9      0          1          1         
739        0          1          1         
739.1      0          1          1         
739.2      0.04227445 1          0.7921813 
739.3      0.09518996 1          0.6738832 
739.4      0.1445069  1          0.5556373 
739.5      0.1581345  1          0.5313129 
739.6      0.1766378  1          0.4513193 
739.7      0.1764506  1          0.4298601 
739.8      0.1927795  1          0.3689544 
739.9      0.1914131  1          0.3787552 
740        0.1719625  1          0.4193526 
740.1      0.1710104  1          0.4193526 
740.2      0.1655718  1          0.4193526 
740.3      0.1895501  1          0.3689544 
740.4      0.1952168  1          0.3886935 
740.5      0.2087582  1          0.3403573 
740.6      0.1952259  1          0.3403573 
740.7      0.1680546  1          0.4298601 
740.8      0.1828679  1          0.4298601 
740.9      0.1731832  1          0.4089902 
741        0.1930959  1          0.3689544 
741.1      0.186323   1          0.3787552 
741.2      0.1727169  1          0.4193526 
741.3      0.1409348  1          0.4733848 
741.4      0.1630387  1          0.3886935 
741.5      0.1721202  1          0.3403573 
741.6      0.155114   1          0.3592889 
741.7      0.1427196  1          0.3886935 
741.8      0.1323944  1          0.3787552 
741.9      0.1532624  1          0.3129303 
742        0.1651376  1          0.3040396 
742.1      0.1815821  1          0.2696896 
742.2      0.1875683  1          0.2866255 
742.3      0.1821785  1          0.295272  
742.4      0.198534   1          0.2780986 
742.5      0.2032348  1          0.2780986 
742.6      0.1817832  1          0.3403573 
742.7      0.2006201  1          0.3040396 
742.8      0.2024218  1          0.2866255 
742.9      0.2178567  1          0.2532189 
743        0.2036046  1          0.2780986 
743.1      0.1849059  1          0.3129303 
743.2      0.2092455  1          0.2613969 
743.3      0.2056366  1          0.2696896 
743.4      0.189888   1          0.3040396 
743.5      0.2067715  1          0.2780986 
743.6      0.1905567  1          0.3310874 
743.7      0.2167854  1          0.3129303 
743.8      0.1874322  1          0.3886935 
743.9      0.2243997  1          0.3219457 
744        0.2134804  1          0.3219457 
744.1      0.2243643  1          0.3040396 
744.2      0.2392147  1          0.2780986 
744.3      0.2519298  1          0.2780986 
744.4      0.2592235  1          0.2613969 
744.5      0.2631612  1          0.2532189 
744.6      0.2384395  1          0.2780986 
744.7      0.2332035  1          0.3040396 
744.8      0.2364556  1          0.3040396 
744.9      0.2539497  1          0.2372005 
745        0.2420982  1          0.2866255 
745.1      0.2754741  1          0.2216221 
745.2      0.2943122  1          0.2064715 
745.3      0.2979465  1          0.1845224 
745.4      0.2885734  1          0.1703908 
745.5      0.2944557  1          0.1703908 
745.6      0.2957957  1          0.1703908 
745.7      0.3069478  1          0.1239175 
745.8      0.3136161  1          0.1239175 
745.9      0.2996028  1          0.1302825 
746        0.2947323  1          0.1114505 
746.1      0.2950416  1          0.1239175 
746.2      0.304883   1          0.1176406 
746.3      0.2906454  1          0.105346  
746.4      0.2790599  1          0.1367367 
746.5      0.2582743  1          0.1774074 
746.6      0.2875907  1          0.1703908 
746.7      0.2509263  1          0.1703908 
746.8      0.2734184  1          0.1499178 
746.9      0.2752218  1          0.1845224 
747        0.2734884  1          0.2064715 
747.1      0.2882744  1          0.1774074 
747.2      0.2695253  1          0.2451539 
747.3      0.2718751  1          0.2064715 
747.4      0.3139772  1          0.1634712 
747.5      0.2563069  1          0.2613969 
747.6      0.2299365  1          0.3129303 
747.7      0.2346679  1          0.295272  
747.8      0.2508145  1          0.2696896 
747.9      0.2613419  1          0.2532189 
748        0.2261136  1          0.2780986 
748.1      0.2223184  1          0.2866255 
748.2      0.2239723  1          0.2696896 
748.3      0.1956198  1          0.3310874 
748.4      0.2002933  1          0.3497571 
748.5      0.1915852  1          0.3689544 
748.6      0.1779025  1          0.3592889 
748.7      0.1695345  1          0.3310874 
748.8      0.1813875  1          0.3310874 
748.9      0.2042608  1          0.2532189 
749        0.1729811  1          0.2866255 
749.1      0.1964849  1          0.2293571 
749.2      0.1884702  1          0.2064715 
749.3      0.1769106  1          0.1845224 
749.4      0.1045016  1          0.1917371 
749.5      0.05530145 1          0.199053  
749.6      0.04302042 1          0.1845224 
749.7      0.05665592 1          0.1703908 
749.8      0.1109869  1          0.1176406 
749.9      0.1083561  0.8490477  0.093389  
750        0.05376078 1          0.08753424
750.1      0          1          0.08753424
750.2      0          1          0.05406723
750.3      0.01568534 1          0.0383535 
750.4      0.04837203 1          0.03325979
750.5      0.06985055 1          0.03325979
750.6      0.0851238  1          0.02823653
750.7      0.08136755 1          0.05945269
750.8      0.07770485 1          0.08753424
750.9      0.07766609 1          0.105346  
751        0.1210727  1          0.105346  
751.1      0.1579001  0.8749157  0.1176406 
751.2      0.1805632  0.5812102  0.1302825 
751.3      0.2139361  0.4514901  0.1239175 
751.4      0.1811585  0.5210626  0.1499178 
751.5      0.1938329  0.4593261  0.1703908 
751.6      0.1823692  0.4473309  0.1176406 
751.7      0.2044488  0.3540639  0.04875619
751.8      0.225515   0.3102053  0.02823653
751.9      0.2203098  0.3692963  0.01357963
752        0.1868418  0.6432305  0.02328268
752.1      0.1735798  1          0.03325979
752.2      0.1670061  1          0.02328268
752.3      0.154087   1          0.02328268
752.4      0.1449754  0.7346615  0.03325979
752.5      0.1409348  0.695374   0.06491369
752.6      0.1449536  0.6854947  0.08176046
752.7      0.1663693  0.6222653  0.06491369
752.8      0.1943026  0.5285715  0.02823653
752.9      0.2032776  0.4848912  0.02823653
753        0.2028571  0.4758478  0.02328268
753.1      0.2013519  0.4839282  0.02328268
753.2      0.1985044  0.4997694  0.02823653
753.3      0.1892162  0.5059009  0.03325979
753.4      0.1935029  0.4584854  0.01839739
753.5      0.1836976  0.4701731  0.02328268
753.6      0.1773817  0.4815244  0.01357963
753.7      0.1638289  0.5555082  0.02328268
753.8      0.1682257  0.549069   0.004143068
753.9      0.1572188  0.5944121  0         
754        0.1518422  0.5950798  0         
754.1      0.1472428  0.5990884  0         
754.2      0.1367094  0.6240316  0.01357963
754.3      0.1295893  0.6374472  0.02823653
754.4      0.125393   0.642565   0.03325979
754.5      0.1315745  0.5890759  0.01357963
754.6      0.1171492  0.6383817  0.03325979
754.7      0.1024603  0.7220825  0.05406723
754.8      0.1035727  0.7004753  0.04351864
754.9      0.1125927  0.6135752  0.01839739
755        0.1129991  0.5925056  0.01357963
755.1      0.1124496  0.5730735  0.01357963
