~Version
 VERS              .         3.0                           : CWLS LOG ASCII STANDARD - VERSION 3.0
 WRAP              .         NO                            : ONE LINE PER DEPTH STEP
 DLM               .         SPACE                         : DELIMITING CHARACTER(SPACE TAB OR COMMA)
~Well Information
#_______________________________________________________________________________
#
#PARAMETER_NAME    .UNIT     VALUE                         : DESCRIPTION
#_______________________________________________________________________________
STRT               .M        100                           : First reference value
STOP               .M        844                           : Last reference value
STEP               .M        0.1                           : Step increment
NULL               .         -9999                         : Missing value
COMP               .         ICPetroleum                   : Company
WELL               .         323                           : Well name
FLD                .         Karatobe                      : Field
LOC                .                                       : Location
SRVC               .                                       : Service Company
CTRY               .         KZ                            : Country
DATE               .         11.11.2005                    : Service Date
LATI               .         0                             : Latitude
LONG               .         0                             : Longitude
GDAT               .         WGS 84                        : Geodetic Datum
API                .                                       : API NUMBER
CNTY               .                                       : 
COORDIN            .                                       : Grid System
COUNT              .         Kazakhstan                    : Country
COUNTRY            .         Kazakhstan                    : 
COUNTRY            .         Kazakhstan                    : 
EREF               .m        142.3                         : 
KB                 .         141.9                         : KB Elevation
MDEC               .         0                             : Magnetic Declination
ORIGINALWELLNAME   .         323                           : 
PROV               .                                       : Province
RWS                .         0                             : Def_Rw
STAT               .                                       : 
UWI                .         KAR_323                       : Unique Well Identifier (UWI)
WST                .         0                             : Def_Rwt
X                  .km       466280.32                     : 
XCOORD             .                                       : X or East-West Coordinate
Y                  .km       5308145.37                    : 
YCOORD             .                                       : Y or North-South Coordinate
~Parameter Information Block
#_______________________________________________________________________________
#
#PARAMETER_NAME    .UNIT     VALUE                         : DESCRIPTION
#_______________________________________________________________________________
SET                .         Las                           : 
TLFamily_DEPT      .         Measured Depth                : 
TLFamily_PHI_FINAL .         Porosity                      : 
TLFamily_SW_AR     .         Water Saturation              : 
TLFamily_VSH_FINAL .         Shale Volume                  : 
~Curve Information
#_______________________________________________________________________________
#
#LOGNAME           .UNIT     LOG_ID                        : DESCRIPTION
#_______________________________________________________________________________
DEPT               .M                                      :  {F}
PHI_FINAL          .m3/m3                                  : Porosity {F}
SW_AR              .m3/m3                                  :  {F}
VSH_FINAL          .unitless                               : Vshale {F}
~Ascii
# ...
646        0.1851124  1          0.4121572 
646.1      0.1587686  1          0.4835748 
646.2      0.1599455  1          0.4835116 
646.3      0.1516883  1          0.5148352 
646.4      0.1625293  1          0.4988644 
646.5      0.1487229  1          0.5310318 
646.6      0.05987053 1          0.7429113 
646.7      0.06695082 1          0.7428011 
646.8      0.1326577  1          0.5825194 
646.9      0.1347783  1          0.5824388 
647        0.07364868 1          0.7205183 
647.1      0.1326987  1          0.5822779 
647.2      0.1728168  1          0.467833  
647.3      0.2258616  0.8730876  0.3609587 
647.4      0.2127068  0.9266218  0.3730404 
647.5      0.2068374  0.9329571  0.3982436 
647.6      0.1919586  1          0.4387058 
647.7      0.1739389  1          0.4980094 
647.8      0.1850919  1          0.4825014 
647.9      0.2149604  0.8740559  0.3852611 
648        0.2394125  0.754337   0.3153372 
648.1      0.2268423  0.7853516  0.3373468 
648.2      0.213049   0.8231512  0.3726797 
648.3      0.229612   0.7789613  0.3487405 
648.4      0.247301   0.7435235  0.3046112 
648.5      0.2501691  0.7425684  0.3045765 
648.6      0.2354015  0.7664898  0.3486165 
648.7      0.2637671  0.6829833  0.2744351 
648.8      0.2500921  0.7161086  0.2841588 
648.9      0.2733215  0.6447622  0.2293629 
649        0.2800919  0.6300097  0.2129659 
649.1      0.2641832  0.6851687  0.2465911 
649.2      0.2656805  0.6824439  0.2292908 
649.3      0.2393554  0.7520587  0.3042994 
649.4      0.2438745  0.7319345  0.3148299 
649.5      0.2698862  0.6582237  0.2464856 
649.6      0.2614023  0.6691608  0.2646787 
649.7      0.2596697  0.6634077  0.2938808 
649.8      0.2499474  0.6688396  0.3146853 
649.9      0.2746705  0.5892713  0.274072  
650        0.2818529  0.557356   0.2463539 
650.1      0.3053863  0.507226   0.212726  
650.2      0.3253768  0.4895852  0.1686247 
650.3      0.3367738  0.4967167  0.1554288 
650.4      0.3535236  0.493643   0.1254102 
650.5      0.3397987  0.4860942  0.1310808 
650.6      0.3264689  0.4555344  0.1429001 
650.7      0.3251068  0.4562041  0.142887  
650.8      0.3102244  0.5019158  0.1553559 
650.9      0.2869315  0.5598985  0.2125517 
651        0.2881255  0.5438743  0.1970556 
651.1      0.2940185  0.5335571  0.2125082 
651.2      0.2861114  0.5662858  0.2124865 
651.3      0.2876422  0.5701174  0.2124647 
651.4      0.2927523  0.5368918  0.1895499 
651.5      0.2799394  0.5402218  0.2287397 
651.6      0.2967677  0.5026049  0.1969372 
651.7      0.2949574  0.5015492  0.1969175 
651.8      0.2963277  0.4944462  0.1822487 
651.9      0.2985181  0.4686284  0.1822308 
652        0.3038517  0.4534773  0.1751802 
652.1      0.3148204  0.4215395  0.1683177 
652.2      0.3034078  0.4191242  0.1893997 
652.3      0.317805   0.3841975  0.1488238 
652.4      0.3130986  0.382402   0.155123  
652.5      0.3124126  0.3914775  0.1615925 
652.6      0.3023833  0.4224897  0.1821059 
652.7      0.3167199  0.4384643  0.1487686 
652.8      0.3334374  0.4272179  0.1090277 
652.9      0.3416596  0.388531   0.09897481
653        0.3508233  0.3646102  0.08944929
653.1      0.3468476  0.369512   0.09413624
653.2      0.3363281  0.3883068  0.1142165 
653.3      0.3314428  0.3984343  0.1142066 
653.4      0.3310431  0.4010219  0.1195639 
653.5      0.3319768  0.4088227  0.1250661 
653.6      0.3297473  0.4273295  0.1307171 
653.7      0.3314108  0.4306217  0.1307054 
653.8      0.3383626  0.4253388  0.1141572 
653.9      0.3313891  0.4390141  0.130682  
654        0.3244009  0.4529552  0.1364838 
654.1      0.321816   0.470957   0.1485759 
654.2      0.3285919  0.4774218  0.1364591 
654.3      0.308733   0.507499   0.1818033 
654.4      0.2893022  0.5430765  0.2280483 
654.5      0.282033   0.5655278  0.2364843 
654.6      0.2764678  0.5799238  0.2451481 
654.7      0.2819077  0.5812826  0.227977  
654.8      0.284984   0.5883331  0.2117062 
654.9      0.2884547  0.5752395  0.1816967 
655        0.2973566  0.5420791  0.1547459 
655.1      0.3048514  0.5168368  0.1484385 
655.2      0.3026153  0.4951686  0.1547169 
655.3      0.3048509  0.4759609  0.1746216 
655.4      0.2952867  0.4861535  0.2115767 
655.5      0.3132907  0.4664163  0.1611344 
655.6      0.3149308  0.4656669  0.1483699 
655.7      0.3188374  0.4544776  0.1422342 
655.8      0.3175172  0.4487504  0.1362618 
655.9      0.3158855  0.4436502  0.1422082 
656        0.3094518  0.4544977  0.1745036 
656.1      0.3014722  0.4636888  0.188671  
656.2      0.304009   0.4468949  0.1886523 
656.3      0.3178802  0.4185732  0.1610127 
656.4      0.2914329  0.4339318  0.2275737 
656.5      0.3049877  0.3895973  0.2035544 
656.6      0.3104964  0.3640302  0.1885779 
656.7      0.3134958  0.3761135  0.1813776 
656.8      0.3304816  0.4052048  0.1361388 
656.9      0.3336595  0.4145696  0.1246908 
657        0.3324855  0.3848001  0.1138421 
657.1      0.3301921  0.3810787  0.108628  
657.2      0.3375785  0.3709274  0.1035526 
657.3      0.3362688  0.3893724  0.1191572 
657.4      0.3470189  0.4027961  0.1191468 
657.5      0.3365735  0.4361389  0.1608304 
657.6      0.3289573  0.4508637  0.1742343 
657.7      0.3426739  0.4257619  0.1543561 
657.8      0.3307314  0.4357232  0.167403  
657.9      0.3333341  0.4237154  0.1741839 
658        0.3239574  0.4141828  0.1956825 
658.1      0.3365288  0.3846448  0.1607394 
658.2      0.3214943  0.3749814  0.1811125 
658.3      0.3247125  0.3438595  0.1741168 
658.4      0.3277824  0.3229827  0.1673072 
658.5      0.3440479  0.2986305  0.1359301 
658.6      0.3366354  0.2963435  0.1542266 
658.7      0.3394195  0.2910666  0.1542122 
658.8      0.347789   0.2864823  0.1358934 
658.9      0.3586228  0.2833622  0.08902046
659        0.3630532  0.2911168  0.08447006
659.1      0.344207   0.3209031  0.1300766 
659.2      0.3458291  0.3284647  0.1136265 
659.3      0.3440286  0.3126155  0.1084246 
659.4      0.3430979  0.3029808  0.1136069 
659.5      0.3436196  0.2889617  0.1244053 
659.6      0.3441341  0.2719034  0.1243943 
659.7      0.3489495  0.2709524  0.1189082 
659.8      0.3495324  0.2861353  0.1188979 
659.9      0.3538761  0.2921385  0.1083693 
660        0.3576459  0.286358   0.09839081
660.1      0.357696   0.2851619  0.09838264
660.2      0.3643352  0.2581016  0.07997072
660.3      0.3765093  0.2337782  0.05956497
660.4      0.3777291  0.2364875  0.05579825
660.5      0.3744161  0.2596817  0.05955608
660.6      0.3759294  0.2843913  0.05955164
660.7      0.3716868  0.2953043  0.06341041
660.8      0.3652362  0.2767932  0.08434812
660.9      0.3799166  0.2365663  0.06736802
661        0.376946   0.2188991  0.06736287
661.1      0.3661928  0.2158157  0.09351817
661.2      0.3641666  0.2242137  0.08885437
661.3      0.3681297  0.2457548  0.09350282
661.4      0.3731515  0.2693387  0.07141508
661.5      0.3822665  0.2805075  0.07140956
661.6      0.377046   0.2999826  0.0755864 
661.7      0.3638253  0.336267   0.08428729
661.8      0.3536422  0.3653922  0.1133726 
661.9      0.3603455  0.3191727  0.08880394
662        0.3611     0.3004793  0.1031353 
662.1      0.3659355  0.2934033  0.09821936
662.2      0.3779352  0.2713341  0.07137092
662.3      0.376366   0.2634645  0.07554501
662.4      0.3762561  0.253479   0.07983146
662.5      0.3748096  0.2389749  0.09341082
662.6      0.3874897  0.2257298  0.05570786
662.7      0.3862539  0.223603   0.05945843
662.8      0.38318    0.1730995  0.05569967
662.9      0.3836501  0.1361412  0.04848173
663        0.3823553  0.1299962  0.05944514
663.1      0.3983494  0.1178172  0.02901055
663.2      0.3977159  0.1072467  0.02900862
663.3      0.409304   0.1017977  0.02605562
663.4      0.4114341  0.1053523  0.03203545
663.5      0.4147044  0.1038456  0.02317928
663.6      0.4125725  0.100497   0.02317777
663.7      0.418966   0.09396273 0.01242333
663.8      0.4144257  0.09370551 0.005079194
663.9      0.4101991  0.09988361 0.005078893
664        0.4131885  0.1030457  0.01242104
664.1      0.4112786  0.1021978  0.02899123
