~Version
 VERS              .         3.0                           : CWLS LOG ASCII STANDARD - VERSION 3.0
 WRAP              .         NO                            : ONE LINE PER DEPTH STEP
 DLM               .         SPACE                         : DELIMITING CHARACTER(SPACE TAB OR COMMA)
~Well Information
#_______________________________________________________________________________
#
#PARAMETER_NAME    .UNIT     VALUE                         : DESCRIPTION
#_______________________________________________________________________________
STRT               .M        100                           : First reference value
STOP               .M        844                           : Last reference value
STEP               .M        0.1                           : Step increment
NULL               .         -9999                         : Missing value
COMP               .         ICPetroleum                   : Company
WELL               .         323                           : Well name
FLD                .         Karatobe                      : Field
LOC                .                                       : Location
SRVC               .                                       : Service Company
CTRY               .         KZ                            : Country
DATE               .         11.11.2005                    : Service Date
LATI               .         0                             : Latitude
LONG               .         0                             : Longitude
GDAT               .         WGS 84                        : Geodetic Datum
API                .                                       : API NUMBER
CNTY               .                                       : 
COORDIN            .                                       : Grid System
COUNT              .         Kazakhstan                    : Country
COUNTRY            .         Kazakhstan                    : 
COUNTRY            .         Kazakhstan                    : 
EREF               .m        142.3                         : 
KB                 .         141.9                         : KB Elevation
MDEC               .         0                             : Magnetic Declination
ORIGINALWELLNAME   .         323                           : 
PROV               .                                       : Province
RWS                .         0                             : Def_Rw
STAT               .                                       : 
UWI                .         KAR_323                       : Unique Well Identifier (UWI)
WST                .         0                             : Def_Rwt
X                  .km       466280.32                     : 
XCOORD             .                                       : X or East-West Coordinate
Y                  .km       5308145.37                    : 
YCOORD             .                                       : Y or North-South Coordinate
~Parameter Information Block
#_______________________________________________________________________________
#
#PARAMETER_NAME    .UNIT     VALUE                         : DESCRIPTION
#_______________________________________________________________________________
SET                .         Las                           : 
TLFamily_DEPT      .         Measured Depth                : 
TLFamily_PHI_FINAL .         Porosity                      : 
TLFamily_SW_AR     .         Water Saturation              : 
TLFamily_VSH_FINAL .         Shale Volume                  : 
~Curve Information
#_______________________________________________________________________________
#
#LOGNAME           .UNIT     LOG_ID                        : DESCRIPTION
#_______________________________________________________________________________
DEPT               .M                                      :  {F}
PHI_FINAL          .m3/m3                                  : Porosity {F}
SW_AR              .m3/m3                                  :  {F}
VSH_FINAL          .unitless                               : Vshale {F}
~Ascii
# ...
464        0.0928172  1          0.7693494 
464.1      0.05205804 1          0.8784857 
464.2      0.08100457 1          0.8220653 
464.3      0.07051614 1          0.7950442 
464.4      0.08871388 1          0.7688333 
464.5      0.1047829  1          0.7188632 
464.6      0.1715379  0.8987426  0.5469245 
464.7      0.1812012  0.8066379  0.528137  
464.8      0.1595814  0.9042435  0.5858945 
464.9      0.1440201  0.9987186  0.6273633 
465        0.1768342  0.8199098  0.5465928 
465.1      0.1629586  0.8612832  0.5856225 
465.2      0.1771105  0.77196    0.565685  
465.3      0.2363848  0.5773152  0.4266542 
465.4      0.2638119  0.5163075  0.3825479 
465.5      0.2699186  0.5166295  0.368679  
465.6      0.1974915  0.7462863  0.5460958 
465.7      0.1355286  1          0.6706409 
465.8      0.1117594  1          0.7418061 
465.9      0.1256031  1          0.7172114 
466        0.1056686  1          0.7667751 
466.1      0.04759128 1          0.9047385 
466.2      0.04478402 1          0.9658945 
466.3      0.07742891 1          0.9044208 
466.4      0.1527317  1          0.6929025 
466.5      0.1450821  1          0.7165053 
466.6      0.1364155  1          0.7408232 
466.7      0.1727199  1          0.6472421 
466.8      0.1275454  1          0.716153  
466.9      0.1433841  1          0.6923398 
467        0.1516202  1          0.6692395 
467.1      0.05438426 1          0.9332867 
467.2      0.08813331 1          0.8453923 
467.3      0.07599677 1          0.8452467 
467.4      0.09302191 1          0.7649815 
467.5      0.06558036 1          0.73972   
467.6      0.1890116  0.4682575  0.4102098 
467.7      0.2394738  0.4336782  0.2505097 
467.8      0.2609954  0.719936   0.212668  
467.9      0.2775269  0.8611097  0.2126436 
468        0.2771905  0.8446171  0.2504195 
468.1      0.2635324  0.8215019  0.3540446 
468.2      0.2025845  1          0.5439513 
468.3      0.1092905  1          0.789689  
468.4      0.1190106  1          0.7386196 
468.5      0.1582421  1          0.6238127 
468.6      0.2189398  0.8972793  0.4561486 
468.7      0.1778629  1          0.5626661 
468.8      0.1633848  1          0.5822852 
468.9      0.1544325  1          0.6024982 
469        0.1579883  1          0.6024044 
469.1      0.180952   0.9932293  0.5246679 
469.2      0.1503125  1          0.6022168 
469.3      0.1807833  0.9709241  0.5065229 
469.4      0.1352996  1          0.6020295 
469.5      0.1463214  0.9587849  0.5816575 
469.6      0.1299476  1          0.6227346 
469.7      0.1687515  0.783543   0.5427206 
469.8      0.1661392  0.8104361  0.581389  
469.9      0.1824847  0.7492732  0.5425569 
470        0.2089886  0.673597   0.4885668 
470.1      0.1916008  0.6711497  0.5238848 
470.2      0.1970235  0.6218838  0.5058497 
470.3      0.2018761  0.6031728  0.5057749 
470.4      0.2091551  0.5791265  0.4882812 
470.5      0.2385938  0.5150865  0.3940184 
470.6      0.2583993  0.3950647  0.327462  
470.7      0.2494087  0.2451763  0.3274194 
470.8      0.2705675  0.1486367  0.2119394 
470.9      0.291678   0.1527576  0.1865113 
471        0.318446   0.2399462  0.1420653 
471.1      0.3307178  0.3242906  0.1420507 
471.2      0.3192446  0.4003977  0.1946612 
471.3      0.3307285  0.4246565  0.1946395 
471.4      0.3424199  0.462295   0.2030771 
471.5      0.3355135  0.4948695  0.2395436 
471.6      0.2738985  0.5868768  0.393425  
471.7      0.2853386  0.5393345  0.36562   
471.8      0.2846181  0.539838   0.365571  
471.9      0.2500387  0.6247675  0.4381251 
472        0.2493168  0.6029235  0.4226613 
472.1      0.289651   0.4975141  0.3268259 
472.2      0.2665503  0.5236467  0.3790307 
472.3      0.2411076  0.5659739  0.4378775 
472.4      0.1755056  0.7567501  0.6200048 
472.5      0.2429743  0.5962912  0.4536105 
472.6      0.2080826  0.7350064  0.5219362 
472.7      0.1981118  0.8215199  0.5402737 
472.8      0.2492075  0.6978355  0.4221889 
472.9      0.2372046  0.7635508  0.4696788 
473        0.2462364  0.7698936  0.4532869 
473.1      0.1888421  1          0.5985803 
473.2      0.1502908  1          0.6853175 
473.3      0.1394295  1          0.7326764 
473.4      0.1665808  1          0.6403987 
473.5      0.1620994  1          0.6402975 
473.6      0.09762491 1          0.7826855 
473.7      0.02869179 1          0.9846028 
473.8      0.07990497 1          0.8358822 
473.9      0.08042172 1          0.8357396 
474        0.1315997  1          0.6844342 
474.1      0.1846208  0.9104824  0.5580622 
474.2      0.173286   0.9495314  0.5975614 
474.3      0.1402123  1          0.6614623 
474.4      0.1415163  1          0.6393878 
474.5      0.2008353  0.8371581  0.4685972 
474.6      0.1961983  0.8798171  0.5025806 
474.7      0.1698045  0.9889239  0.5575547 
474.8      0.1651441  0.9673504  0.5769424 
474.9      0.1273454  1          0.6608298 
475        0.1409169  1          0.6607246 
475.1      0.1373328  1          0.6832231 
475.2      0.1789763  0.8491387  0.5765892 
475.3      0.1517212  0.9729621  0.6171989 
475.4      0.1648454  0.9062784  0.5764128 
475.5      0.2126541  0.7161846  0.4846654 
475.6      0.2054996  0.7473842  0.5196145 
475.7      0.1777149  0.8648232  0.5961767 
475.8      0.1626754  0.9639219  0.6167174 
475.9      0.06823212 1          0.8328936 
476        0.06755605 1          0.8327518 
476.1      0.03832429 1          0.9490383 
476.2      0.03351946 1          1         
476.3      0.02946481 1          1         
476.4      0.02974501 1          1         
476.5      0.02865082 1          1         
476.6      0.02587175 1          1         
476.7      0.03358541 1          1         
476.8      0.06689233 1          0.8880035 
476.9      0.04053809 1          1         
477        0.04032396 1          1         
477.1      0.1331416  1          0.7781175 
477.2      0.1688372  1          0.7041103 
477.3      0.2196967  1          0.5747411 
477.4      0.2693221  0.9787268  0.4504564 
477.5      0.3219896  0.7948554  0.3245544 
477.6      0.271933   0.8911197  0.4503285 
477.7      0.2744433  0.8933629  0.4345587 
477.8      0.2931606  0.8374789  0.4192575 
477.9      0.3652655  0.653993   0.3123904 
478        0.3773323  0.6072724  0.3007089 
478.1      0.4114054  0.5522986  0.247416  
478.2      0.4359917  0.5104731  0.2101619 
478.3      0.4625131  0.4833745  0.1620218 
478.4      0.470805   0.467317   0.1409976 
478.5      0.4692713  0.4627649  0.1279906 
478.6      0.4612003  0.4929478  0.1694    
478.7      0.4567483  0.513172   0.1930463 
478.8      0.4167606  0.5399319  0.2374919 
478.9      0.4156589  0.5509932  0.2280329 
479        0.3509057  0.6732686  0.3894744 
479.1      0.3824876  0.6286597  0.300293  
479.2      0.3653454  0.6537471  0.3238451 
479.3      0.3450068  0.7073068  0.3619315 
479.4      0.3601745  0.6767068  0.348795  
479.5      0.3839771  0.6152193  0.3117552 
479.6      0.4008219  0.59338    0.2888348 
479.7      0.434422   0.5387746  0.2186788 
479.8      0.4434224  0.5086392  0.1928116 
479.9      0.4433333  0.4981317  0.1768064 
480        0.4231114  0.5265442  0.1927689 
480.1      0.4013504  0.544636   0.2568223 
480.2      0.4028891  0.5309992  0.2567915 
480.3      0.3656977  0.5879965  0.3233877 
480.4      0.390588   0.5759921  0.288548  
480.5      0.4009534  0.5752637  0.2775899 
480.6      0.4080526  0.5605308  0.2669563 
480.7      0.395431   0.5797715  0.2775217 
480.8      0.4064631  0.5665513  0.2369354 
480.9      0.3971184  0.5541558  0.2369076 
481        0.3893914  0.5222053  0.2668268 
481.1      0.3735057  0.5360098  0.2995395 
481.2      0.3470378  0.5746027  0.3610197 
481.3      0.3422884  0.5805888  0.3479259 
481.4      0.3227564  0.6204146  0.3882082 
481.5      0.3036223  0.6776062  0.4171113 
481.6      0.2387169  0.8927428  0.5907834 
481.7      0.2275038  0.9572521  0.6320904 
481.8      0.1882811  1          0.6988924 
481.9      0.1922981  1          0.6987796 
482        0.1140658  1          0.8800551 
482.1      0.06752713 1          1         
