~Version
 VERS              .         3.0                           : CWLS LOG ASCII STANDARD - VERSION 3.0
 WRAP              .         NO                            : ONE LINE PER DEPTH STEP
 DLM               .         SPACE                         : DELIMITING CHARACTER(SPACE TAB OR COMMA)
~Well Information
#_______________________________________________________________________________
#
#PARAMETER_NAME    .UNIT     VALUE                         : DESCRIPTION
#_______________________________________________________________________________
STRT               .M        100                           : First reference value
STOP               .M        844                           : Last reference value
STEP               .M        0.1                           : Step increment
NULL               .         -9999                         : Missing value
COMP               .         ICPetroleum                   : Company
WELL               .         323                           : Well name
FLD                .         Karatobe                      : Field
LOC                .                                       : Location
SRVC               .                                       : Service Company
CTRY               .         KZ                            : Country
DATE               .         11.11.2005                    : Service Date
LATI               .         0                             : Latitude
LONG               .         0                             : Longitude
GDAT               .         WGS 84                        : Geodetic Datum
API                .                                       : API NUMBER
CNTY               .                                       : 
COORDIN            .                                       : Grid System
COUNT              .         Kazakhstan                    : Country
COUNTRY            .         Kazakhstan                    : 
COUNTRY            .         Kazakhstan                    : 
EREF               .m        142.3                         : 
KB                 .         141.9                         : KB Elevation
MDEC               .         0                             : Magnetic Declination
ORIGINALWELLNAME   .         323                           : 
PROV               .                                       : Province
RWS                .         0                             : Def_Rw
STAT               .                                       : 
UWI                .         KAR_323                       : Unique Well Identifier (UWI)
WST                .         0                             : Def_Rwt
X                  .km       466280.32                     : 
XCOORD             .                                       : X or East-West Coordinate
Y                  .km       5308145.37                    : 
YCOORD             .                                       : Y or North-South Coordinate
~Parameter Information Block
#_______________________________________________________________________________
#
#PARAMETER_NAME    .UNIT     VALUE                         : DESCRIPTION
#_______________________________________________________________________________
SET                .         Las                           : 
TLFamily_DEPT      .         Measured Depth                : 
TLFamily_PHI_FINAL .         Porosity                      : 
TLFamily_SW_AR     .         Water Saturation              : 
TLFamily_VSH_FINAL .         Shale Volume                  : 
~Curve Information
#_______________________________________________________________________________
#
#LOGNAME           .UNIT     LOG_ID                        : DESCRIPTION
#_______________________________________________________________________________
DEPT               .M                                      :  {F}
PHI_FINAL          .m3/m3                                  : Porosity {F}
SW_AR              .m3/m3                                  :  {F}
VSH_FINAL          .unitless                               : Vshale {F}
~Ascii
# ...
373        0.2542102  1          0.3741903 
373.1      0.2569918  1          0.3741364 
373.2      0.2949348  0.9478247  0.2706968 
373.3      0.2882258  0.96645    0.28218   
373.4      0.3097911  0.871848   0.2280786 
373.5      0.3102536  0.841789   0.2381797 
373.6      0.2967911  0.8607308  0.2705552 
373.7      0.2412824  1          0.4040459 
373.8      0.2516615  0.9984835  0.3886308 
373.9      0.2250609  1          0.4530495 
374        0.2347912  1          0.4360821 
374.1      0.2836723  0.9208998  0.306023  
374.2      0.298217   0.8845308  0.270343  
374.3      0.3207016  0.8078309  0.2278233 
374.4      0.3177601  0.8008165  0.2591375 
374.5      0.3073162  0.8349439  0.2936015 
374.6      0.2870809  0.9131734  0.3450204 
374.7      0.2962413  0.8987179  0.3057742 
374.8      0.3027497  0.8804311  0.2934835 
374.9      0.2976529  0.8926149  0.2934442 
375        0.2961018  0.9241838  0.3056499 
375.1      0.2732724  0.9835909  0.3586934 
375.2      0.2575234  1          0.4031546 
375.3      0.2644786  1          0.3877835 
375.4      0.2671674  1          0.3877271 
375.5      0.2655874  1          0.3876707 
375.6      0.2740852  0.9662747  0.3584388 
375.7      0.2167999  1          0.5056919 
375.8      0.1961201  1          0.5445096 
375.9      0.2402849  1          0.4348366 
376        0.2403563  1          0.4347712 
376.1      0.2788482  0.9302656  0.3178136 
376.2      0.2842472  0.9202689  0.3051537 
376.3      0.2497672  1          0.4182827 
376.4      0.2801995  0.9593273  0.3441499 
376.5      0.2698734  0.9989894  0.3723119 
376.6      0.2578526  1          0.4023259 
376.7      0.2197416  1          0.4863965 
376.8      0.2268461  1          0.4684057 
376.9      0.1569132  1          0.652155  
377        0.1487684  1          0.6759226 
377.1      0.08743906 1          0.8362409 
377.2      0.03581297 1          1         
377.3      0.03208059 1          1         
377.4      0.03447259 1          1         
377.5      0.02746854 1          1         
377.6      0.01945882 1          1         
377.7      0.01996463 1          1         
377.8      0.02312543 1          1         
377.9      0.02367002 1          1         
378        0.02155361 1          1         
378.1      0.02412012 1          1         
378.2      0.03145968 1          1         
378.3      0.03689803 1          1         
378.4      0.03979222 1          1         
378.5      0.04127122 1          1         
378.6      0.03985642 1          1         
378.7      0.04686079 1          1         
378.8      0.03800436 1          1         
378.9      0.0398446  1          1         
379        0.03418295 1          1         
379.1      0.03013039 1          1         
379.2      0.03006843 1          1         
379.3      0.03046975 1          1         
379.4      0.02974475 1          1         
379.5      0.02928258 1          1         
379.6      0.03559069 1          1         
379.7      0.03209229 1          1         
379.8      0.03417608 1          1         
379.9      0.03538458 1          1         
380        0.03286436 1          1         
380.1      0.0275246  1          1         
380.2      0.03502192 1          1         
380.3      0.07205053 1          0.8610256 
380.4      0.1265996  1          0.7217362 
380.5      0.1052831  1          0.747685  
380.6      0.04793372 1          0.8911271 
380.7      0.023882   1          1         
380.8      0.022279   1          1         
380.9      0.02802388 1          1         
381        0.0424196  1          1         
381.1      0.06815511 1          0.9543797 
381.2      0.1674981  1          0.7207319 
381.3      0.2206783  1          0.602218  
381.4      0.2333418  1          0.6021185 
381.5      0.253892   1          0.501114  
381.6      0.2691969  0.9651101  0.4311373 
381.7      0.2602187  0.9941525  0.4149497 
381.8      0.2853171  0.9355882  0.3415619 
381.9      0.2594918  1          0.3992158 
382        0.2696118  1          0.3840385 
382.1      0.2878465  0.9390638  0.3152213 
382.2      0.2589394  0.9913836  0.3839277 
382.3      0.1987575  1          0.5388693 
382.4      0.2282921  1          0.4472451 
382.5      0.2179852  1          0.4643344 
382.6      0.234696   1          0.430494  
382.7      0.2353633  1          0.4304298 
382.8      0.2447188  1          0.4142765 
382.9      0.2295831  1          0.464051  
383        0.2427605  1          0.4141543 
383.1      0.2357873  1          0.4140932 
383.2      0.2612168  0.9832054  0.3546078 
383.3      0.2765742  0.9039942  0.3147074 
383.4      0.2563412  0.8781585  0.354508  
383.5      0.2720496  0.818618   0.3021663 
383.6      0.2613203  0.9598424  0.2900624 
383.7      0.2773644  0.9107304  0.2900239 
383.8      0.3012291  0.8975987  0.256027  
383.9      0.2923496  0.9743693  0.2782674 
384        0.3026479  0.9452436  0.2669191 
384.1      0.3161655  0.9153712  0.2668846 
384.2      0.3145196  0.9210294  0.2668501 
384.3      0.3078143  0.9187947  0.2897933 
384.4      0.3244931  0.8600001  0.2667811 
384.5      0.2900894  0.9317886  0.3680806 
384.6      0.2082462  1          0.5368976 
384.7      0.1919141  1          0.5368121 
384.8      0.1774278  1          0.5367267 
384.9      0.2044519  1          0.4455626 
385        0.1775324  1          0.4801926 
385.1      0.1752003  1          0.4454286 
385.2      0.13537    1          0.5363852 
385.3      0.1906872  1          0.3972429 
385.4      0.1383034  1          0.5168423 
385.5      0.1127595  1          0.5767623 
385.6      0.1072864  1          0.5766687 
385.7      0.1608236  1          0.4285104 
385.8      0.1289015  1          0.4977663 
385.9      0.1160887  1          0.5557656 
386        0.1339404  1          0.5163549 
386.1      0.1059589  1          0.5974793 
386.2      0.08063131 1          0.689571  
386.3      0.0478799  1          0.7941102 
386.4      0.03644014 1          0.9449146 
386.5      0.1033292  1          0.665076  
386.6      0.1247496  1          0.5757331 
386.7      0.1298743  1          0.5550521 
386.8      0.1404543  1          0.5157064 
386.9      0.0868808  1          0.6646258 
387        0.04947023 1          0.7392155 
387.1      0.08052321 1          0.6410452 
387.2      0.1344759  1          0.4785713 
387.3      0.158989   1          0.4115424 
387.4      0.1582358  1          0.4274295 
387.5      0.1793984  1          0.3959756 
387.6      0.1831334  1          0.3959181 
387.7      0.1284185  1          0.574707  
387.8      0.1361941  1          0.5746139 
387.9      0.1288837  1          0.5957187 
388        0.04158015 1          0.819907  
388.1      0          1          1         
388.2      0.001720032 1          0.9417351 
388.3      0.07531039 1          0.5741487 
388.4      0.1402219  0.7338694  0.410879  
388.5      0.1761789  0.8762599  0.3124978 
388.6      0.164241   1          0.2881505 
388.7      0.118875   1          0.3658933 
388.8      0.1081571  1          0.4265429 
388.9      0.07163722 1          0.5332446 
389        0.06972478 1          0.5530095 
389.1      0.05708886 1          0.6861623 
389.2      0.08796081 1          0.5329913 
389.3      0.06654292 1          0.6619353 
389.4      0.08063117 1          0.6858113 
389.5      0.1132908  1          0.6384779 
389.6      0.07850478 1          0.7894596 
389.7      0.03959347 1          0.9720098 
389.8      0.0379891  1          1         
389.9      0.06037065 1          1         
390        0.06714931 1          1         
390.1      0.06223432 1          1         
390.2      0.06246132 1          1         
390.3      0.06021101 1          1         
390.4      0.05557341 1          1         
390.5      0.04872468 1          1         
390.6      0.0367506  1          1         
390.7      0.02828113 1          1         
390.8      0.01955629 1          1         
390.9      0.01568409 1          1         
391        0.02369246 1          1         
391.1      0.03439303 1          1         
