~Version
 VERS              .         3.0                           : CWLS LOG ASCII STANDARD - VERSION 3.0
 WRAP              .         NO                            : ONE LINE PER DEPTH STEP
 DLM               .         SPACE                         : DELIMITING CHARACTER(SPACE TAB OR COMMA)
~Well Information
#_______________________________________________________________________________
#
#PARAMETER_NAME    .UNIT     VALUE                         : DESCRIPTION
#_______________________________________________________________________________
STRT               .M        100                           : First reference value
STOP               .M        844                           : Last reference value
STEP               .M        0.1                           : Step increment
NULL               .         -9999                         : Missing value
COMP               .         ICPetroleum                   : Company
WELL               .         323                           : Well name
FLD                .         Karatobe                      : Field
LOC                .                                       : Location
SRVC               .                                       : Service Company
CTRY               .         KZ                            : Country
DATE               .         11.11.2005                    : Service Date
LATI               .         0                             : Latitude
LONG               .         0                             : Longitude
GDAT               .         WGS 84                        : Geodetic Datum
API                .                                       : API NUMBER
CNTY               .                                       : 
COORDIN            .                                       : Grid System
COUNT              .         Kazakhstan                    : Country
COUNTRY            .         Kazakhstan                    : 
COUNTRY            .         Kazakhstan                    : 
EREF               .m        142.3                         : 
KB                 .         141.9                         : KB Elevation
MDEC               .         0                             : Magnetic Declination
ORIGINALWELLNAME   .         323                           : 
PROV               .                                       : Province
RWS                .         0                             : Def_Rw
STAT               .                                       : 
UWI                .         KAR_323                       : Unique Well Identifier (UWI)
WST                .         0                             : Def_Rwt
X                  .km       466280.32                     : 
XCOORD             .                                       : X or East-West Coordinate
Y                  .km       5308145.37                    : 
YCOORD             .                                       : Y or North-South Coordinate
~Parameter Information Block
#_______________________________________________________________________________
#
#PARAMETER_NAME    .UNIT     VALUE                         : DESCRIPTION
#_______________________________________________________________________________
SET                .         Las                           : 
TLFamily_DEPT      .         Measured Depth                : 
TLFamily_PHI_FINAL .         Porosity                      : 
TLFamily_SW_AR     .         Water Saturation              : 
TLFamily_VSH_FINAL .         Shale Volume                  : 
~Curve Information
#_______________________________________________________________________________
#
#LOGNAME           .UNIT     LOG_ID                        : DESCRIPTION
#_______________________________________________________________________________
DEPT               .M                                      :  {F}
PHI_FINAL          .m3/m3                                  : Porosity {F}
SW_AR              .m3/m3                                  :  {F}
VSH_FINAL          .unitless                               : Vshale {F}
~Ascii
# ...
791.6      0          1          1         
791.7      0          1          1         
791.8      0          1          1         
791.9      0          1          0.9779323 
792        0          1          0.8899664 
792.1      0          1          0.76136   
792.2      0          1          0.6600012 
792.3      0          1          0.4960731 
792.4      0          1          0.4733848 
792.5      0          1          0.440515  
792.6      0.03058926 1          0.3592889 
792.7      0.07456258 1          0.2866255 
792.8      0.09279574 1          0.2696896 
792.9      0.1198649  1          0.2372005 
793        0.1239556  1          0.2372005 
793.1      0.1131714  1          0.2451539 
793.2      0.09482166 1          0.2696896 
793.3      0.08933922 1          0.2613969 
793.4      0.07131434 1          0.2696896 
793.5      0.06822058 1          0.2451539 
793.6      0.04012431 1          0.295272  
793.7      0.04214227 1          0.2866255 
793.8      0.06926098 1          0.2293571 
793.9      0.06848375 1          0.2293571 
794        0.0633884  1          0.2372005 
794.1      0.03729109 1          0.2866255 
794.2      0.04650406 1          0.2613969 
794.3      0.02552687 1          0.295272  
794.4      0.03298663 1          0.2696896 
794.5      0.03345721 1          0.2532189 
794.6      0.0230836  1          0.2532189 
794.7      0.01399882 1          0.2451539 
794.8      0          1          0.3497571 
794.9      0          1          0.3886935 
795        0          1          0.4846499 
795.1      0          1          0.5934181 
795.2      0          1          0.6463111 
795.3      0          1          0.7167082 
795.4      0          1          0.5934181 
795.5      0          1          0.6063663 
795.6      0          1          0.5680558 
795.7      0          1          0.4513193 
795.8      0          1          0.4733848 
795.9      0          1          0.3886935 
796        0          1          0.3689544 
796.1      0          1          0.4089902 
796.2      0          1          0.4733848 
796.3      0          1          0.5076565 
796.4      0          1          0.5680558 
796.5      0          1          0.6063663 
796.6      0          1          0.5806487 
796.7      0          1          0.6194963 
796.8      0          1          0.5680558 
796.9      0          1          0.6328104 
797        0          1          0.5433904 
797.1      0.04632906 1          0.440515  
797.2      0.09661266 1          0.3886935 
797.3      0.1434335  1          0.3219457 
797.4      0.1791801  1          0.2780986 
797.5      0.1726308  1          0.2866255 
797.6      0.2074361  1          0.2532189 
797.7      0.1947186  1          0.2866255 
797.8      0.1806738  1          0.3040396 
797.9      0.1390397  1          0.3129303 
798        0.1579125  1          0.3403573 
798.1      0.1201787  1          0.3886935 
798.2      0.1013287  1          0.4089902 
798.3      0.1231898  1          0.3497571 
798.4      0.122541   1          0.3129303 
798.5      0.1085878  1          0.2866255 
798.6      0.08923596 1          0.2780986 
798.7      0.06811453 1          0.2532189 
798.8      0.02882402 1          0.2451539 
798.9      0.01096373 1          0.2532189 
799        0          1          0.2696896 
799.1      0          1          0.3040396 
799.2      0          1          0.3129303 
799.3      0          1          0.3592889 
799.4      0.007161195 1          0.295272  
799.5      0.0124964  1          0.3219457 
799.6      0.02236188 1          0.3497571 
799.7      0.04107584 1          0.3219457 
799.8      0.08551108 1          0.2613969 
799.9      0.1054382  1          0.2696896 
800        0.1321862  1          0.295272  
800.1      0.1587355  1          0.3129303 
800.2      0.1834196  1          0.3040396 
800.3      0.2163027  1          0.2613969 
800.4      0.2092353  1          0.295272  
800.5      0.2016437  1          0.295272  
800.6      0.1806726  1          0.2780986 
800.7      0.09570275 1          0.3040396 
800.8      0          1          0.3129303 
800.9      0          1          0.3219457 
801        0          1          0.3040396 
801.1      0          1          0.295272  
801.2      0          1          0.295272  
801.3      0          1          0.3129303 
801.4      0          1          0.3129303 
801.5      0          1          0.2780986 
801.6      0.003393795 1          0.2780986 
801.7      0.06004478 1          0.2451539 
801.8      0.06220743 1          0.2696896 
801.9      0.04205882 1          0.3219457 
802        0.0436019  1          0.3129303 
802.1      0.05215627 1          0.3040396 
802.2      0.0567208  1          0.3129303 
802.3      0.05227394 1          0.3497571 
802.4      0.0958861  1          0.3689544 
802.5      0.1073742  1          0.3592889 
802.6      0.1132049  1          0.3592889 
802.7      0.069713   1          0.4089902 
802.8      0.1053411  1          0.2696896 
802.9      0.1192921  1          0.1774074 
803        0.1030714  1          0.093389  
803.1      0.06061367 1          0.04351864
803.2      0.01927573 1          0.0383535 
803.3      0          1          0.0383535 
803.4      0          1          0.01839739
803.5      0          1          0         
803.6      0          1          0         
803.7      0          1          0         
803.8      0          1          0         
803.9      0          1          0         
804        0          1          0         
804.1      0          1          0         
804.2      0          1          0         
804.3      0          1          0         
804.4      0.0005343913 1          0         
804.5      0          1          0         
804.6      0          1          0         
804.7      0          1          0         
804.8      0          1          0         
804.9      0          1          0         
805        0          1          0         
805.1      0          1          0         
805.2      0          1          0         
805.3      0          1          0         
805.4      0          1          0         
805.5      0          1          0         
805.6      0          1          0         
805.7      0          1          0         
805.8      0.01611553 1          0         
805.9      0.02678823 1          0         
806        0.03523081 1          0         
806.1      0.03905342 1          0         
806.2      0.04037362 1          0         
806.3      0.02913488 1          0         
806.4      0.01894906 1          0         
806.5      0.009820184 1          0         
806.6      0.004619399 1          0         
806.7      0.0008391952 1          0         
806.8      0          1          0         
806.9      0          1          0         
807        0          1          0         
807.1      0          1          0         
807.2      0          1          0         
807.3      0          1          0         
807.4      0          1          0         
807.5      0          1          0         
807.6      0          1          0         
807.7      0          1          0         
807.8      0          1          0         
807.9      0          1          0         
808        0          1          0         
808.1      0          1          0         
808.2      0          1          0         
808.3      0          1          0         
808.4      0          1          0         
808.5      0          1          0         
808.6      0          1          0         
808.7      0          1          0         
808.8      0          1          0         
808.9      0          1          0         
809        0          1          0         
809.1      0          1          0         
809.2      0          1          0         
809.3      0          1          0         
809.4      0          1          0         
809.5      0          1          0         
809.6      0          1          0         
809.7      0          1          0         
