~Version
 VERS              .         3.0                           : CWLS LOG ASCII STANDARD - VERSION 3.0
 WRAP              .         NO                            : ONE LINE PER DEPTH STEP
 DLM               .         SPACE                         : DELIMITING CHARACTER(SPACE TAB OR COMMA)
~Well Information
#_______________________________________________________________________________
#
#PARAMETER_NAME    .UNIT     VALUE                         : DESCRIPTION
#_______________________________________________________________________________
STRT               .M        100                           : First reference value
STOP               .M        844                           : Last reference value
STEP               .M        0.1                           : Step increment
NULL               .         -9999                         : Missing value
COMP               .         ICPetroleum                   : Company
WELL               .         323                           : Well name
FLD                .         Karatobe                      : Field
LOC                .                                       : Location
SRVC               .                                       : Service Company
CTRY               .         KZ                            : Country
DATE               .         11.11.2005                    : Service Date
LATI               .         0                             : Latitude
LONG               .         0                             : Longitude
GDAT               .         WGS 84                        : Geodetic Datum
API                .                                       : API NUMBER
CNTY               .                                       : 
COORDIN            .                                       : Grid System
COUNT              .         Kazakhstan                    : Country
COUNTRY            .         Kazakhstan                    : 
COUNTRY            .         Kazakhstan                    : 
EREF               .m        142.3                         : 
KB                 .         141.9                         : KB Elevation
MDEC               .         0                             : Magnetic Declination
ORIGINALWELLNAME   .         323                           : 
PROV               .                                       : Province
RWS                .         0                             : Def_Rw
STAT               .                                       : 
UWI                .         KAR_323                       : Unique Well Identifier (UWI)
WST                .         0                             : Def_Rwt
X                  .km       466280.32                     : 
XCOORD             .                                       : X or East-West Coordinate
Y                  .km       5308145.37                    : 
YCOORD             .                                       : Y or North-South Coordinate
~Parameter Information Block
#_______________________________________________________________________________
#
#PARAMETER_NAME    .UNIT     VALUE                         : DESCRIPTION
#_______________________________________________________________________________
SET                .         Las                           : 
TLFamily_DEPT      .         Measured Depth                : 
TLFamily_PHI_FINAL .         Porosity                      : 
TLFamily_SW_AR     .         Water Saturation              : 
TLFamily_VSH_FINAL .         Shale Volume                  : 
~Curve Information
#_______________________________________________________________________________
#
#LOGNAME           .UNIT     LOG_ID                        : DESCRIPTION
#_______________________________________________________________________________
DEPT               .M                                      :  {F}
PHI_FINAL          .m3/m3                                  : Porosity {F}
SW_AR              .m3/m3                                  :  {F}
VSH_FINAL          .unitless                               : Vshale {F}
~Ascii
# ...
245.6      0.3223215  0.1740169  0.3239186 
245.7      0.3342214  0.1660987  0.2831501 
245.8      0.3282611  0.1689289  0.2962055 
245.9      0.3215453  0.172409   0.3097241 
246        0.3075851  0.1832001  0.353337  
246.1      0.2988728  0.192624   0.3850464 
246.2      0.2792423  0.2110544  0.4190547 
246.3      0.3350995  0.1843673  0.2829032 
246.4      0.318453   0.1982449  0.3235268 
246.5      0.3190598  0.1920305  0.3094469 
246.6      0.3635526  0.1638617  0.2030457 
246.7      0.3610023  0.1607029  0.2030189 
246.8      0.3486744  0.1659333  0.2347693 
246.9      0.3719642  0.155229   0.1743706 
247        0.3800031  0.1455409  0.1568949 
247.1      0.3717263  0.1357598  0.1835224 
247.2      0.3688371  0.1261356  0.1743045 
247.3      0.3622714  0.1239659  0.1834753 
247.4      0.3652715  0.1263436  0.1653861 
247.5      0.3562938  0.1383114  0.1834283 
247.6      0.3678987  0.1372288  0.1742164 
247.7      0.350723   0.1439857  0.2027513 
247.8      0.3606477  0.1483173  0.1928712 
247.9      0.3353134  0.1677464  0.2696521 
248        0.3233286  0.1765535  0.295248  
248.1      0.3260717  0.1847715  0.3087097 
248.2      0.3350305  0.2002237  0.282124  
248.3      0.3098967  0.257418   0.3520792 
248.4      0.3158359  0.2956057  0.3370294 
248.5      0.290402   0.322254   0.4002352 
248.6      0.3162241  0.2916201  0.3369264 
248.7      0.3235305  0.2778587  0.3224052 
248.8      0.3294592  0.2716655  0.3083882 
248.9      0.3486685  0.2610777  0.2571286 
249        0.3047033  0.3012055  0.3672099 
249.1      0.3164702  0.2950451  0.3222109 
249.2      0.308127   0.2912179  0.3366178 
249.3      0.3419842  0.2504625  0.2339643 
249.4      0.3672708  0.2319078  0.1829825 
249.5      0.3739686  0.2213371  0.1649545 
249.6      0.3603391  0.2041261  0.1829357 
249.7      0.3613255  0.1933951  0.1649134 
249.8      0.3672788  0.1827336  0.148115  
249.9      0.3833964  0.1564573  0.1250385 
250        0.3964939  0.1493221  0.09782172
250.1      0.4024911  0.1391857  0.09158642
250.2      0.4168627  0.1284227  0.09157661
250.3      0.4022475  0.1375697  0.09778983
250.4      0.3905949  0.1494108  0.1249664 
250.5      0.3864177  0.1597832  0.1479899 
250.6      0.3871137  0.1534831  0.1562039 
250.7      0.3799028  0.1582587  0.1647087 
250.8      0.3787124  0.1717376  0.1826554 
250.9      0.3729922  0.1802273  0.192097  
251        0.3683096  0.166466   0.1920722 
251.1      0.3828539  0.1497723  0.1561084 
251.2      0.3727336  0.1513873  0.1825621 
251.3      0.3658704  0.1604333  0.1919976 
251.4      0.3746926  0.1601442  0.1645658 
251.5      0.3773245  0.1596801  0.1398738 
251.6      0.3555465  0.170479   0.17334   
251.7      0.3758863  0.1707361  0.1321781 
251.8      0.3744596  0.1781696  0.1732964 
251.9      0.3680771  0.1746742  0.1732746 
252        0.3690642  0.1662848  0.1397909 
252.1      0.3471128  0.1749917  0.2015815 
252.2      0.3585514  0.1890043  0.1732092 
252.3      0.3801288  0.191972   0.1476693 
252.4      0.3848701  0.1832086  0.1558606 
252.5      0.3463652  0.1895804  0.2678874 
252.6      0.3475487  0.1845617  0.2678492 
252.7      0.3449714  0.1815121  0.2802939 
252.8      0.3026008  0.2004372  0.3496414 
252.9      0.3170796  0.2008585  0.3065171 
253        0.2867252  0.230506   0.3808555 
253.1      0.3135508  0.206494   0.3346242 
253.2      0.3078618  0.205688   0.3648073 
253.3      0.3077908  0.2066064  0.3493724 
253.4      0.2717538  0.2350082  0.4501688 
253.5      0.2860735  0.2225143  0.4141099 
253.6      0.3137514  0.1982839  0.3492112 
253.7      0.3437088  0.1767166  0.2798902 
253.8      0.3492742  0.1734597  0.243746  
253.9      0.3398262  0.1801329  0.255327  
254        0.3694735  0.1682408  0.1728181 
254.1      0.364298   0.1761961  0.1818886 
254.2      0.3815125  0.1710835  0.1473322 
254.3      0.36459    0.1778699  0.1727531 
254.4      0.3961133  0.1644652  0.1104021 
254.5      0.3911328  0.164368   0.1037537 
254.6      0.3768986  0.1693206  0.1172483 
254.7      0.3778491  0.1718532  0.1393443 
254.8      0.3851151  0.1727391  0.1472261 
254.9      0.3816264  0.1758849  0.1553861 
255        0.4035596  0.1675036  0.1171953 
255.1      0.4023967  0.1725519  0.117182  
255.2      0.3769715  0.1906565  0.1553293 
255.3      0.3486621  0.2122438  0.2108147 
255.4      0.3406975  0.2216887  0.2212189 
255.5      0.3454055  0.2177955  0.2107588 
255.6      0.3712537  0.195097   0.1552537 
255.7      0.3844266  0.1759274  0.1242063 
255.8      0.3865198  0.1732629  0.1170893 
255.9      0.379262   0.1809719  0.1035944 
256        0.3447006  0.2088931  0.1908359 
256.1      0.3629608  0.2116999  0.1315011 
256.2      0.3595656  0.2152446  0.1390973 
256.3      0.3512198  0.2193417  0.1469614 
256.4      0.3398365  0.2319562  0.1813577 
256.5      0.3637085  0.2350126  0.1314399 
256.6      0.3607323  0.2529409  0.1240782 
256.7      0.3740878  0.2368583  0.1169702 
256.8      0.3683547  0.2367384  0.1034922 
256.9      0.3849304  0.2255286  0.08496685
257        0.4027253  0.2146182  0.07920523
257.1      0.3978412  0.2184805  0.09090504
257.2      0.4032912  0.2172919  0.07363459
257.3      0.3990498  0.2118815  0.07918074
257.4      0.3883033  0.1989165  0.09704082
257.5      0.3709557  0.2034763  0.1034128 
257.6      0.3783296  0.2295877  0.07915626
257.7      0.3731518  0.2922579  0.0682364 
257.8      0.390951   0.3358087  0.04856192
257.9      0.3931602  0.3899499  0.05321993
258        0.3885632  0.4297013  0.05321486
258.1      0.3954448  0.4587874  0.0630343 
258.2      0.3920571  0.4638482  0.05803093
258.3      0.3992726  0.4353977  0.05802532
258.4      0.4016024  0.453137   0.04853464
258.5      0.3980148  0.482931   0.05318955
258.6      0.4063937  0.5087304  0.04852554
258.7      0.4134059  0.5327135  0.048521  
258.8      0.4126221  0.552613   0.05799728
258.9      0.3978027  0.5600694  0.07350777
259        0.3887746  0.5632921  0.09072179
259.1      0.4004848  0.5609179  0.08477156
259.2      0.3929072  0.5777456  0.09070255
259.3      0.3986655  0.5464755  0.07901785
259.4      0.3964415  0.5009844  0.084745  
259.5      0.3750801  0.4935784  0.1166013 
259.6      0.3615929  0.5295972  0.1097652 
259.7      0.3353034  0.6308677  0.1544826 
259.8      0.3176186  0.7102218  0.241738  
259.9      0.311379   0.6866997  0.2774103 
260        0.270051   0.7440959  0.3609762 
260.1      0.228101   0.8573229  0.4832509 
260.2      0.1579607  1          0.6911788 
260.3      0.2007055  0.9451724  0.5905586 
260.4      0.2521831  0.7552253  0.4636688 
260.5      0.1840237  1          0.6141641 
260.6      0.1851404  1          0.5902417 
260.7      0.1671026  1          0.6385899 
260.8      0.1789422  1          0.6138307 
260.9      0.2019888  1          0.5447457 
261        0.2221348  0.9088841  0.5025136 
261.1      0.1679174  1          0.6636179 
261.2      0.201484   0.9971574  0.5666423 
261.3      0.1591252  1          0.689756  
261.4      0.177098   1          0.6377723 
261.5      0.1742235  1          0.6376557 
261.6      0.1634853  1          0.637539  
261.7      0.1914085  1          0.5890821 
261.8      0.1195454  1          0.7446415 
261.9      0.1659122  1          0.6371893 
262        0.08296183 1          0.8676249 
262.1      0.04001438 1          1         
262.2      0.04269678 1          1         
262.3      0.0502492  1          1         
262.4      0.1934761  1          0.6366074 
262.5      0.1601772  1          0.7154465 
262.6      0.1402474  1          0.7726909 
262.7      0.1593617  1          0.6879522 
262.8      0.1230165  1          0.7723922 
262.9      0.1231114  1          0.7430769 
263        0.1267428  1          0.742935  
263.1      0.1732765  1          0.611285  
263.2      0.2145948  0.9338471  0.5006346 
263.3      0.2023263  0.9919379  0.5424704 
263.4      0.2089207  0.9721969  0.5423759 
263.5      0.1766599  1          0.6606806 
263.6      0.153892   1          0.7139614 
263.7      0.1847733  1          0.6350986 
