~Version
 VERS              .         3.0                           : CWLS LOG ASCII STANDARD - VERSION 3.0
 WRAP              .         NO                            : ONE LINE PER DEPTH STEP
 DLM               .         SPACE                         : DELIMITING CHARACTER(SPACE TAB OR COMMA)
~Well Information
#_______________________________________________________________________________
#
#PARAMETER_NAME    .UNIT     VALUE                         : DESCRIPTION
#_______________________________________________________________________________
STRT               .M        100                           : First reference value
STOP               .M        844                           : Last reference value
STEP               .M        0.1                           : Step increment
NULL               .         -9999                         : Missing value
COMP               .         ICPetroleum                   : Company
WELL               .         323                           : Well name
FLD                .         Karatobe                      : Field
LOC                .                                       : Location
SRVC               .                                       : Service Company
CTRY               .         KZ                            : Country
DATE               .         11.11.2005                    : Service Date
LATI               .         0                             : Latitude
LONG               .         0                             : Longitude
GDAT               .         WGS 84                        : Geodetic Datum
API                .                                       : API NUMBER
CNTY               .                                       : 
COORDIN            .                                       : Grid System
COUNT              .         Kazakhstan                    : Country
COUNTRY            .         Kazakhstan                    : 
COUNTRY            .         Kazakhstan                    : 
EREF               .m        142.3                         : 
KB                 .         141.9                         : KB Elevation
MDEC               .         0                             : Magnetic Declination
ORIGINALWELLNAME   .         323                           : 
PROV               .                                       : Province
RWS                .         0                             : Def_Rw
STAT               .                                       : 
UWI                .         KAR_323                       : Unique Well Identifier (UWI)
WST                .         0                             : Def_Rwt
X                  .km       466280.32                     : 
XCOORD             .                                       : X or East-West Coordinate
Y                  .km       5308145.37                    : 
YCOORD             .                                       : Y or North-South Coordinate
~Parameter Information Block
#_______________________________________________________________________________
#
#PARAMETER_NAME    .UNIT     VALUE                         : DESCRIPTION
#_______________________________________________________________________________
SET                .         Las                           : 
TLFamily_DEPT      .         Measured Depth                : 
TLFamily_PHI_FINAL .         Porosity                      : 
TLFamily_SW_AR     .         Water Saturation              : 
TLFamily_VSH_FINAL .         Shale Volume                  : 
~Curve Information
#_______________________________________________________________________________
#
#LOGNAME           .UNIT     LOG_ID                        : DESCRIPTION
#_______________________________________________________________________________
DEPT               .M                                      :  {F}
PHI_FINAL          .m3/m3                                  : Porosity {F}
SW_AR              .m3/m3                                  :  {F}
VSH_FINAL          .unitless                               : Vshale {F}
~Ascii
# ...
555        0.1038843  1          0.7320987 
555.1      0.1025453  1          0.7555239 
555.2      0.0995605  1          0.7554049 
555.3      0.06458147 1          0.8563998 
555.4      0.0153238  1          1         
555.5      0.0169428  1          1         
555.6      0.01150065 1          1         
555.7      0.04361    1          0.9108363 
555.8      0.08976283 1          0.8037589 
555.9      0.02674813 1          0.9687259 
556        0.01720806 1          0.9989176 
556.1      0.03918384 1          0.8552818 
556.2      0.05932526 1          0.8032436 
556.3      0.0225626  1          0.8820749 
556.4      0.02480372 1          0.8548632 
556.5      0.04880838 1          0.7780104 
556.6      0.07902533 1          0.7074638 
556.7      0.003089923 1          0.9977257 
556.8      0.006986768 1          0.9672531 
556.9      0.002953732 1          1         
557        0.002897599 1          1         
557.1      0.0004371175 1          1         
557.2      0.01770974 1          0.8807695 
557.3      0.04875835 1          0.7529125 
557.4      0.02304387 1          0.8534701 
557.5      0.0242064  1          0.8533311 
557.6      0.005261322 1          1         
557.7      0.01275762 1          1         
557.8      0.01984007 1          1         
557.9      0.01633617 1          1         
558        0.01760223 1          1         
558.1      0.05160823 1          0.8524973 
558.2      0.05617296 1          0.8523585 
558.3      0.02532991 1          1         
558.4      0.02883133 1          0.9646435 
558.5      0.05371778 1          0.8519422 
558.6      0.01777303 1          1         
558.7      0.020803   1          0.9943333 
558.8      0.05885949 1          0.8515263 
558.9      0.09180942 1          0.7750552 
559        0.03904624 1          0.9343548 
559.1      0.08356755 1          0.7748097 
559.2      0.1147743  1          0.6611383 
559.3      0.147127   1          0.581138  
559.4      0.04548132 1          0.8506956 
559.5      0.08241584 1          0.7269851 
559.6      0.1030209  1          0.7041989 
559.7      0.09442328 1          0.7267593 
559.8      0.115009   1          0.6819524 
559.9      0.07093287 1          0.7985036 
560        0.1028651  1          0.7264207 
560.1      0.04183258 1          0.9042145 
560.2      0.08228569 1          0.7981215 
560.3      0.1250252  1          0.6814327 
560.4      0.1836741  1          0.5260772 
560.5      0.1414757  1          0.6598413 
560.6      0.1444131  1          0.6597416 
560.7      0.1602122  1          0.5990377 
560.8      0.1796905  1          0.5613273 
560.9      0.1832139  1          0.5432241 
561        0.2093348  1          0.4759723 
561.1      0.142391   1          0.6384829 
561.2      0.08013265 1          0.7968494 
561.3      0.2127092  1          0.4601491 
561.4      0.1901791  1          0.5083228 
561.5      0.1777899  1          0.5607623 
561.6      0.1545736  1          0.6178451 
561.7      0.125333   1          0.7019286 
561.8      0.1029186  1          0.747618  
561.9      0.112054   1          0.7242824 
562        0.05888509 1          0.8738607 
562.1      0.1819554  1          0.5787783 
562.2      0.2295351  1          0.4444216 
562.3      0.2571266  1          0.3618759 
562.4      0.2625321  1          0.3373127 
562.5      0.3040825  1          0.2426402 
562.6      0.287825   1          0.2817029 
562.7      0.2784801  1          0.3140324 
562.8      0.2650397  1          0.3492234 
562.9      0.2299793  1          0.4149667 
563        0.2128907  1          0.4746713 
563.1      0.2049745  1          0.4746065 
563.2      0.1839056  1          0.5414487 
563.3      0.1520446  1          0.6162943 
563.4      0.1359347  1          0.6362947 
563.5      0.1380809  1          0.6361998 
563.6      0.209379   1          0.4902937 
563.7      0.2223058  1          0.4435291 
563.8      0.224271   1          0.4144767 
563.9      0.2359053  1          0.3870302 
564        0.2569129  1          0.3249297 
564.1      0.2486358  1          0.3135017 
564.2      0.266598   1          0.2242748 
564.3      0.2616311  1          0.2242503 
564.4      0.2523448  1          0.2421243 
564.5      0.2385228  1          0.2915321 
564.6      0.2059566  1          0.4001684 
564.7      0.2061294  1          0.4139876 
564.8      0.1809807  1          0.4735057 
564.9      0.1600893  1          0.540143  
565        0.1739583  1          0.5226796 
565.1      0.1034264  1          0.6982788 
565.2      0.1880527  1          0.5225328 
565.3      0.1924361  1          0.5224594 
565.4      0.1925858  1          0.53976   
565.5      0.2304653  1          0.4575415 
565.6      0.2346403  1          0.4277469 
565.7      0.2910563  1          0.3018541 
565.8      0.3033381  1          0.270508  
565.9      0.307779   1          0.2606183 
566        0.3117673  1          0.2416915 
566.1      0.3087054  1          0.2326106 
566.2      0.3253179  1          0.2152301 
566.3      0.3238206  1          0.2325592 
566.4      0.3255792  1          0.2325336 
566.5      0.3044069  1          0.2702895 
566.6      0.3007726  1          0.2803891 
566.7      0.2924016  1          0.2907761 
566.8      0.2708103  1          0.3124827 
566.9      0.2653537  1          0.3237834 
567        0.2700907  1          0.3354057 
567.1      0.265983   1          0.3473586 
567.2      0.2317181  1          0.4268429 
567.3      0.2486684  1          0.3853449 
567.4      0.2828731  1          0.2905363 
567.5      0.2864816  1          0.280095  
567.6      0.2925531  1          0.2800623 
567.7      0.2522207  1          0.3594257 
567.8      0.2245591  1          0.4411055 
567.9      0.2853718  1          0.3010639 
568        0.2802734  1          0.3010281 
568.1      0.304887   1          0.2504122 
568.2      0.3086203  1          0.2599353 
568.3      0.3011615  1          0.2599057 
568.4      0.2875261  1          0.2798015 
568.5      0.2716698  1          0.3118441 
568.6      0.2796684  1          0.3118066 
568.7      0.3053533  1          0.2502429 
568.8      0.3025137  1          0.2502147 
568.9      0.281949   1          0.3007059 
569        0.2741171  1          0.3006701 
569.1      0.2618287  1          0.3714456 
569.2      0.2953503  1          0.2899213 
569.3      0.2858359  1          0.3005629 
569.4      0.2877484  1          0.3005272 
569.5      0.3052471  1          0.2595507 
569.6      0.3210406  1          0.2229562 
569.7      0.3456615  1          0.1826707 
569.8      0.3111181  1          0.279346  
569.9      0.308237   1          0.2692327 
570        0.3443517  1          0.1826143 
570.1      0.3400149  1          0.206055  
570.2      0.3417399  1          0.1979928 
570.3      0.3390836  1          0.2142805 
570.4      0.3520196  1          0.1901364 
570.5      0.3364204  1          0.2059673 
570.6      0.3031541  1          0.2790863 
570.7      0.3322639  1          0.2059235 
570.8      0.315979   1          0.259167  
570.9      0.330808   1          0.2058797 
571        0.3274862  1          0.2058578 
571.1      0.3239819  1          0.231332  
571.2      0.3201462  1          0.2402947 
571.3      0.3371187  1          0.1977638 
571.4      0.3432369  1          0.1899388 
571.5      0.3614792  1          0.14745   
571.6      0.3364806  1          0.2057264 
571.7      0.3496346  1          0.1749219 
571.8      0.3516289  1          0.1677366 
571.9      0.3464369  1          0.1677198 
572        0.3482361  1          0.1473785 
572.1      0.3299805  1          0.1975975 
572.2      0.3310492  1          0.1897809 
572.3      0.3432587  1          0.1473357 
572.4      0.3538692  1          0.1409227 
572.5      0.3471515  1          0.1538879 
572.6      0.337402   1          0.1821269 
572.7      0.3118927  1          0.2586083 
572.8      0.327103   1          0.2137053 
572.9      0.3356002  1          0.1974315 
573        0.3464558  1          0.1675347 
573.1      0.3364349  1          0.1820334 
