~Version
 VERS              .         3.0                           : CWLS LOG ASCII STANDARD - VERSION 3.0
 WRAP              .         NO                            : ONE LINE PER DEPTH STEP
 DLM               .         SPACE                         : DELIMITING CHARACTER(SPACE TAB OR COMMA)
~Well Information
#_______________________________________________________________________________
#
#PARAMETER_NAME    .UNIT     VALUE                         : DESCRIPTION
#_______________________________________________________________________________
STRT               .M        100                           : First reference value
STOP               .M        844                           : Last reference value
STEP               .M        0.1                           : Step increment
NULL               .         -9999                         : Missing value
COMP               .         ICPetroleum                   : Company
WELL               .         323                           : Well name
FLD                .         Karatobe                      : Field
LOC                .                                       : Location
SRVC               .                                       : Service Company
CTRY               .         KZ                            : Country
DATE               .         11.11.2005                    : Service Date
LATI               .         0                             : Latitude
LONG               .         0                             : Longitude
GDAT               .         WGS 84                        : Geodetic Datum
API                .                                       : API NUMBER
CNTY               .                                       : 
COORDIN            .                                       : Grid System
COUNT              .         Kazakhstan                    : Country
COUNTRY            .         Kazakhstan                    : 
COUNTRY            .         Kazakhstan                    : 
EREF               .m        142.3                         : 
KB                 .         141.9                         : KB Elevation
MDEC               .         0                             : Magnetic Declination
ORIGINALWELLNAME   .         323                           : 
PROV               .                                       : Province
RWS                .         0                             : Def_Rw
STAT               .                                       : 
UWI                .         KAR_323                       : Unique Well Identifier (UWI)
WST                .         0                             : Def_Rwt
X                  .km       466280.32                     : 
XCOORD             .                                       : X or East-West Coordinate
Y                  .km       5308145.37                    : 
YCOORD             .                                       : Y or North-South Coordinate
~Parameter Information Block
#_______________________________________________________________________________
#
#PARAMETER_NAME    .UNIT     VALUE                         : DESCRIPTION
#_______________________________________________________________________________
SET                .         Las                           : 
TLFamily_DEPT      .         Measured Depth                : 
TLFamily_PHI_FINAL .         Porosity                      : 
TLFamily_SW_AR     .         Water Saturation              : 
TLFamily_VSH_FINAL .         Shale Volume                  : 
~Curve Information
#_______________________________________________________________________________
#
#LOGNAME           .UNIT     LOG_ID                        : DESCRIPTION
#_______________________________________________________________________________
DEPT               .M                                      :  {F}
PHI_FINAL          .m3/m3                                  : Porosity {F}
SW_AR              .m3/m3                                  :  {F}
VSH_FINAL          .unitless                               : Vshale {F}
~Ascii
# ...
700.6      0.1435973  1          0.4960731 
700.7      0.1716688  1          0.4513193 
700.8      0.1692559  1          0.4622752 
700.9      0.2266006  1          0.3310874 
701        0.2050021  1          0.3787552 
701.1      0.186496   1          0.4089902 
701.2      0.1939255  1          0.3886935 
701.3      0.1903941  1          0.3787552 
701.4      0.1809522  1          0.3689544 
701.5      0.1514549  1          0.4298601 
701.6      0.1394407  1          0.4298601 
701.7      0.1062958  1          0.4733848 
701.8      0.1060054  1          0.4513193 
701.9      0.02067822 1          0.5806487 
702        0          1          0.7313854 
702.1      0          1          0.7313854 
702.2      0.007106925 1          0.6463111 
702.3      0.1150427  1          0.4622752 
702.4      0.1412608  1          0.4193526 
702.5      0.1675684  1          0.3787552 
702.6      0.1763511  1          0.3592889 
702.7      0.1520676  1          0.440515  
702.8      0.1634774  1          0.4298601 
702.9      0.1625001  1          0.4193526 
703        0.1652689  1          0.440515  
703.1      0.1657452  1          0.4193526 
703.2      0.2200463  1          0.3040396 
703.3      0.1881579  1          0.3689544 
703.4      0.1835079  1          0.3689544 
703.5      0.1566473  1          0.4298601 
703.6      0.1120367  1          0.5313129 
703.7      0.08726074 1          0.5556373 
703.8      0.09614171 1          0.5433904 
703.9      0.0776493  1          0.6063663 
704        0.03236651 1          0.76136   
704.1      0          1          0.9962724 
704.2      0          1          1         
704.3      0          1          1         
704.4      0.06464195 1          0.76136   
704.5      0.1394003  1          0.5313129 
704.6      0.1722711  1          0.4733848 
704.7      0.166246   1          0.4846499 
704.8      0.1533808  1          0.4622752 
704.9      0.1174664  1          0.5313129 
705        0.1261745  1          0.4733848 
705.1      0.1563766  1          0.4193526 
705.2      0.1437099  1          0.4622752 
705.3      0.1766483  1          0.3787552 
705.4      0.1785691  1          0.3787552 
705.5      0.1589177  1          0.3987711 
705.6      0.1404235  1          0.4089902 
705.7      0.0830261  1          0.5076565 
705.8      0.0497318  1          0.5556373 
705.9      0.02520972 1          0.5806487 
706        0          1          0.7462684 
706.1      0.01339352 1          0.5806487 
706.2      0.008237855 1          0.5934181 
706.3      0.01691204 1          0.5806487 
706.4      0.04281728 1          0.5313129 
706.5      0.1087316  1          0.3987711 
706.6      0.1129498  1          0.3886935 
706.7      0.09516534 1          0.4193526 
706.8      0.07683808 1          0.4513193 
706.9      0.1004099  1          0.3987711 
707        0.09263581 1          0.4193526 
707.1      0.1129258  1          0.3886935 
707.2      0.1056149  1          0.4193526 
707.3      0.09987122 1          0.4298601 
707.4      0.1027589  1          0.4193526 
707.5      0.09286161 1          0.4193526 
707.6      0.04730847 1          0.4622752 
707.7      0.02946951 1          0.4513193 
707.8      0          1          0.4846499 
707.9      0          1          0.4733848 
708        0          1          0.4846499 
708.1      0          1          0.4960731 
708.2      0          1          0.5556373 
708.3      0          1          0.5680558 
708.4      0          1          0.6063663 
708.5      0.01069424 1          0.5680558 
708.6      0.002384298 1          0.6063663 
708.7      0          1          0.6879599 
708.8      0          1          0.7462684 
708.9      0          1          0.702234  
709        0.06344481 1          0.5433904 
709.1      0.02521941 1          0.6738832 
709.2      0.02391016 1          0.7167082 
709.3      0          1          0.8730963 
709.4      0          1          1         
709.5      0          1          1         
709.6      0          1          1         
709.7      0.02357987 1          0.8564595 
709.8      0.08541942 1          0.7167082 
709.9      0.08481577 1          0.7313854 
710        0.1543649  1          0.5806487 
710.1      0.1960514  1          0.4846499 
710.2      0.1823015  1          0.5194023 
710.3      0.2074121  1          0.440515  
710.4      0.1987631  1          0.4513193 
710.5      0.1868803  1          0.4960731 
710.6      0.1869383  1          0.5076565 
710.7      0.1501323  1          0.5433904 
710.8      0.1600607  1          0.5806487 
710.9      0.1778683  1          0.5313129 
711        0.1596019  1          0.5806487 
711.1      0.1658256  1          0.5680558 
711.2      0.1357534  1          0.6194963 
711.3      0.1484767  1          0.5934181 
711.4      0.1439262  1          0.5934181 
711.5      0.1176113  1          0.6600012 
711.6      0.1210484  1          0.6328104 
711.7      0.1413389  1          0.5934181 
711.8      0.1136295  1          0.6600012 
711.9      0.1199567  1          0.6328104 
712        0.1537038  1          0.5433904 
712.1      0.1145319  1          0.6328104 
712.2      0.1322405  1          0.5680558 
712.3      0.1561552  1          0.5194023 
712.4      0.166843   1          0.4960731 
712.5      0.1456018  1          0.5433904 
712.6      0.1416482  1          0.5076565 
712.7      0.1627137  1          0.440515  
712.8      0.1621721  1          0.4733848 
712.9      0.1862501  1          0.440515  
713        0.1820621  1          0.440515  
713.1      0.1757759  1          0.4622752 
713.2      0.1617353  1          0.4846499 
713.3      0.1612907  1          0.4733848 
713.4      0.15917    1          0.4513193 
713.5      0.1741658  1          0.4298601 
713.6      0.1377915  1          0.440515  
713.7      0.132713   1          0.4622752 
713.8      0.1261153  1          0.4513193 
713.9      0.1422541  1          0.4513193 
714        0.1488772  1          0.4193526 
714.1      0.1319314  1          0.4298601 
714.2      0.1292509  1          0.3886935 
714.3      0.1112355  1          0.3886935 
714.4      0.1049612  1          0.3787552 
714.5      0.1148299  1          0.3886935 
714.6      0.1215843  1          0.3987711 
714.7      0.153266   1          0.3497571 
714.8      0.1595116  1          0.3497571 
714.9      0.1435473  1          0.4193526 
715        0.1511116  1          0.3886935 
715.1      0.1423717  1          0.4089902 
715.2      0.1485499  1          0.3787552 
715.3      0.1487498  1          0.3987711 
715.4      0.1260246  1          0.4513193 
715.5      0.1343776  1          0.440515  
715.6      0.1371462  1          0.4298601 
715.7      0.143271   1          0.4089902 
715.8      0.1131263  1          0.4733848 
715.9      0.1116032  1          0.4733848 
716        0.1175888  1          0.4622752 
716.1      0.1460522  1          0.4089902 
716.2      0.1522088  1          0.440515  
716.3      0.1420113  1          0.4622752 
716.4      0.1610584  1          0.4193526 
716.5      0.1739263  1          0.3689544 
716.6      0.1766995  1          0.3592889 
716.7      0.1676039  1          0.3987711 
716.8      0.1595826  1          0.4193526 
716.9      0.1555428  1          0.4089902 
717        0.1685999  1          0.3886935 
717.1      0.1729231  1          0.3592889 
717.2      0.1511226  1          0.3987711 
717.3      0.1551278  1          0.3592889 
717.4      0.1457982  1          0.3592889 
717.5      0.1822031  1          0.2866255 
717.6      0.1773261  1          0.2866255 
717.7      0.1350402  1          0.3886935 
717.8      0.1504335  1          0.3689544 
717.9      0.1476488  1          0.3403573 
718        0.1636913  1          0.3403573 
718.1      0.1726772  1          0.3403573 
718.2      0.1893732  1          0.3310874 
718.3      0.1927765  1          0.3592889 
718.4      0.1783384  1          0.4089902 
718.5      0.1767475  1          0.4193526 
718.6      0.1455145  1          0.5076565 
718.7      0.1140675  1          0.5934181 
