~Version
 VERS              .         3.0                           : CWLS LOG ASCII STANDARD - VERSION 3.0
 WRAP              .         NO                            : ONE LINE PER DEPTH STEP
 DLM               .         SPACE                         : DELIMITING CHARACTER(SPACE TAB OR COMMA)
~Well Information
#_______________________________________________________________________________
#
#PARAMETER_NAME    .UNIT     VALUE                         : DESCRIPTION
#_______________________________________________________________________________
STRT               .M        100                           : First reference value
STOP               .M        844                           : Last reference value
STEP               .M        0.1                           : Step increment
NULL               .         -9999                         : Missing value
COMP               .         ICPetroleum                   : Company
WELL               .         323                           : Well name
FLD                .         Karatobe                      : Field
LOC                .                                       : Location
SRVC               .                                       : Service Company
CTRY               .         KZ                            : Country
DATE               .         11.11.2005                    : Service Date
LATI               .         0                             : Latitude
LONG               .         0                             : Longitude
GDAT               .         WGS 84                        : Geodetic Datum
API                .                                       : API NUMBER
CNTY               .                                       : 
COORDIN            .                                       : Grid System
COUNT              .         Kazakhstan                    : Country
COUNTRY            .         Kazakhstan                    : 
COUNTRY            .         Kazakhstan                    : 
EREF               .m        142.3                         : 
KB                 .         141.9                         : KB Elevation
MDEC               .         0                             : Magnetic Declination
ORIGINALWELLNAME   .         323                           : 
PROV               .                                       : Province
RWS                .         0                             : Def_Rw
STAT               .                                       : 
UWI                .         KAR_323                       : Unique Well Identifier (UWI)
WST                .         0                             : Def_Rwt
X                  .km       466280.32                     : 
XCOORD             .                                       : X or East-West Coordinate
Y                  .km       5308145.37                    : 
YCOORD             .                                       : Y or North-South Coordinate
~Parameter Information Block
#_______________________________________________________________________________
#
#PARAMETER_NAME    .UNIT     VALUE                         : DESCRIPTION
#_______________________________________________________________________________
SET                .         Las                           : 
TLFamily_DEPT      .         Measured Depth                : 
TLFamily_PHI_FINAL .         Porosity                      : 
TLFamily_SW_AR     .         Water Saturation              : 
TLFamily_VSH_FINAL .         Shale Volume                  : 
~Curve Information
#_______________________________________________________________________________
#
#LOGNAME           .UNIT     LOG_ID                        : DESCRIPTION
#_______________________________________________________________________________
DEPT               .M                                      :  {F}
PHI_FINAL          .m3/m3                                  : Porosity {F}
SW_AR              .m3/m3                                  :  {F}
VSH_FINAL          .unitless                               : Vshale {F}
~Ascii
# ...
154.6      0.5571965  -9999      0.186827  
154.7      0.5236131  -9999      0.2553915 
154.8      0.5280638  -9999      0.2553528 
154.9      0.5591654  -9999      0.1867494 
155        0.5357556  -9999      0.2306798 
155.1      0.5387604  -9999      0.2306459 
155.2      0.56082    -9999      0.197043  
155.3      0.5673196  -9999      0.1866459 
155.4      0.566      -9999      0.1866201 
155.5      0.558323   -9999      0.2077242 
155.6      0.5503109  -9999      0.2188706 
155.7      0.5503783  -9999      0.1865426 
155.8      0.5066698  -9999      0.2076353 
155.9      0.4728014  -9999      0.1669104 
156        0.4260871  -9999      0.166888  
156.1      0.3963401  -9999      0.1864394 
156.2      0.3932987  -9999      0.2186806 
156.3      0.4703359  -9999      0.1764199 
156.4      0.5125434  -9999      0.186362  
156.5      0.5444322  -9999      0.2074282 
156.6      0.5951073  -9999      0.1575146 
156.7      0.6146936  -9999      0.1574938 
156.8      0.6426634  -9999      0.1317645 
156.9      0.6171193  1          0.1762759 
157        0.6228493  0.6088276  0.1666644 
157.1      0.5948503  0.5809352  0.2072509 
157.2      0.5954003  0.5499228  0.1964904 
157.3      0.6174007  0.5330629  0.1573692 
157.4      0.6189345  0.5179831  0.1399057 
157.5      0.6114628  0.509223   0.1398879 
157.6      0.5911835  0.540656   0.1665305 
157.7      0.5840414  0.5237578  0.1572862 
157.8      0.5739094  0.5167587  0.1664859 
157.9      0.5719082  0.5030167  0.1572447 
158        0.5671157  0.4664958  0.157224  
158.1      0.5722339  0.4591473  0.1315492 
158.2      0.5966741  0.4398123  0.08183437
158.3      0.5593643  0.454436   0.139745  
158.4      0.5582055  0.4779457  0.1397271 
158.5      0.5613138  0.4601016  0.1159309 
158.6      0.550125   0.4727673  0.1314665 
158.7      0.5391525  0.5074871  0.1570791 
158.8      0.5493363  0.4688839  0.1396558 
158.9      0.5140891  0.5237815  0.2067209 
159        0.5177069  0.4996812  0.2066915 
159.1      0.513273   0.5061635  0.2066622 
159.2      0.5273849  0.5153962  0.1661744 
159.3      0.5415274  0.4802296  0.1158181 
159.4      0.5068823  0.5176595  0.1569344 
159.5      0.497909   0.5319953  0.1661077 
159.6      0.4886661  0.5430201  0.1660855 
159.7      0.4699408  0.6026793  0.1958036 
159.8      0.4660296  0.5880641  0.1957762 
159.9      0.460212   0.5910796  0.1957488 
160        0.4509361  0.6202591  0.2063982 
160.1      0.4280871  0.6376611  0.2409101 
160.2      0.4040545  0.6938437  0.2795311 
160.3      0.4131066  0.7123385  0.2532407 
160.4      0.406949   0.7080408  0.2794445 
160.5      0.4293936  0.6837345  0.2407672 
160.6      0.410927   0.7406524  0.2932317 
160.7      0.4456515  0.6515871  0.2406959 
160.8      0.4635443  0.6104053  0.2287269 
160.9      0.4548009  0.6632234  0.2658741 
161        0.4115927  0.7099461  0.3540106 
161.1      0.4389392  0.6665799  0.3073917 
161.2      0.4343446  0.6894035  0.3222806 
161.3      0.4261852  0.6692646  0.3222286 
161.4      0.4296469  0.6498703  0.307245  
161.5      0.4207708  0.6656449  0.3221246 
161.6      0.4407769  0.6153164  0.278926  
161.7      0.4561304  0.6245998  0.2403396 
161.8      0.4399575  0.6877066  0.2655094 
161.9      0.4318044  0.6827902  0.2787966 
162        0.411083   0.6970252  0.3069519 
162.1      0.4225661  0.7144511  0.2787105 
162.2      0.4553977  0.664776   0.2057557 
162.3      0.4546993  0.6302239  0.195094  
162.4      0.4630382  0.633104   0.1749654 
162.5      0.4507945  0.6393978  0.1848022 
162.6      0.4757003  0.5896711  0.1308089 
162.7      0.479662   0.5911188  0.122922  
162.8      0.479003   0.5933648  0.1153272 
162.9      0.4575953  0.6162407  0.1562147 
163        0.4419342  0.6573964  0.1748236 
163.1      0.4198776  0.7049391  0.1948766 
163.2      0.4308131  0.6666347  0.1846248 
163.3      0.4416783  0.6427382  0.1652683 
163.4      0.4418737  0.6502312  0.1845741 
163.5      0.465896   0.6170321  0.156092  
163.6      0.4402317  0.6347979  0.2277951 
163.7      0.4468669  0.6385992  0.2396298 
163.8      0.4889182  0.5957741  0.1651585 
163.9      0.494019   0.5821304  0.1651365 
164        0.4610187  0.6364952  0.2162375 
164.1      0.446323   0.6514351  0.2162065 
164.2      0.4134127  0.7262378  0.2645415 
164.3      0.4466977  0.6713555  0.2051458 
164.4      0.4749021  0.5729271  0.1559082 
164.5      0.4982055  0.5709306  0.1226502 
164.6      0.4975833  0.5701869  0.1386293 
164.7      0.5062705  0.5491498  0.1386117 
164.8      0.5141783  0.5620795  0.1470491 
164.9      0.5238781  0.5522301  0.1558063 
165        0.5144373  0.5436156  0.18417   
165.1      0.5354813  0.5410298  0.1557656 
165.2      0.5406377  0.5224453  0.1557452 
165.3      0.5746298  0.493163   0.1006994 
165.4      0.5767705  0.5271845  0.1006876 
165.5      0.5881779  0.53765    0.08116965
165.6      0.5780255  0.5225494  0.1149374 
165.7      0.5868503  0.5287097  0.1076544 
165.8      0.5891486  0.5711205  0.1149096 
165.9      0.574438   0.5989174  0.1384012 
166        0.5746946  0.5886458  0.1302549 
166.1      0.5544762  0.5443343  0.1468034 
166.2      0.5420069  0.5346175  0.164633  
166.3      0.4886118  0.5927624  0.2509728 
166.4      0.4878769  0.5697032  0.2386777 
166.5      0.5035484  0.5273005  0.1939579 
166.6      0.5074966  0.5115139  0.1645458 
166.7      0.5101971  0.4988502  0.1554404 
166.8      0.5062612  0.5021487  0.1645022 
166.9      0.518139   0.5072123  0.1382262 
167        0.5085569  0.506649   0.1466337 
167.1      0.5170465  0.4847161  0.1381913 
167.2      0.520669   0.4921675  0.1300604 
167.3      0.4916781  0.5221046  0.1738132 
167.4      0.4747013  0.5434307  0.193716  
167.5      0.4856278  0.5482055  0.1737665 
167.6      0.4768358  0.5593373  0.1936623 
167.7      0.4692526  0.5527664  0.2041655 
167.8      0.4907513  0.5467564  0.1642845 
167.9      0.4836704  0.5353186  0.1736731 
168        0.4715036  0.5353289  0.1935551 
168.1      0.4869611  0.5438423  0.1736265 
168.2      0.4935076  0.5473315  0.1736031 
168.3      0.5094586  0.5123953  0.1551166 
168.4      0.5337918  0.5095426  0.1073102 
168.5      0.5048608  0.5371217  0.1735332 
168.6      0.5072125  0.5026444  0.1735099 
168.7      0.5188593  0.5206075  0.1550358 
168.8      0.5384645  0.4716184  0.129802  
168.9      0.514824   0.5112984  0.1933142 
169        0.5221901  0.5217593  0.1734168 
169.1      0.5233747  0.5044795  0.1549551 
169.2      0.4997882  0.5336086  0.1831169 
169.3      0.4928485  0.5380161  0.1830919 
169.4      0.4898444  0.5508621  0.1639374 
169.5      0.4724682  0.563091   0.1639157 
169.6      0.4304553  0.5982908  0.2258216 
169.7      0.4566754  0.5665038  0.146127  
169.8      0.443391   0.6046844  0.1377211 
169.9      0.4336432  0.6237097  0.1143436 
170        0.4118716  0.7020298  0.1296088 
170.1      0.3589671  0.8308764  0.2143618 
170.2      0.3557798  0.7701871  0.2034501 
170.3      0.3305684  0.805263   0.2373148 
170.4      0.2810969  0.9018986  0.317557  
170.5      0.314848   0.8259863  0.2372452 
170.6      0.2975369  0.8665128  0.2619916 
170.7      0.2757586  1          0.3027575 
170.8      0.334655   0.8915167  0.2032791 
170.9      0.2988032  1          0.2885562 
171        0.3383937  1          0.2492221 
171.1      0.3277237  1          0.2884668 
171.2      0.3202262  0.9839498  0.3171521 
171.3      0.3874089  0.7868293  0.1926744 
171.4      0.3908707  0.7495093  0.1926478 
171.5      0.3829666  0.7717311  0.1926213 
171.6      0.342883   0.8746497  0.2615972 
171.7      0.3010085  0.9417607  0.3478194 
171.8      0.2999381  0.9586373  0.3477624 
171.9      0.293588   0.9888647  0.3640437 
172        0.3123085  0.8960086  0.3476486 
172.1      0.3305832  0.8554056  0.3318573 
172.2      0.3263598  0.8746906  0.3475348 
172.3      0.3542484  0.7646853  0.3019973 
172.4      0.3746536  0.7447406  0.2878866 
172.5      0.3714063  0.7452191  0.3019026 
172.6      0.3864007  0.6875995  0.2742534 
172.7      0.3956158  0.6919434  0.2611646 
