~Version
 VERS              .         3.0                           : CWLS LOG ASCII STANDARD - VERSION 3.0
 WRAP              .         NO                            : ONE LINE PER DEPTH STEP
 DLM               .         SPACE                         : DELIMITING CHARACTER(SPACE TAB OR COMMA)
~Well Information
#_______________________________________________________________________________
#
#PARAMETER_NAME    .UNIT     VALUE                         : DESCRIPTION
#_______________________________________________________________________________
STRT               .M        1.6                           : First reference value
STOP               .M        917                           : Last reference value
STEP               .M        0.1                           : Step increment
NULL               .         -9999                         : Missing value
COMP               .         ICPetroleum                   : Company
WELL               .         302                           : Well name
FLD                .         Karatobe                      : Field
LOC                .                                       : Location
SRVC               .         AO "UPGF"                     : Service Company
CTRY               .         KZ                            : Country
DATE               .         15/2/2022                     : Service Date
LATI               .         0                             : Latitude
LONG               .         0                             : Longitude
GDAT               .         WGS 84                        : Geodetic Datum
COORDIN            .                                       : Grid System
COUNTRY            .         Kazakhstan                    : 
COUNTRY            .         Kazakhstan                    : 
EREF               .m        146.6                         : 
GRP                .                                       : Group name
ISS                .                                       : Well surveys
KB                 .         146.2                         : KB Elevation
ORIGINALWELLNAME   .         302                           : 
PROV               .                                       : Province
RWS                .         -999                          : Def_Rw
TIME               .         16_25                         : LOG TIME
UWI                .         1_302                         : Unique Well Identifier (UWI)
WST                .         -999                          : Def_Rwt
X                  .km       466240.85                     : 
XCOORD             .                                       : X or East-West Coordinate
Y                  .km       5307715.05                    : 
YCOORD             .                                       : Y or North-South Coordinate
~Parameter Information Block
#_______________________________________________________________________________
#
#PARAMETER_NAME    .UNIT     VALUE                         : DESCRIPTION
#_______________________________________________________________________________
SET                .         Las                           : 
TLFamily_DEPT      .         Measured Depth                : 
TLFamily_PHI_FINAL .         Porosity                      : 
TLFamily_SW_AR     .         Water Saturation              : 
TLFamily_VSH_FINAL .         Shale Volume                  : 
~Curve Information
#_______________________________________________________________________________
#
#LOGNAME           .UNIT     LOG_ID                        : DESCRIPTION
#_______________________________________________________________________________
DEPT               .M                                      : Depth curve {F}
PHI_FINAL          .m3/m3                                  : Porosity {F}
SW_AR              .m3/m3                                  :  {F}
VSH_FINAL          .unitless                               : Vshale {F}
~Ascii
# ...
381.4      0.07221787 1          0.82174   
381.5      0.03871556 1          0.8996743 
381.6      0.0158996  1          0.9508359 
381.7      0.009081122 1          0.9909377 
381.8      0.01271535 1          1         
381.9      0.0147977  1          1         
382        0.02273399 1          1         
382.1      0.01744904 1          1         
382.2      0.0207548  1          1         
382.3      0.0457601  1          0.9171641 
382.4      0.04147315 1          0.898069  
382.5      0.01982355 1          0.962357  
382.6      0.01021285 1          0.99594   
382.7      0.01736119 1          0.9619322 
382.8      0.05631088 1          0.8546722 
382.9      0.1028814  1          0.7372268 
383        0.1068491  1          0.7215854 
383.1      0.1159287  1          0.7163684 
383.2      0.06770144 1          0.8074959 
383.3      0.02831167 1          0.9216844 
383.4      0.01504102 1          1         
383.5      0.02088314 1          1         
383.6      0.04894364 1          0.9275498 
383.7      0.1107862  1          0.7465975 
383.8      0.1226033  1          0.680673  
383.9      0.1140549  1          0.700224  
384        0.08615965 1          0.7839183 
384.1      0.08959164 1          0.7408025 
384.2      0.08247066 1          0.7836494 
384.3      0.05135903 1          0.8403392 
384.4      0.03091594 1          0.900762  
384.5      0.01687321 1          0.9852657 
384.6      0.02325553 1          1         
384.7      0.03189046 1          1         
384.8      0.04486806 1          1         
384.9      0.04365947 1          1         
385        0.04112017 1          1         
385.1      0.04232277 1          1         
385.2      0.07715566 1          0.9309866 
385.3      0.125146   1          0.804247  
385.4      0.1034106  1          0.8503153 
385.5      0.0351361  1          1         
385.6      0.02693624 1          1         
385.7      0.02457556 1          1         
385.8      0.07253885 1          0.8556358 
385.9      0.06017587 1          0.8795823 
386        0.03686797 1          0.9359933 
386.1      0.02323299 1          0.9888633 
386.2      0.03507018 1          0.9551997 
386.3      0.0346913  1          0.9549718 
386.4      0.02148395 1          1         
386.5      0.03156025 1          1         
386.6      0.04481872 1          1         
386.7      0.04036865 1          1         
386.8      0.04270741 1          1         
386.9      0.0810302  1          0.8963171 
387        0.09717037 1          0.8655515 
387.1      0.07919599 1          0.8897622 
387.2      0.05992587 1          0.9467171 
387.3      0.07749397 1          0.9080891 
387.4      0.1005456  1          0.8470129 
387.5      0.07347393 1          0.9140425 
387.6      0.03634125 1          1         
387.7      0.01474364 1          1         
387.8      0.008527345 1          1         
387.9      0.01152745 1          1         
388        0.01248382 1          1         
388.1      0.02384859 1          0.9780976 
388.2      0.04633294 1          0.8398518 
388.3      0.08121262 1          0.6995351 
388.4      0.1160445  1          0.5397974 
388.5      0.1544189  1          0.4190331 
388.6      0.1738961  1          0.4318393 
388.7      0.1594446  1          0.4831076 
388.8      0.1466711  1          0.5513722 
388.9      0.1633998  1          0.5315109 
389        0.1716435  1          0.5757483 
389.1      0.1623893  1          0.6055138 
389.2      0.1000347  1          0.7442101 
389.3      0.06682616 1          0.8207021 
389.4      0.03305867 1          0.9296595 
389.5      0.01942512 1          1         
389.6      0.02519015 1          1         
389.7      0.0220711  1          1         
389.8      0.04937942 1          0.8974037 
389.9      0.07521448 1          0.8312777 
390        0.0905174  1          0.813924  
390.1      0.05493211 1          0.9219725 
390.2      0.02115829 1          1         
390.3      0.01702624 1          1         
390.4      0.01432063 1          1         
390.5      0.01569469 1          1         
390.6      0.01574673 1          1         
390.7      0.01359851 1          1         
390.8      0.02110517 1          0.9529668 
390.9      0.05590262 1          0.8770365 
391        0.06812146 1          0.8295169 
391.1      0.06268143 1          0.8409598 
391.2      0.04542362 1          0.901113  
391.3      0.03982    1          0.9009354 
391.4      0.02398299 1          0.9452878 
391.5      0.05900269 1          0.8520797 
391.6      0.03410747 1          0.9066505 
391.7      0.05134573 1          0.8878839 
391.8      0.04778197 1          0.9188671 
391.9      0.06833088 1          0.8632951 
392        0.05270351 1          0.8873612 
392.1      0.02744455 1          0.9183208 
392.2      0.01573855 1          0.9118209 
392.3      0.002212782 1          0.9899905 
392.4      0.007732707 1          1         
392.5      0.01616007 1          1         
392.6      0.04387992 1          0.8741257 
392.7      0.06274187 1          0.7341802 
392.8      0.06491572 1          0.7444215 
392.9      0.05856185 1          0.7495338 
393        0.03588179 1          0.8674431 
393.1      0.009659082 1          0.9883895 
393.2      0.01218546 1          1         
393.3      0.02342265 1          1         
393.4      0.03219737 1          1         
393.5      0.04926607 1          0.994383  
393.6      0.04414814 1          1         
393.7      0.03385396 1          1         
393.8      0.02984571 1          1         
393.9      0.0275336  1          1         
394        0.07389753 1          0.8305033 
394.1      0.03660457 1          0.9021915 
394.2      0.01265632 1          1         
394.3      0.0213198  1          1         
394.4      0.04464477 1          0.9657583 
394.5      0.04196708 1          0.9459065 
394.6      0.0521653  1          0.9013042 
394.7      0.08480107 1          0.8066448 
394.8      0.09291214 1          0.800889  
394.9      0.06889273 1          0.8642418 
395        0.06970196 1          0.8700439 
395.1      0.07612768 1          0.8579435 
395.2      0.04818897 1          0.9381511 
395.3      0.03709687 1          1         
395.4      0.02505971 1          1         
395.5      0.02829004 1          1         
395.6      0.03124286 1          0.990169  
395.7      0.03173001 1          0.9244161 
395.8      0.03256324 1          0.8868557 
395.9      0.02476094 1          0.9497703 
396        0.008678754 1          1         
396.1      0.01108285 1          1         
396.2      0.01839245 1          1         
396.3      0.02643656 1          1         
396.4      0.02564176 1          0.9168401 
396.5      0.04426904 1          0.7818083 
396.6      0.04906758 1          0.7601665 
396.7      0.03740196 1          0.8204913 
396.8      0.01924454 1          0.9545582 
396.9      0.0153329  1          1         
397        0.03340022 1          1         
397.1      0.038391   1          1         
397.2      0.06902146 1          0.8783489 
397.3      0.07568926 1          0.8026645 
397.4      0.02911282 1          0.8963613 
397.5      0.01267803 1          1         
397.6      0.0004052923 1          1         
397.7      0          1          1         
397.8      0          1          1         
397.9      0          1          0.7689677 
398        0.03014925 1          0.4828799 
398.1      0.1470663  1          0.3486763 
398.2      0.2463842  1          0.3172373 
398.3      0.2766447  1          0.3883025 
398.4      0.2117369  1          0.5346251 
398.5      0.1362919  1          0.7212598 
398.6      0.05229085 1          0.9254667 
398.7      0.02616994 1          0.9840019 
398.8      0.02568754 1          1         
398.9      0.01913046 1          1         
399        0.02055657 1          0.976712  
399.1      0.01517695 1          1         
399.2      0.02576546 1          1         
399.3      0.03242257 1          1         
399.4      0.02649155 1          1         
399.5      0.01826096 1          1         
