~Version
 VERS              .         3.0                           : CWLS LOG ASCII STANDARD - VERSION 3.0
 WRAP              .         NO                            : ONE LINE PER DEPTH STEP
 DLM               .         SPACE                         : DELIMITING CHARACTER(SPACE TAB OR COMMA)
~Well Information
#_______________________________________________________________________________
#
#PARAMETER_NAME    .UNIT     VALUE                         : DESCRIPTION
#_______________________________________________________________________________
STRT               .M        1.6                           : First reference value
STOP               .M        917                           : Last reference value
STEP               .M        0.1                           : Step increment
NULL               .         -9999                         : Missing value
COMP               .         ICPetroleum                   : Company
WELL               .         302                           : Well name
FLD                .         Karatobe                      : Field
LOC                .                                       : Location
SRVC               .         AO "UPGF"                     : Service Company
CTRY               .         KZ                            : Country
DATE               .         15/2/2022                     : Service Date
LATI               .         0                             : Latitude
LONG               .         0                             : Longitude
GDAT               .         WGS 84                        : Geodetic Datum
COORDIN            .                                       : Grid System
COUNTRY            .         Kazakhstan                    : 
COUNTRY            .         Kazakhstan                    : 
EREF               .m        146.6                         : 
GRP                .                                       : Group name
ISS                .                                       : Well surveys
KB                 .         146.2                         : KB Elevation
ORIGINALWELLNAME   .         302                           : 
PROV               .                                       : Province
RWS                .         -999                          : Def_Rw
TIME               .         16_25                         : LOG TIME
UWI                .         1_302                         : Unique Well Identifier (UWI)
WST                .         -999                          : Def_Rwt
X                  .km       466240.85                     : 
XCOORD             .                                       : X or East-West Coordinate
Y                  .km       5307715.05                    : 
YCOORD             .                                       : Y or North-South Coordinate
~Parameter Information Block
#_______________________________________________________________________________
#
#PARAMETER_NAME    .UNIT     VALUE                         : DESCRIPTION
#_______________________________________________________________________________
SET                .         Las                           : 
TLFamily_DEPT      .         Measured Depth                : 
TLFamily_PHI_FINAL .         Porosity                      : 
TLFamily_SW_AR     .         Water Saturation              : 
TLFamily_VSH_FINAL .         Shale Volume                  : 
~Curve Information
#_______________________________________________________________________________
#
#LOGNAME           .UNIT     LOG_ID                        : DESCRIPTION
#_______________________________________________________________________________
DEPT               .M                                      : Depth curve {F}
PHI_FINAL          .m3/m3                                  : Porosity {F}
SW_AR              .m3/m3                                  :  {F}
VSH_FINAL          .unitless                               : Vshale {F}
~Ascii
# ...
690.8      0.3690089  0.3090324  0.07174032
690.9      0.3594183  0.3119292  0.08424793
691        0.3546191  0.3119318  0.09778494
691.1      0.3481506  0.3051741  0.1083903 
691.2      0.3429297  0.3027332  0.1134075 
691.3      0.3425642  0.3103135  0.1217221 
691.4      0.3472699  0.3097857  0.1259985 
691.5      0.3471502  0.3005028  0.1174898 
691.6      0.3508734  0.2845677  0.0894879 
691.7      0.369715   0.2649203  0.06773051
691.8      0.3831633  0.2502059  0.05862834
691.9      0.3782152  0.244127   0.06615797
692        0.37762    0.2284728  0.07490934
692.1      0.3716128  0.2216029  0.071661  
692.2      0.3785421  0.2103237  0.05935149
692.3      0.3693706  0.2178628  0.04733348
692.4      0.3647071  0.2270869  0.04665495
692.5      0.3633798  0.2545832  0.04868692
692.6      0.3642372  0.2835769  0.04868328
692.7      0.3504636  0.3167678  0.04464804
692.8      0.3507     0.3143412  0.04202488
692.9      0.3639682  0.2877519  0.04267253
693        0.3756884  0.2715972  0.0400904 
693.1      0.3897471  0.2479004  0.03756163
693.2      0.397727   0.2327826  0.03326712
693.3      0.3986526  0.2248187  0.03028969
693.4      0.4017451  0.219882   0.03087702
693.5      0.4088535  0.2040956  0.0320629 
693.6      0.4103904  0.1752419  0.03325775
693.7      0.4075032  0.1539533  0.0320584 
693.8      0.4103677  0.1533352  0.03086841
693.9      0.4149835  0.1625939  0.02795667
694        0.4104891  0.1789403  0.02345005
694.1      0.4023572  0.1927966  0.02344847
694.2      0.3948346  0.2075792  0.0291017 
694.3      0.3894612  0.2151349  0.04459903
694.4      0.3935068  0.2119014  0.04861787
694.5      0.3978659  0.2108334  0.05417832
694.6      0.4062202  0.229423   0.0432692 
694.7      0.3991232  0.2508732  0.03940811
694.8      0.405268   0.2415497  0.03262852
694.9      0.4090766  0.2199914  0.03751321
695        0.4058555  0.2128334  0.04391634
695.1      0.4054098  0.2162406  0.04656527
695.2      0.4002414  0.2270342  0.04195492
695.3      0.3811805  0.2480183  0.0445627 
695.4      0.3864621  0.2481851  0.04926177
695.5      0.3879076  0.2429493  0.04654786
695.6      0.4044374  0.2332268  0.03381155
695.7      0.4114431  0.2404231  0.02965382
695.8      0.3994551  0.2613185  0.0308254 
695.9      0.3909966  0.2730605  0.0290737 
696        0.3894755  0.2603216  0.02177987
696.1      0.3873531  0.2514119  0.02016521
696.2      0.3747025  0.2520725  0.02341525
696.3      0.3552609  0.2728446  0.02341367
696.4      0.3395342  0.3085922  0.01910356
696.5      0.3249979  0.3616341  0.01445691
696.6      0.3115341  0.4178355  0.01196968
696.7      0.2921455  0.4512824  0.01147831
696.8      0.2771884  0.4763929  0.01395338
696.9      0.2633863  0.5112346  0.01648747
697        0.25901    0.5652293  0.02451036
697.1      0.2784874  0.6332712  0.02675262
697.2      0.2646043  0.844452   0.02340241
697.3      0.2605476  1          0.01444675
697.4      0.2795432  1          0.01001978
697.5      0.2880313  1          0.01700013
697.6      0.2940664  1          0.0245004 
697.7      0.3045934  0.9890535  0.03137516
697.8      0.3158508  0.9490902  0.02961382
697.9      0.3355579  0.9024966  0.02674102
698        0.3515245  0.8968449  0.02560917
698.1      0.3519362  0.9407755  0.02504683
698.2      0.3457674  0.9761835  0.02730181
698.3      0.3576274  0.9083967  0.02338212
698.4      0.3495907  0.8523925  0.02174782
698.5      0.3302625  0.839758   0.01907423
698.6      0.3160878  0.8659812  0.02843839
698.7      0.3057041  0.9253305  0.03434001
698.8      0.2938517  0.9756012  0.04313656
698.9      0.2618294  1          0.05258766
699        0.249567   1          0.07127403
699.1      0.2621006  1          0.08716009
699.2      0.2805226  0.9451807  0.09341573
699.3      0.2127084  1          0.2355653 
699.4      0.2005585  1          0.2688356 
699.5      0.1936079  1          0.2862106 
699.6      0.1728587  1          0.2878173 
699.7      0.1718615  1          0.2782567 
699.8      0.1807211  1          0.2798426 
699.9      0.1745088  1          0.2814242 
700        0.1783294  1          0.2750972 
700.1      0.182241   1          0.259577  
700.2      0.1793568  1          0.2489439 
700.3      0.1467028  1          0.2385105 
700.4      0.1155081  1          0.2311722 
700.5      0.1355898  1          0.2340945 
700.6      0.1559232  1          0.242961  
700.7      0.1580284  1          0.2565227 
700.8      0.1170433  1          0.242953  
700.9      0.1131734  1          0.2385105 
701        0.130808   1          0.2459527 
701.1      0.1524509  1          0.2519669 
701.2      0.1525703  1          0.242961  
701.3      0.2105233  1          0.223921  
701.4      0.2067299  1          0.2196184 
701.5      0.2035256  1          0.2297129 
701.6      0.1651901  1          0.2504534 
701.7      0.1619687  1          0.2626472 
701.8      0.1634592  1          0.2798426 
701.9      0.1657861  1          0.2798342 
702        0.1590573  1          0.2942773 
702.1      0.1610956  1          0.3007961 
702.2      0.165814   1          0.2894282 
702.3      0.1615185  1          0.2798342 
702.4      0.1725892  1          0.2766748 
702.5      0.1307774  1          0.2782567 
702.6      0.1251892  1          0.2782567 
702.7      0.166023   1          0.2504534 
702.8      0.1044283  1          0.2580438 
702.9      0.04715019 1          0.2549892 
703        0.03383629 1          0.2782567 
703.1      0.1274184  1          0.2942773 
703.2      0.1108807  1          0.3040897 
703.3      0.09495237 1          0.2958963 
703.4      0.09373695 1          0.2846167 
703.5      0.08407553 1          0.2910432 
703.6      0.07014213 1          0.2846167 
703.7      0.1179835  1          0.2626555 
703.8      0.1123288  1          0.2385105 
703.9      0.1102003  1          0.262639  
704        0.1525769  1          0.2991731 
704.1      0.1512078  1          0.3207817 
704.2      0.146813   1          0.3258763 
704.3      0.1224439  1          0.3207907 
704.4      0.1327909  1          0.3327342 
704.5      0.1496213  1          0.3275863 
704.6      0.1519023  1          0.3361853 
704.7      0.146436   1          0.3414005 
704.8      0.1539623  1          0.3449062 
704.9      0.1609015  1          0.3431511 
705        0.1726538  1          0.3361853 
705.1      0.1619779  1          0.3555144 
705.2      0.1471858  1          0.3977335 
705.3      0.1171706  1          0.3996309 
705.4      0.1366292  1          0.3754043 
705.5      0.1620458  1          0.2975194 
705.6      0.1464561  1          0.2489439 
705.7      0.1572343  1          0.2224805 
705.8      0.1859497  1          0.2196184 
705.9      0.1917083  1          0.2268133 
706        0.1995936  1          0.2210514 
706.1      0.1969317  1          0.2224805 
706.2      0.1928374  1          0.2385026 
706.3      0.1939562  1          0.2459447 
706.4      0.2007256  1          0.2474464 
706.5      0.2040166  1          0.248952  
706.6      0.18902    1          0.2672867 
706.7      0.1790324  1          0.2782567 
706.8      0.1479539  1          0.2782567 
706.9      0.1657196  1          0.2766748 
707        0.1631548  1          0.295905  
707.1      0.1499933  1          0.3190983 
707.2      0.1565658  1          0.3107199 
707.3      0.1662601  1          0.2782482 
707.4      0.1906294  1          0.2641925 
707.5      0.1820088  1          0.2798511 
707.6      0.1687753  1          0.3073917 
707.7      0.158273   1          0.3157266 
707.8      0.1199917  1          0.2975282 
707.9      0.1292417  1          0.2830269 
708        0.164541   1          0.2626472 
708.1      0.1551371  1          0.2549974 
708.2      0.1610892  1          0.242961  
708.3      0.1341234  1          0.2224805 
708.4      0.07874662 1          0.2013615 
708.5      0.1384227  1          0.195863  
708.6      0.179266   1          0.2083099 
708.7      0.1799081  1          0.2297051 
708.8      0.1727945  1          0.2459447 
708.9      0.1776025  1          0.2641842 
