~Version
 VERS              .         3.0                           : CWLS LOG ASCII STANDARD - VERSION 3.0
 WRAP              .         NO                            : ONE LINE PER DEPTH STEP
 DLM               .         SPACE                         : DELIMITING CHARACTER(SPACE TAB OR COMMA)
~Well Information
#_______________________________________________________________________________
#
#PARAMETER_NAME    .UNIT     VALUE                         : DESCRIPTION
#_______________________________________________________________________________
STRT               .M        1.6                           : First reference value
STOP               .M        917                           : Last reference value
STEP               .M        0.1                           : Step increment
NULL               .         -9999                         : Missing value
COMP               .         ICPetroleum                   : Company
WELL               .         302                           : Well name
FLD                .         Karatobe                      : Field
LOC                .                                       : Location
SRVC               .         AO "UPGF"                     : Service Company
CTRY               .         KZ                            : Country
DATE               .         15/2/2022                     : Service Date
LATI               .         0                             : Latitude
LONG               .         0                             : Longitude
GDAT               .         WGS 84                        : Geodetic Datum
COORDIN            .                                       : Grid System
COUNTRY            .         Kazakhstan                    : 
COUNTRY            .         Kazakhstan                    : 
EREF               .m        146.6                         : 
GRP                .                                       : Group name
ISS                .                                       : Well surveys
KB                 .         146.2                         : KB Elevation
ORIGINALWELLNAME   .         302                           : 
PROV               .                                       : Province
RWS                .         -999                          : Def_Rw
TIME               .         16_25                         : LOG TIME
UWI                .         1_302                         : Unique Well Identifier (UWI)
WST                .         -999                          : Def_Rwt
X                  .km       466240.85                     : 
XCOORD             .                                       : X or East-West Coordinate
Y                  .km       5307715.05                    : 
YCOORD             .                                       : Y or North-South Coordinate
~Parameter Information Block
#_______________________________________________________________________________
#
#PARAMETER_NAME    .UNIT     VALUE                         : DESCRIPTION
#_______________________________________________________________________________
SET                .         Las                           : 
TLFamily_DEPT      .         Measured Depth                : 
TLFamily_PHI_FINAL .         Porosity                      : 
TLFamily_SW_AR     .         Water Saturation              : 
TLFamily_VSH_FINAL .         Shale Volume                  : 
~Curve Information
#_______________________________________________________________________________
#
#LOGNAME           .UNIT     LOG_ID                        : DESCRIPTION
#_______________________________________________________________________________
DEPT               .M                                      : Depth curve {F}
PHI_FINAL          .m3/m3                                  : Porosity {F}
SW_AR              .m3/m3                                  :  {F}
VSH_FINAL          .unitless                               : Vshale {F}
~Ascii
# ...
745.4      0.152596   1          0.3275863 
745.5      0.125434   1          0.3174103 
745.6      0.1200947  1          0.2975282 
745.7      0.1805398  1          0.2910345 
745.8      0.1875807  1          0.2782567 
745.9      0.1901709  1          0.273532  
746        0.1835945  1          0.2830269 
746.1      0.1528875  1          0.3057341 
746.2      0.155552   1          0.3258763 
746.3      0.1302334  1          0.3241797 
746.4      0.1357932  1          0.3207817 
746.5      0.1407733  1          0.3107109 
746.6      0.1509579  1          0.2894282 
746.7      0.1579435  1          0.2626555 
746.8      0.1543829  1          0.2565227 
746.9      0.1587181  1          0.259577  
747        0.1762239  1          0.2489439 
747.1      0.1839481  1          0.2253653 
747.2      0.1944471  1          0.1999797 
747.3      0.2152592  1          0.1999797 
747.4      0.2103767  1          0.2055137 
747.5      0.2005793  1          0.2055137 
747.6      0.1870784  1          0.2181891 
747.7      0.1848702  1          0.2224805 
747.8      0.1783164  1          0.241471  
747.9      0.1747473  1          0.2326276 
748        0.1588406  1          0.2385105 
748.1      0.1350527  1          0.241471  
748.2      0.1025427  1          0.2534761 
748.3      0.09687781 1          0.2782651 
748.4      0.1173366  1          0.2910345 
748.5      0.09606449 1          0.3040808 
748.6      0.1111153  1          0.3241797 
748.7      0.08986393 1          0.3626629 
748.8      0.1103485  1          0.3920908 
748.9      0.115823   1          0.4286407 
749        0.08953579 1          0.4547285 
749.1      0.06140508 1          0.4629227 
749.2      0.1117634  1          0.4445886 
749.3      0.112796   1          0.4306293 
749.4      0.09264067 1          0.4486223 
749.5      0.09559481 1          0.4227479 
749.6      0.1096033  1          0.390213  
749.7      0.1132894  1          0.3662894 
749.8      0.1111451  1          0.3572922 
749.9      0.09598393 1          0.3608809 
750        0.0715315  1          0.369925  
750.1      0.07382509 1          0.3519536 
750.2      0.08843719 1          0.3090714 
750.3      0.1203983  1          0.2444389 
750.4      0.1280951  1          0.2311644 
750.5      0.1242461  1          0.2611225 
750.6      0.1026095  1          0.2991643 
750.7      0.1054386  1          0.3174103 
750.8      0.0635054  1          0.3123814 
750.9      0.04686159 1          0.3241706 
751        0.1064759  1          0.3396638 
751.1      0.09902371 1          0.3414005 
751.2      0.1058549  1          0.3275863 
751.3      0.1207933  1          0.3107109 
751.4      0.1406988  1          0.2975282 
751.5      0.1447043  1          0.2894282 
751.6      0.1273122  1          0.2975282 
751.7      0.1207933  1          0.3107109 
751.8      0.1323857  1          0.3414099 
751.9      0.1633853  1          0.3644689 
752        0.1637464  1          0.3772238 
752.1      0.152349   1          0.3939735 
752.2      0.147875   1          0.4149586 
752.3      0.1187949  1          0.4306188 
752.4      0.1294353  1          0.4015435 
752.5      0.1578015  1          0.3753945 
752.6      0.1843855  1          0.3608809 
752.7      0.1852144  1          0.3555144 
752.8      0.1702817  1          0.3681048 
752.9      0.1335019  1          0.411089  
753        0.1217088  1          0.4207904 
753.1      0.1157818  1          0.4130316 
753.2      0.1001866  1          0.3644786 
753.3      0.1221302  1          0.3484113 
753.4      0.1332538  1          0.3396545 
753.5      0.1524083  1          0.3275863 
753.6      0.1619618  1          0.3344621 
753.7      0.1600959  1          0.3310107 
753.8      0.1429596  1          0.3555144 
753.9      0.1211009  1          0.37356   
754        0.1176121  1          0.3846186 
754.1      0.1182897  1          0.3699152 
754.2      0.1209781  1          0.3644786 
754.3      0.1447114  1          0.3431511 
754.4      0.1583537  1          0.3293009 
754.5      0.1543835  1          0.3007961 
754.6      0.1749594  1          0.3090537 
754.7      0.1686431  1          0.3157266 
754.8      0.1495609  1          0.3379223 
754.9      0.1359209  1          0.3396545 
755        0.1233375  1          0.3396545 
755.1      0.1252863  1          0.3275863 
755.2      0.1303489  1          0.3224784 
755.3      0.1068252  1          0.3157266 
755.4      0.1510194  1          0.3344529 
755.5      0.1510425  1          0.3519631 
755.6      0.1485148  1          0.3555144 
755.7      0.1597023  1          0.3258945 
755.8      0.1610713  1          0.3007961 
755.9      0.1640218  1          0.2846167 
756        0.1563497  1          0.2766748 
756.1      0.1547291  1          0.2565227 
756.2      0.1406075  1          0.2549974 
756.3      0.1522695  1          0.2534761 
756.4      0.154204   1          0.2735236 
756.5      0.1637364  1          0.2926625 
756.6      0.1657155  1          0.3073917 
756.7      0.1577044  1          0.3258763 
756.8      0.152846   1          0.3327342 
756.9      0.154818   1          0.3275955 
757        0.1621347  1          0.3107109 
757.1      0.1750925  1          0.3007961 
757.2      0.1935173  1          0.2878259 
757.3      0.2064533  1          0.2719625 
757.4      0.1712283  1          0.2735236 
757.5      0.1784737  1          0.2942773 
757.6      0.164622   1          0.2894282 
757.7      0.1683402  1          0.2878173 
757.8      0.1673488  1          0.295905  
757.9      0.1684451  1          0.3090537 
758        0.1792904  1          0.3057341 
758.1      0.1933441  1          0.2782567 
758.2      0.1914115  1          0.267295  
758.3      0.1826592  1          0.2719709 
758.4      0.1721602  1          0.2814242 
758.5      0.1776747  1          0.2766748 
758.6      0.1958161  1          0.2565227 
758.7      0.2052602  1          0.2370321 
758.8      0.2068373  1          0.2268056 
758.9      0.2086463  1          0.212524  
759        0.2091193  1          0.1972267 
759.1      0.2083106  1          0.1931315 
759.2      0.2046936  1          0.2027321 
759.3      0.2050738  1          0.2167711 
759.4      0.2063858  1          0.2210514 
759.5      0.2078059  1          0.2297129 
759.6      0.1979442  1          0.2565227 
759.7      0.1795807  1          0.2814242 
759.8      0.1664319  1          0.2910345 
759.9      0.1734872  1          0.2862106 
760        0.1818749  1          0.2830184 
760.1      0.1876664  1          0.268844  
760.2      0.1861832  1          0.2459527 
760.3      0.1350527  1          0.241471  
760.4      0.06767356 1          0.2565145 
760.5      0.01696197 1          0.2782567 
760.6      0.01617771 1          0.2798426 
760.7      0.06003445 1          0.2719625 
760.8      0.02369508 1          0.2459367 
760.9      0.07827488 1          0.2253653 
761        0.1207808  1          0.2282651 
761.1      0.1708191  1          0.2519669 
761.2      0.1990706  1          0.2782567 
761.3      0.2017615  1          0.2942773 
761.4      0.1916737  1          0.3107109 
761.5      0.1650775  1          0.3073828 
761.6      0.1766179  1          0.3057341 
761.7      0.1815926  1          0.2766833 
761.8      0.1840968  1          0.2657335 
761.9      0.1934905  1          0.2474384 
762        0.1939348  1          0.2611143 
762.1      0.195365   1          0.2626472 
762.2      0.1940859  1          0.2549974 
762.3      0.2133824  1          0.2268056 
762.4      0.216045   1          0.2196184 
762.5      0.1886277  1          0.2139385 
762.6      0.1644237  1          0.2224805 
762.7      0.152091   1          0.2340867 
762.8      0.1383676  1          0.2474464 
762.9      0.1310309  1          0.2766748 
763        0.1423064  1          0.2942773 
763.1      0.1508407  1          0.3040897 
763.2      0.1654343  1          0.2846167 
763.3      0.1961166  1          0.2504453 
763.4      0.2291501  1          0.2167711 
763.5      0.2323934  1          0.2139385 
