~Version
 VERS              .         3.0                           : CWLS LOG ASCII STANDARD - VERSION 3.0
 WRAP              .         NO                            : ONE LINE PER DEPTH STEP
 DLM               .         SPACE                         : DELIMITING CHARACTER(SPACE TAB OR COMMA)
~Well Information
#_______________________________________________________________________________
#
#PARAMETER_NAME    .UNIT     VALUE                         : DESCRIPTION
#_______________________________________________________________________________
STRT               .M        1.6                           : First reference value
STOP               .M        917                           : Last reference value
STEP               .M        0.1                           : Step increment
NULL               .         -9999                         : Missing value
COMP               .         ICPetroleum                   : Company
WELL               .         302                           : Well name
FLD                .         Karatobe                      : Field
LOC                .                                       : Location
SRVC               .         AO "UPGF"                     : Service Company
CTRY               .         KZ                            : Country
DATE               .         15/2/2022                     : Service Date
LATI               .         0                             : Latitude
LONG               .         0                             : Longitude
GDAT               .         WGS 84                        : Geodetic Datum
COORDIN            .                                       : Grid System
COUNTRY            .         Kazakhstan                    : 
COUNTRY            .         Kazakhstan                    : 
EREF               .m        146.6                         : 
GRP                .                                       : Group name
ISS                .                                       : Well surveys
KB                 .         146.2                         : KB Elevation
ORIGINALWELLNAME   .         302                           : 
PROV               .                                       : Province
RWS                .         -999                          : Def_Rw
TIME               .         16_25                         : LOG TIME
UWI                .         1_302                         : Unique Well Identifier (UWI)
WST                .         -999                          : Def_Rwt
X                  .km       466240.85                     : 
XCOORD             .                                       : X or East-West Coordinate
Y                  .km       5307715.05                    : 
YCOORD             .                                       : Y or North-South Coordinate
~Parameter Information Block
#_______________________________________________________________________________
#
#PARAMETER_NAME    .UNIT     VALUE                         : DESCRIPTION
#_______________________________________________________________________________
SET                .         Las                           : 
TLFamily_DEPT      .         Measured Depth                : 
TLFamily_PHI_FINAL .         Porosity                      : 
TLFamily_SW_AR     .         Water Saturation              : 
TLFamily_VSH_FINAL .         Shale Volume                  : 
~Curve Information
#_______________________________________________________________________________
#
#LOGNAME           .UNIT     LOG_ID                        : DESCRIPTION
#_______________________________________________________________________________
DEPT               .M                                      : Depth curve {F}
PHI_FINAL          .m3/m3                                  : Porosity {F}
SW_AR              .m3/m3                                  :  {F}
VSH_FINAL          .unitless                               : Vshale {F}
~Ascii
# ...
126.6      -9999      -9999      0.079939  
126.7      -9999      -9999      0.09183701
126.8      -9999      -9999      0.08249049
126.9      -9999      -9999      0.0736452 
127        -9999      -9999      0.07611465
127.1      -9999      -9999      0.07988929
127.2      -9999      -9999      0.08115577
127.3      -9999      -9999      0.08374221
127.4      -9999      -9999      0.1001634 
127.5      -9999      -9999      0.1089624 
127.6      -9999      -9999      0.09036557
127.7      -9999      -9999      0.06178439
127.8      -9999      -9999      0.05405359
127.9      -9999      -9999      0.06063879
128        -9999      -9999      0.0687244 
128.1      -9999      -9999      0.06519483
128.2      -9999      -9999      0.05949574
128.3      -9999      -9999      0.05295243
128.4      -9999      -9999      0.06173343
128.5      -9999      -9999      0.06868306
128.6      -9999      -9999      0.06631561
128.7      -9999      -9999      0.05615623
128.8      -9999      -9999      0.05186674
128.9      -9999      -9999      0.05723787
129        -9999      -9999      0.05944009
129.1      -9999      -9999      0.05505026
129.2      -9999      -9999      0.04366223
129.3      -9999      -9999      0.03976066
129.4      -9999      -9999      0.03691046
129.5      -9999      -9999      0.0476726 
129.6      -9999      -9999      0.05394194
129.7      -9999      -9999      0.06276995
129.8      -9999      -9999      0.06276254
129.9      -9999      -9999      0.06275513
130        -9999      -9999      0.06737746
130.1      -9999      -9999      0.06388558
130.2      -9999      -9999      0.06160277
130.3      -9999      -9999      0.05714499
130.4      -9999      -9999      0.06046123
130.5      -9999      -9999      0.06385533
130.6      -9999      -9999      0.07210175
130.7      -9999      -9999      0.0745322 
130.8      -9999      -9999      0.0770003 
130.9      -9999      -9999      0.08206881
131        -9999      -9999      0.08862693
131.1      -9999      -9999      0.09406165
131.2      -9999      -9999      0.09267047
131.3      -9999      -9999      0.1039819 
131.4      -9999      -9999      0.1025121 
131.5      -9999      -9999      0.09263486
131.6      -9999      -9999      0.08199724
131.7      -9999      -9999      0.0756767 
131.8      -9999      -9999      0.07816035
131.9      -9999      -9999      0.07689627
132        -9999      -9999      0.07564891
132.1      -9999      -9999      0.08453704
132.2      -9999      -9999      0.1009617 
132.3      -9999      -9999      0.1205774 
132.4      -9999      -9999      0.1253788 
132.5      -9999      -9999      0.1082391 
132.6      -9999      -9999      0.08449108
132.7      -9999      -9999      0.05918407
132.8      -9999      -9999      0.04954498
132.9      -9999      -9999      0.05806455
133        -9999      -9999      0.07555643
133.1      -9999      -9999      0.09659518
133.2      -9999      -9999      0.1081386 
133.3      -9999      -9999      0.1126441 
133.4      -9999      -9999      0.1036952 
133.5      -9999      -9999      0.09377223
133.6      -9999      -9999      0.09103038
133.7      -9999      -9999      0.0965204 
133.8      -9999      -9999      0.09933079
133.9      -9999      -9999      0.111034  
134        -9999      -9999      0.1251031 
134.1      -9999      -9999      0.1283484 
134.2      -9999      -9999      0.1109896 
134.3      -9999      -9999      0.09230378
134.4      -9999      -9999      0.08692328
134.5      -9999      -9999      0.09503484
134.6      -9999      -9999      0.1079381 
134.7      -9999      -9999      0.1049703 
134.8      -9999      -9999      0.0992019 
134.9      -9999      -9999      0.09918146
135        -9999      -9999      0.1265581 
135.1      -9999      -9999      0.1417356 
135.2      -9999      -9999      0.124897  
135.3      -9999      -9999      0.09913757
135.4      -9999      -9999      0.08681397
135.5      -9999      -9999      0.09081067
135.6      0.05320759 -9999      0.09628428
135.7      0.08131962 -9999      0.09213911
135.8      0.1991267  -9999      0.09625948
135.9      0.2693241  -9999      0.09486417
136        0.1978324  -9999      0.1033423 
136.1      0.08700633 -9999      0.09483983
136.2      0.06380866 -9999      0.08804604
136.3      0.06955795 -9999      0.06803793
136.4      0.07292788 -9999      0.04630102
136.5      0.09337886 -9999      0.03662976
136.6      0.09082338 -9999      0.04429404
136.7      0.07146365 -9999      0.05781563
136.8      0.0521763  -9999      0.06683335
136.9      0.05285707 -9999      0.07155476
137        0.07088311 -9999      0.07154614
137.1      0.06814599 -9999      0.07395393
137.2      0.07355922 -9999      0.05998335
137.3      0.08248147 -9999      0.05136872
137.4      0.07011555 -9999      0.05032211
137.5      0.06632399 -9999      0.05776226
137.6      0.06396261 -9999      0.05884831
137.7      0.08214939 -9999      0.05134552
137.8      0.09263644 -9999      0.04130778
137.9      0.09888776 -9999      0.03382371
138        0.09850292 -9999      0.02764347
138.1      0.1246746  -9999      0.02260876
138.2      0.1135599  -9999      0.0209822 
138.3      0.1120372  -9999      0.01937671
138.4      0.0782803  -9999      0.02017329
138.5      0.07893457 -9999      0.02508519
138.6      0.07940833 -9999      0.02762639
138.7      0.07571103 -9999      0.04126732
138.8      0.06331636 -9999      0.06552313
138.9      0.05087455 -9999      0.09450043
139        0.04802703 -9999      0.1043797 
139.1      0.0545679  -9999      0.08510151
139.2      0.06168421 -9999      0.07376608
139.3      0.05871009 -9999      0.07497884
139.4      0.05446551 -9999      0.08902239
139.5      0.04777395 -9999      0.1043115 
139.6      0.04671928 -9999      0.1042978 
139.7      0.05012267 -9999      0.1057432 
139.8      0.05600952 -9999      0.09715884
139.9      0.05964471 -9999      0.1013811 
140        0.05438244 -9999      0.101368  
140.1      0.04951585 -9999      0.1131341 
140.2      0.04861642 -9999      0.1224454 
140.3      0.05327658 -9999      0.12085   
140.4      0.06131024 -9999      0.09570014
140.5      0.0654109  -9999      0.07365027
140.6      0.06513076 -9999      0.07486071
140.7      0.06443868 -9999      0.08107768
140.8      0.06374866 -9999      0.08622828
140.9      0.06508844 -9999      0.08491079
141        0.06170741 -9999      0.0928788 
141.1      0.05834507 -9999      0.092867  
141.2      0.05731082 -9999      0.08487908
141.3      0.05828204 -9999      0.07975164
141.4      0.05783639 -9999      0.0901349 
141.5      0.05678912 -9999      0.1026034 
141.6      0.05819746 -9999      0.1069461 
141.7      0.06088431 -9999      0.09972375
141.8      0.0618572  -9999      0.09008944
141.9      0.06179278 -9999      0.07596287
142        0.05694095 -9999      0.08741382
142.1      0.0563362  -9999      0.1025157 
142.2      0.05998605 -9999      0.1174118 
142.3      0.0674102  -9999      0.1068479 
142.4      0.07100433 -9999      0.09002134
142.5      0.06405593 -9999      0.08344847
142.6      0.05922154 -9999      0.08216166
142.7      0.05914882 -9999      0.08472088
142.8      0.05993184 -9999      0.08471034
142.9      0.05635177 -9999      0.08600257
143        0.05188739 -9999      0.09128955
143.1      0.05593132 -9999      0.09263159
143.2      0.0678785  -9999      0.08210085
143.3      0.07072813 -9999      0.08209073
143.4      0.06717171 -9999      0.07705799
143.5      0.06656237 -9999      0.07098398
143.6      0.06920542 -9999      0.06175612
143.7      0.06813855 -9999      0.07216222
143.8      0.0592713  -9999      0.08590619
143.9      0.05333892 -9999      0.1008572 
144        0.0536696  -9999      0.09942842
144.1      0.05680725 -9999      0.1140511 
144.2      0.05941955 -9999      0.1186498 
144.3      0.06283288 -9999      0.1265607 
144.4      0.06208413 -9999      0.124939  
144.5      0.06405576 -9999      0.1201658 
144.6      0.06292216 -9999      0.1185861 
144.7      0.06449357 -9999      0.1139601 
