~Version
 VERS              .         3.0                           : CWLS LOG ASCII STANDARD - VERSION 3.0
 WRAP              .         NO                            : ONE LINE PER DEPTH STEP
 DLM               .         SPACE                         : DELIMITING CHARACTER(SPACE TAB OR COMMA)
~Well Information
#_______________________________________________________________________________
#
#PARAMETER_NAME    .UNIT     VALUE                         : DESCRIPTION
#_______________________________________________________________________________
STRT               .M        1.6                           : First reference value
STOP               .M        917                           : Last reference value
STEP               .M        0.1                           : Step increment
NULL               .         -9999                         : Missing value
COMP               .         ICPetroleum                   : Company
WELL               .         302                           : Well name
FLD                .         Karatobe                      : Field
LOC                .                                       : Location
SRVC               .         AO "UPGF"                     : Service Company
CTRY               .         KZ                            : Country
DATE               .         15/2/2022                     : Service Date
LATI               .         0                             : Latitude
LONG               .         0                             : Longitude
GDAT               .         WGS 84                        : Geodetic Datum
COORDIN            .                                       : Grid System
COUNTRY            .         Kazakhstan                    : 
COUNTRY            .         Kazakhstan                    : 
EREF               .m        146.6                         : 
GRP                .                                       : Group name
ISS                .                                       : Well surveys
KB                 .         146.2                         : KB Elevation
ORIGINALWELLNAME   .         302                           : 
PROV               .                                       : Province
RWS                .         -999                          : Def_Rw
TIME               .         16_25                         : LOG TIME
UWI                .         1_302                         : Unique Well Identifier (UWI)
WST                .         -999                          : Def_Rwt
X                  .km       466240.85                     : 
XCOORD             .                                       : X or East-West Coordinate
Y                  .km       5307715.05                    : 
YCOORD             .                                       : Y or North-South Coordinate
~Parameter Information Block
#_______________________________________________________________________________
#
#PARAMETER_NAME    .UNIT     VALUE                         : DESCRIPTION
#_______________________________________________________________________________
SET                .         Las                           : 
TLFamily_DEPT      .         Measured Depth                : 
TLFamily_PHI_FINAL .         Porosity                      : 
TLFamily_SW_AR     .         Water Saturation              : 
TLFamily_VSH_FINAL .         Shale Volume                  : 
~Curve Information
#_______________________________________________________________________________
#
#LOGNAME           .UNIT     LOG_ID                        : DESCRIPTION
#_______________________________________________________________________________
DEPT               .M                                      : Depth curve {F}
PHI_FINAL          .m3/m3                                  : Porosity {F}
SW_AR              .m3/m3                                  :  {F}
VSH_FINAL          .unitless                               : Vshale {F}
~Ascii
# ...
781.8      0.139163   1          0.3519536 
781.9      0.1209781  1          0.3644786 
782        0.1137588  1          0.3790776 
782.1      0.1063927  1          0.3939735 
782.2      0.1166908  1          0.3864819 
782.3      0.122762   1          0.3608712 
782.4      0.0959887  1          0.3608712 
782.5      0.07421998 1          0.3644883 
782.6      0.07742716 1          0.3717402 
782.7      0.1385977  1          0.3555144 
782.8      0.1244815  1          0.3484207 
782.9      0.1392969  1          0.3644786 
783        0.1387193  1          0.3977538 
783.1      0.1420226  1          0.4188483 
783.2      0.145184   1          0.4425743 
783.3      0.1546502  1          0.4208009 
783.4      0.1407838  1          0.4445886 
783.5      0.1321463  1          0.442585  
783.6      0.1134253  1          0.4629227 
783.7      0.08395158 1          0.4526878 
783.8      0.02349625 1          0.467063  
783.9      0          1          0.4987423 
784        0.001237265 1          0.4987423 
784.1      0.08994098 1          0.4405759 
784.2      0.1515897  1          0.3827801 
784.3      0.1637707  1          0.3484207 
784.4      0.1634915  1          0.3555144 
784.5      0.1701013  1          0.3939837 
784.6      0.1507246  1          0.4506524 
784.7      0.1486493  1          0.4923164 
784.8      0.1270824  1          0.5009032 
784.9      0.08710134 1          0.4987423 
785        0.08640507 1          0.4901666 
785.1      0.09855597 1          0.4365733 
785.2      0.1073188  1          0.3921008 
785.3      0.1026852  1          0.3626726 
785.4      0.1328576  1          0.3396731 
785.5      0.1449185  1          0.3090447 
785.6      0.1537828  1          0.2991643 
785.7      0.1574113  1          0.3040808 
785.8      0.1593588  1          0.3007961 
785.9      0.1617229  1          0.2782651 
786        0.1713741  1          0.2704054 
786.1      0.1715678  1          0.2782567 
786.2      0.166831   1          0.2926538 
786.3      0.1696826  1          0.2926538 
786.4      0.1540855  1          0.2975282 
786.5      0.1281192  1          0.2958963 
786.6      0.1023463  1          0.2942773 
786.7      0.1013206  1          0.2830184 
786.8      0.1318069  1          0.2751056 
786.9      0.1270832  1          0.2878173 
787        0.09905047 1          0.2975282 
787.1      0.1275195  1          0.3241797 
787.2      0.08503153 1          0.3292917 
787.3      0.0547174  1          0.3501896 
787.4      0.04134881 1          0.3772238 
787.5      0.05508981 1          0.4169113 
787.6      0.07219048 1          0.4405759 
787.7      0.01102815 1          0.458804  
787.8      0.09508021 1          0.4345797 
787.9      0.1297362  1          0.3977639 
788        0.08523078 1          0.3699152 
788.1      0.1033063  1          0.4111096 
788.2      0.09197271 1          0.4405652 
788.3      0.05332105 1          0.4306082 
788.4      0.02085049 1          0.4053427 
788.5      0          1          0.4091927 
788.6      0.007378614 1          0.4188483 
788.7      0.09670576 1          0.3864919 
788.8      0.1381251  1          0.3662797 
788.9      0.1282159  1          0.3379223 
789        0.1531272  1          0.3431511 
789.1      0.1768526  1          0.3680951 
789.2      0.1619531  1          0.4188378 
789.3      0.1354788  1          0.4608718 
789.4      0.1349812  1          0.4567637 
789.5      0.1403349  1          0.4385612 
789.6      0.1097423  1          0.4405759 
789.7      0.0576452  1          0.4859063 
789.8      0.03321649 1          0.5161638 
789.9      0.0780431  1          0.5294639 
790        0.09469006 1          0.5117803 
790.1      0.07901752 1          0.5030695 
790.2      0.07619719 1          0.4817021 
790.3      0.0737574  1          0.4733027 
790.4      0.06716953 1          0.4732915 
790.5      0.0758208  1          0.46913   
790.6      0.05687594 1          0.4506524 
790.7      0.06536998 1          0.4466082 
790.8      0.07892805 1          0.4306188 
790.9      0.1016432  1          0.4169113 
791        0.0977351  1          0.3977436 
791.1      0.08147903 1          0.390213  
791.2      0.06456834 1          0.3977436 
791.3      0.0565472  1          0.37356   
791.4      0.04194634 1          0.3626822 
791.5      0.0333491  1          0.3396638 
791.6      0.05419278 1          0.3241797 
791.7      0.08180733 1          0.3224784 
791.8      0.1267323  1          0.3140563 
791.9      0.09129504 1          0.3808968 
792        0.1191951  1          0.4527096 
792.1      0.09207325 1          0.5339395 
792.2      0.08251566 1          0.5729672 
792.3      0.07929067 1          0.5613119 
792.4      0.08725265 1          0.5272407 
792.5      0.09271276 1          0.4753747 
792.6      0.07056491 1          0.4526878 
792.7      0.05584075 1          0.46913   
792.8      0.05027504 1          0.4670518 
792.9      0.05890485 1          0.4629337 
793        0.07634902 1          0.4547285 
793.1      0.1083587  1          0.4247107 
793.2      0.1184649  1          0.3958611 
793.3      0.1218534  1          0.3537317 
793.4      0.1437108  1          0.3484207 
793.5      0.169665   1          0.3449062 
793.6      0.1876058  1          0.3466565 
793.7      0.1513436  1          0.3537317 
793.8      0.1098517  1          0.3754043 
793.9      0.1339645  1          0.3920908 
794        0.1207455  1          0.405353  
794.1      0.1198025  1          0.40726   
794.2      0.1181039  1          0.40726   
794.3      0.1156144  1          0.4345904 
794.4      0.128373   1          0.4425743 
794.5      0.120834   1          0.4547176 
794.6      0.1134318  1          0.4130316 
794.7      0.1176072  1          0.3846286 
794.8      0.1164824  1          0.3735699 
794.9      0.1069704  1          0.3790678 
795        0.1021984  1          0.3753846 
795.1      0.09509791 1          0.3626726 
795.2      0.07758354 1          0.3310199 
795.3      0.06516614 1          0.3157266 
795.4      0.07417732 1          0.3241706 
795.5      0.1120196  1          0.3555239 
795.6      0.1172375  1          0.3572922 
795.7      0.11354    1          0.3396638 
795.8      0.1472276  1          0.3361946 
795.9      0.1697381  1          0.3827504 
796        0.1671047  1          0.4286619 
796.1      0.1414555  1          0.4712137 
796.2      0.1420538  1          0.4732915 
796.3      0.1419252  1          0.47958   
796.4      0.124744   1          0.4629227 
796.5      0.1101638  1          0.4567637 
796.6      0.07025509 1          0.4670518 
796.7      0.01991942 1          0.4880337 
796.8      0          1          0.5183582 
796.9      0          1          0.5475067 
797        0          1          0.5272168 
797.1      0.004923749 1          0.5183582 
797.2      0.04737224 1          0.5095794 
797.3      0.05092601 1          0.5316927 
797.4      0.09914422 1          0.4859404 
797.5      0.1163768  1          0.4149586 
797.6      0.1210102  1          0.3996411 
797.7      0.07656495 1          0.4405544 
797.8      0.01278711 1          0.475386  
797.9      0          1          0.4506633 
798        0          1          0.4306188 
798.1      0          1          0.40726   
798.2      0.05211256 1          0.3958611 
798.3      0.07309303 1          0.38835   
798.4      0.0857649  1          0.4325808 
798.5      0.1000235  1          0.4880564 
798.6      0.07211576 1          0.5272288 
798.7      0.08484638 1          0.4923164 
798.8      0.06299287 1          0.4405544 
798.9      0.1023803  1          0.38835   
799        0.08130399 1          0.3772337 
799.1      0.07013733 1          0.3864819 
799.2      0.04930765 1          0.4015333 
799.3      0.02930427 1          0.4286513 
799.4      0.01032046 1          0.4670408 
799.5      0.009326623 1          0.5227879 
799.6      0.03828983 1          0.5316927 
799.7      0.06366105 1          0.5339395 
799.8      0.08554496 1          0.4816794 
799.9      0.08003687 1          0.4567746 
