~Version
 VERS              .         3.0                           : CWLS LOG ASCII STANDARD - VERSION 3.0
 WRAP              .         NO                            : ONE LINE PER DEPTH STEP
 DLM               .         SPACE                         : DELIMITING CHARACTER(SPACE TAB OR COMMA)
~Well Information
#_______________________________________________________________________________
#
#PARAMETER_NAME    .UNIT     VALUE                         : DESCRIPTION
#_______________________________________________________________________________
STRT               .M        1.6                           : First reference value
STOP               .M        917                           : Last reference value
STEP               .M        0.1                           : Step increment
NULL               .         -9999                         : Missing value
COMP               .         ICPetroleum                   : Company
WELL               .         302                           : Well name
FLD                .         Karatobe                      : Field
LOC                .                                       : Location
SRVC               .         AO "UPGF"                     : Service Company
CTRY               .         KZ                            : Country
DATE               .         15/2/2022                     : Service Date
LATI               .         0                             : Latitude
LONG               .         0                             : Longitude
GDAT               .         WGS 84                        : Geodetic Datum
COORDIN            .                                       : Grid System
COUNTRY            .         Kazakhstan                    : 
COUNTRY            .         Kazakhstan                    : 
EREF               .m        146.6                         : 
GRP                .                                       : Group name
ISS                .                                       : Well surveys
KB                 .         146.2                         : KB Elevation
ORIGINALWELLNAME   .         302                           : 
PROV               .                                       : Province
RWS                .         -999                          : Def_Rw
TIME               .         16_25                         : LOG TIME
UWI                .         1_302                         : Unique Well Identifier (UWI)
WST                .         -999                          : Def_Rwt
X                  .km       466240.85                     : 
XCOORD             .                                       : X or East-West Coordinate
Y                  .km       5307715.05                    : 
YCOORD             .                                       : Y or North-South Coordinate
~Parameter Information Block
#_______________________________________________________________________________
#
#PARAMETER_NAME    .UNIT     VALUE                         : DESCRIPTION
#_______________________________________________________________________________
SET                .         Las                           : 
TLFamily_DEPT      .         Measured Depth                : 
TLFamily_PHI_FINAL .         Porosity                      : 
TLFamily_SW_AR     .         Water Saturation              : 
TLFamily_VSH_FINAL .         Shale Volume                  : 
~Curve Information
#_______________________________________________________________________________
#
#LOGNAME           .UNIT     LOG_ID                        : DESCRIPTION
#_______________________________________________________________________________
DEPT               .M                                      : Depth curve {F}
PHI_FINAL          .m3/m3                                  : Porosity {F}
SW_AR              .m3/m3                                  :  {F}
VSH_FINAL          .unitless                               : Vshale {F}
~Ascii
# ...
891        0.1275899  1          0.1757544 
891.1      0.1051903  1          0.2210514 
891.2      0.05535984 1          0.2814156 
891.3      0.01736539 1          0.3449156 
891.4      0          1          0.3902029 
891.5      0          1          0.4365839 
891.6      0          1          0.4732915 
891.7      0          1          0.4901666 
891.8      0          1          0.5567068 
891.9      0          1          0.5967371 
892        0          1          0.5682644 
892.1      0          1          0.4670518 
892.2      0          1          0.40726   
892.3      0          1          0.4091823 
892.4      0          -9999      0.4188483 
892.5      0          -9999      0.4110993 
892.6      0          -9999      0.390213  
892.7      0          -9999      0.3107377 
892.8      0          -9999      0.1876893 
892.9      0          -9999      0.08835874
893        0          -9999      0.04119405
893.1      0          -9999      0.03261122
893.2      0          -9999      0.02886394
893.3      0          -9999      0.02422685
893.4      0          -9999      0.01965455
893.5      0          -9999      0.01784317
893.6      0          -9999      0.0142437 
893.7      0          -9999      0.01514127
893.8      0          -9999      0.01693858
893.9      0          -9999      0.01693858
894        0          -9999      0.01245558
894.1      0          -9999      0.00803522
894.2      0          -9999      0.003671915
894.3      0          -9999      0.006284033
894.4      0          -9999      0.008911879
894.5      0          -9999      0.02056622
894.6      0          -9999      0.02793069
894.7      0          -9999      0.03355667
894.8      0          -9999      0.02979461
894.9      0          -9999      0.02607644
895        0          -9999      0.01874525
895.1      0          -9999      0.01784317
895.2      0          -9999      0.01603634
895.3      0          -9999      0.01245558
895.4      0          -9999      0.0089166 
895.5      0          -9999      0.01246035
895.6      0          -9999      0.02147537
895.7      0          -9999      0.02793069
895.8      0          -9999      0.02147537
895.9      0          -9999      0.01784317
896        0          -9999      0.01784317
896.1      0          -9999      0.02699987
896.2      0          -9999      0.02886394
896.3      0          -9999      0.01964968
896.4      0          -9999      0.0089166 
896.5      0          -9999      0.004541917
896.6      0          -9999      0.004541917
896.7      0          -9999      0.004541917
896.8      0          -9999      0.004541917
896.9      0          -9999      0.005409508
897        0          -9999      0.006284033
897.1      0          -9999      0.0106815 
897.2      0          -9999      0.01783832
897.3      0          -9999      0.02607644
897.4      0          -9999      0.02515044
897.5      0          -9999      0.02239178
897.6      0          -9999      0.01693858
897.7      0.01172871 -9999      0.01874525
897.8      0.009911449 -9999      0.02239178
897.9      0          -9999      0.02793069
898        0          -9999      0.03073272
898.1      0          -9999      0.03640273
898.2      0          -9999      0.0440999 
898.3      0          -9999      0.0450753 
898.4      0          -9999      0.03545497
898.5      0          -9999      0.02238687
898.6      0          -9999      0.01874525
898.7      0          -9999      0.02422685
898.8      0          -9999      0.02886394
898.9      0          -9999      0.02056622
899        0          -9999      0.0106815 
899.1      0          -9999      0.006284033
899.2      0          -9999      0.009795527
899.3      0          -9999      0.01334848
899.4      0          -9999      0.02147537
899.5      0          -9999      0.02793069
899.6      0          -9999      0.02793069
899.7      0          -9999      0.01784317
899.8      0          -9999      0.00980026
899.9      0          -9999      0.0089166 
900        0          -9999      0.00980026
900.1      0          -9999      0.0142437 
900.2      0          -9999      0.01603634
900.3      0          -9999      0.01693858
900.4      0          -9999      0.01874525
900.5      0          -9999      0.02331059
900.6      0          -9999      0.02699987
900.7      0          -9999      0.02979461
900.8      0          -9999      0.02979461
900.9      0          -9999      0.02886394
901        0          -9999      0.02239178
901.1      0          -9999      0.02056622
901.2      0          -9999      0.02056622
901.3      0          -9999      0.01965455
901.4      0          -9999      0.01693858
901.5      0          -9999      0.02056622
901.6      0          -9999      0.02422685
901.7      0          -9999      0.02331059
901.8      0          -9999      0.02239178
901.9      0          -9999      0.02239178
902        0          -9999      0.03167327
902.1      0          -9999      0.02699987
902.2      0          -9999      0.02423178
902.3      0          -9999      0.02148027
902.4      0          -9999      0.02607148
902.5      0          -9999      0.02699987
902.6      0          -9999      0.02331059
902.7      0          -9999      0.02515044
902.8      0          -9999      0.02147537
902.9      0          -9999      0.02056622
903        0          -9999      0.0142437 
903.1      0          -9999      0.02147537
903.2      0          -9999      0.02331059
903.3      0          -9999      0.02147537
903.4      0          -9999      0.01784317
903.5      0          -9999      0.0142437 
903.6      0          -9999      0.0142437 
903.7      0          -9999      0.01603634
903.8      0          -9999      0.02148027
903.9      0          -9999      0.02515044
904        0          -9999      0.02979962
904.1      0          -9999      0.03450458
904.2      0          -9999      0.03640273
904.3      0          -9999      0.02792571
904.4      0          -9999      0.02422685
904.5      0          -9999      0.02331059
904.6      0          -9999      0.02422685
904.7      0          -9999      0.02239178
904.8      0          -9999      0.02423178
904.9      0          -9999      0.02423178
905        0          -9999      0.02056133
905.1      0          -9999      0.0142437 
905.2      0          -9999      0.01246035
905.3      0          -9999      0.01784317
905.4      0          -9999      0.02422685
905.5      0          -9999      0.02886394
905.6      0          -9999      0.03073272
905.7      0          -9999      0.02886394
905.8      0          -9999      0.02607148
905.9      0          -9999      0.01965455
906        0          -9999      0.01603634
906.1      0          -9999      0.01693858
906.2      0          -9999      0.02147537
906.3      0          -9999      0.02793069
906.4      0          -9999      0.03167327
906.5      0          -9999      0.03355667
906.6      0          -9999      0.03261122
906.7      0          -9999      0.03073272
906.8      0          -9999      0.02979461
906.9      0          -9999      0.02515044
907        0          -9999      0.02422685
907.1      0          -9999      0.02056622
907.2      0          -9999      0.02422685
907.3      0          -9999      0.02793069
907.4      0          -9999      0.02886394
907.5      0          -9999      0.02607148
907.6      0          -9999      0.02422685
907.7      0          -9999      0.02147537
907.8      0          -9999      0.02422685
907.9      0          -9999      0.02793069
908        0          -9999      0.02979461
908.1      0          -9999      0.02979461
908.2      0          -9999      0.02607644
908.3      0          -9999      0.02793069
908.4      0          -9999      0.03073272
908.5      0          -9999      0.03450458
908.6      0          -9999      0.03544988
908.7      0          -9999      0.02979962
908.8      0          -9999      0.01965455
908.9      0          -9999      0.01514127
909        0          -9999      0.01514127
909.1      0          -9999      0.01514127
