~Version
 VERS              .         3.0                           : CWLS LOG ASCII STANDARD - VERSION 3.0
 WRAP              .         NO                            : ONE LINE PER DEPTH STEP
 DLM               .         SPACE                         : DELIMITING CHARACTER(SPACE TAB OR COMMA)
~Well Information
#_______________________________________________________________________________
#
#PARAMETER_NAME    .UNIT     VALUE                         : DESCRIPTION
#_______________________________________________________________________________
STRT               .M        1.6                           : First reference value
STOP               .M        917                           : Last reference value
STEP               .M        0.1                           : Step increment
NULL               .         -9999                         : Missing value
COMP               .         ICPetroleum                   : Company
WELL               .         302                           : Well name
FLD                .         Karatobe                      : Field
LOC                .                                       : Location
SRVC               .         AO "UPGF"                     : Service Company
CTRY               .         KZ                            : Country
DATE               .         15/2/2022                     : Service Date
LATI               .         0                             : Latitude
LONG               .         0                             : Longitude
GDAT               .         WGS 84                        : Geodetic Datum
COORDIN            .                                       : Grid System
COUNTRY            .         Kazakhstan                    : 
COUNTRY            .         Kazakhstan                    : 
EREF               .m        146.6                         : 
GRP                .                                       : Group name
ISS                .                                       : Well surveys
KB                 .         146.2                         : KB Elevation
ORIGINALWELLNAME   .         302                           : 
PROV               .                                       : Province
RWS                .         -999                          : Def_Rw
TIME               .         16_25                         : LOG TIME
UWI                .         1_302                         : Unique Well Identifier (UWI)
WST                .         -999                          : Def_Rwt
X                  .km       466240.85                     : 
XCOORD             .                                       : X or East-West Coordinate
Y                  .km       5307715.05                    : 
YCOORD             .                                       : Y or North-South Coordinate
~Parameter Information Block
#_______________________________________________________________________________
#
#PARAMETER_NAME    .UNIT     VALUE                         : DESCRIPTION
#_______________________________________________________________________________
SET                .         Las                           : 
TLFamily_DEPT      .         Measured Depth                : 
TLFamily_PHI_FINAL .         Porosity                      : 
TLFamily_SW_AR     .         Water Saturation              : 
TLFamily_VSH_FINAL .         Shale Volume                  : 
~Curve Information
#_______________________________________________________________________________
#
#LOGNAME           .UNIT     LOG_ID                        : DESCRIPTION
#_______________________________________________________________________________
DEPT               .M                                      : Depth curve {F}
PHI_FINAL          .m3/m3                                  : Porosity {F}
SW_AR              .m3/m3                                  :  {F}
VSH_FINAL          .unitless                               : Vshale {F}
~Ascii
# ...
436        0.04530434 1          1         
436.1      0.04977231 1          0.8901774 
436.2      0.07619834 1          0.7417545 
436.3      0.08873131 1          0.6832118 
436.4      0.1260302  1          0.6073819 
436.5      0.1952059  1          0.5166337 
436.6      0.2724235  1          0.4474589 
436.7      0.3135079  0.9737176  0.4345737 
436.8      0.3279794  0.9158566  0.4538449 
436.9      0.3073007  0.9435612  0.4876537 
437        0.2670678  1          0.5818974 
437.1      0.2007142  1          0.7456141 
437.2      0.1174882  1          1         
437.3      0.1520675  1          1         
437.4      0.209179   1          0.9492427 
437.5      0.375779   0.9406325  0.5268863 
437.6      0.4893387  0.7288517  0.2339211 
437.7      0.5197173  0.6639189  0.1065745 
437.8      0.5164792  0.651239   0.06184765
437.9      0.4529512  0.68269    0.08371409
438        0.3735582  0.7672001  0.1956246 
438.1      0.2736552  0.9967722  0.4367952 
438.2      0.1805419  1          0.6489425 
438.3      0.151124   1          0.6997275 
438.4      0.1758922  1          0.6011177 
438.5      0.167715   1          0.6094444 
438.6      0.1617465  1          0.6484928 
438.7      0.1573186  1          0.6992317 
438.8      0.1540878  1          0.7233927 
438.9      0.1335022  1          0.7688197 
439        0.07392318 1          0.9092559 
439.1      0.02890921 1          1         
439.2      0.05272915 1          0.9334256 
439.3      0.114344   1          0.7528283 
439.4      0.1651927  1          0.625602  
439.5      0.2053952  1          0.5517267 
439.6      0.1843945  1          0.5916134 
439.7      0.145999   1          0.6562495 
439.8      0.1273305  1          0.6561112 
439.9      0.1477255  1          0.6207709 
440        0.1557861  1          0.6036791 
440.1      0.1698321  1          0.6468109 
440.2      0.1572301  1          0.6693091 
440.3      0.1335844  1          0.6646062 
440.4      0.1098115  1          0.7067056 
440.5      0.1054071  1          0.7114233 
440.6      0.09089843 1          0.7112968 
440.7      0.1204243  1          0.6461164 
440.8      0.1263823  1          0.6460286 
440.9      0.1253769  1          0.6730995 
441        0.09637471 1          0.755602  
441.1      0.1349261  1          0.6728641 
441.2      0.1787435  1          0.5540428 
441.3      0.2120506  1          0.4638656 
441.4      0.1788687  1          0.5235534 
441.5      0.1709474  1          0.5460749 
441.6      0.1795022  1          0.4944935 
441.7      0.2212923  0.9446252  0.3920303 
441.8      0.2441269  0.8350049  0.3611601 
441.9      0.2230408  0.89042    0.4096273 
442        0.2012824  0.967575   0.4667052 
442.1      0.1774123  1          0.5379056 
442.2      0.1920086  1          0.5609684 
442.3      0.1966188  1          0.6055256 
442.4      0.2382952  1          0.6096174 
442.5      0.3047261  0.9662417  0.5451787 
442.6      0.3453068  0.8393697  0.4563147 
442.7      0.3641514  0.7739749  0.4182142 
442.8      0.3383909  0.8652098  0.4594564 
442.9      0.3143581  0.9533528  0.5113168 
443        0.3167328  0.9598306  0.4430459 
443.1      0.3249475  0.956917   0.4149123 
443.2      0.2932303  1          0.4967804 
443.3      0.226985   1          0.6521183 
443.4      0.1934807  1          0.7625635 
443.5      0.1901741  1          0.7573099 
443.6      0.2127982  1          0.7075201 
443.7      0.2552302  1          0.6040704 
443.8      0.2954706  0.8360971  0.4522059 
443.9      0.3017403  0.7657381  0.3936643 
444        0.2623373  0.8403229  0.4266155 
444.1      0.1664415  1          0.6120895 
444.2      0.03676679 1          0.9184521 
444.3      0.01253448 1          1         
444.4      0.01748143 1          1         
444.5      0.02465997 1          0.993736  
444.6      0.06068398 1          0.8759685 
444.7      0.09187341 1          0.80286   
444.8      0.1400055  1          0.7060189 
444.9      0.1375008  1          0.7107176 
445        0.1178214  1          0.7451047 
445.1      0.08720811 1          0.7862869 
445.2      0.09486102 1          0.7549624 
445.3      0.1212242  1          0.6911371 
445.4      0.1349573  1          0.6453285 
445.5      0.1157144  1          0.7147833 
445.6      0.07602587 1          0.8069407 
445.7      0.05850248 1          0.8511437 
445.8      0.1122153  1          0.7541736 
445.9      0.1701801  1          0.6273008 
446        0.2238474  1          0.5123715 
446.1      0.2722315  0.8570371  0.4505799 
446.2      0.2900105  0.8612452  0.4440683 
446.3      0.2580956  1          0.51576   
446.4      0.2480143  1          0.5728299 
446.5      0.219633   1          0.605401  
446.6      0.2335911  1          0.5726396 
446.7      0.1971433  1          0.6663297 
446.8      0.1588798  1          0.747717  
446.9      0.1185186  1          0.8780206 
447        0.0989615  1          0.9442599 
447.1      0.08070278 1          1         
447.2      0.0792876  1          1         
447.3      0.08856952 1          1         
447.4      0.100708   1          1         
447.5      0.09960698 1          1         
447.6      0.1003467  1          1         
447.7      0.08579399 1          0.9875255 
447.8      0.138952   1          0.8091288 
447.9      0.1371108  1          0.7615141 
448        0.08275101 1          0.7927053 
448.1      0.03160561 1          0.8760422 
448.2      0.0343128  1          0.9175161 
448.3      0.02904898 1          0.954449  
448.4      0.0406367  1          0.8931643 
448.5      0.05879055 1          0.8695747 
448.6      0.05743459 1          0.87522   
448.7      0.02951505 1          0.9792008 
448.8      0.02221882 1          0.998487  
448.9      0.01840577 1          1         
449        0.01853625 1          0.9721981 
449.1      0.01222624 1          0.9784076 
449.2      0.006378622 1          1         
449.3      0.003410807 1          0.9975149 
449.4      0.001112296 1          0.9714465 
449.5      0.003086596 1          0.9971264 
449.6      0.01054332 1          1         
449.7      0.01553681 1          1         
449.8      0.02915061 1          0.970696  
449.9      0.0559686  1          1         
450        0.08541089 1          1         
450.1      0.1181635  1          0.9894639 
450.2      0.2781581  0.7650012  0.7184894 
450.3      0.4048423  0.5393231  0.4164819 
450.4      0.4690315  0.5273972  0.220794  
450.5      0.4809214  0.5885207  0.137308  
450.6      0.4581316  0.6645536  0.1346341 
450.7      0.4235393  0.7157864  0.194329  
450.8      0.3871399  0.7956952  0.3207353 
450.9      0.3201904  1          0.4803855 
451        0.2247624  1          0.652403  
451.1      0.1372422  1          0.7935454 
451.2      0.06321126 1          1         
451.3      0.0676111  1          1         
451.4      0.05911677 1          1         
451.5      0.04326802 1          1         
451.6      0.02132583 1          1         
451.7      0.01802882 1          0.9734999 
451.8      0.01236322 1          1         
451.9      0.008308856 1          1         
452        0.01950082 1          0.9922919 
452.1      0.08649838 1          0.7763503 
452.2      0.1847827  1          0.5517888 
452.3      0.2426599  1          0.4274305 
452.4      0.2444405  1          0.418165  
452.5      0.2395373  1          0.4335102 
452.6      0.2103792  1          0.5141822 
452.7      0.1807511  1          0.6116387 
452.8      0.1297676  1          0.7152193 
452.9      0.1051784  1          0.7648864 
453        0.1196723  1          0.7198187 
453.1      0.1352955  1          0.691075  
453.2      0.1543269  1          0.6770344 
453.3      0.193397   1          0.6454255 
453.4      0.1896316  1          0.7144883 
453.5      0.1345375  1          0.8787846 
453.6      0.110277   1          0.9699391 
453.7      0.1208262  1          0.907962  
453.8      0.112204   1          0.8219022 
453.9      0.04573581 1          0.9136376 
454        0.0533798  1          0.8896746 
454.1      0.07716107 1          0.7998292 
