~Version
 VERS              .         3.0                           : CWLS LOG ASCII STANDARD - VERSION 3.0
 WRAP              .         NO                            : ONE LINE PER DEPTH STEP
 DLM               .         SPACE                         : DELIMITING CHARACTER(SPACE TAB OR COMMA)
~Well Information
#_______________________________________________________________________________
#
#PARAMETER_NAME    .UNIT     VALUE                         : DESCRIPTION
#_______________________________________________________________________________
STRT               .M        1.6                           : First reference value
STOP               .M        917                           : Last reference value
STEP               .M        0.1                           : Step increment
NULL               .         -9999                         : Missing value
COMP               .         ICPetroleum                   : Company
WELL               .         302                           : Well name
FLD                .         Karatobe                      : Field
LOC                .                                       : Location
SRVC               .         AO "UPGF"                     : Service Company
CTRY               .         KZ                            : Country
DATE               .         15/2/2022                     : Service Date
LATI               .         0                             : Latitude
LONG               .         0                             : Longitude
GDAT               .         WGS 84                        : Geodetic Datum
COORDIN            .                                       : Grid System
COUNTRY            .         Kazakhstan                    : 
COUNTRY            .         Kazakhstan                    : 
EREF               .m        146.6                         : 
GRP                .                                       : Group name
ISS                .                                       : Well surveys
KB                 .         146.2                         : KB Elevation
ORIGINALWELLNAME   .         302                           : 
PROV               .                                       : Province
RWS                .         -999                          : Def_Rw
TIME               .         16_25                         : LOG TIME
UWI                .         1_302                         : Unique Well Identifier (UWI)
WST                .         -999                          : Def_Rwt
X                  .km       466240.85                     : 
XCOORD             .                                       : X or East-West Coordinate
Y                  .km       5307715.05                    : 
YCOORD             .                                       : Y or North-South Coordinate
~Parameter Information Block
#_______________________________________________________________________________
#
#PARAMETER_NAME    .UNIT     VALUE                         : DESCRIPTION
#_______________________________________________________________________________
SET                .         Las                           : 
TLFamily_DEPT      .         Measured Depth                : 
TLFamily_PHI_FINAL .         Porosity                      : 
TLFamily_SW_AR     .         Water Saturation              : 
TLFamily_VSH_FINAL .         Shale Volume                  : 
~Curve Information
#_______________________________________________________________________________
#
#LOGNAME           .UNIT     LOG_ID                        : DESCRIPTION
#_______________________________________________________________________________
DEPT               .M                                      : Depth curve {F}
PHI_FINAL          .m3/m3                                  : Porosity {F}
SW_AR              .m3/m3                                  :  {F}
VSH_FINAL          .unitless                               : Vshale {F}
~Ascii
# ...
272.2      0.0540723  1          0.8741074 
272.3      0.09537014 1          0.7387154 
272.4      0.1183952  1          0.6523941 
272.5      0.126115   1          0.5936438 
272.6      0.1392896  1          0.5935304 
272.7      0.1848213  1          0.5569817 
272.8      0.2013402  1          0.5748505 
272.9      0.2257376  0.9740826  0.5567728 
273        0.1816823  1          0.631584  
273.1      0.1109993  1          0.7096147 
273.2      0.05799515 1          0.7487839 
273.3      0.07581556 1          0.6823947 
273.4      0.1488414  1          0.5696584 
273.5      0.1448849  1          0.5786346 
273.6      0.1189017  1          0.5923972 
273.7      0.06833842 1          0.640658  
273.8      0.09705302 1          0.587534  
273.9      0.07728733 1          0.6404076 
274        0.02750701 1          0.7418562 
274.1      0.001934169 1          0.8445713 
274.2      0.002457329 1          0.8508043 
274.3      0.03176988 1          0.7189056 
274.4      0.02784067 1          0.6808743 
274.5      0.07255999 1          0.5595403 
274.6      0.1355306  1          0.5001642 
274.7      0.1724343  0.9414754  0.4881289 
274.8      0.1591382  0.9399946  0.577211  
274.9      0.1517671  0.9131916  0.6243411 
275        0.1698314  0.7918332  0.5545867 
275.1      0.2144668  0.617227   0.4533444 
275.2      0.2399941  0.5403384  0.4105971 
275.3      0.2369774  0.5364805  0.427866  
275.4      0.2326928  0.5418341  0.4457557 
275.5      0.2292212  0.5577195  0.4530252 
275.6      0.2449282  0.5379311  0.4566665 
275.7      0.2465797  0.5606714  0.4678821 
275.8      0.207311   0.6977376  0.4454434 
275.9      0.2247692  0.6288704  0.406725  
276        0.2319535  0.5655119  0.4066557 
276.1      0.2020131  0.5711109  0.4637549 
276.2      0.1801777  0.5746546  0.548982  
276.3      0.170003   0.5718411  0.6034253 
276.4      0.2234259  0.4349178  0.4827129 
276.5      0.2959917  0.3274003  0.3521274 
276.6      0.349546   0.2763027  0.2540339 
276.7      0.3371459  0.2926745  0.2610456 
276.8      0.3040074  0.3350567  0.3011524 
276.9      0.3024686  0.3510517  0.288085  
277        0.2992253  0.3632169  0.2829607 
277.1      0.2927935  0.3808377  0.2879965 
277.2      0.2719186  0.4095969  0.3227591 
277.3      0.238012   0.4587125  0.3990485 
277.4      0.196361   0.5410289  0.5057132 
277.5      0.1591634  0.6434704  0.6212096 
277.6      0.1609222  0.6359239  0.6308586 
277.7      0.2107927  0.5016719  0.5177147 
277.8      0.2448249  0.4478933  0.42604   
277.9      0.2653525  0.4185848  0.3513246 
278        0.2325648  0.4682078  0.3985761 
278.1      0.1552652  0.6671067  0.5513868 
278.2      0.0281563  1          0.8061287 
278.3      0.01570019 1          0.8759627 
278.4      0.03885704 1          0.7240294 
278.5      0.1263258  0.7316121  0.5380047 
278.6      0.2290204  0.4289917  0.3915924 
278.7      0.2931278  0.3482567  0.3191908 
278.8      0.3246164  0.3315909  0.2602292 
278.9      0.3052568  0.3579336  0.2872018 
279        0.2669411  0.4103834  0.3721254 
279.1      0.2260251  0.4722798  0.4613008 
279.2      0.1911785  0.5471485  0.5081068 
279.3      0.2268539  0.4425741  0.4319776 
279.4      0.2676994  0.3665536  0.3445445 
279.5      0.2970362  0.3131574  0.2719663 
279.6      0.304841   0.2913474  0.2646696 
279.7      0.2931569  0.2883501  0.3132133 
279.8      0.3005164  0.2738239  0.3104415 
279.9      0.3278038  0.258041   0.2459342 
280        0.3496562  0.2477181  0.1939038 
280.1      0.3659853  0.2414566  0.1808517 
280.2      0.3550072  0.2519036  0.2176832 
280.3      0.3372627  0.2684025  0.2549572 
280.4      0.3054752  0.2967618  0.2994723 
280.5      0.3033721  0.2970865  0.3101011 
280.6      0.3093303  0.2733303  0.2764227 
280.7      0.3001193  0.2712416  0.2367231 
280.8      0.2826339  0.2844101  0.243354  
280.9      0.2652485  0.3008035  0.2689597 
281        0.3173893  0.2511376  0.2689193 
281.1      0.3291997  0.2471918  0.2432476 
281.2      0.3339592  0.2461561  0.225756  
281.3      0.2972763  0.2686138  0.2365177 
281.4      0.2346648  0.3258082  0.2592248 
281.5      0.1746431  0.3963359  0.2835282 
281.6      0.1709856  0.3938361  0.2937061 
281.7      0.2018104  0.3634923  0.275963  
281.8      0.2661787  0.2958287  0.2567238 
281.9      0.2984023  0.2734492  0.2613826 
282        0.242267   0.3514506  0.2685161 
282.1      0.1794558  0.4802849  0.2832691 
282.2      0.1252686  0.6933942  0.2960348 
282.3      0.1112857  0.7883377  0.2757261 
282.4      0.1387055  0.6339858  0.256496  
282.5      0.1632502  0.4956351  0.2731833 
282.6      0.1438763  0.4986301  0.3312259 
282.7      0.0821498  0.9189679  0.3761158 
282.8      0.08369143 1          0.388844  
282.9      0.1242098  1          0.4363789 
283        0.1543408  0.8906416  0.4507703 
283.1      0.1577418  0.8377592  0.4808182 
283.2      0.1435506  0.9145332  0.5249673 
283.3      0.1058709  1          0.6436403 
283.4      0.09852947 1          0.7004853 
283.5      0.1065655  0.8664665  0.7277151 
283.6      0.0983572  0.8167484  0.773306  
283.7      0.1124847  0.6628596  0.7790536 
283.8      0.1329938  0.5217258  0.7107664 
283.9      0.1276307  0.5112143  0.6379188 
284        0.08612008 0.6847735  0.5946342 
284.1      0.03872674 1          0.5409799 
284.2      0.002146146 1          0.4995112 
284.3      0          1          0.5115303 
284.4      0          1          0.575874  
284.5      0          1          0.594071  
284.6      0.003127367 1          0.56667   
284.7      0.09376027 0.7007787  0.5152551 
284.8      0.1841829  0.3758961  0.4910531 
284.9      0.2523201  0.2794655  0.3939724 
285        0.2913615  0.2517657  0.3356738 
285.1      0.3124692  0.2406971  0.2947154 
285.2      0.2901448  0.2524297  0.3472064 
285.3      0.2729778  0.2646072  0.3937084 
285.4      0.2985457  0.2470097  0.3682191 
285.5      0.325546   0.2327734  0.3050164 
285.6      0.3261113  0.2444526  0.2743444 
285.7      0.3299715  0.2655945  0.276764  
285.8      0.3167282  0.3012357  0.2598864 
285.9      0.2778378  0.3322248  0.2505767 
286        0.2243576  0.3841155  0.2693237 
286.1      0.1772929  0.4799372  0.3155073 
286.2      0.2060143  0.4232205  0.3100273 
286.3      0.2592615  0.3305105  0.2740687 
286.4      0.3063973  0.2754338  0.2620017 
286.5      0.3169311  0.2632021  0.2619629 
286.6      0.3014163  0.2683338  0.2788621 
286.7      0.3000588  0.2687617  0.3044633 
286.8      0.3102184  0.2770362  0.293947  
286.9      0.3266612  0.3134688  0.2762638 
287        0.3401412  0.381141   0.2456357 
287.1      0.3222528  0.4936933  0.2688811 
287.2      0.2777621  0.5958901  0.3122596 
287.3      0.2183236  0.7399918  0.4022531 
287.4      0.1622105  0.9525328  0.4771595 
287.5      0.1332741  1          0.5126465 
287.6      0.1648266  1          0.5207732 
287.7      0.2155255  0.8136985  0.512461  
287.8      0.2379056  0.7472596  0.5083242 
287.9      0.222761   0.7834848  0.5246164 
288        0.2135389  0.8048071  0.5286974 
288.1      0.2290416  0.7385879  0.488167  
288.2      0.2697721  0.6316254  0.3918037 
288.3      0.3000269  0.5843928  0.3310659 
288.4      0.2899225  0.5996999  0.306306  
288.5      0.2933702  0.6068268  0.3062584 
288.6      0.2952118  0.6112962  0.3088855 
288.7      0.2670511  0.6610743  0.3601391 
288.8      0.254226   0.6857744  0.4012396 
288.9      0.2521699  0.7060369  0.4180152 
289        0.2696344  0.6638041  0.3753548 
289.1      0.296453   0.6109008  0.3363328 
289.2      0.2967153  0.6033387  0.3362945 
289.3      0.2687497  0.6747911  0.3689405 
289.4      0.2355957  0.7668501  0.4280268 
289.5      0.2177614  0.804458   0.46782   
289.6      0.2125695  0.8069636  0.4715193 
289.7      0.2513216  0.6921306  0.3973359 
289.8      0.2811192  0.6297373  0.3417301 
289.9      0.2948234  0.610028   0.3246266 
290        0.2706929  0.6613485  0.3685344 
290.1      0.255778   0.6943087  0.3938149 
290.2      0.262086   0.6762543  0.3683974 
290.3      0.2888824  0.6137171  0.2872903 
