~Version
 VERS              .         3.0                           : CWLS LOG ASCII STANDARD - VERSION 3.0
 WRAP              .         NO                            : ONE LINE PER DEPTH STEP
 DLM               .         SPACE                         : DELIMITING CHARACTER(SPACE TAB OR COMMA)
~Well Information
#_______________________________________________________________________________
#
#PARAMETER_NAME    .UNIT     VALUE                         : DESCRIPTION
#_______________________________________________________________________________
STRT               .M        1.6                           : First reference value
STOP               .M        917                           : Last reference value
STEP               .M        0.1                           : Step increment
NULL               .         -9999                         : Missing value
COMP               .         ICPetroleum                   : Company
WELL               .         302                           : Well name
FLD                .         Karatobe                      : Field
LOC                .                                       : Location
SRVC               .         AO "UPGF"                     : Service Company
CTRY               .         KZ                            : Country
DATE               .         15/2/2022                     : Service Date
LATI               .         0                             : Latitude
LONG               .         0                             : Longitude
GDAT               .         WGS 84                        : Geodetic Datum
COORDIN            .                                       : Grid System
COUNTRY            .         Kazakhstan                    : 
COUNTRY            .         Kazakhstan                    : 
EREF               .m        146.6                         : 
GRP                .                                       : Group name
ISS                .                                       : Well surveys
KB                 .         146.2                         : KB Elevation
ORIGINALWELLNAME   .         302                           : 
PROV               .                                       : Province
RWS                .         -999                          : Def_Rw
TIME               .         16_25                         : LOG TIME
UWI                .         1_302                         : Unique Well Identifier (UWI)
WST                .         -999                          : Def_Rwt
X                  .km       466240.85                     : 
XCOORD             .                                       : X or East-West Coordinate
Y                  .km       5307715.05                    : 
YCOORD             .                                       : Y or North-South Coordinate
~Parameter Information Block
#_______________________________________________________________________________
#
#PARAMETER_NAME    .UNIT     VALUE                         : DESCRIPTION
#_______________________________________________________________________________
SET                .         Las                           : 
TLFamily_DEPT      .         Measured Depth                : 
TLFamily_PHI_FINAL .         Porosity                      : 
TLFamily_SW_AR     .         Water Saturation              : 
TLFamily_VSH_FINAL .         Shale Volume                  : 
~Curve Information
#_______________________________________________________________________________
#
#LOGNAME           .UNIT     LOG_ID                        : DESCRIPTION
#_______________________________________________________________________________
DEPT               .M                                      : Depth curve {F}
PHI_FINAL          .m3/m3                                  : Porosity {F}
SW_AR              .m3/m3                                  :  {F}
VSH_FINAL          .unitless                               : Vshale {F}
~Ascii
# ...
181.2      0.3958069  0.3406148  0.4623738 
181.3      0.3328617  0.4000653  0.5549047 
181.4      0.2567431  0.4908167  0.6574948 
181.5      0.2589599  0.4783936  0.6302321 
181.6      0.3023778  0.4125492  0.5042801 
181.7      0.3565     0.3530462  0.3863518 
181.8      0.3735436  0.3387737  0.3303379 
181.9      0.4049987  0.3142877  0.2783338 
182        0.4367719  0.2960516  0.2328546 
182.1      0.4660818  0.2821001  0.2167501 
182.2      0.4942255  0.27364    0.2212199 
182.3      0.507316   0.270135   0.2496812 
182.4      0.5135015  0.2639132  0.2754157 
182.5      0.5167179  0.2608165  0.2753705 
182.6      0.5116345  0.2571494  0.280707  
182.7      0.496201   0.2601093  0.3030337 
182.8      0.4657956  0.2765454  0.3328626 
182.9      0.4587687  0.2809607  0.3236208 
183        0.4643114  0.2790062  0.2859796 
183.1      0.4746394  0.2768809  0.2518553 
183.2      0.4595079  0.290148   0.261956  
183.3      0.4397184  0.3038266  0.2998569 
183.4      0.4335338  0.3111229  0.3325166 
183.5      0.4453154  0.3051313  0.3387105 
183.6      0.4410644  0.3097438  0.3645536 
183.7      0.4012304  0.3387573  0.4442284 
183.8      0.3334419  0.4071837  0.5616406 
183.9      0.3066654  0.4368256  0.6011096 
184        0.3012435  0.4319605  0.6009854 
184.1      0.2677073  0.4959987  0.6703924 
184.2      0.2706795  0.4937684  0.6873048 
184.3      0.272448   0.4966127  0.6871262 
184.4      0.3038077  0.4466489  0.6533538 
184.5      0.3089712  0.4395849  0.6106115 
184.6      0.3278199  0.4137863  0.5752761 
184.7      0.3654172  0.3673521  0.4798791 
184.8      0.3877299  0.3397176  0.4592044 
184.9      0.4009796  0.3200541  0.4164935 
185        0.3683541  0.307366   0.3981743 
185.1      0.2650113  0.3773063  0.4430356 
185.2      0.1665758  0.6557786  0.4963978 
185.3      0.09202656 1          0.564725  
185.4      0.1474667  0.8415304  0.5456325 
185.5      0.2363736  0.5245731  0.5047834 
185.6      0.3280398  0.374816   0.4707291 
185.7      0.347967   0.3478876  0.458418  
185.8      0.3555508  0.3398848  0.4424725 
185.9      0.3654609  0.3408677  0.3975209 
186        0.3813773  0.3360851  0.3663374 
186.1      0.3743506  0.3445573  0.3729993 
186.2      0.3655775  0.3513458  0.3973035 
186.3      0.3678909  0.3507908  0.4044205 
186.4      0.3916192  0.3287231  0.3660768 
186.5      0.4068283  0.3143208  0.3369484 
186.6      0.4058433  0.3127568  0.3215572 
186.7      0.3780794  0.3408438  0.3494915 
186.8      0.3557395  0.3610577  0.3828051 
186.9      0.3532106  0.3640338  0.3827361 
187        0.3475398  0.3701918  0.4075411 
187.1      0.3381999  0.3710911  0.4185236 
187.2      0.3122234  0.4002325  0.4413088 
187.3      0.296999   0.4320476  0.4373383 
187.4      0.2975206  0.4383608  0.4220162 
187.5      0.3088957  0.4255782  0.4182141 
187.6      0.3276566  0.4060746  0.4218598 
187.7      0.3371179  0.3923749  0.4447862 
187.8      0.3561271  0.3665487  0.4447025 
187.9      0.3757248  0.3484371  0.4105071 
188        0.3704184  0.3541971  0.4215471 
188.1      0.3514619  0.3749917  0.4563324 
188.2      0.3428538  0.3766278  0.4766548 
188.3      0.3498383  0.3722321  0.4601839 
188.4      0.352207   0.3704067  0.4481356 
188.5      0.3083377  0.4275653  0.5150243 
188.6      0.2814741  0.4667598  0.5657772 
188.7      0.2624015  0.4936666  0.6002596 
188.8      0.27633    0.4749752  0.5850964 
188.9      0.2665284  0.4922091  0.589934  
189        0.2566892  0.5070345  0.6049566 
189.1      0.2719373  0.4689349  0.5847383 
189.2      0.2984941  0.4212885  0.5415025 
189.3      0.2920514  0.4344938  0.5649776 
189.4      0.2698076  0.4683052  0.5893312 
189.5      0.2901745  0.4436029  0.555196  
189.6      0.2943889  0.4473667  0.5456994 
189.7      0.2766978  0.482885   0.5840234 
189.8      0.2329122  0.5742946  0.6678816 
189.9      0.2200894  0.6068004  0.7018877 
190        0.2129925  0.6315411  0.725365  
190.1      0.1848933  0.7187461  0.7745711 
190.2      0.2168309  0.614506   0.6899034 
190.3      0.2445093  0.5420067  0.6292681 
190.4      0.256974   0.5087506  0.6186419 
190.5      0.3061636  0.4342749  0.5400773 
190.6      0.3147036  0.4275325  0.5129059 
190.7      0.3229402  0.4222057  0.4826872 
190.8      0.2646075  0.5029817  0.5976767 
190.9      0.1994337  0.6437566  0.7239497 
191        0.1802287  0.7032623  0.7604547 
191.1      0.1806697  0.6995769  0.7478998 
191.2      0.2299539  0.5560384  0.6440651 
191.3      0.2909215  0.4451337  0.5121797 
191.4      0.3663013  0.3584877  0.3694921 
191.5      0.4430704  0.3056879  0.2436362 
191.6      0.4660829  0.2948678  0.2071248 
191.7      0.4568607  0.300942   0.2247872 
191.8      0.4424359  0.309294   0.2608893 
191.9      0.455144   0.3107005  0.2483605 
192        0.476433   0.3103931  0.2157173 
192.1      0.5000899  0.3024183  0.1943773 
192.2      0.5082383  0.3071344  0.2112573 
192.3      0.49887    0.3199547  0.2684078 
192.4      0.4734524  0.3377564  0.2981475 
192.5      0.4525599  0.3648981  0.3183402 
192.6      0.4196678  0.388811   0.3653715 
192.7      0.3186517  0.4843718  0.5108027 
192.8      0.2356467  0.6443914  0.6804064 
192.9      0.1621023  0.9266114  0.7148882 
193        0.1907756  0.7992783  0.6915064 
193.1      0.1906498  0.8085963  0.6687837 
193.2      0.1838815  0.8314896  0.6576205 
193.3      0.1713932  0.8831472  0.657482  
193.4      0.193628   0.7893723  0.6200031 
193.5      0.215365   0.7149109  0.5746427 
193.6      0.2395805  0.6524696  0.5460079 
193.7      0.239628   0.6907464  0.5744103 
193.8      0.2421686  0.6666167  0.5742943 
193.9      0.2481018  0.6609439  0.5550324 
194        0.2705352  0.5955557  0.5227865 
194.1      0.2814354  0.5755358  0.4713043 
194.2      0.2792194  0.5807751  0.4550722 
194.3      0.2489053  0.6578766  0.4549865 
194.4      0.2205171  0.7169138  0.4834469 
194.5      0.1968812  0.7614424  0.5222733 
194.6      0.1801815  0.8803402  0.4874429 
194.7      0.2028459  0.8352827  0.4873491 
194.8      0.2500452  0.6954722  0.4625469 
194.9      0.2505277  0.6633482  0.4871618 
195        0.2611327  0.6042599  0.5085162 
195.1      0.24734    0.6301184  0.5351962 
195.2      0.2313744  0.6690722  0.5583159 
195.3      0.2404098  0.6452611  0.525915  
195.4      0.2386987  0.657849   0.5169008 
195.5      0.2124878  0.7460458  0.5579807 
195.6      0.1946426  0.8183429  0.6328632 
195.7      0.2406428  0.6632048  0.5391183 
195.8      0.2821476  0.5607153  0.3974871 
195.9      0.2843235  0.5575318  0.3345897 
196        0.2788029  0.5697578  0.3833924 
196.1      0.2396307  0.6564583  0.4735892 
196.2      0.2234059  0.6916254  0.5116836 
196.3      0.1863749  0.8274256  0.5570887 
196.4      0.1899894  0.8036653  0.5712901 
196.5      0.1639324  0.9196872  0.6476643 
196.6      0.1906778  0.7959293  0.600637  
196.7      0.1876351  0.8183086  0.5806479 
196.8      0.1680255  0.9140944  0.6260633 
196.9      0.1224862  1          0.7445593 
197        0.1316398  1          0.7628916 
197.1      0.1286071  1          0.7261502 
197.2      0.1578209  1          0.6630265 
197.3      0.1291278  1          0.7318284 
197.4      0.1622044  1          0.6794115 
197.5      0.1747101  0.9373823  0.6792678 
197.6      0.1612464  1          0.7194248 
197.7      0.1514103  1          0.7311953 
197.8      0.1466754  1          0.7553823 
197.9      0.2015321  0.8282323  0.7014707 
198        0.1817354  0.9451627  0.7612236 
198.1      0.1694384  1          0.7862935 
198.2      0.1654966  1          0.8388274 
198.3      0.1742877  0.9737039  0.8661903 
198.4      0.15206    1          0.9088407 
198.5      0.1684594  1          0.8588278 
198.6      0.1870413  0.9539431  0.7790819 
198.7      0.1682003  1          0.7981133 
198.8      0.1646409  1          0.8445082 
198.9      0.1234069  1          0.9678454 
199        0.1550882  1          0.8931326 
199.1      0.1563631  1          0.8646197 
199.2      0.1764637  1          0.8102971 
199.3      0.1627664  1          0.8504094 
