~Version
 VERS              .         3.0                           : CWLS LOG ASCII STANDARD - VERSION 3.0
 WRAP              .         NO                            : ONE LINE PER DEPTH STEP
 DLM               .         SPACE                         : DELIMITING CHARACTER(SPACE TAB OR COMMA)
~Well Information
#_______________________________________________________________________________
#
#PARAMETER_NAME    .UNIT     VALUE                         : DESCRIPTION
#_______________________________________________________________________________
STRT               .M        1.6                           : First reference value
STOP               .M        917                           : Last reference value
STEP               .M        0.1                           : Step increment
NULL               .         -9999                         : Missing value
COMP               .         ICPetroleum                   : Company
WELL               .         302                           : Well name
FLD                .         Karatobe                      : Field
LOC                .                                       : Location
SRVC               .         AO "UPGF"                     : Service Company
CTRY               .         KZ                            : Country
DATE               .         15/2/2022                     : Service Date
LATI               .         0                             : Latitude
LONG               .         0                             : Longitude
GDAT               .         WGS 84                        : Geodetic Datum
COORDIN            .                                       : Grid System
COUNTRY            .         Kazakhstan                    : 
COUNTRY            .         Kazakhstan                    : 
EREF               .m        146.6                         : 
GRP                .                                       : Group name
ISS                .                                       : Well surveys
KB                 .         146.2                         : KB Elevation
ORIGINALWELLNAME   .         302                           : 
PROV               .                                       : Province
RWS                .         -999                          : Def_Rw
TIME               .         16_25                         : LOG TIME
UWI                .         1_302                         : Unique Well Identifier (UWI)
WST                .         -999                          : Def_Rwt
X                  .km       466240.85                     : 
XCOORD             .                                       : X or East-West Coordinate
Y                  .km       5307715.05                    : 
YCOORD             .                                       : Y or North-South Coordinate
~Parameter Information Block
#_______________________________________________________________________________
#
#PARAMETER_NAME    .UNIT     VALUE                         : DESCRIPTION
#_______________________________________________________________________________
SET                .         Las                           : 
TLFamily_DEPT      .         Measured Depth                : 
TLFamily_PHI_FINAL .         Porosity                      : 
TLFamily_SW_AR     .         Water Saturation              : 
TLFamily_VSH_FINAL .         Shale Volume                  : 
~Curve Information
#_______________________________________________________________________________
#
#LOGNAME           .UNIT     LOG_ID                        : DESCRIPTION
#_______________________________________________________________________________
DEPT               .M                                      : Depth curve {F}
PHI_FINAL          .m3/m3                                  : Porosity {F}
SW_AR              .m3/m3                                  :  {F}
VSH_FINAL          .unitless                               : Vshale {F}
~Ascii
# ...
636.2      0.4358121  -9999      0.04939735
636.3      0.4343786  -9999      0.04247473
636.4      0.4208458  -9999      0.04180278
636.5      0.4059424  -9999      0.04450693
636.6      0.3998355  -9999      0.04587716
636.7      0.3987322  -9999      0.0424655 
636.8      0.4066058  1          0.05008735
636.9      0.4146984  1          0.0801421 
637        0.4202946  1          0.1257887 
637.1      0.3982687  1          0.1743108 
637.2      0.3484556  1          0.2479926 
637.3      0.2840405  1          0.3428461 
637.4      0.2056507  1          0.5137739 
637.5      0.1476425  1          0.6485653 
637.6      0.09185107 1          0.7488209 
637.7      0.02482513 1          0.8781564 
637.8      0.02659608 1          0.8884128 
637.9      0.02705181 1          0.9199979 
638        0.08085078 1          0.789418  
638.1      0.1221452  1          0.7262644 
638.2      0.1367725  1          0.7175115 
638.3      0.0978023  1          0.8079582 
638.4      0.03448212 1          0.974324  
638.5      0.0291959  1          1         
638.6      0.02384789 1          1         
638.7      0.02929156 1          1         
638.8      0.03626921 1          1         
638.9      0.04415925 1          1         
639        0.04798918 1          1         
639.1      0.04386614 1          1         
639.2      0.05631668 1          0.9451685 
639.3      0.04956627 1          0.912483  
639.4      0.02409334 1          0.961429  
639.5      0.007829539 1          1         
639.6      0.007897723 1          1         
639.7      0.009518932 1          1         
639.8      0.009594704 1          1         
639.9      0.02551227 1          0.960642  
640        0.06824505 1          0.8955767 
640.1      0.04592311 -9999      1         
640.2      0.04782606 -9999      0.9713657 
640.3      0.04864213 -9999      0.9433526 
640.4      0.05273063 -9999      0.921456  
640.5      0.06696209 -9999      0.9106226 
640.6      0.05438609 -9999      0.9374202 
640.7      0.0664319  1          0.9050383 
640.8      0.07191604 1          0.8996075 
640.9      0.03843353 1          0.9314961 
641        0.03052528 1          0.9368172 
641.1      0.02348037 1          0.9586856 
641.2      0.02542398 1          0.8990362 
641.3      0.01217195 1          0.9639535 
641.4      0.02081845 1          0.9693815 
641.5      0.03847265 1          0.9090723 
641.6      0.07796817 1          0.7440994 
641.7      0.08928323 1          0.6884555 
641.8      0.09998799 1          0.6640034 
641.9      0.1157457  1          0.6175193 
642        0.127855   1          0.584513  
642.1      0.1181635  1          0.6324536 
642.2      0.07768542 1          0.7567272 
642.3      0.03766961 1          0.8613862 
642.4      0.03168347 1          0.8816251 
642.5      0.02044462 1          0.9290208 
642.6      0.01041564 1          0.9843759 
642.7      0.01745535 1          1         
642.8      0.01532168 1          1         
642.9      0.01477978 1          1         
643        0.01290523 1          1         
643.1      0.01218933 1          1         
643.2      0.01760741 1          0.9948084 
643.3      0.01328944 1          0.9889183 
643.4      0.01499701 1          0.9276172 
643.5      0.02157589 1          1         
643.6      0.02258394 1          1         
643.7      0.02098715 1          1         
643.8      0.01351821 1          1         
643.9      0.009503781 1          1         
644        0.009049247 1          1         
644.1      0.005354388 1          0.8894936 
644.2      0.01790438 1          0.8339097 
644.3      0.07545605 1          0.7192289 
644.4      0.0594238  1          0.7676306 
644.5      0.07486697 1          0.7584879 
644.6      0.07166577 1          0.7628534 
644.7      0.07745414 1          0.7627323 
644.8      0.08465086 1          0.7536435 
644.9      0.1333748  1          0.6569728 
645        0.1803795  1          0.5051349 
645.1      0.2199259  1          0.3946351 
645.2      0.237283   1          0.3746365 
645.3      0.2491872  1          0.3439301 
645.4      0.2490944  1          0.3624914 
645.5      0.2381144  1          0.420616  
645.6      0.1893922  1          0.5814349 
645.7      0.09889775 1          0.8269251 
645.8      0.03925972 1          1         
645.9      0.01989782 1          1         
646        0.03373699 1          1         
646.1      0.02963598 1          1         
646.2      0.008685607 1          1         
646.3      0.005425541 1          1         
646.4      0.002712069 1          1         
646.5      0.006005438 1          1         
646.6      0.008370733 1          1         
646.7      0.01289346 1          1         
646.8      0.008806767 1          1         
646.9      0.006874997 1          1         
647        0.00354167 1          1         
647.1      0.005708336 1          1         
647.2      0.005843656 1          0.9599153 
647.3      0.004457376 1          0.9542027 
647.4      0.0002537885 1          1         
647.5      0.01064015 1          1         
647.6      0.01042803 1          1         
647.7      0.02522186 1          0.8945842 
647.8      0.02528624 1          0.8840625 
647.9      0.03217555 1          0.8435971 
648        0.058605   1          0.7722878 
648.1      0.0795396  1          0.72786   
648.2      0.07459182 1          0.7540408 
648.3      0.02160482 1          0.898891  
648.4      0.01846126 1          0.9305781 
648.5      0.0239081  1          0.9250318 
648.6      0.03542182 1          0.8377125 
648.7      0.06625123 1          0.7490456 
648.8      0.08521975 1          0.6974102 
648.9      0.1316486  1          0.6185411 
649        0.1763958  0.8896954  0.554356  
649.1      0.1640338  0.9177151  0.5645497 
649.2      0.1397335  1          0.6182249 
649.3      0.07408554 1          0.7798942 
649.4      0.07469908 1          0.7615711 
649.5      0.1198451  1          0.6641367 
649.6      0.1418297  0.9870242  0.599487  
649.7      0.155799   0.8774313  0.5814753 
649.8      0.1464187  0.9347476  0.5992908 
649.9      0.1656707  0.8665666  0.5604586 
650        0.1679392  0.8568054  0.5638149 
650.1      0.1433058  0.9759132  0.6063517 
650.2      0.1457122  0.937615   0.6062621 
650.3      0.1589343  0.8916679  0.5635517 
650.4      0.1728102  0.8288425  0.513929  
650.5      0.200836   0.7200997  0.4536371 
650.6      0.1944793  0.7167946  0.4769001 
650.7      0.1865126  0.7312354  0.4949628 
650.8      0.1803188  0.7641315  0.5329592 
650.9      0.1985956  0.704864   0.491789  
651        0.2211961  0.6757092  0.4392538 
651.1      0.2271124  0.6830818  0.4174762 
651.2      0.2107163  0.7437076  0.4363783 
651.3      0.1744856  0.89465    0.51013   
651.4      0.1550757  0.9892539  0.5730317 
651.5      0.1236243  1          0.6701633 
651.6      0.1013202  1          0.7069251 
651.7      0.1248235  1          0.6348237 
651.8      0.1838119  0.7758835  0.4911262 
651.9      0.2263423  0.6266342  0.3987777 
652        0.2386524  0.5870553  0.388607  
652.1      0.2322175  0.5708024  0.4090217 
652.2      0.2201448  0.5968158  0.4525936 
652.3      0.2082562  0.6412755  0.4669542 
652.4      0.2048258  0.6533782  0.4610858 
652.5      0.2092673  0.6354956  0.4439478 
652.6      0.2112103  0.6413602  0.4328247 
652.7      0.1935225  0.6894223  0.4814668 
652.8      0.2068787  0.6414797  0.4608196 
652.9      0.2107007  0.6276581  0.4607723 
653        0.2325424  0.5461542  0.4033383 
653.1      0.2498841  0.4948138  0.3781537 
653.2      0.2685927  0.4251269  0.3519571 
653.3      0.2796268  0.3861652  0.338269  
653.4      0.2606077  0.4151021  0.3731193 
653.5      0.24698    0.4306395  0.4135226 
653.6      0.252156   0.4146486  0.4187464 
653.7      0.2653999  0.3961551  0.3778761 
653.8      0.2663502  0.366281   0.3470957 
653.9      0.2676354  0.3656252  0.3335774 
654        0.2835684  0.3832362  0.2915846 
654.1      0.2990023  0.3857569  0.2722143 
654.2      0.309249   0.3570678  0.2875664 
654.3      0.2847793  0.3629222  0.346891  
