~Version
 VERS              .         3.0                           : CWLS LOG ASCII STANDARD - VERSION 3.0
 WRAP              .         NO                            : ONE LINE PER DEPTH STEP
 DLM               .         SPACE                         : DELIMITING CHARACTER(SPACE TAB OR COMMA)
~Well Information
#_______________________________________________________________________________
#
#PARAMETER_NAME    .UNIT     VALUE                         : DESCRIPTION
#_______________________________________________________________________________
STRT               .M        1.6                           : First reference value
STOP               .M        917                           : Last reference value
STEP               .M        0.1                           : Step increment
NULL               .         -9999                         : Missing value
COMP               .         ICPetroleum                   : Company
WELL               .         302                           : Well name
FLD                .         Karatobe                      : Field
LOC                .                                       : Location
SRVC               .         AO "UPGF"                     : Service Company
CTRY               .         KZ                            : Country
DATE               .         15/2/2022                     : Service Date
LATI               .         0                             : Latitude
LONG               .         0                             : Longitude
GDAT               .         WGS 84                        : Geodetic Datum
COORDIN            .                                       : Grid System
COUNTRY            .         Kazakhstan                    : 
COUNTRY            .         Kazakhstan                    : 
EREF               .m        146.6                         : 
GRP                .                                       : Group name
ISS                .                                       : Well surveys
KB                 .         146.2                         : KB Elevation
ORIGINALWELLNAME   .         302                           : 
PROV               .                                       : Province
RWS                .         -999                          : Def_Rw
TIME               .         16_25                         : LOG TIME
UWI                .         1_302                         : Unique Well Identifier (UWI)
WST                .         -999                          : Def_Rwt
X                  .km       466240.85                     : 
XCOORD             .                                       : X or East-West Coordinate
Y                  .km       5307715.05                    : 
YCOORD             .                                       : Y or North-South Coordinate
~Parameter Information Block
#_______________________________________________________________________________
#
#PARAMETER_NAME    .UNIT     VALUE                         : DESCRIPTION
#_______________________________________________________________________________
SET                .         Las                           : 
TLFamily_DEPT      .         Measured Depth                : 
TLFamily_PHI_FINAL .         Porosity                      : 
TLFamily_SW_AR     .         Water Saturation              : 
TLFamily_VSH_FINAL .         Shale Volume                  : 
~Curve Information
#_______________________________________________________________________________
#
#LOGNAME           .UNIT     LOG_ID                        : DESCRIPTION
#_______________________________________________________________________________
DEPT               .M                                      : Depth curve {F}
PHI_FINAL          .m3/m3                                  : Porosity {F}
SW_AR              .m3/m3                                  :  {F}
VSH_FINAL          .unitless                               : Vshale {F}
~Ascii
# ...
581.6      0.1635175  1          0.5682087 
581.7      0.1375358  1          0.6445519 
581.8      0.1368884  1          0.6649386 
581.9      0.122928   1          0.7119085 
582        0.1402951  1          0.6688967 
582.1      0.122884   1          0.6942466 
582.2      0.1305914  1          0.6855423 
582.3      0.101732   1          0.7429482 
582.4      0.1221881  1          0.7113568 
582.5      0.1449245  1          0.6600595 
582.6      0.1498533  1          0.6477136 
582.7      0.1556589  1          0.6120278 
582.8      0.1944889  1          0.5218983 
582.9      0.1980593  1          0.4988153 
583        0.1743152  1          0.563443  
583.1      0.1390266  1          0.6677301 
583.2      0.1591929  1          0.6232287 
583.3      0.1588818  1          0.5850116 
583.4      0.1782019  1          0.5419229 
583.5      0.1839674  1          0.5180297 
583.6      0.2226495  1          0.4669644 
583.7      0.2276904  1          0.454832  
583.8      0.2186995  1          0.4668314 
583.9      0.1984516  1          0.4980904 
584        0.1418324  1          0.5993776 
584.1      0.04573901 1          0.7271556 
584.2      0.02151839 1          0.7225999 
584.3      0.01661866 1          0.6028382 
584.4      0.004651623 1          0.4913333 
584.5      0.0290046  1          0.4087091 
584.6      0.1106408  1          0.3065837 
584.7      0.1912104  1          0.2432673 
584.8      0.2703092  1          0.2468805 
584.9      0.2737307  1          0.3151873 
585        0.2568214  1          0.3768507 
585.1      0.2444282  1          0.4166219 
585.2      0.2332631  1          0.4110658 
585.3      0.2149034  1          0.4362584 
585.4      0.1988767  1          0.4842934 
585.5      0.1788994  1          0.5613061 
585.6      0.1418418  1          0.6692532 
585.7      0.1213035  1          0.7342619 
585.8      0.119667   1          0.7030699 
585.9      0.17148    1          0.5790572 
586        0.2137655  1          0.4838752 
586.1      0.2237329  1          0.4386567 
586.2      0.2386459  1          0.4243622 
586.3      0.2466224  1          0.4187087 
586.4      0.2329217  1          0.4560646 
586.5      0.2208832  1          0.4711346 
586.6      0.2180245  1          0.4961423 
586.7      0.2049225  1          0.522275  
586.8      0.2032941  1          0.5289448 
586.9      0.2016484  1          0.5530356 
587        0.2089667  1          0.5356082 
587.1      0.1883146  1          0.5635117 
587.2      0.1472641  1          0.6430142 
587.3      0.1146118  1          0.7324017 
587.4      0.071348   1          0.8176041 
587.5      0.08245746 1          0.7643002 
587.6      0.1142175  1          0.7010643 
587.7      0.1534142  1          0.6035337 
587.8      0.1898704  1          0.5016885 
587.9      0.2299433  1          0.4178021 
588        0.2302313  1          0.4177445 
588.1      0.2226797  1          0.4461377 
588.2      0.2153648  1          0.4669561 
588.3      0.216916   1          0.4548427 
588.4      0.2037851  1          0.4884864 
588.5      0.1866605  1          0.5482279 
588.6      0.1924855  1          0.562242  
588.7      0.1911339  1          0.5411158 
588.8      0.1992997  1          0.5173506 
588.9      0.2054019  1          0.5139784 
589        0.2178084  1          0.4976265 
589.1      0.2185697  1          0.4724577 
589.2      0.2258062  1          0.4483831 
589.3      0.2258708  1          0.4367027 
589.4      0.2059377  1          0.4541378 
589.5      0.2151529  1          0.4511259 
589.6      0.23686    1          0.4168122 
589.7      0.2567514  1          0.3951593 
589.8      0.2392078  1          0.4335484 
589.9      0.2029081  1          0.5066499 
590        0.1988448  1          0.5164243 
590.1      0.2069609  1          0.4968348 
590.2      0.2256722  1          0.4686578 
590.3      0.2108852  1          0.4840245 
590.4      0.2048184  1          0.5030488 
590.5      0.2019576  1          0.506225  
590.6      0.2100692  1          0.4932804 
590.7      0.2273243  1          0.4474404 
590.8      0.2485805  1          0.4052232 
590.9      0.2381679  1          0.4188212 
591        0.2407051  1          0.4299829 
591.1      0.2313264  1          0.4356102 
591.2      0.2581322  1          0.3737506 
591.3      0.2611605  1          0.3662038 
591.4      0.2625442  1          0.3587696 
591.5      0.2382074  1          0.4129932 
591.6      0.2360241  1          0.4184334 
591.7      0.2400022  1          0.4352471 
591.8      0.2346956  1          0.4351866 
591.9      0.2156439  1          0.4614779 
592        0.2208095  1          0.4524794 
592.1      0.2476899  1          0.3965086 
592.2      0.2715324  1          0.3440413 
592.3      0.2737081  1          0.3255628 
592.4      0.2632072  1          0.3346227 
592.5      0.2714831  1          0.3322922 
592.6      0.2712083  1          0.3391744 
592.7      0.2676142  1          0.3704828 
592.8      0.2399216  1          0.4068348 
592.9      0.2332928  1          0.4316728 
593        0.2438352  1          0.4176305 
593.1      0.2591683  1          0.3959737 
593.2      0.2529901  1          0.3906754 
593.3      0.2604137  1          0.3854365 
593.4      0.2555158  1          0.4037938 
593.5      0.2679706  1          0.3905178 
593.6      0.2696961  1          0.3878597 
593.7      0.2780507  1          0.3903992 
593.8      0.2585567  1          0.4311506 
593.9      0.2642093  1          0.4601763 
594        0.2689023  1          0.4631162 
594.1      0.2649144  1          0.4541029 
594.2      0.264343   1          0.43374   
594.3      0.25196    1          0.4510368 
594.4      0.2413333  1          0.4480361 
594.5      0.2409281  1          0.4364016 
594.6      0.2608956  1          0.3951734 
594.7      0.2714254  1          0.377054  
594.8      0.2540056  1          0.389837  
594.9      0.2600023  1          0.3719222 
595        0.282986   1          0.3133664 
595.1      0.295052   1          0.2819416 
595.2      0.2879094  1          0.3067982 
595.3      0.2602276  1          0.3717255 
595.4      0.2419384  1          0.4217804 
595.5      0.2386574  1          0.4134589 
595.6      0.2517379  1          0.3715645 
595.7      0.2658172  1          0.3519478 
595.8      0.293501   1          0.3152521 
595.9      0.2962025  1          0.3108706 
596        0.314485   1          0.2583303 
596.1      0.3082704  1          0.2639886 
596.2      0.3025038  1          0.2582691 
596.3      0.2983671  1          0.2716354 
596.4      0.3059045  1          0.2638941 
596.5      0.2925602  1          0.2916292 
596.6      0.2878348  1          0.3062854 
596.7      0.2817304  1          0.3019941 
596.8      0.3017009  1          0.2813482 
596.9      0.3163766  1          0.2813139 
597        0.3091791  1          0.3104426 
597.1      0.3154949  1          0.3125643 
597.2      0.3098553  1          0.3147092 
597.3      0.2919553  1          0.3038822 
597.4      0.2819264  1          0.2872077 
597.5      0.2717965  1          0.273199  
597.6      0.2956078  1          0.2343468 
597.7      0.3183589  1          0.2028749 
597.8      0.3331793  1          0.1802219 
597.9      0.3385174  1          0.1802026 
598        0.3272697  1          0.1950498 
598.1      0.3212573  1          0.2205756 
598.2      0.312427   1          0.2394457 
598.3      0.2986057  1          0.2690503 
598.4      0.2890296  1          0.2788053 
598.5      0.2801386  1          0.2827745 
598.6      0.28919    1          0.2787484 
598.7      0.2831715  1          0.2887803 
598.8      0.2788298  1          0.3075897 
598.9      0.2791373  1          0.3162163 
599        0.2911154  1          0.2668846 
599.1      0.304723   1          0.2322039 
599.2      0.3174939  1          0.2202922 
599.3      0.3105536  1          0.2629932 
599.4      0.2997211  1          0.2988675 
599.5      0.3134651  1          0.2667148 
599.6      0.3303359  1          0.2119885 
599.7      0.3401483  1          0.1827547 
