~Version
 VERS              .         3.0                           : CWLS LOG ASCII STANDARD - VERSION 3.0
 WRAP              .         NO                            : ONE LINE PER DEPTH STEP
 DLM               .         SPACE                         : DELIMITING CHARACTER(SPACE TAB OR COMMA)
~Well Information
#_______________________________________________________________________________
#
#PARAMETER_NAME    .UNIT     VALUE                         : DESCRIPTION
#_______________________________________________________________________________
STRT               .M        1.6                           : First reference value
STOP               .M        917                           : Last reference value
STEP               .M        0.1                           : Step increment
NULL               .         -9999                         : Missing value
COMP               .         ICPetroleum                   : Company
WELL               .         302                           : Well name
FLD                .         Karatobe                      : Field
LOC                .                                       : Location
SRVC               .         AO "UPGF"                     : Service Company
CTRY               .         KZ                            : Country
DATE               .         15/2/2022                     : Service Date
LATI               .         0                             : Latitude
LONG               .         0                             : Longitude
GDAT               .         WGS 84                        : Geodetic Datum
COORDIN            .                                       : Grid System
COUNTRY            .         Kazakhstan                    : 
COUNTRY            .         Kazakhstan                    : 
EREF               .m        146.6                         : 
GRP                .                                       : Group name
ISS                .                                       : Well surveys
KB                 .         146.2                         : KB Elevation
ORIGINALWELLNAME   .         302                           : 
PROV               .                                       : Province
RWS                .         -999                          : Def_Rw
TIME               .         16_25                         : LOG TIME
UWI                .         1_302                         : Unique Well Identifier (UWI)
WST                .         -999                          : Def_Rwt
X                  .km       466240.85                     : 
XCOORD             .                                       : X or East-West Coordinate
Y                  .km       5307715.05                    : 
YCOORD             .                                       : Y or North-South Coordinate
~Parameter Information Block
#_______________________________________________________________________________
#
#PARAMETER_NAME    .UNIT     VALUE                         : DESCRIPTION
#_______________________________________________________________________________
SET                .         Las                           : 
TLFamily_DEPT      .         Measured Depth                : 
TLFamily_PHI_FINAL .         Porosity                      : 
TLFamily_SW_AR     .         Water Saturation              : 
TLFamily_VSH_FINAL .         Shale Volume                  : 
~Curve Information
#_______________________________________________________________________________
#
#LOGNAME           .UNIT     LOG_ID                        : DESCRIPTION
#_______________________________________________________________________________
DEPT               .M                                      : Depth curve {F}
PHI_FINAL          .m3/m3                                  : Porosity {F}
SW_AR              .m3/m3                                  :  {F}
VSH_FINAL          .unitless                               : Vshale {F}
~Ascii
# ...
490.6      0.1940931  1          0.5189047 
490.7      0.1963113  0.944118   0.5223884 
490.8      0.1612801  1          0.6101919 
490.9      0.1455008  1          0.6652979 
491        0.1683866  0.9385641  0.6059334 
491.1      0.2283586  0.7194732  0.477428  
491.2      0.2566648  0.6200402  0.4209573 
491.3      0.2667187  0.5950859  0.4091515 
491.4      0.2476755  0.6474268  0.4359094 
491.5      0.2560455  0.5985078  0.3647754 
491.6      0.2715532  0.502643   0.3366324 
491.7      0.2745863  0.4545805  0.3268099 
491.8      0.2786905  0.4064707  0.3219702 
491.9      0.3003789  0.3504072  0.2685437 
492        0.3221788  0.3167121  0.2276118 
492.1      0.3313925  0.3140023  0.2239404 
492.2      0.3267021  0.3169386  0.2349521 
492.3      0.3199286  0.3319706  0.2202959 
492.4      0.3135706  0.4610614  0.2080196 
492.5      0.3095917  0.6669484  0.1995556 
492.6      0.3077794  0.779505   0.2274445 
492.7      0.305535   0.8132563  0.2873934 
492.8      0.282166   0.8856603  0.364109  
492.9      0.2299921  1          0.4567168 
493        0.1757903  1          0.5533432 
493.1      0.1169827  1          0.6716649 
493.2      0.07682242 1          0.7758636 
493.3      0.09322049 1          0.7706801 
493.4      0.08755399 1          0.7857465 
493.5      0.08068192 1          0.7959086 
493.6      0.02275703 1          0.9470677 
493.7      0.008736995 1          0.9965116 
493.8      0.009701217 1          0.9406965 
493.9      0.04790815 1          0.8430998 
494        0.04393879 1          0.8875514 
494.1      0.03265924 1          0.8931237 
494.2      0.07774869 1          0.7644564 
494.3      0.1248197  1          0.6190014 
494.4      0.1461639  1          0.5558646 
494.5      0.1438124  1          0.5595298 
494.6      0.1283292  1          0.5825089 
494.7      0.09582232 1          0.631079  
494.8      0.08712215 1          0.7153324 
494.9      0.1110123  1          0.7152097 
495        0.1227227  1          0.6265756 
495.1      0.161991   1          0.5117794 
495.2      0.1796823  1          0.4551415 
495.3      0.1761715  1          0.4394978 
495.4      0.187002   1          0.4518639 
495.5      0.1882009  1          0.4272274 
495.6      0.1889439  1          0.4332059 
495.7      0.1745099  1          0.4708451 
495.8      0.1479245  1          0.51824   
495.9      0.1311452  1          0.5111437 
496        0.158119   1          0.4545957 
496.1      0.1932316  1          0.4389766 
496.2      0.1869808  1          0.4267876 
496.3      0.1563631  1          0.4704    
496.4      0.1308211  1          0.5177557 
496.5      0.1052599  1          0.592522  
496.6      0.06804378 1          0.6855703 
496.7      0.1067761  1          0.6289756 
496.8      0.1427845  1          0.5804664 
496.9      0.1581585  1          0.4965746 
497        0.1327125  1          0.5137525 
497.1      0.1468478  1          0.5067157 
497.2      0.1656425  1          0.4828967 
497.3      0.1714079  1          0.482823  
497.4      0.1669069  1          0.4794507 
497.5      0.1680053  1          0.4760816 
497.6      0.1675154  1          0.4410731 
497.7      0.1816543  1          0.4597837 
497.8      0.1902873  1          0.469334  
497.9      0.1597039  1          0.4890664 
498        0.1526549  1          0.5235364 
498.1      0.1446135  1          0.5753729 
498.2      0.1467938  1          0.6150314 
498.3      0.132335   1          0.6357154 
498.4      0.1292239  1          0.6314006 
498.5      0.1289486  1          0.5906065 
498.6      0.1509488  1          0.5338017 
498.7      0.1779945  1          0.4817941 
498.8      0.1676926  1          0.4917419 
498.9      0.1581392  1          0.4883193 
499        0.1577984  1          0.4882446 
499.1      0.1706598  1          0.455646  
499.2      0.1391675  1          0.4982263 
499.3      0.1464265  1          0.5441468 
499.4      0.1447075  1          0.589748  
499.5      0.1382691  1          0.6056136 
499.6      0.1180553  1          0.6301527 
499.7      0.08879472 1          0.7281616 
499.8      0.09316011 1          0.7619731 
499.9      0.09010908 1          0.776821  
500        0.133282   1          0.6339331 
500.1      0.184078   1          0.5147867 
500.2      0.2337705  0.9268093  0.4332828 
500.3      0.2155271  1          0.4548289 
500.4      0.1754766  1          0.5215815 
500.5      0.1647183  1          0.5770037 
500.6      0.1309681  1          0.6809566 
500.7      0.142239   1          0.6416306 
500.8      0.1437001  1          0.5690727 
500.9      0.166841   1          0.5003204 
501        0.1507588  1          0.535414  
501.1      0.16662    1          0.5281394 
501.2      0.1931318  1          0.4479542 
501.3      0.2315525  0.9132235  0.3783276 
501.4      0.2291003  0.914143   0.380972  
501.5      0.2311151  0.9215453  0.383646  
501.6      0.2027442  1          0.3946471 
501.7      0.1850143  1          0.4145642 
501.8      0.2157499  1          0.4029903 
501.9      0.2425266  0.9084741  0.3595032 
502        0.2582447  0.835795   0.2948044 
502.1      0.2815159  0.756367   0.2838803 
502.2      0.2628366  0.7969851  0.3036735 
502.3      0.2250049  0.8861702  0.3592893 
502.4      0.1995395  0.9704922  0.4026423 
502.5      0.1970615  0.9786265  0.4111789 
502.6      0.1746792  1          0.4198648 
502.7      0.1458273  1          0.4469737 
502.8      0.1606031  1          0.4562846 
502.9      0.1576231  1          0.4593669 
503        0.1737662  1          0.4436808 
503.1      0.1972561  1          0.4374992 
503.2      0.2182352  1          0.465548  
503.3      0.221191   1          0.4686819 
503.4      0.2296819  1          0.4434182 
503.5      0.2538664  1          0.3535757 
503.6      0.2686972  0.9702061  0.3099405 
503.7      0.2647948  0.8987059  0.3098995 
503.8      0.2580764  0.8471413  0.3262517 
503.9      0.2205005  0.9812993  0.4161406 
504        0.1658365  1          0.5151796 
504.1      0.1421606  1          0.5660665 
504.2      0.1838249  1          0.4910361 
504.3      0.2271307  1          0.4130038 
504.4      0.2266804  1          0.418766  
504.5      0.2233713  1          0.4157783 
504.6      0.241765   1          0.3846923 
504.7      0.2393537  1          0.3901265 
504.8      0.2322913  1          0.3900712 
504.9      0.2248853  1          0.4126295 
505        0.2526799  1          0.3710155 
505.1      0.2508646  1          0.3763047 
505.2      0.2342     1          0.3762516 
505.3      0.2392211  1          0.3761989 
505.4      0.2257669  1          0.403733  
505.5      0.2120488  1          0.4607558 
505.6      0.1980218  1          0.513907  
505.7      0.2124177  1          0.4702189 
505.8      0.2270969  1          0.426761  
505.9      0.2213146  1          0.4237282 
506        0.2166251  1          0.4386594 
506.1      0.2312576  1          0.4447275 
506.2      0.2576917  1          0.3783969 
506.3      0.2804633  1          0.3323718 
506.4      0.2956219  1          0.2931113 
506.5      0.2890033  1          0.2822678 
506.6      0.2864327  1          0.3041576 
506.7      0.2953517  1          0.2996324 
506.8      0.3095601  1          0.2737469 
506.9      0.3388714  1          0.2235258 
507        0.355302   1          0.1758131 
507.1      0.3607254  1          0.1473123 
507.2      0.3657591  1          0.1243547 
507.3      0.364399   1          0.1172152 
507.4      0.3584037  1          0.134224  
507.5      0.3374868  1          0.1928506 
507.6      0.2912255  1          0.312883  
507.7      0.2750917  1          0.3775986 
507.8      0.3154099  1          0.2904132 
507.9      0.350572   1          0.1741375 
508        0.3623776  1          0.1242525 
508.1      0.3776256  1          0.1125084 
508.2      0.3928114  1          0.1014312 
508.3      0.4012024  1          0.08019055
508.4      0.409663   1          0.06223459
508.5      0.4035597  1          0.05401444
508.6      0.3964544  1          0.05805697
508.7      0.4035996  0.9636472  0.05641996
