~Version
 VERS              .         3.0                           : CWLS LOG ASCII STANDARD - VERSION 3.0
 WRAP              .         NO                            : ONE LINE PER DEPTH STEP
 DLM               .         SPACE                         : DELIMITING CHARACTER(SPACE TAB OR COMMA)
~Well Information
#_______________________________________________________________________________
#
#PARAMETER_NAME    .UNIT     VALUE                         : DESCRIPTION
#_______________________________________________________________________________
STRT               .M        1.6                           : First reference value
STOP               .M        917                           : Last reference value
STEP               .M        0.1                           : Step increment
NULL               .         -9999                         : Missing value
COMP               .         ICPetroleum                   : Company
WELL               .         302                           : Well name
FLD                .         Karatobe                      : Field
LOC                .                                       : Location
SRVC               .         AO "UPGF"                     : Service Company
CTRY               .         KZ                            : Country
DATE               .         15/2/2022                     : Service Date
LATI               .         0                             : Latitude
LONG               .         0                             : Longitude
GDAT               .         WGS 84                        : Geodetic Datum
COORDIN            .                                       : Grid System
COUNTRY            .         Kazakhstan                    : 
COUNTRY            .         Kazakhstan                    : 
EREF               .m        146.6                         : 
GRP                .                                       : Group name
ISS                .                                       : Well surveys
KB                 .         146.2                         : KB Elevation
ORIGINALWELLNAME   .         302                           : 
PROV               .                                       : Province
RWS                .         -999                          : Def_Rw
TIME               .         16_25                         : LOG TIME
UWI                .         1_302                         : Unique Well Identifier (UWI)
WST                .         -999                          : Def_Rwt
X                  .km       466240.85                     : 
XCOORD             .                                       : X or East-West Coordinate
Y                  .km       5307715.05                    : 
YCOORD             .                                       : Y or North-South Coordinate
~Parameter Information Block
#_______________________________________________________________________________
#
#PARAMETER_NAME    .UNIT     VALUE                         : DESCRIPTION
#_______________________________________________________________________________
SET                .         Las                           : 
TLFamily_DEPT      .         Measured Depth                : 
TLFamily_PHI_FINAL .         Porosity                      : 
TLFamily_SW_AR     .         Water Saturation              : 
TLFamily_VSH_FINAL .         Shale Volume                  : 
~Curve Information
#_______________________________________________________________________________
#
#LOGNAME           .UNIT     LOG_ID                        : DESCRIPTION
#_______________________________________________________________________________
DEPT               .M                                      : Depth curve {F}
PHI_FINAL          .m3/m3                                  : Porosity {F}
SW_AR              .m3/m3                                  :  {F}
VSH_FINAL          .unitless                               : Vshale {F}
~Ascii
# ...
836.4      0.1467594  0.9926404  0.1640602 
836.5      0.1454871  1          0.1666331 
836.6      0.1424996  1          0.1783881 
836.7      0.1457701  1          0.1931315 
836.8      0.1521433  0.9838411  0.20691   
836.9      0.1473447  1          0.2041285 
837        0.1603006  0.937768   0.1904141 
837.1      0.1416502  1          0.1877254 
837.2      0.1291293  1          0.186379  
837.3      0.1216738  1          0.1877181 
837.4      0.1269392  1          0.177066  
837.5      0.1102866  1          0.1958703 
837.6      0.102118   1          0.213931  
837.7      0.09412019 1          0.2167711 
837.8      0.09631557 1          0.198594  
837.9      0.09571876 1          0.1731343 
838        0.08872046 1          0.1602158 
838.1      0.07019942 1          0.143932  
838.2      0.04764974 1          0.1353911 
838.3      0.04037199 1          0.1234416 
838.4      0.04268922 1          0.1187557 
838.5      0.048704   1          0.1199258 
838.6      0.05121424 1          0.1281829 
838.7      0.07110289 0.8866895  0.1246302 
838.8      0.1050455  0.5859372  0.1072334 
838.9      0.1263533  0.5387054  0.08617404
839        0.1562136  0.4621138  0.0818675 
839.1      0.1416472  0.5770993  0.09381175
839.2      0.1329436  0.6566197  0.1106623 
839.3      0.1292027  0.7176071  0.1187557 
839.4      0.1097967  0.8634053  0.1175949 
839.5      0.1083241  0.8537678  0.1072395 
839.6      0.1138699  0.8374159  0.09602468
839.7      0.1335265  0.7688345  0.08294137
839.8      0.1398979  0.7033314  0.08509175
839.9      0.1054194  0.9419545  0.08834125
840        0.1142453  0.8497989  0.09381175
840.1      0.148242   0.6459388  0.08617404
840.2      0.1709423  0.550528   0.08942615
840.3      0.17599    0.5486094  0.0916162 
840.4      0.1670167  0.5972908  0.09602468
840.5      0.1516272  0.6700203  0.1004792 
840.6      0.131499   0.773324   0.114112  
840.7      0.108064   0.9445776  0.1210989 
840.8      0.09870353 0.9221577  0.1129571 
840.9      0.08721817 0.9352389  0.1095164 
841        0.08267099 0.9204879  0.1049743 
841.1      0.0848968  0.7850747  0.1004733 
841.2      0.1014175  0.6553425  0.08080213
841.3      0.1132269  0.5960507  0.07025429
841.4      0.1218657  0.5947897  0.066118  
841.5      0.1345843  0.6409525  0.08080213
841.6      0.1261985  0.8495392  0.09602468
841.7      0.1677004  0.6587546  0.1083795 
841.8      0.1769057  0.6287875  0.1164309 
841.9      0.1666472  0.7075177  0.1281829 
842        0.1719199  0.6624244  0.1402508 
842.1      0.1614716  0.6410589  0.1476422 
842.2      0.159738   0.6400514  0.1378146 
842.3      0.1445209  0.8023083  0.1281829 
842.4      0.1158161  1          0.1187557 
842.5      0.07680441 1          0.1305753 
842.6      0.05264453 1          0.1390278 
842.7      0.04524661 1          0.1402508 
842.8      0.03446611 1          0.1353846 
842.9      0.03182026 1          0.1269977 
843        0.03762277 1          0.1152638 
843.1      0.06215963 0.9411369  0.09271548
843.2      0.09013302 0.5388904  0.07655116
843.3      0.106476   0.4516722  0.07234422
843.4      0.1149066  0.4672835  0.08616824
843.5      0.1043218  0.5909091  0.1015956 
843.6      0.09224066 0.7538584  0.09935976
843.7      0.09388987 0.797041   0.09602468
843.8      0.1138699  0.6462278  0.09602468
843.9      0.1310864  0.6184381  0.1118113 
844        0.144959   0.6524115  0.1164309 
844.1      0.1370527  0.7177754  0.11527   
844.2      0.1375198  0.7205173  0.11527   
844.3      0.1163901  1          0.1175949 
844.4      0.105147   1          0.1269977 
844.5      0.09500144 1          0.1341808 
844.6      0.08594486 0.9922833  0.1488876 
844.7      0.08155154 0.9292431  0.1476422 
844.8      0.08761618 0.8941227  0.1353782 
844.9      0.08866404 0.8786671  0.1199258 
845        0.09983829 0.7340751  0.1106623 
845.1      0.1143538  0.6209562  0.1083795 
845.2      0.1271782  0.5556386  0.1095164 
845.3      0.1343338  0.5137092  0.1083795 
845.4      0.1343338  0.4962803  0.1083795 
845.5      0.1310951  0.5040402  0.1015956 
845.6      0.1177084  0.5588016  0.1015956 
845.7      0.1015309  0.6572357  0.1072395 
845.8      0.09039225 0.7271395  0.1164309 
845.9      0.09525748 0.6341459  0.1199258 
846        0.09870353 0.6071919  0.1129571 
846.1      0.1032104  0.5879105  0.1038432 
846.2      0.09772839 0.64089    0.1015956 
846.3      0.09661698 0.6526489  0.1038432 
846.4      0.1054275  0.5792763  0.09935976
846.5      0.1165921  0.4844628  0.09051977
846.6      0.1287043  0.4170334  0.07760551
846.7      0.1316225  0.4136965  0.07760551
846.8      0.1210082  0.4901507  0.0949227 
846.9      0.09756286 0.6271372  0.1152638 
847        0.08033203 0.7512253  0.1234416 
847.1      0.07470042 0.7255686  0.1210926 
847.2      0.07470042 0.6806901  0.1210926 
847.3      0.08634077 0.5947694  0.1246239 
847.4      0.09925268 0.468122   0.1305689 
847.5      0.1112888  0.4004707  0.1293775 
847.6      0.1117731  0.4193462  0.1341808 
847.7      0.1063177  0.4930826  0.1246302 
847.8      0.09267974 0.5791824  0.1118051 
847.9      0.08267099 0.658752   0.1049743 
848        0.0709833  0.763903   0.1152762 
848.1      0.0669423  0.8161811  0.123448  
848.2      0.06092888 1          0.122275  
848.3      0.04637761 1          0.1246302 
848.4      0.01208298 1          0.1402442 
848.5      0.00110268 1          0.1353782 
848.6      0.002729153 1          0.1187557 
848.7      0.04838406 1          0.1072395 
848.8      0.08076692 1          0.1141182 
848.9      0.07207197 1          0.1222687 
849        0.08116038 1          0.1210926 
849.1      0.1218252  1          0.1329737 
849.2      0.1492538  0.8836144  0.1426996 
849.3      0.1415894  0.9760475  0.1564147 
849.4      0.1401916  1          0.1666331 
849.5      0.1368828  1          0.1837039 
849.6      0.1177553  1          0.2167711 
849.7      0.110277   1          0.2782398 
849.8      0.06478212 1          0.3431698 
849.9      0.03383872 1          0.3790776 
850        0.0619311  1          0.3626726 
850.1      0.07367373 1          0.3572922 
850.2      0.07884064 1          0.3519536 
850.3      0.06459172 1          0.3572922 
850.4      0.03908367 1          0.3414005 
850.5      0.02089759 1          0.310702  
850.6      0.003374234 1          0.3057341 
850.7      0.003378567 1          0.3057253 
850.8      0          1          0.3361853 
850.9      0          1          0.3626629 
851        0          1          0.4188692 
851.1      0          1          0.4859177 
851.2      0          1          0.5272288 
851.3      0          1          0.547519  
851.4      0          1          0.5895387 
851.5      0          1          0.6719374 
851.6      0          1          0.7419558 
851.7      0          1          0.7447658 
851.8      0          1          0.6692901 
851.9      0          1          0.5475434 
852        0          1          0.4405544 
852.1      0.08368565 1          0.3590842 
852.2      0.1079611  1          0.3310199 
852.3      0.1324283  1          0.3275863 
852.4      0.09152119 1          0.3699055 
852.5      0.0502495  1          0.4266995 
852.6      0.0363944  1          0.4547176 
852.7      0.05412162 1          0.4188692 
852.8      0.06941527 1          0.3608712 
852.9      0.0633492  1          0.3327342 
853        0.05419278 1          0.3241797 
853.1      0.06757945 1          0.3241797 
853.2      0.09173952 1          0.3157266 
853.3      0.09910493 1          0.3327434 
853.4      0.1056171  1          0.3414005 
853.5      0.09420483 1          0.3644786 
853.6      0.103018   1          0.3466565 
853.7      0.1211503  1          0.3174193 
853.8      0.1211909  1          0.3090537 
853.9      0.1178099  1          0.3024408 
854        0.09667008 1          0.3190892 
854.1      0.09503935 1          0.3090537 
854.2      0.08923978 1          0.3207817 
854.3      0.08161801 1          0.3361946 
854.4      0.08076365 1          0.3379223 
854.5      0.1032786  1          0.3057253 
