~Version
 VERS              .         3.0                           : CWLS LOG ASCII STANDARD - VERSION 3.0
 WRAP              .         NO                            : ONE LINE PER DEPTH STEP
 DLM               .         SPACE                         : DELIMITING CHARACTER(SPACE TAB OR COMMA)
~Well Information
#_______________________________________________________________________________
#
#PARAMETER_NAME    .UNIT     VALUE                         : DESCRIPTION
#_______________________________________________________________________________
STRT               .M        1.6                           : First reference value
STOP               .M        917                           : Last reference value
STEP               .M        0.1                           : Step increment
NULL               .         -9999                         : Missing value
COMP               .         ICPetroleum                   : Company
WELL               .         302                           : Well name
FLD                .         Karatobe                      : Field
LOC                .                                       : Location
SRVC               .         AO "UPGF"                     : Service Company
CTRY               .         KZ                            : Country
DATE               .         15/2/2022                     : Service Date
LATI               .         0                             : Latitude
LONG               .         0                             : Longitude
GDAT               .         WGS 84                        : Geodetic Datum
COORDIN            .                                       : Grid System
COUNTRY            .         Kazakhstan                    : 
COUNTRY            .         Kazakhstan                    : 
EREF               .m        146.6                         : 
GRP                .                                       : Group name
ISS                .                                       : Well surveys
KB                 .         146.2                         : KB Elevation
ORIGINALWELLNAME   .         302                           : 
PROV               .                                       : Province
RWS                .         -999                          : Def_Rw
TIME               .         16_25                         : LOG TIME
UWI                .         1_302                         : Unique Well Identifier (UWI)
WST                .         -999                          : Def_Rwt
X                  .km       466240.85                     : 
XCOORD             .                                       : X or East-West Coordinate
Y                  .km       5307715.05                    : 
YCOORD             .                                       : Y or North-South Coordinate
~Parameter Information Block
#_______________________________________________________________________________
#
#PARAMETER_NAME    .UNIT     VALUE                         : DESCRIPTION
#_______________________________________________________________________________
SET                .         Las                           : 
TLFamily_DEPT      .         Measured Depth                : 
TLFamily_PHI_FINAL .         Porosity                      : 
TLFamily_SW_AR     .         Water Saturation              : 
TLFamily_VSH_FINAL .         Shale Volume                  : 
~Curve Information
#_______________________________________________________________________________
#
#LOGNAME           .UNIT     LOG_ID                        : DESCRIPTION
#_______________________________________________________________________________
DEPT               .M                                      : Depth curve {F}
PHI_FINAL          .m3/m3                                  : Porosity {F}
SW_AR              .m3/m3                                  :  {F}
VSH_FINAL          .unitless                               : Vshale {F}
~Ascii
# ...
235.8      0.07312943 1          1         
235.9      0.07963063 1          1         
236        0.07732566 1          1         
236.1      0.06748468 1          1         
236.2      0.03614509 1          1         
236.3      0.0161545  1          1         
236.4      0.02492411 1          0.9310882 
236.5      0.02849355 1          0.8611385 
236.6      0.009758126 1          0.9674384 
236.7      0.02487925 1          1         
236.8      0.07481574 1          1         
236.9      0.08058133 1          1         
237        0.08236478 1          1         
237.1      0.08244578 1          1         
237.2      0.07808243 1          1         
237.3      0.06412696 1          1         
237.4      0.05190093 1          1         
237.5      0.06356481 1          1         
237.6      0.06983584 1          1         
237.7      0.06759036 1          1         
237.8      0.06172518 1          1         
237.9      0.08322315 1          1         
238        0.09826693 1          1         
238.1      0.1023806  1          1         
238.2      0.08040511 1          1         
238.3      0.06149266 1          1         
238.4      0.04809545 1          1         
238.5      0.0964234  1          1         
238.6      0.1618432  1          0.8774738 
238.7      0.1993559  1          0.7924179 
238.8      0.1691689  1          0.755667  
238.9      0.1308022  1          0.8433223 
239        0.0797299  1          0.9401616 
239.1      0.06164541 1          1         
239.2      0.0853283  1          1         
239.3      0.08244857 1          1         
239.4      0.07556656 1          0.9991574 
239.5      0.09336799 1          0.9611472 
239.6      0.1146025  1          0.9316417 
239.7      0.154155   1          0.8418554 
239.8      0.1598924  1          0.8221583 
239.9      0.1072146  1          0.8817768 
240        0.050809   1          0.9977893 
240.1      0.03607548 1          1         
240.2      0.04598721 1          1         
240.3      0.08706204 1          0.8606645 
240.4      0.1505936  1          0.7013218 
240.5      0.1274241  1          0.7893767 
240.6      0.1156303  1          0.8336973 
240.7      0.09724343 1          0.9009752 
240.8      0.1224908  1          0.859724  
240.9      0.1627354  1          0.7949288 
241        0.213736   1          0.7060198 
241.1      0.2345949  1          0.6676328 
241.2      0.2227193  1          0.6569222 
241.3      0.224129   1          0.6835184 
241.4      0.2402038  0.972227   0.6514143 
241.5      0.2338011  0.9878422  0.6409391 
241.6      0.2645136  0.8772991  0.6008303 
241.7      0.2530514  0.916606   0.635554  
241.8      0.2005102  1          0.7333399 
241.9      0.150138   1          0.8576608 
242        0.1208247  1          0.9483844 
242.1      0.09515916 1          0.9854034 
242.2      0.08950993 1          1         
242.3      0.07886472 1          1         
242.4      0.05100369 1          1         
242.5      0.01705861 1          1         
242.6      0.004953763 1          0.9918969 
242.7      0.009808488 1          0.8363923 
242.8      0.02789148 1          0.7203164 
242.9      0.06665479 1          0.594492  
243        0.08816026 1          0.5524955 
243.1      0.1130488  1          0.5131086 
243.2      0.1408124  1          0.4722112 
243.3      0.1790996  0.8938718  0.4452416 
243.4      0.182096   0.8771518  0.4681106 
243.5      0.1363293  1          0.5610239 
243.6      0.1080718  1          0.6131188 
243.7      0.09454501 1          0.6081    
243.8      0.1121764  1          0.5209273 
243.9      0.1458336  0.9687399  0.4263972 
244        0.1938082  0.7312505  0.3229871 
244.1      0.2087083  0.6664348  0.2693087 
244.2      0.2008148  0.6707121  0.2643157 
244.3      0.1482531  0.8385378  0.2793529 
244.4      0.1591814  0.706346   0.2818892 
244.5      0.2055166  0.4879524  0.2497488 
244.6      0.2395175  0.3547867  0.1937617 
244.7      0.291112   0.261503   0.1455745 
244.8      0.3676616  0.2004442  0.1071198 
244.9      0.3860503  0.1906431  0.100497  
245        0.4123254  0.2060357  0.101791  
245.1      0.3928052  0.2614745  0.1181616 
245.2      0.3880551  0.317895   0.1268739 
245.3      0.3623555  0.4460422  0.123903  
245.4      0.3385288  0.6139808  0.1438281 
245.5      0.3548272  0.6644686  0.1728112 
245.6      0.3435807  0.7234739  0.2813461 
245.7      0.2998404  0.8395598  0.397087  
245.8      0.2115138  1          0.5769724 
245.9      0.1860896  1          0.6664709 
246        0.1889949  1          0.7099544 
246.1      0.1986068  1          0.6609117 
246.2      0.1839472  1          0.6400222 
246.3      0.157375   1          0.676591  
246.4      0.1007811  1          0.7980384 
246.5      0.07387195 1          0.8231497 
246.6      0.07545479 1          0.7853432 
246.7      0.1394515  1          0.676042  
246.8      0.1281277  1          0.7667959 
246.9      0.06298362 1          0.9525651 
247        0.03391522 1          1         
247.1      0.03422198 1          1         
247.2      0.0835175  1          0.8745342 
247.3      0.1337451  1          0.7481501 
247.4      0.1563583  1          0.6697644 
247.5      0.1925611  1          0.5797262 
247.6      0.2102739  1          0.5843199 
247.7      0.1866879  1          0.6130933 
247.8      0.1561942  1          0.674536  
247.9      0.1211959  1          0.7071857 
248        0.1068622  1          0.7470887 
248.1      0.1269211  1          0.7527931 
248.2      0.1301351  1          0.764542  
248.3      0.1094847  1          0.7764215 
248.4      0.1125217  1          0.7233592 
248.5      0.1047063  1          0.7063151 
248.6      0.1221136  1          0.6628497 
248.7      0.1198167  1          0.6840507 
248.8      0.118296   1          0.7058806 
248.9      0.1100107  1          0.6946914 
249        0.1310577  1          0.6415638 
249.1      0.1767495  1          0.5460978 
249.2      0.2329026  0.7752352  0.4442763 
249.3      0.2414802  0.7504123  0.4331562 
249.4      0.2336324  0.7781349  0.4441175 
249.5      0.229274   0.798811   0.4668221 
249.6      0.2377219  0.7706297  0.4590439 
249.7      0.2388017  0.7673331  0.451357  
249.8      0.2096031  0.8479897  0.4862842 
249.9      0.1822666  0.9441115  0.5024852 
250        0.1606365  1          0.4942024 
250.1      0.1678862  1          0.4624484 
250.2      0.163283   1          0.5063534 
250.3      0.1378032  1          0.6553543 
250.4      0.07102564 1          0.8551117 
250.5      0.02213887 1          1         
250.6      0.02143062 1          1         
250.7      0.02351314 1          1         
250.8      0.09095866 1          0.8092813 
250.9      0.1503123  1          0.6756583 
251        0.1522244  1          0.6289205 
251.1      0.1419878  1          0.6491196 
251.2      0.1235427  1          0.6699171 
251.3      0.09065022 1          0.7477838 
251.4      0.120784   1          0.7021329 
251.5      0.1708985  1          0.6282718 
251.6      0.222867   0.9970518  0.5613937 
251.7      0.2289072  0.9667045  0.6180895 
251.8      0.1981172  1          0.6797633 
251.9      0.1364697  1          0.7887806 
252        0.1147576  1          0.8588105 
252.1      0.06285356 1          1         
252.2      0.05459263 1          0.9780831 
252.3      0.05870124 1          0.8648766 
252.4      0.1039267  1          0.6736147 
252.5      0.120296   1          0.5977043 
252.6      0.1292301  1          0.6023759 
252.7      0.108504   1          0.678527  
252.8      0.1119737  1          0.739668  
252.9      0.1621031  1          0.6782815 
253        0.1594273  1          0.6570193 
253.1      0.1782283  1          0.6213356 
253.2      0.1633327  1          0.672529  
253.3      0.1534042  1          0.6830827 
253.4      0.1548662  1          0.6616929 
253.5      0.149444   1          0.6615602 
253.6      0.1347632  1          0.6408035 
253.7      0.1369322  1          0.591543  
253.8      0.1528393  1          0.5325249 
253.9      0.1657467  1          0.5589328 
