~Version
 VERS              .         3.0                           : CWLS LOG ASCII STANDARD - VERSION 3.0
 WRAP              .         NO                            : ONE LINE PER DEPTH STEP
 DLM               .         SPACE                         : DELIMITING CHARACTER(SPACE TAB OR COMMA)
~Well Information
#_______________________________________________________________________________
#
#PARAMETER_NAME    .UNIT     VALUE                         : DESCRIPTION
#_______________________________________________________________________________
STRT               .M        1.6                           : First reference value
STOP               .M        917                           : Last reference value
STEP               .M        0.1                           : Step increment
NULL               .         -9999                         : Missing value
COMP               .         ICPetroleum                   : Company
WELL               .         302                           : Well name
FLD                .         Karatobe                      : Field
LOC                .                                       : Location
SRVC               .         AO "UPGF"                     : Service Company
CTRY               .         KZ                            : Country
DATE               .         15/2/2022                     : Service Date
LATI               .         0                             : Latitude
LONG               .         0                             : Longitude
GDAT               .         WGS 84                        : Geodetic Datum
COORDIN            .                                       : Grid System
COUNTRY            .         Kazakhstan                    : 
COUNTRY            .         Kazakhstan                    : 
EREF               .m        146.6                         : 
GRP                .                                       : Group name
ISS                .                                       : Well surveys
KB                 .         146.2                         : KB Elevation
ORIGINALWELLNAME   .         302                           : 
PROV               .                                       : Province
RWS                .         -999                          : Def_Rw
TIME               .         16_25                         : LOG TIME
UWI                .         1_302                         : Unique Well Identifier (UWI)
WST                .         -999                          : Def_Rwt
X                  .km       466240.85                     : 
XCOORD             .                                       : X or East-West Coordinate
Y                  .km       5307715.05                    : 
YCOORD             .                                       : Y or North-South Coordinate
~Parameter Information Block
#_______________________________________________________________________________
#
#PARAMETER_NAME    .UNIT     VALUE                         : DESCRIPTION
#_______________________________________________________________________________
SET                .         Las                           : 
TLFamily_DEPT      .         Measured Depth                : 
TLFamily_PHI_FINAL .         Porosity                      : 
TLFamily_SW_AR     .         Water Saturation              : 
TLFamily_VSH_FINAL .         Shale Volume                  : 
~Curve Information
#_______________________________________________________________________________
#
#LOGNAME           .UNIT     LOG_ID                        : DESCRIPTION
#_______________________________________________________________________________
DEPT               .M                                      : Depth curve {F}
PHI_FINAL          .m3/m3                                  : Porosity {F}
SW_AR              .m3/m3                                  :  {F}
VSH_FINAL          .unitless                               : Vshale {F}
~Ascii
# ...
326.8      0.1938765  0.8453845  0.2697673 
326.9      0.2335894  0.7928281  0.2559613 
327        0.2654423  0.7619302  0.2673526 
327.1      0.289874   0.7343922  0.2988726 
327.2      0.3098808  0.6919615  0.298828  
327.3      0.3118261  0.7057177  0.2766581 
327.4      0.3080056  0.7273513  0.2742362 
327.5      0.3050084  0.7075502  0.2718309 
327.6      0.2915467  0.749306   0.3037406 
327.7      0.2936566  0.753894   0.2812919 
327.8      0.3019298  0.7079015  0.2812506 
327.9      0.3036354  0.7003251  0.2716731 
328        0.3042706  0.6864865  0.2860245 
328.1      0.2801761  0.7556722  0.3218762 
328.2      0.2635095  0.8321446  0.3582646 
328.3      0.2543633  0.831027   0.3730698 
328.4      0.2641973  0.7888289  0.3190506 
328.5      0.2852654  0.7219092  0.2598885 
328.6      0.3106119  0.6625219  0.2192875 
328.7      0.3060535  0.6976139  0.2336113 
328.8      0.2820638  0.7549769  0.2784317 
328.9      0.2426203  0.8627704  0.337886  
329        0.2020283  1          0.3726538 
329.1      0.1827563  1          0.3879311 
329.2      0.2035623  0.9742282  0.4134864 
329.3      0.2376889  0.8458316  0.4233806 
329.4      0.263752   0.761172   0.4233105 
329.5      0.274737   0.7507166  0.4035206 
329.6      0.2868256  0.7431152  0.4066924 
329.7      0.2966436  0.729056   0.413147  
329.8      0.2954084  0.751053   0.4331818 
329.9      0.3099003  0.6881692  0.4032575 
330        0.3340895  0.6551088  0.3345338 
330.1      0.3525608  0.6400892  0.2975383 
330.2      0.3512027  0.6472517  0.3000253 
330.3      0.3150028  0.7028635  0.3288959 
330.4      0.3074055  0.725981   0.3371034 
330.5      0.3005846  0.7374468  0.3342761 
330.6      0.305544   0.7128625  0.3598243 
330.7      0.2867313  0.7515048  0.3932034 
330.8      0.2573069  0.8340743  0.3962889 
330.9      0.2761261  0.7801998  0.3837052 
331        0.2896767  0.7580592  0.3537865 
331.1      0.278657   0.7981305  0.3595412 
331.2      0.2937373  0.7621513  0.3311628 
331.3      0.3049246  0.7302163  0.3256759 
331.4      0.3119562  0.6964303  0.3071384 
331.5      0.3107999  0.7040226  0.3175518 
331.6      0.3135587  0.7286944  0.3096381 
331.7      0.3119406  0.7295159  0.3044395 
331.8      0.2804511  0.7932999  0.3650248 
331.9      0.2849773  0.7813762  0.3987633 
332        0.3066383  0.7359006  0.3923618 
332.1      0.3268657  0.6812332  0.3648518 
332.2      0.3347875  0.6550156  0.3677686 
332.3      0.330631   0.6689251  0.3559637 
332.4      0.3258935  0.6882469  0.336065  
332.5      0.3238188  0.6924173  0.3415816 
332.6      0.2901844  0.773863   0.3951361 
332.7      0.2611912  0.831434   0.4379483 
332.8      0.2358611  0.915662   0.480823  
332.9      0.2264042  0.9500478  0.4882502 
333        0.2391566  0.903722   0.4377293 
333.1      0.2286551  0.9587509  0.394817  
333.2      0.2405604  0.9292896  0.3525713 
333.3      0.2483382  0.8983624  0.3411591 
333.4      0.3001909  0.7593535  0.3327887 
333.5      0.311594   0.7385955  0.3670132 
333.6      0.2919373  0.7945712  0.4304559 
333.7      0.2789084  0.8296387  0.4372193 
333.8      0.2764618  0.8224171  0.4103995 
333.9      0.2801368  0.8061112  0.3727523 
334        0.2711349  0.8205862  0.3667234 
334.1      0.2751001  0.7930688  0.3607751 
334.2      0.2653591  0.8057011  0.3786378 
334.3      0.2359993  0.8637144  0.3971995 
334.4      0.1783398  0.9701394  0.4265253 
334.5      0.1180752  1          0.447024  
334.6      0.04332928 1          0.5098298 
334.7      0          1          0.6636797 
334.8      0          1          0.9689158 
334.9      0          1          1         
335        0          1          1         
335.1      0          1          1         
335.2      0          1          1         
335.3      0          1          1         
335.4      0.03090909 1          0.8379529 
335.5      0.05952705 1          0.7677544 
335.6      0.05639964 1          0.8019173 
335.7      0.07861817 1          0.8134872 
335.8      0.09748287 1          0.7957778 
335.9      0.1274619  1          0.7395772 
336        0.1474949  1          0.6819395 
336.1      0.1458881  1          0.6970782 
336.2      0.09487958 1          0.8186069 
336.3      0.08442584 1          0.8609642 
336.4      0.1260615  1          0.7719933 
336.5      0.188982   1          0.6003367 
336.6      0.235612   0.9336746  0.4851573 
336.7      0.2585454  0.8663884  0.4282544 
336.8      0.2623716  0.8449157  0.3801028 
336.9      0.2498176  0.8850264  0.3861918 
337        0.2524679  0.9081432  0.4018258 
337.1      0.2654517  0.8677072  0.4114307 
337.2      0.2831063  0.8133314  0.3859899 
337.3      0.2955725  0.7974612  0.3503263 
337.4      0.2940067  0.7803236  0.3417999 
337.5      0.2889465  0.8179111  0.3647061 
337.6      0.2648448  0.9073636  0.4242814 
337.7      0.256708   0.9236552  0.480537  
337.8      0.2629554  0.8856088  0.5227451 
337.9      0.2447737  0.9990504  0.5810874 
338        0.1844709  1          0.6894509 
338.1      0.1487371  1          0.7257277 
338.2      0.1250171  1          0.7202767 
338.3      0.13216    1          0.6992733 
338.4      0.1244584  1          0.730652  
338.5      0.05464267 1          0.8387696 
338.6      0.03201687 1          0.8947945 
338.7      0.04977024 1          0.8755145 
338.8      0.1230683  1          0.7090002 
338.9      0.2144888  1          0.5297377 
339        0.2830997  0.8552625  0.4233062 
339.1      0.3097107  0.7764155  0.3910223 
339.2      0.2993543  0.8080954  0.410026  
339.3      0.2856992  0.8631228  0.4504155 
339.4      0.2936934  0.7976735  0.4263531 
339.5      0.3007836  0.766589   0.3462965 
339.6      0.3134869  0.7470748  0.3490781 
339.7      0.2060565  1          0.541222  
339.8      0.02750464 1          1         
339.9      0.02302933 1          1         
340        0.02049925 1          1         
340.1      0.02575713 1          1         
340.2      0.02879278 1          1         
340.3      0.04510014 1          0.9242526 
340.4      0.09905691 1          0.8000855 
340.5      0.1488572  1          0.6861907 
340.6      0.2078864  1          0.565367  
340.7      0.2451822  1          0.4892284 
340.8      0.2293092  1          0.5442184 
340.9      0.1843153  1          0.6856715 
341        0.1368075  1          0.7933851 
341.1      0.114858   1          0.7817804 
341.2      0.1157372  1          0.6954251 
341.3      0.05729694 1          0.685153  
341.4      0.0240079  1          0.8339052 
341.5      0.004482411 1          1         
341.6      0.006587218 1          1         
341.7      0.01402391 1          1         
341.8      0.01186073 1          1         
341.9      0.01129194 1          1         
342        0.00312044 1          1         
342.1      0.0005113551 1          1         
342.2      0          1          1         
342.3      0.0006408416 1          0.9009026 
342.4      0.01131391 1          0.9202619 
342.5      0.05461929 1          0.8813764 
342.6      0.03432267 1          0.9808419 
342.7      0.04152573 1          0.9396098 
342.8      0.02235572 1          0.9597215 
342.9      0.004958331 1          1         
343        0.003321964 1          1         
343.1      0.00435392 1          1         
343.2      0.008505544 1          1         
343.3      0.02052241 1          1         
343.4      0.02061482 1          1         
343.5      0.01371589 1          1         
343.6      0.006237313 1          0.999866  
343.7      0.0171928  1          0.9178056 
343.8      0.002372638 1          0.9783814 
343.9      0.01502201 1          0.8663343 
344        0.02689323 1          0.7551195 
344.1      0.04672289 1          0.696711  
344.2      0.03342631 1          0.7331555 
344.3      0.04936033 1          0.7330145 
344.4      0.0411222  1          0.7880906 
344.5      0.02336416 1          0.8052106 
344.6      0.01465786 1          0.8839153 
344.7      0.0407173  1          0.7819357 
344.8      0.08287702 1          0.6560906 
344.9      0.08415566 1          0.5912508 
