~Version
 VERS              .         3.0                           : CWLS LOG ASCII STANDARD - VERSION 3.0
 WRAP              .         NO                            : ONE LINE PER DEPTH STEP
 DLM               .         SPACE                         : DELIMITING CHARACTER(SPACE TAB OR COMMA)
~Well Information
#_______________________________________________________________________________
#
#PARAMETER_NAME    .UNIT     VALUE                         : DESCRIPTION
#_______________________________________________________________________________
STRT               .M        1.6                           : First reference value
STOP               .M        917                           : Last reference value
STEP               .M        0.1                           : Step increment
NULL               .         -9999                         : Missing value
COMP               .         ICPetroleum                   : Company
WELL               .         302                           : Well name
FLD                .         Karatobe                      : Field
LOC                .                                       : Location
SRVC               .         AO "UPGF"                     : Service Company
CTRY               .         KZ                            : Country
DATE               .         15/2/2022                     : Service Date
LATI               .         0                             : Latitude
LONG               .         0                             : Longitude
GDAT               .         WGS 84                        : Geodetic Datum
COORDIN            .                                       : Grid System
COUNTRY            .         Kazakhstan                    : 
COUNTRY            .         Kazakhstan                    : 
EREF               .m        146.6                         : 
GRP                .                                       : Group name
ISS                .                                       : Well surveys
KB                 .         146.2                         : KB Elevation
ORIGINALWELLNAME   .         302                           : 
PROV               .                                       : Province
RWS                .         -999                          : Def_Rw
TIME               .         16_25                         : LOG TIME
UWI                .         1_302                         : Unique Well Identifier (UWI)
WST                .         -999                          : Def_Rwt
X                  .km       466240.85                     : 
XCOORD             .                                       : X or East-West Coordinate
Y                  .km       5307715.05                    : 
YCOORD             .                                       : Y or North-South Coordinate
~Parameter Information Block
#_______________________________________________________________________________
#
#PARAMETER_NAME    .UNIT     VALUE                         : DESCRIPTION
#_______________________________________________________________________________
SET                .         Las                           : 
TLFamily_DEPT      .         Measured Depth                : 
TLFamily_PHI_FINAL .         Porosity                      : 
TLFamily_SW_AR     .         Water Saturation              : 
TLFamily_VSH_FINAL .         Shale Volume                  : 
~Curve Information
#_______________________________________________________________________________
#
#LOGNAME           .UNIT     LOG_ID                        : DESCRIPTION
#_______________________________________________________________________________
DEPT               .M                                      : Depth curve {F}
PHI_FINAL          .m3/m3                                  : Porosity {F}
SW_AR              .m3/m3                                  :  {F}
VSH_FINAL          .unitless                               : Vshale {F}
~Ascii
# ...
527        0.1503313  1          0.5871804 
527.1      0.1155995  1          0.6601716 
527.2      0.1064559  1          0.6686767 
527.3      0.1018431  1          0.6728867 
527.4      0.116613   1          0.6684334 
527.5      0.1271315  1          0.6386918 
527.6      0.1435952  1          0.602191  
527.7      0.1391856  1          0.602074  
527.8      0.1330376  1          0.6342599 
527.9      0.1248662  1          0.6722447 
528        0.1133926  1          0.6986374 
528.1      0.0790187  1          0.7688797 
528.2      0.05120284 1          0.819155  
528.3      0.06062748 1          0.7934386 
528.4      0.08173069 1          0.7734015 
528.5      0.0814681  1          0.7881606 
528.6      0.04602958 1          0.8289963 
528.7      0.039016   1          0.8236455 
528.8      0.07234585 1          0.7533891 
528.9      0.1166414  1          0.6582508 
529        0.1387567  1          0.6330292 
529.1      0.1262892  1          0.6884281 
529.2      0.1199234  1          0.7481313 
529.3      0.1472479  1          0.6881765 
529.4      0.1695946  1          0.5849558 
529.5      0.1509579  1          0.5810314 
529.6      0.1245822  1          0.620173  
529.7      0.1168531  1          0.6531427 
529.8      0.1183008  1          0.6744684 
529.9      0.08910232 1          0.7237038 
530        0.07458027 1          0.7470903 
530.1      0.09699882 1          0.6872886 
530.2      0.1082601  1          0.5919152 
530.3      0.1127569  1          0.5764962 
530.4      0.1101042  1          0.5955982 
530.5      0.08835115 1          0.6912969 
530.6      0.04305885 1          0.8003946 
530.7      0.09436382 1          0.7320994 
530.8      0.1361194  1          0.6998309 
530.9      0.1314254  1          0.6775615 
531        0.08263148 1          0.7748818 
531.1      0.05745561 1          0.8202045 
531.2      0.0522732  1          0.8252385 
531.3      0.0681717  1          0.7943694 
531.4      0.07441843 1          0.7842349 
531.5      0.07905064 1          0.7841268 
531.6      0.05629623 1          0.8404162 
531.7      0.03554013 1          0.906048  
531.8      0.03945976 1          0.9058856 
531.9      0.06503335 1          0.8400304 
532        0.09095568 1          0.7686498 
532.1      0.1016318  1          0.7397224 
532.2      0.08796526 1          0.768387  
532.3      0.1037717  1          0.7347624 
532.4      0.09763435 1          0.753612  
532.5      0.1097458  1          0.729859  
532.6      0.1046272  1          0.748568  
532.7      0.1137025  1          0.7342674 
532.8      0.1474023  1          0.6498085 
532.9      0.18397    1          0.5855637 
533        0.1846913  1          0.5740779 
533.1      0.1360557  1          0.6751588 
533.2      0.1162312  1          0.6926295 
533.3      0.1367426  1          0.6451123 
533.4      0.1473751  1          0.5966629 
533.5      0.1176418  1          0.6325446 
533.6      0.1034636  1          0.6448209 
533.7      0.08463465 1          0.6832129 
533.8      0.08480609 1          0.6831001 
533.9      0.08425639 1          0.6699628 
534        0.07708322 1          0.6612644 
534.1      0.1036098  1          0.6484823 
534.2      0.08540871 1          0.7003719 
534.3      0.0778951  1          0.6957999 
534.4      0.08704957 1          0.6868275 
534.5      0.1061206  1          0.6736078 
534.6      0.1029319  1          0.7226545 
534.7      0.1269312  1          0.7602686 
534.8      0.139296   1          0.8098131 
534.9      0.1859064  1          0.7944768 
535        0.2076685  1          0.8197972 
535.1      0.2188257  1          0.7842299 
535.2      0.277696   0.9100826  0.6349403 
535.3      0.3384889  0.7896503  0.4655006 
535.4      0.3787073  0.7490638  0.3220227 
535.5      0.3756923  0.8186113  0.2580923 
535.6      0.321831   1          0.2844054 
535.7      0.230761   1          0.4683434 
535.8      0.0665592  1          0.8239241 
535.9      0.01455869 1          1         
536        0.01446853 1          1         
536.1      0.019425   1          0.8604401 
536.2      0.01030981 1          0.6848151 
536.3      0.008028243 1          0.5636519 
536.4      0.03600642 1          0.5172623 
536.5      0.05523083 1          0.4342741 
536.6      0.06859003 1          0.4283369 
536.7      0.1013221  1          0.4026374 
536.8      0.09733579 1          0.4582914 
536.9      0.1441842  1          0.4520785 
537        0.1644726  1          0.4899922 
537.1      0.1619751  1          0.5099044 
537.2      0.1441746  1          0.5892291 
537.3      0.1494813  1          0.6619697 
537.4      0.1295303  1          0.7331492 
537.5      0.0811118  1          0.7959508 
537.6      0.03334868 1          0.8635462 
537.7      0.02210402 1          0.8852781 
537.8      0.01806983 1          0.9131597 
537.9      0.01143989 1          0.8523534 
538        0.03628545 1          0.8002522 
538.1      0.07011332 1          0.7752887 
538.2      0.09670758 1          0.7557675 
538.3      0.09144704 1          0.7898492 
538.4      0.1237768  1          0.7603216 
538.5      0.1256194  1          0.7796803 
538.6      0.1115548  1          0.8459806 
538.7      0.1063839  1          0.8727463 
538.8      0.07473101 1          0.9287072 
538.9      0.03216246 1          1         
539        0.02721597 1          1         
539.1      0.01928823 1          1         
539.2      0.01359177 1          1         
539.3      0.0175752  1          0.957153  
539.4      0.0831863  1          0.7687681 
539.5      0.1519618  1          0.6386808 
539.6      0.1767131  1          0.5607914 
539.7      0.1316798  1          0.6764868 
539.8      0.1328022  1          0.7028416 
539.9      0.1339116  1          0.6894171 
540        0.1827888  1          0.5604042 
540.1      0.1837652  1          0.5422564 
540.2      0.1823385  1          0.5713311 
540.3      0.1511616  1          0.6715462 
540.4      0.1463162  1          0.6932483 
540.5      0.1376012  1          0.7065246 
540.6      0.1012694  1          0.7338799 
540.7      0.04566859 1          0.8168445 
540.8      0.007674335 1          0.9605337 
540.9      0.001210894 1          0.9843693 
541        0.003491173 1          0.9660635 
541.1      0.006855895 1          0.8965762 
541.2      0.02217302 1          0.8527731 
541.3      0.01801102 1          0.9188481 
541.4      0.01056071 1          0.9534616 
541.5      0.003378844 1          1         
541.6      0          1          1         
541.7      0.03064252 1          0.8681759 
541.8      0.04737184 1          0.8308064 
541.9      0.06142773 1          0.7949359 
542        0.06682703 1          0.8099292 
542.1      0.1141944  1          0.6913099 
542.2      0.1404096  1          0.5585591 
542.3      0.2084662  1          0.3727442 
542.4      0.2695183  1          0.2194678 
542.5      0.3255563  1          0.1109379 
542.6      0.3543921  1          0.05639427
542.7      0.3699618  1          0.03317336
542.8      0.3739637  1          0.02611631
542.9      0.3512618  0.9592928  0.02926377
543        0.3437947  0.793029   0.04138218
543.1      0.3330626  0.7632017  0.04865748
543.2      0.3212491  0.7865363  0.06285698
543.3      0.3318096  0.7897523  0.07767686
543.4      0.311435   0.8670769  0.1108524 
543.5      0.2929761  0.948692   0.1392159 
543.6      0.3050722  0.897455   0.1379384 
543.7      0.2997078  0.9366552  0.1164235 
543.8      0.3144641  0.9232165  0.0959721 
543.9      0.3222724  0.8841658  0.1000787 
544        0.3189288  0.9028783  0.1152559 
544.1      0.2900362  1          0.1244726 
544.2      0.3046593  1          0.118645  
544.3      0.3179898  1          0.1197792 
544.4      0.318249   1          0.125614  
544.5      0.3219863  1          0.1256014 
544.6      0.343165   0.9907476  0.1021092 
544.7      0.3487893  1          0.07941429
544.8      0.3647202  1          0.06612545
544.9      0.3741194  1          0.06111857
545        0.3800994  1          0.04932922
545.1      0.3916404  1          0.03577995
