~Version information
  VERS.                            1.20: CWLS LAS  -  VERSION 1.20
  WRAP.                              NO: One line per depth step
~Well information
# MNEM.UNIT
# ====.================================:===================
  STRT.M                           1.60: First depth in file
  STOP.M                         917.00: Last depth in file
  STEP.M                           0.10: Depth increment
  NULL.                           -9999: Null values
  COMP.                         COMPANY: TOO "C.I.O.C."
  WELL.                            WELL: 302
  FLD .                           FIELD: KARATUBE
  DATE.                        LOG DATE: 22-23/01/2004
  SRVC.                 SERVICE COMPANY: AFGIS OJSC "Kazpromgeophysica"
  UWI.           Unique Well Identifier: 
~Parametr information block
# MNEM.UNIT
# ====.================================:===================
~Other information
# ------------------------- REMARKS  AREA ------------------
~Curve information
# MNEM.UNIT
# ====.================================:===================
  DEPT.M                               : Depth curve
RHOB.G/C3                              : Bulk density by DGGL
LL3 .OHMM                              : Appar.resistivity,laterolog,3electrodes
DTP .US/M                              : Interval travel time (P)
GR  .UR/H                              : Gamma Ray
NGLD.STDU                              : Neutron-gamma log
GZ3 .OHMM                              : App.resistivity by lateral A2M05N
GZ3B.OHMM                              : App.resistivity by lateral N05M2A
CILA.MMHO                              : IL sonde 7l1.6, active signal
CALI.MM                                : Caliper
PR1 .MM                                : 
PR2 .MM                                : 
SP  .MV                                : Spontaneous potential
~ASCII Log Data
# ...
   286.60     2.4235    25.0052   480.0000     5.7867     1.1016    39.7970     8.2840    61.8080   236.5970   232.4410   240.7540    66.8320
   286.70     2.4068    25.1206   486.7000     5.9734     1.0948    40.9570     7.9280    63.7250   238.5260   231.0890   245.9630    66.9840
   286.80     2.4008    22.5959   493.3000     5.8987     1.0835    42.2970     7.5930    69.3410   232.0970   231.0890   233.1050    67.1360
   286.90     2.3712    16.9056   496.7000     5.7680     1.0789    42.6480     7.2780    76.7850   230.1680   227.0340   233.3020    67.2880
   287.00     2.3334    11.5886   496.7000     5.5253     1.1356    41.8080     7.0440    78.7910   227.5960   218.9240   236.2690    67.4400
   287.10     2.3163     8.4534   486.7000     5.7120     1.1832    40.1160     7.0440    76.6960   221.8100   216.8960   226.7240    67.9480
   287.20     2.3860     7.8891   460.0000     6.0294     1.1968    37.5950     7.0540    85.6110   224.3820   217.5720   231.1910    68.4560
   287.30     2.3888     8.0173   420.0000     6.5893     1.1537    34.3390     7.0030    87.5280   225.6680   220.2760   231.0600    68.9640
   287.40     2.4160     8.3566   386.7000     6.9813     1.1379    31.1260     6.9220    86.8590   221.8100   216.2200   227.4000    69.4720
   287.50     2.4834     8.0729   376.7000     7.1493     1.1243    28.4560     6.8510    89.9350   221.1670   214.8690   227.4660    69.9800
   287.60     2.4248     7.5689   413.3000     7.1867     1.1220    26.3070     6.7390    94.2580   221.8100   216.2200   227.4000    70.2340
   287.70     2.2890     7.1290   460.0000     7.1493     1.1447    24.2220     6.6170    91.4060   221.1670   214.8690   227.4660    70.4880
   287.80     2.2667     7.0474   496.7000     7.1307     1.2104    22.0730     6.5050    96.9330   221.8100   216.2200   227.4000    70.7420
   287.90     2.2787     7.1950   493.3000     7.2053     1.2693    19.9770     6.4140    98.9830   223.0960   214.8690   231.3230    70.9960
   288.00     2.3025     7.3288   483.3000     7.2240     1.2467    18.3280     6.3020   100.7220   219.8810   213.5170   226.2460    71.2500
   288.10     2.3551     7.5341   486.7000     7.0373     1.2013    16.9450     6.1490   108.7900   221.8100   213.5170   230.1030    71.5540
   288.20     2.3439     7.5514   486.7000     6.5333     1.1877    15.8170     6.0480   118.3730   221.1670   214.8690   227.4660    71.8580
   288.30     2.3198     7.3119   486.7000     6.1600     1.1537    15.0080     5.9870   125.2820   221.1670   212.8410   229.4930    72.1620
   288.40     2.4128     7.3796   480.0000     5.9920     1.1379    14.2100     5.8340   140.4380   220.5240   213.5170   227.5310    72.4660
   288.50     2.4037     7.1455   480.0000     5.9920     1.1265    13.4230     5.7120   149.8880   219.8810   212.8410   226.9210    72.7700
   288.60     2.3861     7.0150   480.0000     6.0107     1.1424    12.7530     5.5700   153.8990   217.9530   214.1930   221.7120    72.7200
   288.70     2.4253     7.1784   476.7000     6.3467     1.1129    12.2420     5.4170   157.6880   218.5950   215.5450   221.6460    72.6700
   288.80     2.4182     7.2783   473.3000     6.5893     1.0857    11.6460     5.2950   162.3690   219.2380   215.5450   222.9320    72.6200
   288.90     2.3725     7.0637   466.7000     6.6827     1.0925    11.2210     5.1840   160.1400   219.2380   213.5170   224.9600    72.5700
   289.00     2.3585     7.0474   466.7000     6.4400     1.1039    10.8270     5.0820   159.6500   217.3100   214.8690   219.7500    72.5200
   289.10     2.2915     6.9828   463.3000     6.1973     1.0563    10.3910     4.9700   162.5020   217.3100   212.8410   221.7780    72.3660
   289.20     2.2876     7.0963   463.3000     6.1974     1.0585    10.0720     4.9090   161.2540   219.2380   215.5450   222.9320    72.2120
   289.30     2.3501     6.9188   456.7000     6.4026     1.0835     9.7310     4.8280   162.3240   219.2380   214.8690   223.6080    72.0580
   289.40     2.3687     6.8870   450.0000     6.7387     1.1107     9.4650     4.7670   165.2660   219.8810   214.8690   224.8940    71.9040
   289.50     2.3597     7.1455   443.3000     6.9440     1.0971     9.3160     4.6960   165.4000   218.5950   214.8690   222.3220    71.7500
   289.60     2.3626     7.3456   436.7000     6.9627     1.0857     9.2210     4.5640   161.3430   220.5240   215.5450   225.5040    71.9540
   289.70     2.3474     7.2951   446.7000     6.5706     1.0812     9.1140     4.4420   166.5140   221.1670   214.1930   228.1410    72.1580
   289.80     2.3338     7.1784   456.7000     6.2347     1.0880     8.9870     4.4010   167.6280   216.6670   214.8690   218.4650    72.3620
   289.90     2.3505     7.0474   470.0000     6.1227     1.0857     8.8800     4.3090   165.8450   221.8100   213.5170   230.1030    72.5660
   290.00     2.3704     7.0474   470.0000     6.4027     1.1265     8.7850     4.2890   169.4110   220.5240   214.8690   226.1800    72.7700
   290.10     2.3743     7.0963   466.7000     6.5520     1.1492     8.6670     4.2380   173.2890   221.8100   216.8960   226.7240    72.8720
   290.20     2.3621     7.1290   460.0000     6.4026     1.1583     8.6250     4.2080   170.5260   224.3820   216.2200   232.5430    72.9740
   290.30     2.3961     7.1784   453.3000     5.8614     1.1220     8.5290     4.1470   168.6540   224.3820   216.2200   232.5430    73.0760
   290.40     2.3788     7.2449   446.7000     5.6560     1.1039     8.4550     4.1470   170.0800   226.3110   215.5450   237.0770    73.1780
   290.50     2.3457     7.2951   436.7000     5.7307     1.1197     8.4120     4.0860   168.2520   224.3820   217.5720   231.1910    73.2800
   290.60     2.4008     7.2282   420.0000     5.8613     1.1651     8.3800     4.0450   170.9720   223.7390   216.8960   230.5810    73.3060
   290.70     2.3702     7.2282   403.3000     6.0480     1.1832     8.3060     3.9430   173.9130   225.6680   216.2200   235.1150    73.3320
   290.80     2.3342     6.9507   383.3000     6.0293     1.1764     8.1780     3.8110   174.2260   225.6680   217.5720   233.7630    73.3580
   290.90     2.4081     6.3391   393.3000     6.1227     1.1696     7.9970     3.6380   172.5760   228.8820   218.9240   238.8410    73.3840
   291.00     2.4466     5.4580   403.3000     6.2347     1.1696     7.6460     3.4760   178.1040   230.8110   220.2760   241.3470    73.4100
   291.10     2.4344     4.9892   423.3000     6.4960     1.1605     7.3270     3.3740   179.0840   228.2390   218.9240   237.5550    72.5700
   291.20     2.4032     4.8309   426.7000     6.9814     1.1447     6.9330     3.2520   178.1930   228.2390   214.1930   242.2860    71.7300
   291.30     2.4062     4.7756   436.7000     7.1493     1.1220     6.6250     3.1610   184.3440   225.6680   213.5170   237.8180    70.8900
   291.40     2.3870     4.7537   443.3000     7.7280     1.0925     6.3800     3.1610   189.8710   221.8100   211.4890   232.1310    70.0500
   291.50     2.3365     4.4059   446.7000     8.4933     1.0291     6.1780     3.1400   188.9800   222.4530   213.5170   231.3890    69.2100
   291.60     2.4028     4.3856   446.7000     9.1653     1.0109     5.9440     3.1510   190.0050   224.3820   213.5170   235.2470    68.0680
   291.70     2.4245     4.3856   453.3000     9.1279     0.9973     5.7200     3.1300   193.4370   225.6680   215.5450   235.7910    66.9260
   291.80     2.4082     4.2173   463.3000     8.8107     1.0155     5.5400     3.1300   192.4120   221.8100   214.1930   229.4270    65.7840
   291.90     2.4503     3.7328   483.3000     8.6987     0.9724     5.2740     3.1400   197.6720   219.8810   213.5170   226.2460    64.6420
   292.00     2.3578     3.2887   503.3000     8.7173     0.9361     4.9860     3.2420   202.7530   220.5240   210.8140   230.2350    63.5000
   292.10     2.2878     3.0132   516.7000     8.8667     0.9361     4.7200     3.4560   205.1600   221.8100   210.1380   233.4820    62.3320
   292.20     2.2210     2.9244   520.0000     8.9414     0.9769     4.5080     3.6990   209.2170   221.8100   210.8140   232.8070    61.1640
