~Version information
  VERS.                            1.20: CWLS LAS  -  VERSION 1.20
  WRAP.                              NO: One line per depth step
~Well information
# MNEM.UNIT
# ====.================================:===================
  STRT.M                           1.60: First depth in file
  STOP.M                         917.00: Last depth in file
  STEP.M                           0.10: Depth increment
  NULL.                           -9999: Null values
  COMP.                         COMPANY: TOO "C.I.O.C."
  WELL.                            WELL: 302
  FLD .                           FIELD: KARATUBE
  DATE.                        LOG DATE: 22-23/01/2004
  SRVC.                 SERVICE COMPANY: AFGIS OJSC "Kazpromgeophysica"
  UWI.           Unique Well Identifier: 
~Parametr information block
# MNEM.UNIT
# ====.================================:===================
~Other information
# ------------------------- REMARKS  AREA ------------------
~Curve information
# MNEM.UNIT
# ====.================================:===================
  DEPT.M                               : Depth curve
RHOB.G/C3                              : Bulk density by DGGL
LL3 .OHMM                              : Appar.resistivity,laterolog,3electrodes
DTP .US/M                              : Interval travel time (P)
GR  .UR/H                              : Gamma Ray
NGLD.STDU                              : Neutron-gamma log
GZ3 .OHMM                              : App.resistivity by lateral A2M05N
GZ3B.OHMM                              : App.resistivity by lateral N05M2A
CILA.MMHO                              : IL sonde 7l1.6, active signal
CALI.MM                                : Caliper
PR1 .MM                                : 
PR2 .MM                                : 
SP  .MV                                : Spontaneous potential
~ASCII Log Data
# ...
   343.60     2.5197     5.0470   446.7000     9.0907     1.1424     4.4650     5.9870   192.6350   221.8100   218.9240   224.6960    58.3660
   343.70     2.5344     5.6498   436.7000     8.8667     1.0948     4.5820     6.0070   196.4240   221.8100   221.6270   221.9930    58.0620
   343.80     2.5599     6.1806   423.3000     9.0347     1.1220     4.6990     5.9970   199.2320   219.8810   218.9240   220.8390    57.7580
   343.90     2.5484     6.4125   413.3000     8.7173     1.1877     4.8160     5.9460   196.8690   219.8810   220.2760   219.4870    57.4540
   344.00     2.5730     6.6226   400.0000     8.3627     1.2512     5.0080     5.9050   198.3850   215.3810   218.9240   211.8380    57.1500
   344.10     2.5615     6.5468   390.0000     8.1573     1.2172     5.0820     5.8340   203.1550   219.2380   220.2760   218.2010    57.1240
   344.20     2.5661     6.3100   386.7000     8.2880     1.1923     5.2420     5.7940   202.5300   218.5950   218.9240   218.2670    57.0980
   344.30     2.4695     6.2234   390.0000     8.2880     1.2127     5.3060     5.8550   196.2010   216.0240   217.5720   214.4750    57.0720
   344.40     2.3971     6.1948   393.3000     8.4747     1.2308     5.3690     5.9050   193.1700   215.3810   216.8960   213.8650    57.0460
   344.50     2.4861     6.6074   386.7000     8.5307     1.2421     5.5080     6.0380   192.3230   216.6670   218.9240   214.4090    57.0200
   344.60     2.4625     7.0637   386.7000     8.7733     1.2308     5.6570     6.0380   187.3750   216.6670   218.2480   215.0850    57.2500
   344.70     2.3830     7.1619   383.3000     8.4560     1.2308     5.8160     5.9970   188.4450   215.3810   216.8960   213.8650    57.4800
   344.80     2.3749     6.9029   383.3000     8.0081     1.2535     5.9330     5.9660   190.4060   216.0240   217.5720   214.4750    57.7100
   344.90     2.5270     6.3684   376.7000     7.7467     1.2603     6.0080     5.8440   187.7320   216.0240   218.9240   213.1240    57.9400
   345.00     2.5420     5.9983   373.3000     7.3547     1.2059     5.9230     5.6920   182.8730   219.8810   218.9240   220.8390    58.1700
   345.10     2.5675     5.6368   380.0000     7.3173     1.1175     5.8060     5.5290   183.0960   224.3820   222.3030   226.4600    58.2200
   345.20     2.5477     5.4204   386.7000     7.6347     1.0631     5.7200     5.4780   181.8030   225.0250   226.3580   223.6910    58.2700
   345.30     2.5150     5.0819   386.7000     8.3252     1.0925     5.6250     5.3870   178.6380   223.0960   222.3030   223.8890    58.3200
   345.40     2.4469     5.2605   376.7000     8.8107     1.1333     5.6140     5.3160   176.8110   222.4530   223.6550   221.2510    58.3700
   345.50     2.5076     5.3092   370.0000     8.7547     1.1311     5.5500     5.2340   183.2300   224.3820   222.9790   225.7850    58.4200
   345.60     2.6293     5.0122   373.3000     8.4187     1.1016     5.5610     5.1840   185.8150   226.9540   222.9790   230.9280    58.2420
   345.70     2.5384     4.7866   386.7000     8.3067     1.0608     5.5720     5.1940   181.5800   226.9540   224.3310   229.5760    58.0640
   345.80     2.4899     4.6455   416.7000     8.4373     1.0585     5.4760     5.1730   181.1350   225.6680   224.3310   227.0050    57.8860
   345.90     2.4685     4.4569   443.3000     8.6613     1.0517     5.3910     5.2140   180.3770   220.5240   220.2760   220.7730    57.7080
   346.00     2.4689     4.2759   473.3000     9.0533     1.0517     5.4230     5.2650   179.7080   219.2380   218.2480   220.2290    57.5300
   346.10     2.4122     4.2173   486.7000     9.3520     1.0495     5.3270     5.3260   180.1090   213.4520   212.8410   214.0630    57.2260
   346.20     2.4373     4.3254   500.0000     9.3706     1.0563     5.1670     5.3360   184.7450   214.0950   212.1650   216.0250    56.9220
   346.30     2.4849     4.1498   493.3000     9.1467     1.0427     4.9760     5.4380   189.1580   213.4520   214.8690   212.0350    56.6180
   346.40     2.4374     4.0741   483.3000     8.8293     1.0381     4.9120     5.5900   189.2030   214.0950   215.5450   212.6450    56.3140
   346.50     2.4449     4.2173   466.7000     8.8107     1.0200     4.7310     5.7530   194.0170   217.9530   217.5720   218.3330    56.0100
   346.60     2.4893     4.6029   453.3000     9.1840     1.0585     4.6250     5.9360   202.3080   219.2380   218.2480   220.2290    55.9080
   346.70     2.4641     4.9663   436.7000     9.2027     1.1084     4.6140     6.1090   204.7590   217.3100   218.9240   215.6950    55.8060
   346.80     2.4404     5.3215   423.3000     9.1281     1.1560     4.6670     6.1800   203.2880   216.6670   216.8960   216.4370    55.7040
   346.90     2.4575     5.4580   413.3000     8.7173     1.1651     4.7420     6.3730   208.5030   219.8810   217.5720   222.1900    55.6020
   347.00     2.5719     5.9297   400.0000     8.5120     1.1787     4.8800     6.5150   214.5210   217.9530   216.2200   219.6850    55.5000
   347.10     2.5912     6.3684   380.0000     8.4187     1.1900     5.0610     6.6070   216.4820   218.5950   218.2480   218.9430    55.6520
   347.20     2.5547     7.2116   353.3000     8.0453     1.1673     5.2630     6.6270   213.8080   221.8100   219.6000   224.0200    55.8040
   347.30     2.6081     8.2800   336.7000     7.5414     1.1741     5.4230     6.4850   216.6160   224.3820   221.6270   227.1360    55.9560
   347.40     2.6689     7.8710   336.7000     7.0747     1.1968     5.5290     6.3320   218.3100   223.0960   218.2480   227.9440    56.1080
   347.50     2.7153     6.7925   350.0000     7.0747     1.2557     5.5180     6.1390   217.1060   223.7390   218.2480   229.2300    56.2600
   347.60     2.5402     5.8753   373.3000     7.4480     1.1945     5.5180     5.9460   219.3350   223.7390   216.2200   231.2570    56.5140
   347.70     2.5633     5.4958   393.3000     7.6347     1.1265     5.3690     5.8140   217.1060   223.0960   216.8960   229.2960    56.7680
   347.80     2.5750     5.3831   406.7000     7.7653     1.0857     5.2200     5.7020   212.6040   222.4530   216.8960   228.0100    57.0220
   347.90     2.4625     5.1172   413.3000     8.0453     1.1129     5.0290     5.6720   208.9940   222.4530   216.2200   228.6860    57.2760
   348.00     2.5184     5.1764   416.7000     8.2880     1.1492     4.9540     5.6110   208.5030   222.4530   216.2200   228.6860    57.5300
   348.10     2.5183     5.0007   420.0000     8.3067     1.1628     4.8590     5.5700   205.1600   221.8100   217.5720   226.0480    57.5560
   348.20     2.3810     5.0586   416.7000     7.9333     1.1719     4.8160     5.5090   193.5710   221.1670   217.5720   224.7620    57.5820
   348.30     2.4025     5.2484   413.3000     7.7280     1.1469     4.7950     5.5090   191.2530   219.8810   216.8960   222.8660    57.6080
   348.40     2.4374     5.3092   406.7000     8.0267     1.1084     4.8270     5.4680   188.4890   220.5240   217.5720   223.4760    57.6340
   348.50     2.4724     5.3337   403.3000     8.5680     1.0608     4.8270     5.4480   185.2350   221.1670   216.2200   226.1140    57.6600
   348.60     2.4342     5.2727   400.0000     8.7920     1.0608     4.8590     5.4380   178.1040   222.4530   216.8960   228.0100    57.3300
   348.70     2.4158     5.3955   400.0000     8.2879     1.0721     4.9230     5.4890   176.7660   222.4530   216.2200   228.6860    57.0000
   348.80     2.4142     5.7548   400.0000     8.0267     1.1152     4.9970     5.5290   177.7020   221.8100   217.5720   226.0480    56.6700
   348.90     2.4412     6.0399   400.0000     8.0080     1.1492     5.0400     5.4780   176.4100   224.3820   216.8960   231.8670    56.3400
   349.00     2.5527     5.8618   400.0000     8.0640     1.1809     5.1990     5.4890   181.8030   219.8810   218.9240   220.8390    56.0100
   349.10     2.5065     5.2970   406.7000     7.7653     1.1809     5.2840     5.4280   189.0240   217.9530   218.2480   217.6570    56.0340
   349.20     2.4491     5.0819   416.7000     7.5040     1.1243     5.2740     5.4170   191.1640   221.1670   218.2480   224.0860    56.0580
