~Version information
  VERS.                            1.20: CWLS LAS  -  VERSION 1.20
  WRAP.                              NO: One line per depth step
~Well information
# MNEM.UNIT
# ====.================================:===================
  STRT.M                           1.60: First depth in file
  STOP.M                         917.00: Last depth in file
  STEP.M                           0.10: Depth increment
  NULL.                           -9999: Null values
  COMP.                         COMPANY: TOO "C.I.O.C."
  WELL.                            WELL: 302
  FLD .                           FIELD: KARATUBE
  DATE.                        LOG DATE: 22-23/01/2004
  SRVC.                 SERVICE COMPANY: AFGIS OJSC "Kazpromgeophysica"
  UWI.           Unique Well Identifier: 
~Parametr information block
# MNEM.UNIT
# ====.================================:===================
~Other information
# ------------------------- REMARKS  AREA ------------------
~Curve information
# MNEM.UNIT
# ====.================================:===================
  DEPT.M                               : Depth curve
RHOB.G/C3                              : Bulk density by DGGL
LL3 .OHMM                              : Appar.resistivity,laterolog,3electrodes
DTP .US/M                              : Interval travel time (P)
GR  .UR/H                              : Gamma Ray
NGLD.STDU                              : Neutron-gamma log
GZ3 .OHMM                              : App.resistivity by lateral A2M05N
GZ3B.OHMM                              : App.resistivity by lateral N05M2A
CILA.MMHO                              : IL sonde 7l1.6, active signal
CALI.MM                                : Caliper
PR1 .MM                                : 
PR2 .MM                                : 
SP  .MV                                : Spontaneous potential
~ASCII Log Data
# ...
   651.40     2.3160     8.4145   420.0000     9.0346     1.2013     8.6040    15.9290   118.5070   217.3100   214.1930   220.4260    45.7180
   651.50     2.2813     8.5120   420.0000     9.5201     1.1696     8.6890    16.3450   119.2650   216.0240   214.1930   217.8550    45.5900
   651.60     2.3500     8.8111   420.0000     9.6880     1.1583     8.7950    16.7220   120.3350   214.0950   214.8690   213.3210    45.5400
   651.70     2.3984     9.0788   420.0000     9.3522     1.1492     8.9020    17.0060   115.8770   215.3810   212.8410   217.9200    45.4900
   651.80     2.3966     9.5067   423.3000     8.5678     1.1583     9.1140    17.2810   114.3620   216.0240   212.1650   219.8820    45.4400
   651.90     2.3512     9.7506   423.3000     7.9520     1.1583     9.3060    17.6970   118.5520   214.0950   214.8690   213.3210    45.3900
   652.00     2.2997     9.9777   423.3000     7.8774     1.1401     9.5080    17.8190   117.9280   214.7380   214.1930   215.2830    45.3400
   652.10     2.2985    10.8400   423.3000     8.0267     1.1243     9.6780    17.8500   114.4060   217.3100   212.8410   221.7780    45.6200
   652.20     2.2804    10.9403   423.3000     8.3253     1.0948     9.8480    17.9620   118.5960   216.6670   212.8410   220.4920    45.9000
   652.30     2.3162    10.6177   423.3000     8.4187     1.1107    10.0080    17.8910   119.0420   214.0950   211.4890   216.7000    46.1800
   652.40     2.3255    10.5689   420.0000     8.3814     1.1333    10.0820    17.7580   120.1560   216.0240   212.8410   219.2060    46.4600
   652.50     2.2993    10.6913   420.0000     8.2693     1.1945    10.1890    17.6670   127.3770   216.0240   212.1650   219.8820    46.7400
   652.60     2.3110    10.3999   420.0000     8.1947     1.2059    10.1990    17.7380   127.1550   216.6670   213.5170   219.8160    46.9180
   652.70     2.3239    10.5689   423.3000     8.5119     1.1945    10.3060    17.7890   122.7420   216.6670   213.5170   219.8160    47.0960
   652.80     2.3087    10.7159   426.7000     8.3813     1.1855    10.3800    17.8600   122.8310   214.7380   214.8690   214.6070    47.2740
   652.90     2.3018    10.7902   430.0000     8.3814     1.1787    10.5510    17.9820   119.8440   215.3810   212.1650   218.5960    47.4520
   653.00     2.3132    11.5886   430.0000     7.9893     1.1741    10.8480    18.0330   113.5150   213.4520   212.1650   214.7390    47.6300
   653.10     2.2757    12.1627   430.0000     7.8027     1.1469    11.1460    17.9410   108.2100   215.3810   214.1930   216.5690    47.5020
   653.20     2.2302    13.9005   433.3000     7.5974     1.1447    11.4440    17.5040   108.3890   214.0950   213.5170   214.6730    47.3740
   653.30     2.2030    15.2767   436.7000     7.4853     1.1469    11.7420    17.1180   105.4910   214.0950   212.1650   216.0250    47.2460
   653.40     2.2787    15.1367   440.0000     7.7652     1.1243    12.0290    16.6710   100.9000   216.0240   214.1930   217.8550    47.1180
   653.50     2.2595    15.4892   440.0000     8.0641     1.1243    12.4230    16.0410   101.1680   216.0240   214.1930   217.8550    46.9900
   653.60     2.1955    15.9599   440.0000     8.1013     1.1333    12.6890    15.4000    97.5570   217.3100   214.1930   220.4260    46.9400
   653.70     2.1792    15.8866   436.7000     7.8028     1.1628    13.1150    14.6780    96.3980   219.8810   214.1930   225.5700    46.8900
   653.80     2.2357    17.9900   436.7000     7.5600     1.2081    13.5080    13.7840    99.3400   217.9530   214.1930   221.7120    46.8400
   653.90     2.2525    17.9073   436.7000     7.4480     1.2308    13.8170    12.8890    98.1810   218.5950   216.8960   220.2950    46.7900
   654.00     2.3013    15.1367   443.3000     7.0745     1.2195    14.1680    12.0250    93.8130   216.6670   215.5450   217.7890    46.7400
   654.10     2.2757    13.8048   446.7000     6.8880     1.1945    14.4870    11.1200    92.7870   217.3100   214.1930   220.4260    46.5360
   654.20     2.1908    14.8604   450.0000     7.0372     1.1583    14.7530     9.9920    91.0940   219.8810   215.5450   224.2180    46.3320
   654.30     2.2099    16.4449   450.0000     7.5601     1.1424    15.1890     9.0670    86.9040   219.8810   213.5170   226.2460    46.1280
   654.40     2.2942    17.4193   446.7000     7.5414     1.1288    15.7000     8.3040    83.3820   219.8810   215.5450   224.2180    45.9240
   654.50     2.2381    17.2199   443.3000     7.4106     1.1084    16.2100     7.7560    84.9420   219.2380   216.2200   222.2560    45.7200
   654.60     2.2440    15.2065   440.0000     7.4853     1.1084    16.5620     7.2370    82.3120   217.3100   215.5450   219.0750    45.9740
   654.70     2.2899    13.8366   440.0000     7.5413     1.1107    16.9130     6.8910    75.3140   218.5950   216.2200   220.9700    46.2280
   654.80     2.2738    13.3055   440.0000     7.5226     1.1515    17.1360     6.6170    79.8610   214.0950   213.5170   214.6730    46.4820
   654.90     2.2584    13.0326   440.0000     7.0747     1.1628    17.2850     6.3320    81.7770   219.2380   216.2200   222.2560    46.7360
   655.00     2.2463    12.5612   440.0000     6.7199     1.1469    17.3810     6.1290    81.3320   219.8810   215.5450   224.2180    46.9900
   655.10     2.1718    12.0512   440.0000     6.4400     1.1628    17.4770     5.9970    87.2160   217.3100   213.5170   221.1020    47.2700
   655.20     2.1884    10.9152   436.7000     6.5146     1.1923    17.5080     5.8950    88.5080   219.8810   214.8690   224.8940    47.5500
   655.30     2.2548    10.0469   430.0000     7.0188     1.2172    17.5300     5.6820    86.2350   217.9530   212.8410   223.0640    47.8300
   655.40     2.2161    10.5446   420.0000     7.2613     1.1945    17.4130     5.5800    89.6230   214.7380   212.8410   216.6350    48.1100
   655.50     2.2697    10.1165   410.0000     7.1306     1.1764    17.3810     5.5090    96.2640   216.6670   213.5170   219.8160    48.3900
   655.60     2.3309     9.8635   403.3000     6.9627     1.1537    17.5510     5.3770    98.0030   217.3100   213.5170   221.1020    48.4660
   655.70     2.2808    10.1165   400.0000     7.2425     1.1401    17.6040     5.2750    99.9190   217.3100   213.5170   221.1020    48.5420
   655.80     2.3239    10.4479   393.3000     7.6721     1.1492    17.6890     5.1630   105.7590   216.6670   214.1930   219.1400    48.6180
   655.90     2.3045    10.2101   383.3000     8.2132     1.1583    17.9020     5.0920   107.6750   216.6670   214.1930   219.1400    48.6940
   656.00     2.3145     9.7956   363.3000     8.4187     1.1651    18.2960     4.9700   107.0510   217.3100   212.8410   221.7780    48.7700
   656.10     2.3980    10.1866   356.7000     8.8480     1.1084    18.5940     4.8080   119.3540   217.9530   213.5170   222.3880    48.6420
   656.20     2.4424    10.2809   360.0000     8.6427     1.0653    18.7850     4.6140   124.6580   214.7380   214.1930   215.2830    48.5140
   656.30     2.4695     8.2800   386.7000     8.6053     1.0109    18.6470     4.4110   129.4720   219.2380   214.8690   223.6080    48.3860
   656.40     2.4449     5.8483   416.7000     8.2507     1.0087    17.9870     4.2380   137.2730   221.1670   217.5720   224.7620    48.2580
   656.50     2.4109     4.1594   443.3000     8.0079     1.0064    16.7210     4.0760   141.9090   222.4530   217.5720   227.3340    48.1300
   656.60     2.3951     3.3887   456.7000     7.7093     1.0109    15.0080     3.9640   146.0540   221.1670   215.5450   226.7900    48.4100
   656.70     2.3351     3.2213   453.3000     7.6160     0.9656    12.9660     3.9330   150.2440   221.8100   217.5720   226.0480    48.6900
   656.80     2.3435     3.2812   443.3000     8.1201     0.9611    10.9340     3.8820   156.3060   222.4530   218.2480   226.6580    48.9700
   656.90     2.3853     3.6562   430.0000     8.4932     0.9769     9.5190     3.9640   159.9170   222.4530   220.2760   224.6300    49.2500
   657.00     2.4099     3.8285   416.7000     8.9787     1.0223     8.3380     4.0250   161.7890   220.5240   218.9240   222.1250    49.5300
