~Version information
  VERS.                            1.20: CWLS LAS  -  VERSION 1.20
  WRAP.                              NO: One line per depth step
~Well information
# MNEM.UNIT
# ====.================================:===================
  STRT.M                           1.60: First depth in file
  STOP.M                         917.00: Last depth in file
  STEP.M                           0.10: Depth increment
  NULL.                           -9999: Null values
  COMP.                         COMPANY: TOO "C.I.O.C."
  WELL.                            WELL: 302
  FLD .                           FIELD: KARATUBE
  DATE.                        LOG DATE: 22-23/01/2004
  SRVC.                 SERVICE COMPANY: AFGIS OJSC "Kazpromgeophysica"
  UWI.           Unique Well Identifier: 
~Parametr information block
# MNEM.UNIT
# ====.================================:===================
~Other information
# ------------------------- REMARKS  AREA ------------------
~Curve information
# MNEM.UNIT
# ====.================================:===================
  DEPT.M                               : Depth curve
RHOB.G/C3                              : Bulk density by DGGL
LL3 .OHMM                              : Appar.resistivity,laterolog,3electrodes
DTP .US/M                              : Interval travel time (P)
GR  .UR/H                              : Gamma Ray
NGLD.STDU                              : Neutron-gamma log
GZ3 .OHMM                              : App.resistivity by lateral A2M05N
GZ3B.OHMM                              : App.resistivity by lateral N05M2A
CILA.MMHO                              : IL sonde 7l1.6, active signal
CALI.MM                                : Caliper
PR1 .MM                                : 
PR2 .MM                                : 
SP  .MV                                : Spontaneous potential
~ASCII Log Data
# ...
   394.90     2.4046     4.9321   453.3000     8.9787     1.0313     3.7310     6.5760   243.4500   219.8810   216.2200   223.5420    55.0440
   395.00     2.3911     4.9434   450.0000     8.9973     1.0087     3.7840     7.1250   238.9030   219.8810   216.8960   222.8660    55.1200
   395.10     2.3428     4.8756   450.0000     8.9600     1.0381     3.8690     7.6440   232.3060   221.1670   218.2480   224.0860    54.8900
   395.20     2.3105     5.3583   453.3000     9.2027     1.0767     4.0930     8.1220   226.0210   219.2380   217.5720   220.9050    54.6600
   395.30     2.2945     6.7769   463.3000     9.3893     1.0993     4.3160     8.4470   225.6200   221.1670   219.6000   222.7350    54.4300
   395.40     2.3496     9.8182   443.3000     9.4453     1.0767     4.6140     8.4260   222.8570   225.6680   221.6270   229.7080    54.2000
   395.50     2.3100    11.4823   436.7000     9.4640     1.0699     4.9650     8.1220   223.7030   226.3110   222.3030   230.3180    53.9700
   395.60     2.2425     9.7281   396.7000     9.3520     1.0540     5.3060     7.5320   223.7930   225.0250   217.5720   232.4770    53.6920
   395.70     2.3466     6.3978   410.0000     9.1653     1.0653     5.3270     6.7390   230.2110   225.0250   218.2480   231.8010    53.4140
   395.80     2.4435     4.5712   413.3000     9.0533     1.0381     5.1890     5.9460   233.9110   223.0960   217.5720   228.6200    53.1360
   395.90     2.4833     3.9813   446.7000     9.2400     1.0223     4.9760     5.4170   234.3120   222.4530   217.5720   227.3340    52.8580
   396.00     2.5183     3.9997   443.3000     9.5200     1.0585     4.5930     5.0720   226.2890   222.4530   216.8960   228.0100    52.5800
   396.10     2.4368     4.2465   426.7000     9.6880     1.0948     4.2420     4.8580   222.9900   222.4530   216.2200   228.6860    53.0620
   396.20     2.3286     4.7427   370.0000     9.8187     1.1061     4.1030     4.7160   220.4500   218.5950   216.2200   220.9700    53.5440
   396.30     2.2643     5.5851   366.7000     9.7627     1.1107     4.0290     4.6350   214.2980   219.2380   216.8960   221.5800    54.0260
   396.40     2.3133     5.6238   353.3000     9.1467     1.1673     4.0400     4.5230   204.9380   215.3810   217.5720   213.1890    54.5080
   396.50     2.3265     5.1645   373.3000     8.7173     1.2444     3.9440     4.5030   199.3210   217.3100   217.5720   217.0470    54.9900
   396.60     2.2751     4.6993   353.3000     8.6427     1.2716     3.9540     4.5030   192.8580   219.2380   216.2200   222.2560    55.6260
   396.70     2.2945     4.5817   353.3000     8.8480     1.2149     3.8800     4.5940   183.9430   219.8810   216.8960   222.8660    56.2620
   396.80     2.3417     4.7756   376.7000     9.2586     1.1583     3.7740     4.7060   176.8110   218.5950   214.1930   222.9980    56.8980
   396.90     2.3552     5.0354   406.7000     9.6320     1.0925     3.7200     4.8480   176.7220   219.2380   212.8410   225.6360    57.5340
   397.00     2.2761     5.3215   440.0000     9.8933     1.0744     3.7520     5.0820   185.0570   220.5240   216.2200   224.8280    58.1700
   397.10     2.2764     5.9024   456.7000     9.5760     1.0812     3.9860     5.3670   198.3400   220.5240   216.2200   224.8280    57.9660
   397.20     2.2656     6.5619   453.3000     9.0346     1.1424     4.2950     5.5290   212.3370   217.3100   212.8410   221.7780    57.7620
   397.30     2.2111     7.7809   420.0000     8.7920     1.2149     4.6460     5.6510   219.5130   217.9530   216.2200   219.6850    57.5580
   397.40     2.2853     8.6304   366.7000     9.0907     1.2625     5.0820     5.7730   226.5560   220.5240   217.5720   223.4760    57.3540
   397.50     2.3688     9.4848   306.7000    10.0240     1.2648     5.6780     5.7120   226.0210   220.5240   218.2480   222.8000    57.1500
   397.60     2.5308    13.5841   253.3000    10.7893     1.2671     6.3270     5.6110   216.8390   220.5240   216.8960   224.1520    56.4380
   397.70     2.7840    17.1803   216.7000    10.7893     1.2829     7.0720     5.4280   207.4340   224.3820   218.2480   230.5160    55.7260
   397.80     2.9252    16.5970   203.3000     9.9495     1.3192     7.8380     5.1230   208.0580   221.8100   216.8960   226.7240    55.0140
   397.90     2.9209    13.3055   240.0000     8.6800     1.2897     8.2420     4.6750   207.6570   225.0250   218.2480   231.8010    54.3020
   398.00     2.8563     7.2449   300.0000     7.4667     1.1832     8.2840     4.2990   207.7010   220.5240   223.6550   217.3940    53.5900
   398.10     2.7789     4.6455   383.3000     6.6640     1.0472     8.0400     4.0040   209.8410   237.2400   224.3310   250.1500    53.3360
   398.20     2.5634     4.0089   436.7000     6.4400     0.9905     7.4230     3.6990   210.9110   235.3120   222.3030   248.3200    53.0820
   398.30     2.3675     3.8550   466.7000     6.9253     0.9883     6.6890     3.5570   206.3190   230.8110   225.0060   236.6160    52.8280
   398.40     2.4145     3.8197   473.3000     7.7280     1.0200     5.9650     3.5060   198.0730   226.9540   222.3030   231.6040    52.5740
   398.50     2.4384     3.6478   473.3000     8.5120     1.0064     5.5180     3.5060   191.6990   225.0250   219.6000   230.4500    52.3200
   398.60     2.4595     3.6562   470.0000     9.1840     1.0064     5.1990     3.5670   191.4310   222.4530   217.5720   227.3340    52.5500
   398.70     2.4449     3.8197   460.0000     9.3520     1.0200     4.8590     3.5570   186.6620   220.5240   217.5720   223.4760    52.7800
   398.80     2.3688     4.0182   450.0000     9.4827     1.0631     4.6570     3.5570   181.8480   219.2380   219.6000   218.8770    53.0100
   398.90     2.4109     4.1403   450.0000     9.5387     1.1084     4.4230     3.5470   175.0720   220.5240   218.9240   222.1250    53.2400
   399.00     2.4688     4.2465   453.3000     9.3333     1.0925     4.2740     3.5270   180.1090   220.5240   220.2760   220.7730    53.4700
   399.10     2.5112     4.0274   466.7000     9.5013     1.0631     4.2200     3.5170   188.5790   226.3110   225.0060   227.6150    53.6980
   399.20     2.4699     3.8907   470.0000     9.7068     0.9996     4.1670     3.5980   199.0090   233.3830   225.0060   241.7590    53.9260
   399.30     2.4387     3.8818   466.7000    10.1920     0.9656     4.1570     3.6180   205.0270   227.5960   223.6550   231.5380    54.1540
   399.40     2.4108     3.9722   460.0000     9.9867     1.0200     4.2520     3.6890   216.5270   219.8810   218.2480   221.5150    54.3820
   399.50     2.4479     3.9813   453.3000     9.6320     1.0857     4.3270     3.6790   231.9500   217.3100   216.8960   217.7230    54.6100
   399.60     2.4156     3.9905   460.0000     9.5573     1.1197     4.3480     3.7400   245.8130   218.5950   220.9510   216.2400    54.6360
   399.70     2.4640     3.9813   466.7000     9.4640     1.0631     4.3910     3.7200   250.0920   223.0960   222.3030   223.8890    54.6620
   399.80     2.4381     4.0741   473.3000     9.1467     1.0064     4.3590     3.6890   253.7910   221.1670   220.2760   222.0590    54.6880
   399.90     2.3705     4.0460   470.0000     8.7547     0.9747     4.4120     3.6590   255.3960   222.4530   220.9510   223.9550    54.7140
   400.00     2.3544     3.8373   473.3000     8.7920     0.9407     4.3690     3.6490   251.9640   219.8810   222.3030   217.4600    54.7400
   400.10     2.4176     3.8462   480.0000     9.2027     0.9407     4.3160     3.6490   246.3920   223.7390   222.3030   225.1750    54.2820
   400.20     2.4566     3.8197   493.3000     9.6694     0.9248     4.2630     3.6490   243.6280   228.2390   224.3310   232.1480    53.8240
   400.30     2.4596     3.8022   496.7000     9.8747     0.9429     4.1990     3.6590   246.2140   222.4530   220.9510   223.9550    53.3660
   400.40     2.5101     3.7673   496.7000    10.2107     0.9543     4.0820     3.6490   246.5260   222.4530   220.2760   224.6300    52.9080
   400.50     2.4710     3.7500   490.0000    10.4160     1.0245     3.9540     3.6690   245.2330   220.5240   219.6000   221.4490    52.4500
