~Version information
  VERS.                            1.20: CWLS LAS  -  VERSION 1.20
  WRAP.                              NO: One line per depth step
~Well information
# MNEM.UNIT
# ====.================================:===================
  STRT.M                           1.60: First depth in file
  STOP.M                         917.00: Last depth in file
  STEP.M                           0.10: Depth increment
  NULL.                           -9999: Null values
  COMP.                         COMPANY: TOO "C.I.O.C."
  WELL.                            WELL: 302
  FLD .                           FIELD: KARATUBE
  DATE.                        LOG DATE: 22-23/01/2004
  SRVC.                 SERVICE COMPANY: AFGIS OJSC "Kazpromgeophysica"
  UWI.           Unique Well Identifier: 
~Parametr information block
# MNEM.UNIT
# ====.================================:===================
~Other information
# ------------------------- REMARKS  AREA ------------------
~Curve information
# MNEM.UNIT
# ====.================================:===================
  DEPT.M                               : Depth curve
RHOB.G/C3                              : Bulk density by DGGL
LL3 .OHMM                              : Appar.resistivity,laterolog,3electrodes
DTP .US/M                              : Interval travel time (P)
GR  .UR/H                              : Gamma Ray
NGLD.STDU                              : Neutron-gamma log
GZ3 .OHMM                              : App.resistivity by lateral A2M05N
GZ3B.OHMM                              : App.resistivity by lateral N05M2A
CILA.MMHO                              : IL sonde 7l1.6, active signal
CALI.MM                                : Caliper
PR1 .MM                                : 
PR2 .MM                                : 
SP  .MV                                : Spontaneous potential
~ASCII Log Data
# ...
   184.00     2.3576    11.4033   510.0000     7.0560     1.0653    12.8590    14.5870   107.6750   217.3100   216.2200   218.3990    64.2600
   184.10     2.3466    10.9403   510.0000     7.2986     1.0495    12.7100    14.6270   104.8670   215.3810   216.2200   214.5410    64.5660
   184.20     2.3438    10.8400   513.3000     7.3547     1.0132    12.5290    14.6270   105.7140   216.6670   213.5170   219.8160    64.8720
   184.30     2.3412    10.6422   513.3000     7.3546     1.0041    12.3170    14.6780   106.6950   216.6670   214.8690   218.4650    65.1780
   184.40     2.2876    10.6913   523.3000     7.2427     1.0177    12.0290    14.7490   102.8170   217.9530   215.5450   220.3600    65.4840
   184.50     2.3460    10.6913   516.7000     7.0933     1.0540    11.9120    14.9320   104.3320   217.9530   213.5170   222.3880    65.7900
   184.60     2.3424    10.7654   516.7000     6.9627     1.0517    11.8700    15.2170   102.4160   217.3100   214.8690   219.7500    66.8300
   184.70     2.2808    11.0415   506.7000     6.5707     1.0291    11.9870    15.7560   107.9870   217.3100   213.5170   221.1020    67.8700
   184.80     2.3199    11.4296   513.3000     6.4773     1.0245    12.5190    16.7420   105.8480   219.8810   214.1930   225.5700    68.9100
   184.90     2.3999    11.9407   513.3000     6.2720     1.0767    13.3590    17.7280   108.9240   216.0240   213.5170   218.5300    69.9500
   185.00     2.4521    14.4887   493.3000     6.1787     1.1401    14.2640    17.8500   109.6370   219.2380   214.8690   223.6080    70.9900
   185.10     2.5719    17.2596   450.0000     6.4026     1.2172    14.6680    17.5760   107.4970   217.9530   215.5450   220.3600    71.6500
   185.20     2.6333    14.3229   406.7000     6.6453     1.2308    14.9660    17.1690   110.6170   219.2380   216.8960   221.5800    72.3100
   185.30     2.5231    12.2188   380.0000     6.9253     1.2013    14.8700    16.5790   106.0260   217.9530   217.5720   218.3330    72.9700
   185.40     2.3409    11.5619   403.3000     6.8507     1.1379    13.9760    15.6950   106.0710   217.3100   215.5450   219.0750    73.6300
   185.50     2.2676    12.0512   440.0000     6.6826     1.0789    13.2100    15.1360   102.5940   217.9530   216.2200   219.6850    74.2900
   185.60     2.2985    12.5612   483.3000     6.5333     1.0540    12.8800    14.8920   103.4410   217.9530   216.2200   219.6850    74.0880
   185.70     2.3773    12.9429   493.3000     6.4773     1.0699    12.7850    14.6990   102.4600   219.2380   218.2480   220.2290    73.8860
   185.80     2.3990    13.0026   493.3000     6.4027     1.0744    12.7740    14.4240   101.0340   222.4530   219.6000   225.3060    73.6840
   185.90     2.3881    12.4174   486.7000     6.1787     1.0925    12.7320    14.1600   103.7530   221.8100   216.8960   226.7240    73.4820
   186.00     2.3798    11.9132   486.7000     6.0107     1.0948    12.6040    13.9260   100.0980   224.3820   218.9240   229.8400    73.2800
   186.10     2.3777    11.7769   486.7000     6.0480     1.1175    12.5080    13.7130   103.3960   221.8100   218.2480   225.3720    73.1280
   186.20     2.3861    11.8312   490.0000     6.1787     1.1265    12.4020    13.6010   100.0980   221.1670   217.5720   224.7620    72.9760
   186.30     2.4257    11.7498   490.0000     6.2160     1.0880    12.3700    13.5600    99.6520   221.8100   219.6000   224.0200    72.8240
   186.40     2.3860    11.8585   490.0000     6.0107     1.0653    12.4120    13.4990    98.7600   221.8100   219.6000   224.0200    72.6720
   186.50     2.3804    12.0235   490.0000     5.8427     1.0653    12.4120    13.4280    95.5070   223.0960   218.2480   227.9440    72.5200
   186.60     2.4192    12.1627   486.7000     5.7493     1.0880    12.4660    13.3670    95.7740   222.4530   218.2480   226.6580    72.6980
   186.70     2.4415    11.8040   483.3000     5.9173     1.1379    12.5290    13.3970    93.3670   221.8100   218.2480   225.3720    72.8760
   186.80     2.4408    11.8040   480.0000     6.1040     1.1356    12.6250    13.4790    98.8940   221.8100   216.2200   227.4000    73.0540
   186.90     2.4526    11.7769   476.7000     6.1040     1.1175    12.7100    13.5090    96.3530   217.3100   216.8960   217.7230    73.2320
   187.00     2.3963    11.7498   473.3000     6.2347     1.0381    12.8590    13.4690   100.5430   217.9530   214.1930   221.7120    73.4100
   187.10     2.4670    12.1907   466.7000     6.2907     0.9973    13.0400    13.4280    99.8750   218.5950   216.2200   220.9700    73.5360
   187.20     2.4209    12.1907   460.0000     6.4027     1.0155    13.2100    13.3570    97.5570   216.0240   216.2200   215.8270    73.6620
   187.30     2.4481    11.6421   453.3000     6.3840     1.0540    13.4660    13.2550    97.0220   217.9530   214.8690   221.0360    73.7880
   187.40     2.4163    11.3509   453.3000     6.3093     1.1016    13.8170    13.1840    98.5380   217.9530   216.8960   219.0090    73.9140
   187.50     2.3717    11.2468   460.0000     6.2907     1.1107    13.9440    13.2250   103.7080   221.1670   215.5450   226.7900    74.0400
   187.60     2.3697    11.0925   470.0000     6.3093     1.0812    13.9230    13.2960   100.8550   218.5950   214.1930   222.9980    73.8380
   187.70     2.3362    11.2210   476.7000     6.4213     1.0177    13.8910    13.2550   104.1090   217.3100   214.8690   219.7500    73.6360
   187.80     2.4061    11.5088   483.3000     6.4213     0.9724    13.9020    13.2550   100.9450   217.3100   216.8960   217.7230    73.4340
   187.90     2.4018    11.5088   486.7000     6.2533     0.9928    13.9550    13.3670   102.9060   217.9530   214.8690   221.0360    73.2320
   188.00     2.3966    11.4559   490.0000     6.3093     1.0200    13.9660    13.3160   102.9060   217.3100   216.8960   217.7230    73.0300
   188.10     2.4032    11.3248   490.0000     6.4773     1.0245    13.9120    13.2450   101.9700   219.8810   216.8960   222.8660    72.5460
   188.20     2.4265    11.6689   490.0000     6.5707     1.0132    13.8380    13.1430   100.8550   218.5950   215.5450   221.6460    72.0620
   188.30     2.4270    11.5353   490.0000     6.4960     1.0223    13.7320    12.9710   101.4350   217.3100   215.5450   219.0750    71.5780
   188.40     2.4029    11.5088   490.0000     6.4400     1.0449    13.6570    12.9100   103.6640   217.9530   216.2200   219.6850    71.0940
   188.50     2.3641    11.1952   490.0000     6.7387     1.0993    13.5080    12.8180   102.9950   216.6670   214.8690   218.4650    70.6100
   188.60     2.3127    11.1694   490.0000     6.9440     1.1016    13.4550    12.6960   105.8920   218.5950   214.8690   222.3220    70.3060
   188.70     2.3564    11.3509   490.0000     7.0747     1.1084    13.3910    12.6150   103.0840   219.8810   215.5450   224.2180    70.0020
   188.80     2.3806    11.1694   493.3000     7.0187     1.1039    13.3490    12.5940   107.2740   219.8810   216.2200   223.5420    69.6980
   188.90     2.4171    11.1437   493.3000     7.0373     1.1515    13.2850    12.6550   108.1660   217.9530   214.8690   221.0360    69.3940
   189.00     2.3717    11.2468   493.3000     7.0933     1.1651    13.2850    12.6350   105.8920   216.6670   213.5170   219.8160    69.0900
   189.10     2.3525    11.6689   490.0000     7.0187     1.0993    13.2530    12.6550   107.0070   217.3100   216.2200   218.3990    68.7340
   189.20     2.4162    12.0235   486.7000     6.8507     1.0427    13.2530    12.6450   104.7780   217.9530   214.8690   221.0360    68.3780
   189.30     2.4471    11.8312   483.3000     6.9440     0.9792    13.3590    12.6050   108.3440   217.9530   214.8690   221.0360    68.0220
   189.40     2.3729    11.8312   480.0000     7.0373     1.0019    13.4020    12.5540   105.5360   217.9530   214.8690   221.0360    67.6660
   189.50     2.3180    11.5619   483.3000     6.9066     1.0177    13.3700    12.4930   108.7010   218.5950   216.2200   220.9700    67.3100
   189.60     2.3115    11.1694   486.7000     6.8693     1.0540    13.3700    12.4930   108.8340   219.2380   214.8690   223.6080    67.4120
