~Version information
  VERS.                            1.20: CWLS LAS  -  VERSION 1.20
  WRAP.                              NO: One line per depth step
~Well information
# MNEM.UNIT
# ====.================================:===================
  STRT.M                           1.60: First depth in file
  STOP.M                         917.00: Last depth in file
  STEP.M                           0.10: Depth increment
  NULL.                           -9999: Null values
  COMP.                         COMPANY: TOO "C.I.O.C."
  WELL.                            WELL: 302
  FLD .                           FIELD: KARATUBE
  DATE.                        LOG DATE: 22-23/01/2004
  SRVC.                 SERVICE COMPANY: AFGIS OJSC "Kazpromgeophysica"
  UWI.           Unique Well Identifier: 
~Parametr information block
# MNEM.UNIT
# ====.================================:===================
~Other information
# ------------------------- REMARKS  AREA ------------------
~Curve information
# MNEM.UNIT
# ====.================================:===================
  DEPT.M                               : Depth curve
RHOB.G/C3                              : Bulk density by DGGL
LL3 .OHMM                              : Appar.resistivity,laterolog,3electrodes
DTP .US/M                              : Interval travel time (P)
GR  .UR/H                              : Gamma Ray
NGLD.STDU                              : Neutron-gamma log
GZ3 .OHMM                              : App.resistivity by lateral A2M05N
GZ3B.OHMM                              : App.resistivity by lateral N05M2A
CILA.MMHO                              : IL sonde 7l1.6, active signal
CALI.MM                                : Caliper
PR1 .MM                                : 
PR2 .MM                                : 
SP  .MV                                : Spontaneous potential
~ASCII Log Data
# ...
   235.30     2.8987     6.5017   346.7000     7.5600     1.0223     5.6250     5.9770   200.8370   256.5280   235.8200   277.2360    57.1760
   235.40     2.7310     6.1239   333.3000     7.2053     1.0132     5.6350     5.8140   198.2960   250.7420   231.0890   270.3950    57.6080
   235.50     2.4670     6.0260   333.3000     7.0373     1.0132     5.5720     5.6820   200.4800   246.2410   227.7100   264.7730    58.0400
   235.60     2.4655     6.0818   396.7000     7.4106     0.9679     5.5180     5.6110   196.8690   244.3130   227.0340   261.5910    58.3960
   235.70     2.4817     6.2810   463.3000     7.8773     0.9248     5.5080     5.6110   198.1620   254.5990   228.3860   280.8130    58.7520
   235.80     2.4710     6.2666   530.0000     8.6240     0.9157     5.6250     5.6110   198.0730   252.0280   226.3580   277.6970    59.1080
   235.90     2.4252     6.2955   536.7000     8.9226     0.9407     5.6670     5.5900   194.9080   246.2410   223.6550   268.8280    59.4640
   236.00     2.4192     6.3391   540.0000     9.2027     0.9633     5.7630     5.6410   192.8580   252.6710   229.7370   275.6040    59.8200
   236.10     2.4059     6.3100   516.7000     9.0533     0.9656     5.9440     5.6610   191.1190   247.5270   227.7100   267.3440    59.9460
   236.20     2.3999     6.3537   476.7000     8.8853     1.0177     6.0820     5.6510   186.1270   243.0270   222.3030   263.7500    60.0720
   236.30     2.4383     6.2234   440.0000     8.5307     1.0472     6.1890     5.6720   182.3830   243.6700   222.9790   264.3600    60.1980
   236.40     2.4404     5.8753   426.7000     8.3253     1.0540     6.2840     5.6110   186.4390   235.9540   220.2760   251.6330    60.3240
   236.50     2.4489     5.4204   380.0000     8.1387     1.0155     6.3270     5.5700   187.1520   233.3830   220.2760   246.4900    60.4500
   236.60     2.4832     5.4454   403.3000     8.4186     0.9792     6.2950     5.5290   182.6060   231.4540   221.6270   241.2810    60.1960
   236.70     2.4521     5.7152   430.0000     8.5493     0.9271     6.2210     5.5090   182.7390   234.0260   221.6270   246.4240    59.9420
   236.80     2.4386     5.6368   506.7000     8.6987     0.8931     6.1460     5.4380   184.9230   234.6690   222.3030   247.0340    59.6880
   236.90     2.4337     5.7020   510.0000     8.6613     0.8840     6.1030     5.3670   185.9490   234.0260   219.6000   248.4520    59.4340
   237.00     2.4250     5.5980   510.0000     8.9227     0.8840     6.0500     5.3670   192.9470   232.7400   218.9240   246.5560    59.1800
   237.10     2.3766     5.7020   513.3000     9.2213     0.9089     6.0080     5.3770   192.6790   231.4540   219.6000   243.3080    58.8000
   237.20     2.3827     5.4831   513.3000     9.2027     0.9225     5.9650     5.3360   192.1000   237.2400   219.6000   254.8810    58.4200
   237.30     2.3811     5.4329   510.0000     8.9226     0.9769     5.9860     5.3460   194.1950   239.1690   224.3310   254.0080    58.0400
   237.40     2.4310     5.3460   503.3000     8.5307     0.9837     5.9330     5.3770   194.0170   241.7410   222.9790   260.5030    57.6600
   237.50     2.3942     5.3337   506.7000     8.6240     0.9611     5.8480     5.3970   189.3810   240.4550   223.6550   257.2550    57.2800
   237.60     2.3745     5.2364   513.3000     8.9413     0.9611     5.7630     5.3970   194.7300   240.4550   224.3310   256.5790    57.0760
   237.70     2.4119     5.1172   523.3000     9.0907     0.9769     5.7100     5.4170   196.2010   240.4550   222.9790   257.9310    56.8720
   237.80     2.4466     5.1526   530.0000     8.6800     0.9883     5.5930     5.4990   193.8830   242.3840   224.3310   260.4370    56.6680
   237.90     2.4080     5.2003   540.0000     8.5680     0.9475     5.4970     5.5800   194.5520   239.1690   222.9790   255.3590    56.4640
   238.00     2.3934     5.2123   546.7000     8.5867     0.9135     5.3800     5.6510   197.9840   234.6690   220.9510   248.3860    56.2600
   238.10     2.3656     5.2243   546.7000     8.7360     0.9135     5.3160     5.7530   197.0030   234.6690   221.6270   247.7100    56.3880
   238.20     2.4130     5.4204   516.7000     8.5867     0.9089     5.3910     5.8040   203.0210   236.5970   222.9790   250.2160    56.5160
   238.30     2.4746     5.9433   483.3000     8.6613     0.8749     5.4440     5.8240   207.2110   239.1690   224.3310   254.0080    56.6440
   238.40     2.4517     6.2810   456.7000     8.7733     0.8863     5.4760     5.7330   206.6760   240.4550   223.6550   257.2550    56.7720
   238.50     2.4478     5.7152   566.7000     8.5866     0.9157     5.4650     5.6820   209.3950   237.2400   221.6270   252.8530    56.9000
   238.60     2.3695     5.3215   590.0000     8.1947     0.9543     5.4860     5.6000   212.5150   233.3830   221.6270   245.1380    56.9500
   238.70     2.3824     5.0937   613.3000     7.9520     0.9769     5.3480     5.5390   213.3620   234.6690   220.2760   249.0620    57.0000
   238.80     2.3648     5.1645   523.3000     7.8400     0.9860     5.2310     5.4890   211.1780   234.0260   219.6000   248.4520    57.0500
   238.90     2.3708     5.0007   523.3000     8.1013     1.0109     5.1890     5.4990   218.6670   237.8830   221.6270   254.1390    57.1000
   239.00     2.4499     5.1290   520.0000     8.3627     0.9815     5.0400     5.4680   218.5330   238.5260   222.9790   254.0730    57.1500
   239.10     2.4529     5.1054   520.0000     8.9786     0.9565     5.0180     5.4780   215.4570   235.3120   222.3030   248.3200    56.9460
   239.20     2.3480     5.0937   523.3000     8.9227     0.9316     4.9540     5.5190   215.9920   235.9540   221.6270   250.2820    56.7420
   239.30     2.3860     5.2364   526.7000     8.6800     0.9361     4.9120     5.4580   216.0810   231.4540   222.9790   239.9290    56.5380
   239.40     2.4300     5.4079   530.0000     8.5120     0.9407     4.8690     5.5190   211.5790   232.7400   220.9510   244.5280    56.3340
   239.50     2.4085     5.1645   533.3000     8.4187     0.9520     4.8590     5.4890   213.7630   237.2400   220.9510   253.5290    56.1300
   239.60     2.3439     5.1764   533.3000     8.3440     0.9497     4.8060     5.4990   212.4260   237.8830   221.6270   254.1390    55.9020
   239.70     2.3566     5.2605   533.3000     8.1013     0.9225     4.7740     5.5290   208.9940   237.8830   222.3030   253.4630    55.6740
   239.80     2.3925     5.4580   523.3000     8.0453     0.8931     4.7520     5.5290   210.1080   239.8120   223.6550   255.9690    55.4460
   239.90     2.4283     5.4204   480.0000     8.2133     0.8931     4.7100     5.6210   213.1840   241.0980   224.3310   257.8650    55.2180
   240.00     2.3625     5.6628   466.7000     8.5120     0.9248     4.7310     5.7220   212.0250   237.8830   222.9790   252.7880    54.9900
   240.10     2.3561     5.7152   460.0000     8.8853     0.9815     4.7310     5.8040   219.3350   238.5260   224.3310   252.7220    54.8380
   240.20     2.3936     5.8753   490.0000     8.6240     0.9996     4.7840     5.8950   224.4610   235.3120   223.6550   246.9680    54.6860
   240.30     2.4574     5.9983   486.7000     8.1573     1.0019     4.8370     6.0070   224.4170   238.5260   221.6270   255.4250    54.5340
   240.40     2.4691     6.2091   476.7000     7.6720     0.9497     4.8910     6.1900   221.4750   240.4550   222.3030   258.6070    54.3820
   240.50     2.4229     6.1239   466.7000     7.9520     0.9203     4.9760     6.2920   219.4240   238.5260   222.9790   254.0730    54.2300
   240.60     2.4249     5.7020   463.3000     8.0827     0.8931     5.0180     6.5150   215.9030   239.8120   223.6550   255.9690    54.7380
   240.70     2.3895     5.1172   473.3000     8.2693     0.8999     5.0820     6.8000   217.3290   241.7410   224.3310   259.1510    55.2460
   240.80     2.3852     5.1172   493.3000     8.1573     0.9135     5.0930     7.1150   219.6470   240.4550   227.0340   253.8760    55.7540
   240.90     2.3938     4.9207   513.3000     7.9707     0.8999     5.0500     7.4610   216.9280   246.8840   229.0620   264.7070    56.2620
