~Version information
  VERS.                            1.20: CWLS LAS  -  VERSION 1.20
  WRAP.                              NO: One line per depth step
~Well information
# MNEM.UNIT
# ====.================================:===================
  STRT.M                           1.60: First depth in file
  STOP.M                         917.00: Last depth in file
  STEP.M                           0.10: Depth increment
  NULL.                           -9999: Null values
  COMP.                         COMPANY: TOO "C.I.O.C."
  WELL.                            WELL: 302
  FLD .                           FIELD: KARATUBE
  DATE.                        LOG DATE: 22-23/01/2004
  SRVC.                 SERVICE COMPANY: AFGIS OJSC "Kazpromgeophysica"
  UWI.           Unique Well Identifier: 
~Parametr information block
# MNEM.UNIT
# ====.================================:===================
~Other information
# ------------------------- REMARKS  AREA ------------------
~Curve information
# MNEM.UNIT
# ====.================================:===================
  DEPT.M                               : Depth curve
RHOB.G/C3                              : Bulk density by DGGL
LL3 .OHMM                              : Appar.resistivity,laterolog,3electrodes
DTP .US/M                              : Interval travel time (P)
GR  .UR/H                              : Gamma Ray
NGLD.STDU                              : Neutron-gamma log
GZ3 .OHMM                              : App.resistivity by lateral A2M05N
GZ3B.OHMM                              : App.resistivity by lateral N05M2A
CILA.MMHO                              : IL sonde 7l1.6, active signal
CALI.MM                                : Caliper
PR1 .MM                                : 
PR2 .MM                                : 
SP  .MV                                : Spontaneous potential
~ASCII Log Data
# ...
   702.70     2.6045     4.4981   333.3000     4.9280     1.2036     3.1990     5.0210   267.6990   226.9540   227.7100   226.1970    52.2720
   702.80     2.7296     4.9321   333.3000     5.0213     1.2149     3.2630     5.0720   271.4430   226.3110   228.3860   224.2350    52.6280
   702.90     2.8285     4.7646   326.7000     4.9839     1.2331     3.3800     5.1430   268.9910   230.1680   233.1170   227.2200    52.9840
   703.00     2.8395     4.6135   320.0000     5.2640     1.1945     3.4650     5.2850   261.6370   227.5960   233.7930   221.4000    53.3400
   703.10     2.6724     4.6885   310.0000     5.4507     1.1379     3.5080     5.4480   260.2990   227.5960   231.7650   223.4280    53.3140
   703.20     2.6522     5.0354   296.7000     5.5627     1.1515     3.6350     5.5700   257.9810   230.8110   231.7650   229.8570    53.2880
   703.30     2.5739     5.6238   286.7000     5.4693     1.2104     3.7740     5.5900   255.9760   230.8110   229.7370   231.8850    53.2620
   703.40     2.6039     6.3978   283.3000     5.3387     1.2489     3.8800     5.6510   258.7390   228.8820   227.0340   230.7310    53.2360
   703.50     2.7477     6.7613   293.3000     5.4134     1.2127     4.0080     5.6210   257.5360   228.2390   225.6820   230.7960    53.2100
   703.60     2.7746     6.4125   296.7000     5.3387     1.1855     4.1460     5.5190   254.2370   228.8820   228.3860   229.3790    53.3120
   703.70     2.6686     6.1380   290.0000     5.0774     1.2535     4.2100     5.3060   257.6690   227.5960   231.7650   223.4280    53.4140
   703.80     2.7191     5.7681   300.0000     4.7787     1.3237     4.1990     5.2340   253.7910   228.2390   234.4680   222.0100    53.5160
   703.90     2.6861     5.2484   313.3000     5.0772     1.3532     4.2310     5.1630   246.0350   227.5960   235.1440   220.0490    53.6180
   704.00     2.5380     4.8532   333.3000     5.5068     1.3033     4.2310     5.1230   240.1960   230.8110   235.1440   226.4780    53.7200
   704.10     2.5326     4.4878   330.0000     5.7493     1.2330     4.1570     5.1230   238.6810   234.6690   235.1440   234.1930    53.6180
   704.20     2.6048     4.1118   326.7000     5.8053     1.1651     4.0930     5.0720   234.3570   235.9540   239.1990   232.7100    53.5160
   704.30     2.6676     4.2270   330.0000     5.7494     1.1492     4.0610     5.0620   222.2770   239.8120   238.5240   241.1010    53.4140
   704.40     2.6322     4.3957   340.0000     5.8800     1.1809     3.9440     5.0310   216.9730   238.5260   235.8200   241.2320    53.3120
   704.50     2.5624     4.2759   343.3000     5.8240     1.2353     3.8910     5.0010   211.1330   242.3840   242.5790   242.1890    53.2100
   704.60     2.4731     4.0647   343.3000     5.9173     1.2444     3.9010     5.0410   205.1160   242.3840   239.8750   244.8920    53.5920
   704.70     2.3951     4.1594   336.7000     5.9733     1.2376     3.9330     5.0920   205.2940   242.3840   237.1720   247.5960    53.9740
   704.80     2.4930     4.4569   336.7000     6.0107     1.1787     3.9650     5.0310   202.0850   239.1690   233.7930   244.5460    54.3560
   704.90     2.4845     4.5712   340.0000     5.9920     1.1537     3.9860     5.0110   199.7670   246.2410   239.8750   252.6070    54.7380
   705.00     2.5589     4.3056   343.3000     5.9173     1.1016     4.0930     4.9910   206.1410   241.0980   245.2820   236.9140    55.1200
   705.10     2.5725     4.2957   346.7000     6.1227     1.1016     4.0400     4.9300   210.7770   243.6700   243.9300   243.4090    55.4240
   705.20     2.5439     4.4671   346.7000     6.5519     1.1265     4.0400     4.8580   213.8970   244.3130   242.5790   246.0460    55.7280
   705.30     2.5930     4.5397   343.3000     6.5706     1.2013     3.9760     4.9190   218.3540   245.5980   243.9300   247.2660    56.0320
   705.40     2.5162     4.5607   343.3000     6.3281     1.2376     4.0290     4.9500   227.2250   244.9550   244.6060   245.3050    56.3360
   705.50     2.5101     4.6885   336.7000     5.4879     1.2557     4.0500     4.9400   232.0840   237.8830   239.8750   235.8910    56.6400
   705.60     2.6399     4.7427   333.3000     4.9093     1.2489     4.0930     5.0010   228.9630   239.1690   240.5510   237.7870    56.5900
   705.70     2.6356     4.9207   326.7000     4.5733     1.2512     4.1780     5.0210   231.1030   236.5970   241.2270   231.9680    56.5400
   705.80     2.5740     4.8756   330.0000     4.5360     1.2217     4.2200     5.0010   230.4340   237.8830   242.5790   233.1880    56.4900
   705.90     2.5585     4.9434   330.0000     4.6294     1.2059     4.2840     5.0310   227.2690   234.6690   239.8750   229.4620    56.4400
   706.00     2.5163     4.9207   333.3000     4.5547     1.2013     4.2740     5.0210   230.1220   235.3120   239.8750   230.7480    56.3900
   706.10     2.4953     4.9321   333.3000     4.5733     1.2149     4.2950     4.9800   231.9050   241.0980   241.2270   240.9690    56.0840
   706.20     2.5216     4.7427   336.7000     4.7786     1.2127     4.2520     4.9500   229.6320   242.3840   243.9300   240.8370    55.7780
   706.30     2.5260     4.5397   340.0000     4.8720     1.1991     4.2740     4.9800   228.6510   244.9550   242.5790   247.3320    55.4720
   706.40     2.4671     4.5502   336.7000     4.8907     1.1401     4.2630     4.9910   231.6820   243.0270   243.2540   242.7990    55.1660
   706.50     2.4440     4.5607   333.3000     4.9094     1.1107     4.3480     5.1020   232.8410   240.4550   238.5240   242.3860    54.8600
   706.60     2.4558     4.7210   326.7000     5.1333     1.1061     4.4010     5.2140   227.3140   234.0260   237.1720   230.8800    54.7340
   706.70     2.5180     4.8087   326.7000     5.2640     1.1537     4.5180     5.3260   231.9940   233.3830   235.8200   230.9450    54.6080
   706.80     2.6455     4.7977   323.3000     5.2640     1.1696     4.5610     5.3460   233.7770   239.1690   240.5510   237.7870    54.4820
   706.90     2.6024     4.7537   326.7000     5.2453     1.1628     4.6030     5.3360   228.5620   229.5250   237.1720   221.8790    54.3560
   707.00     2.5678     4.6885   323.3000     5.4694     1.1923     4.6140     5.2950   224.8180   239.1690   241.2270   237.1110    54.2300
   707.10     2.5353     4.5189   326.7000     5.7307     1.2308     4.5820     5.2550   223.1240   243.6700   242.5790   244.7610    54.5100
   707.20     2.5305     4.4160   336.7000     5.6374     1.2557     4.4540     5.2140   220.2270   248.8130   246.6340   250.9920    54.7900
   707.30     2.5652     4.3155   346.7000     5.2639     1.2353     4.3690     5.1730   222.1430   249.4560   249.3370   249.5750    55.0700
   707.40     2.4676     4.2563   350.0000     5.0960     1.2127     4.2950     5.2240   224.3280   248.8130   250.6890   246.9370    55.3500
   707.50     2.5347     4.2563   340.0000     5.2828     1.1855     4.2420     5.3770   222.7670   246.8840   248.6610   245.1070    55.6300
   707.60     2.5218     4.4364   330.0000     5.6000     1.1560     4.2200     5.4480   222.9900   250.0990   244.6060   255.5920    55.8320
   707.70     2.5086     4.9094   323.3000     5.6933     1.1424     4.2630     5.4990   227.1800   237.8830   239.1990   236.5670    56.0340
   707.80     2.6834     5.1408   320.0000     5.4880     1.1809     4.3160     5.5700   228.0270   232.7400   240.5510   224.9290    56.2360
   707.90     2.6712     5.2970   316.7000     5.3201     1.2263     4.4330     5.6210   223.1690   233.3830   239.8750   226.8900    56.4380
   708.00     2.4917     5.5851   313.3000     5.0773     1.2172     4.5500     5.5900   228.2060   235.3120   239.8750   230.7480    56.6400
   708.10     2.5495     5.8888   306.7000     4.9840     1.1900     4.6350     5.5700   230.2560   233.3830   235.1440   231.6210    56.7920
   708.20     2.6015     6.2091   306.7000     4.8347     1.2036     4.7420     5.4890   227.0020   230.1680   232.4410   227.8950    56.9440
   708.30     2.6969     6.1098   306.7000     4.5733     1.2648     4.7840     5.3160   222.8120   227.5960   235.1440   220.0490    57.0960
