~Version information
  VERS.                            1.20: CWLS LAS  -  VERSION 1.20
  WRAP.                              NO: One line per depth step
~Well information
# MNEM.UNIT
# ====.================================:===================
  STRT.M                           1.60: First depth in file
  STOP.M                         917.00: Last depth in file
  STEP.M                           0.10: Depth increment
  NULL.                           -9999: Null values
  COMP.                         COMPANY: TOO "C.I.O.C."
  WELL.                            WELL: 302
  FLD .                           FIELD: KARATUBE
  DATE.                        LOG DATE: 22-23/01/2004
  SRVC.                 SERVICE COMPANY: AFGIS OJSC "Kazpromgeophysica"
  UWI.           Unique Well Identifier: 
~Parametr information block
# MNEM.UNIT
# ====.================================:===================
~Other information
# ------------------------- REMARKS  AREA ------------------
~Curve information
# MNEM.UNIT
# ====.================================:===================
  DEPT.M                               : Depth curve
RHOB.G/C3                              : Bulk density by DGGL
LL3 .OHMM                              : Appar.resistivity,laterolog,3electrodes
DTP .US/M                              : Interval travel time (P)
GR  .UR/H                              : Gamma Ray
NGLD.STDU                              : Neutron-gamma log
GZ3 .OHMM                              : App.resistivity by lateral A2M05N
GZ3B.OHMM                              : App.resistivity by lateral N05M2A
CILA.MMHO                              : IL sonde 7l1.6, active signal
CALI.MM                                : Caliper
PR1 .MM                                : 
PR2 .MM                                : 
SP  .MV                                : Spontaneous potential
~ASCII Log Data
# ...
   497.50     2.5658     6.1522   416.7000     7.8400     1.0268     5.9330     6.3320   204.8480   226.9540   218.9240   234.9830    49.2800
   497.60     2.6638     5.9024   416.7000     7.6347     0.9837     5.9860     6.4140   204.7150   226.3110   218.9240   233.6970    49.2280
   497.70     2.5708     6.1522   416.7000     7.7467     0.9815     6.0930     6.4340   199.5890   226.3110   219.6000   233.0210    49.1760
   497.80     2.4511     5.9845   410.0000     7.8026     1.0268     6.1250     6.4240   198.1180   226.3110   217.5720   235.0490    49.1240
   497.90     2.5337     6.1380   406.7000     7.9147     1.0585     6.1350     6.3530   199.0540   226.3110   218.9240   233.6970    49.0720
   498.00     2.5232     5.9433   406.7000     8.1013     1.0336     6.1990     6.3320   195.9330   223.0960   217.5720   228.6200    49.0200
   498.10     2.5266     6.0678   410.0000     8.3627     0.9769     6.1670     6.2510   196.6020   222.4530   219.6000   225.3060    48.7660
   498.20     2.4518     6.2091   410.0000     8.5493     0.9543     6.1780     6.2000   199.8560   221.8100   219.6000   224.0200    48.5120
   498.30     2.4607     6.0399   410.0000     8.6427     0.9792     6.1570     6.1490   198.2510   221.1670   216.8960   225.4380    48.2580
   498.40     2.4388     5.9160   406.7000     8.6240     1.0041     6.0820     6.1700   195.8000   218.5950   216.8960   220.2950    48.0040
   498.50     2.5151     5.7681   403.3000     8.4373     1.0223     6.0610     6.1290   198.6080   219.2380   216.2200   222.2560    47.7500
   498.60     2.5165     5.7152   400.0000     8.1573     1.0087     5.9550     6.0580   199.3660   221.1670   216.2200   226.1140    47.6480
   498.70     2.4724     5.8888   400.0000     7.8773     1.0155     5.8380     5.9360   197.0030   216.0240   215.5450   216.5030    47.5460
   498.80     2.4808     6.0678   396.7000     7.9333     1.0336     5.7740     5.8750   195.0860   216.6670   215.5450   217.7890    47.4440
   498.90     2.5116     6.1948   396.7000     7.9147     1.0653     5.7840     5.7430   200.3020   215.3810   214.1930   216.5690    47.3420
   499.00     2.5171     6.5017   393.3000     7.9147     1.0472     5.7310     5.6610   202.6640   217.9530   214.8690   221.0360    47.2400
   499.10     2.5396     6.4719   396.7000     7.7280     1.0268     5.7630     5.5700   197.9840   217.3100   213.5170   221.1020    47.4940
   499.20     2.6141     6.7148   396.7000     7.9707     1.0200     5.7420     5.4480   198.2960   216.0240   214.8690   217.1790    47.7480
   499.30     2.5107     6.3978   403.3000     8.2133     1.0291     5.8060     5.3770   198.6520   217.9530   214.8690   221.0360    48.0020
   499.40     2.4222     6.3391   406.7000     8.4373     1.0223     5.7630     5.2750   197.7610   217.9530   214.1930   221.7120    48.2560
   499.50     2.4842     6.2378   413.3000     8.5120     1.0064     5.8060     5.1730   198.8750   218.5950   214.8690   222.3220    48.5100
   499.60     2.5434     5.9433   420.0000     8.6240     1.0155     5.7520     5.0720   202.6200   217.9530   214.1930   221.7120    48.7140
   499.70     2.5270     5.6628   426.7000     9.0347     1.0109     5.7420     5.0410   203.1100   218.5950   214.1930   222.9980    48.9180
   499.80     2.4727     5.2727   433.3000     9.1653     0.9996     5.6670     5.0620   202.5750   217.9530   214.1930   221.7120    49.1220
   499.90     2.4892     5.2003   433.3000     9.2213     0.9701     5.6030     5.0110   207.9240   219.2380   212.8410   225.6360    49.3260
   500.00     2.5565     5.3707   433.3000     8.6427     0.9543     5.6140     4.9910   209.7070   216.0240   213.5170   218.5300    49.5300
   500.10     2.5401     5.5851   426.7000     8.0640     0.9316     5.5290     4.9400   206.0070   218.5950   214.8690   222.3220    49.8340
   500.20     2.4055     5.4204   420.0000     7.5973     0.9384     5.4970     4.9500   205.3830   219.8810   212.8410   226.9210    50.1380
   500.30     2.3691     5.2970   413.3000     7.7280     0.9837     5.4860     4.9700   209.8850   217.9530   214.1930   221.7120    50.4420
   500.40     2.4275     5.1764   413.3000     8.1013     1.0223     5.3270     5.0520   211.2230   217.3100   212.8410   221.7780    50.7460
   500.50     2.3719     5.1408   416.7000     8.3813     1.0109     5.3370     5.0720   208.5030   218.5950   213.5170   223.6740    51.0500
   500.60     2.4132     5.2364   423.3000     8.8480     0.9679     5.3590     5.1940   205.2500   218.5950   214.8690   222.3220    50.7460
   500.70     2.4738     5.2727   426.7000     8.6800     0.9656     5.4330     5.2750   205.5170   219.2380   214.8690   223.6080    50.4420
   500.80     2.5805     5.4580   430.0000     8.3441     0.9883     5.4760     5.3260   206.5420   213.4520   214.8690   212.0350    50.1380
   500.90     2.5480     5.4079   426.7000     7.9893     1.0359     5.5400     5.2550   207.3000   216.6670   214.8690   218.4650    49.8340
   501.00     2.5483     5.6109   423.3000     8.1760     1.0404     5.6670     5.2140   212.1590   217.3100   212.8410   221.7780    49.5300
   501.10     2.5069     5.5594   423.3000     8.1387     1.0155     5.6140     5.1230   212.5150   218.5950   214.1930   222.9980    49.2760
   501.20     2.5637     5.5980   423.3000     7.6906     0.9724     5.6350     5.0920   214.0310   219.8810   214.1930   225.5700    49.0220
   501.30     2.5297     5.5851   423.3000     7.2427     0.9520     5.6570     5.0410   223.1690   216.6670   213.5170   219.8160    48.7680
   501.40     2.4995     5.6498   416.7000     7.2613     0.9724     5.5720     5.0820   226.3780   217.3100   213.5170   221.1020    48.5140
   501.50     2.4317     5.5339   416.7000     7.2800     1.0291     5.5500     5.0310   225.3970   218.5950   213.5170   223.6740    48.2600
   501.60     2.5048     5.3955   416.7000     7.3547     1.1016     5.5180     5.0010   225.8880   217.9530   213.5170   222.3880    48.6420
   501.70     2.5422     5.4831   416.7000     7.4854     1.1107     5.4550     4.9500   230.7020   218.5950   213.5170   223.6740    49.0240
   501.80     2.4309     5.3092   413.3000     7.4107     1.0767     5.4120     4.8990   232.7520   218.5950   213.5170   223.6740    49.4060
   501.90     2.4086     5.3215   406.7000     7.1120     0.9905     5.3270     4.8790   225.4420   218.5950   214.1930   222.9980    49.7880
   502.00     2.5110     5.4831   403.3000     6.6080     0.9452     5.3480     4.8580   223.4360   220.5240   213.5170   227.5310    50.1700
   502.10     2.4333     5.6109   400.0000     6.5147     0.9180     5.2310     4.7770   220.2710   219.2380   215.5450   222.9320    49.9660
   502.20     2.4713     5.7020   403.3000     6.6827     0.9475     5.2420     4.6350   215.2790   221.1670   216.2200   226.1140    49.7620
   502.30     2.5405     6.0122   406.7000     7.1119     0.9633     5.1670     4.4720   216.4380   219.2380   215.5450   222.9320    49.5580
   502.40     2.5618     6.1948   406.7000     7.4107     0.9837     5.2100     4.3400   216.3490   218.5950   214.8690   222.3220    49.3540
   502.50     2.5354     6.2234   400.0000     7.4667     0.9905     5.1350     4.1870   214.4760   219.8810   212.8410   226.9210    49.1500
   502.60     2.5696     6.3100   393.3000     7.5227     1.0336     5.1030     4.0040   213.4510   217.9530   212.8410   223.0640    49.3020
   502.70     2.6183     6.1806   386.7000     7.6907     1.0585     5.1780     3.8620   217.8640   219.2380   214.8690   223.6080    49.4540
   502.80     2.5167     6.3537   383.3000     7.7467     1.0721     5.2100     3.7400   219.8250   219.2380   213.5170   224.9600    49.6060
   502.90     2.5299     6.2522   383.3000     7.7653     1.0653     5.2950     3.5270   216.7940   217.9530   213.5170   222.3880    49.7580
   503.00     2.5374     5.9024   396.7000     7.6720     1.0381     5.3590     3.3950   223.2130   218.5950   213.5170   223.6740    49.9100
   503.10     2.5106     5.0703   416.7000     7.6347     1.0132     5.3800     3.2620   227.2690   219.2380   212.8410   225.6360    50.0120
