~Version information
  VERS.                            1.20: CWLS LAS  -  VERSION 1.20
  WRAP.                              NO: One line per depth step
~Well information
# MNEM.UNIT
# ====.================================:===================
  STRT.M                           1.60: First depth in file
  STOP.M                         917.00: Last depth in file
  STEP.M                           0.10: Depth increment
  NULL.                           -9999: Null values
  COMP.                         COMPANY: TOO "C.I.O.C."
  WELL.                            WELL: 302
  FLD .                           FIELD: KARATUBE
  DATE.                        LOG DATE: 22-23/01/2004
  SRVC.                 SERVICE COMPANY: AFGIS OJSC "Kazpromgeophysica"
  UWI.           Unique Well Identifier: 
~Parametr information block
# MNEM.UNIT
# ====.================================:===================
~Other information
# ------------------------- REMARKS  AREA ------------------
~Curve information
# MNEM.UNIT
# ====.================================:===================
  DEPT.M                               : Depth curve
RHOB.G/C3                              : Bulk density by DGGL
LL3 .OHMM                              : Appar.resistivity,laterolog,3electrodes
DTP .US/M                              : Interval travel time (P)
GR  .UR/H                              : Gamma Ray
NGLD.STDU                              : Neutron-gamma log
GZ3 .OHMM                              : App.resistivity by lateral A2M05N
GZ3B.OHMM                              : App.resistivity by lateral N05M2A
CILA.MMHO                              : IL sonde 7l1.6, active signal
CALI.MM                                : Caliper
PR1 .MM                                : 
PR2 .MM                                : 
SP  .MV                                : Spontaneous potential
~ASCII Log Data
# ...
   446.20     2.2384     4.6348   436.7000     7.4480     0.8341     4.3370     4.1670   235.2040   230.1680   220.9510   239.3850    53.2620
   446.30     2.1634     4.2465   446.7000     7.8400     0.8953     4.3060     4.0250   237.1650   229.5250   218.2480   240.8020    53.2880
   446.40     2.0737     3.9722   466.7000     8.1200     0.9475     4.1460     3.8420   237.3430   225.0250   218.9240   231.1260    53.3140
   446.50     2.2417     3.6815   473.3000     8.2693     0.9407     3.9970     3.7910   234.3120   223.7390   216.2200   231.2570    53.3400
   446.60     2.3298     3.5158   480.0000     8.1200     0.9067     3.7950     3.7710   237.9230   223.0960   214.8690   231.3230    53.5440
   446.70     2.3300     3.4997   483.3000     8.5307     0.9135     3.6460     3.9130   240.1520   221.8100   214.1930   229.4270    53.7480
   446.80     2.3769     3.5078   493.3000     8.8479     0.9452     3.5930     4.0650   241.2210   222.4530   218.2480   226.6580    53.9520
   446.90     2.3321     3.6394   510.0000     9.2960     0.9724     3.5710     4.2590   236.0060   223.7390   216.8960   230.5810    54.1560
   447.00     2.3610     3.6985   523.3000     9.5013     0.9633     3.6250     4.4210   234.6690   225.6680   216.2200   235.1150    54.3600
   447.10     2.3510     3.7071   530.0000     9.7440     0.9747     3.7100     4.5430   238.0570   224.3820   218.9240   229.8400    53.9520
   447.20     2.3802     3.6310   526.7000    10.0053     0.9520     3.7200     4.6350   236.8530   221.8100   219.6000   224.0200    53.5440
   447.30     2.2993     3.6310   523.3000    10.2853     0.9452     3.6570     4.6860   230.3900   227.5960   225.0060   230.1860    53.1360
   447.40     2.2341     3.8997   510.0000    10.6213     0.8931     3.6990     4.7060   225.7090   233.3830   227.7100   239.0560    52.7280
   447.50     2.1737     4.1882   490.0000    10.6960     0.8795     3.6570     4.7160   226.6450   233.3830   226.3580   240.4070    52.3200
   447.60     2.0487     4.6348   466.7000    10.3040     0.8795     3.6880     4.6860   229.2750   228.2390   222.9790   233.5000    51.9140
   447.70     2.0122     5.2484   446.7000     9.6319     0.9407     3.6780     4.5640   231.7710   225.0250   222.3030   227.7460    51.5080
   447.80     1.9493     5.2727   433.3000     9.0721     1.0041     3.7100     4.4010   236.9420   225.6680   220.2760   231.0600    51.1020
   447.90     2.0654     5.0586   426.7000     8.9040     1.0132     3.6460     4.2790   244.3860   222.4530   218.9240   225.9820    50.6960
   448.00     2.4362     4.7756   430.0000     9.0160     0.9996     3.6780     4.0760   248.4420   225.0250   222.3030   227.7460    50.2900
   448.10     2.5494     4.5502   433.3000     9.2960     1.0087     3.6250     3.9230   248.3530   225.6680   220.9510   230.3840    50.3660
   448.20     2.4097     4.6241   433.3000     9.4267     1.0495     3.4860     3.7600   249.7800   226.3110   218.2480   234.3730    50.4420
   448.30     2.3702     4.6669   430.0000     9.5387     1.0631     3.5290     3.6490   253.2120   228.2390   218.9240   237.5550    50.5180
   448.40     2.4035     4.5607   433.3000     9.3520     1.0631     3.5710     3.6280   252.2760   226.9540   219.6000   234.3070    50.5940
   448.50     2.3752     4.5293   440.0000     9.2773     1.0517     3.5290     3.6180   244.6090   225.0250   218.9240   231.1260    50.6700
   448.60     2.4008     4.3957   443.3000     9.2960     1.0381     3.5290     3.6180   244.2970   225.0250   219.6000   230.4500    50.6960
   448.70     2.3694     4.3454   443.3000     9.6134     1.0404     3.5710     3.6490   245.5450   225.0250   220.2760   229.7740    50.7220
   448.80     2.3857     4.3254   440.0000     9.6693     1.0381     3.5930     3.6180   241.7120   221.8100   218.9240   224.6960    50.7480
   448.90     2.4046     4.2661   436.7000     9.6880     1.0381     3.5290     3.6180   232.5290   225.0250   218.9240   231.1260    50.7740
   449.00     2.4476     4.4466   433.3000     9.5947     1.0381     3.5290     3.6180   228.7850   225.0250   220.9510   229.0980    50.8000
   449.10     2.5027     4.3254   426.7000     9.6133     1.0087     3.6250     3.6590   226.6010   227.5960   218.2480   236.9450    50.8760
   449.20     2.5240     4.5085   426.7000     9.7254     0.9973     3.6460     3.6280   224.2380   226.3110   219.6000   233.0210    50.9520
   449.30     2.5302     4.4364   416.7000     9.6693     0.9973     3.7100     3.6180   224.2380   228.8820   219.6000   238.1650    51.0280
   449.40     2.5793     4.2465   406.7000     9.5947     1.0313     3.7840     3.6790   228.7850   226.9540   221.6270   232.2800    51.1040
   449.50     2.4967     4.1690   403.3000     9.6693     1.0472     3.8370     3.6990   230.6130   228.2390   221.6270   234.8510    51.1800
   449.60     2.4348     4.0460   423.3000     9.8187     1.0608     3.8690     3.7200   228.2500   228.8820   222.3030   235.4610    51.2560
   449.70     2.4901     4.0182   450.0000     9.8186     1.0336     3.9540     3.8620   233.4210   227.5960   221.6270   233.5660    51.3320
   449.80     2.5125     3.9177   470.0000     9.5947     0.9792     3.9860     3.9740   233.5990   226.3110   220.9510   231.6700    51.4080
   449.90     2.4498     3.8997   476.7000     9.7067     0.8953     4.0610     4.2080   232.4850   226.3110   221.6270   230.9940    51.4840
   450.00     2.3436     4.1213   476.7000     9.8373     0.8455     4.1990     4.4010   233.3760   226.3110   220.2760   232.3460    51.5600
   450.10     2.1347     4.8981   466.7000     9.6507     0.8024     4.4230     4.4520   240.0620   228.8820   218.9240   238.8410    51.3060
   450.20     1.7475     5.6109   453.3000     8.7545     0.7593     4.4860     4.4820   243.5390   229.5250   220.2760   238.7750    51.0520
   450.30     1.5737     5.5722   446.7000     7.2988     0.7843     4.5930     4.4210   239.7500   230.1680   218.9240   241.4120    50.7980
   450.40     1.5992     4.8309   450.0000     5.7680     0.8183     4.5180     4.2890   235.7830   228.2390   220.9510   235.5270    50.5440
   450.50     1.7425     4.1594   463.3000     4.7787     0.8545     4.3690     4.2180   236.0950   229.5250   218.9240   240.1270    50.2900
   450.60     1.9992     3.8462   480.0000     4.7413     0.8591     4.1780     4.1060   235.6490   227.5960   220.2760   234.9170    50.6200
   450.70     2.1670     3.8462   500.0000     5.4881     0.8659     4.0710     4.0150   233.1530   228.8820   218.9240   238.8410    50.9500
   450.80     2.0876     3.7673   513.3000     6.6452     0.8840     3.9330     4.0040   237.0310   221.8100   213.5170   230.1030    51.2800
   450.90     2.1130     3.5730   520.0000     7.6720     0.9067     3.7310     4.0450   239.8840   219.8810   212.1650   227.5970    51.6100
   451.00     2.2887     3.4916   520.0000     8.4933     0.9361     3.7200     4.0550   239.9290   218.5950   212.8410   224.3500    51.9400
   451.10     2.4583     3.4043   513.3000     9.0347     0.9475     3.6670     4.1570   237.2100   220.5240   212.8410   228.2070    52.1940
   451.20     2.4017     3.2065   503.3000     9.8188     0.9497     3.6670     4.2280   237.4770   221.1670   213.5170   228.8170    52.4480
   451.30     2.2766     3.1191   490.0000    10.1173     0.9611     3.6030     4.1980   234.2230   221.1670   215.5450   226.7900    52.7020
   451.40     2.2563     3.3268   476.7000    10.3787     0.9747     3.4860     4.1060   229.7210   225.6680   217.5720   233.7630    52.9560
   451.50     2.2951     3.7934   460.0000    10.0240     0.9883     3.4220     4.0150   224.1940   228.2390   218.2480   238.2310    53.2100
   451.60     2.4085     4.1498   443.3000     9.8560     1.0200     3.2310     3.9030   225.8430   234.6690   221.6270   247.7100    53.1100
   451.70     2.4440     4.3155   433.3000     9.6133     1.0517     3.1250     3.7710   227.6260   229.5250   222.9790   236.0710    53.0100
   451.80     2.4373     4.4878   433.3000     9.7066     1.1084     3.0080     3.6490   230.8800   223.7390   219.6000   227.8780    52.9100
