~Version information
  VERS.                            1.20: CWLS LAS  -  VERSION 1.20
  WRAP.                              NO: One line per depth step
~Well information
# MNEM.UNIT
# ====.================================:===================
  STRT.M                           1.60: First depth in file
  STOP.M                         917.00: Last depth in file
  STEP.M                           0.10: Depth increment
  NULL.                           -9999: Null values
  COMP.                         COMPANY: TOO "C.I.O.C."
  WELL.                            WELL: 302
  FLD .                           FIELD: KARATUBE
  DATE.                        LOG DATE: 22-23/01/2004
  SRVC.                 SERVICE COMPANY: AFGIS OJSC "Kazpromgeophysica"
  UWI.           Unique Well Identifier: 
~Parametr information block
# MNEM.UNIT
# ====.================================:===================
~Other information
# ------------------------- REMARKS  AREA ------------------
~Curve information
# MNEM.UNIT
# ====.================================:===================
  DEPT.M                               : Depth curve
RHOB.G/C3                              : Bulk density by DGGL
LL3 .OHMM                              : Appar.resistivity,laterolog,3electrodes
DTP .US/M                              : Interval travel time (P)
GR  .UR/H                              : Gamma Ray
NGLD.STDU                              : Neutron-gamma log
GZ3 .OHMM                              : App.resistivity by lateral A2M05N
GZ3B.OHMM                              : App.resistivity by lateral N05M2A
CILA.MMHO                              : IL sonde 7l1.6, active signal
CALI.MM                                : Caliper
PR1 .MM                                : 
PR2 .MM                                : 
SP  .MV                                : Spontaneous potential
~ASCII Log Data
# ...
   600.10     2.2563     1.8665   440.0000     6.0293     1.1243     1.1140     1.1780   258.4720   216.0240   215.5450   216.5030    53.6460
   600.20     2.2235     1.8324   440.0000     6.5706     1.1265     1.0610     1.1780   264.4450   216.0240   216.8960   215.1510    53.4420
   600.30     2.2761     1.8409   440.0000     6.6080     1.1741     1.1240     1.1890   271.4430   212.8090   217.5720   208.0460    53.2380
   600.40     2.2216     1.8240   443.3000     6.5707     1.1877     1.0710     1.2290   267.6540   216.6670   216.2200   217.1130    53.0340
   600.50     2.2584     1.7866   446.7000     6.2346     1.1809     1.0500     1.2500   261.5030   217.9530   216.8960   219.0090    52.8300
   600.60     2.2673     1.8282   446.7000     5.7867     1.1923     1.1240     1.2500   262.7960   216.6670   216.8960   216.4370    52.8820
   600.70     2.2794     1.9144   443.3000     5.6000     1.2104     1.1350     1.2190   259.0510   216.6670   217.5720   215.7610    52.9340
   600.80     2.2775     2.0419   440.0000     5.8988     1.2195     1.1030     1.2700   259.6750   219.2380   216.8960   221.5800    52.9860
   600.90     2.2860     2.0846   443.3000     6.5146     1.1696     1.1670     1.2700   258.2040   217.3100   216.8960   217.7230    53.0380
   601.00     2.2335     2.1136   446.7000     6.9441     1.1129     1.1240     1.2190   259.0960   216.0240   216.2200   215.8270    53.0900
   601.10     2.2985     2.0139   446.7000     7.1867     1.1061     1.0930     1.1990   264.9800   217.3100   216.2200   218.3990    53.4700
   601.20     2.3244     1.8579   446.7000     7.2800     1.1537     1.1350     1.1680   267.0300   219.2380   215.5450   222.9320    53.8500
   601.30     2.2930     1.7621   443.3000     7.0559     1.1787     1.0710     1.1480   262.5280   218.5950   214.8690   222.3220    54.2300
   601.40     2.2972     1.6867   440.0000     6.8694     1.1628     1.0610     1.1170   270.9530   218.5950   216.2200   220.9700    54.6100
   601.50     2.3134     1.6294   433.3000     6.3092     1.1469     1.0820     1.1170   272.1120   216.6670   214.8690   218.4650    54.9900
   601.60     2.2594     1.6867   430.0000     5.8987     1.1832     0.9970     1.1680   267.3870   217.9530   214.1930   221.7120    55.1420
   601.70     2.2649     1.7907   430.0000     5.5440     1.1945     1.0390     1.1780   267.0300   216.0240   216.8960   215.1510    55.2940
   601.80     2.3280     1.8156   433.3000     5.8241     1.1855     1.0500     1.1580   263.1080   218.5950   215.5450   221.6460    55.4460
   601.90     2.3753     1.7379   436.7000     6.2719     1.1424     1.0180     1.2190   261.5920   218.5950   215.5450   221.6460    55.5980
   602.00     2.2790     1.7580   440.0000     6.5333     1.1107     1.0290     1.2190   264.4000   221.1670   216.2200   226.1140    55.7500
   602.10     2.2597     1.8579   436.7000     6.3840     1.0676     1.0180     1.2390   266.0050   218.5950   217.5720   219.6190    55.7000
   602.20     2.2405     2.0139   436.7000     6.3093     1.0744     0.9860     1.2500   271.5770   219.2380   216.2200   222.2560    55.6500
   602.30     2.2929     2.1088   436.7000     6.1413     1.1310     1.0610     1.2700   274.4740   217.9530   216.8960   219.0090    55.6000
   602.40     2.3310     2.1381   440.0000     6.1787     1.1991     1.1140     1.3000   271.8440   217.9530   216.2200   219.6850    55.5500
   602.50     2.3106     2.1381   436.7000     6.2347     1.2263     1.0390     1.2800   283.3890   217.9530   217.5720   218.3330    55.5000
   602.60     2.2971     2.2337   433.3000     6.4027     1.2104     1.0390     1.3000   287.8020   218.5950   214.1930   222.9980    55.1940
   602.70     2.3021     2.4045   430.0000     6.6266     1.1515     1.0930     1.3210   285.4840   219.2380   216.2200   222.2560    54.8880
   602.80     2.2625     2.5179   430.0000     6.7574     1.1583     1.1240     1.2700   285.2170   219.2380   214.8690   223.6080    54.5820
   602.90     2.2957     2.6426   433.3000     6.7947     1.1628     1.1240     1.2800   285.4840   220.5240   216.8960   224.1520    54.2760
   603.00     2.2383     2.5944   433.3000     6.7946     1.1470     1.1560     1.2500   282.4980   219.8810   215.5450   224.2180    53.9700
   603.10     2.2487     2.5237   433.3000     6.7013     1.1107     1.1780     1.2090   278.7090   221.8100   215.5450   228.0760    53.8940
   603.20     2.3165     2.3825   430.0000     6.8133     1.1288     1.1240     1.1990   272.4680   221.8100   216.2200   227.4000    53.8180
   603.30     2.3818     2.2235   430.0000     6.8694     1.1605     1.1240     1.1890   274.8750   217.3100   214.1930   220.4260    53.7420
   603.40     2.3117     2.1283   430.0000     6.7947     1.1696     1.1350     1.1680   277.1490   221.8100   214.1930   229.4270    53.6660
   603.50     2.3733     2.0846   430.0000     6.5893     1.1605     1.0710     1.1280   272.0220   222.4530   216.8960   228.0100    53.5900
   603.60     2.3044     1.9817   430.0000     6.6080     1.1787     1.0390     1.1480   277.5500   221.1670   216.2200   226.1140    53.7180
   603.70     2.2781     1.8579   433.3000     6.6080     1.1855     1.0290     1.1170   275.4550   220.5240   216.2200   224.8280    53.8460
   603.80     2.2979     1.7907   436.7000     6.5519     1.1537     0.9970     1.0970   266.2720   222.4530   216.2200   228.6860    53.9740
   603.90     2.2936     1.7702   440.0000     6.1041     1.1197     0.9760     1.1170   261.0570   221.1670   216.2200   226.1140    54.1020
   604.00     2.2930     1.7621   440.0000     5.9547     1.0903     0.9760     1.1280   260.2100   220.5240   215.5450   225.5040    54.2300
   604.10     2.3398     1.7379   436.7000     6.1227     1.1016     0.9330     1.1480   253.4350   218.5950   214.8690   222.3220    54.4080
   604.20     2.3496     1.8031   436.7000     6.4213     1.1469     0.9540     1.1780   254.1930   218.5950   214.8690   222.3220    54.5860
   604.30     2.3135     1.8240   436.7000     6.7014     1.1492     0.9970     1.1990   250.2250   218.5950   214.8690   222.3220    54.7640
   604.40     2.2274     1.8156   440.0000     6.5894     1.1288     0.9760     1.1990   254.7720   221.8100   214.8690   228.7510    54.9420
   604.50     2.2616     1.8156   440.0000     6.4773     1.1175     0.9860     1.2090   259.1400   219.8810   215.5450   224.2180    55.1200
   604.60     2.2923     1.8794   440.0000     6.3467     1.1469     1.0610     1.2190   257.8480   217.9530   214.1930   221.7120    55.1200
   604.70     2.2920     1.8968   436.7000     6.5519     1.2013     1.0180     1.1890   263.0630   216.0240   213.5170   218.5300    55.1200
   604.80     2.3306     1.8838   436.7000     6.6267     1.2172     1.0820     1.1780   272.8690   216.6670   214.1930   219.1400    55.1200
   604.90     2.3487     1.8282   433.3000     6.5521     1.2081     1.0710     1.2090   269.3480   216.6670   215.5450   217.7890    55.1200
   605.00     2.3590     1.7419   433.3000     6.2720     1.1764     1.0390     1.1890   265.3810   217.9530   216.2200   219.6850    55.1200
   605.10     2.3070     1.6559   433.3000     6.1227     1.1696     1.0820     1.1380   266.9410   217.9530   214.8690   221.0360    55.0940
   605.20     2.2624     1.6034   433.3000     5.7308     1.2127     1.0290     1.1070   263.2860   216.6670   214.8690   218.4650    55.0680
   605.30     2.3338     1.5633   433.3000     5.4506     1.2671     1.0180     1.0970   260.8790   217.3100   214.8690   219.7500    55.0420
   605.40     2.2868     1.5347   430.0000     5.4879     1.2603     1.0290     1.1170   254.9950   216.6670   216.2200   217.1130    55.0160
   605.50     2.2303     1.5277   430.0000     5.9735     1.2036     0.9760     1.0970   254.5050   213.4520   215.5450   211.3590    54.9900
   605.60     2.2268     1.5489   433.3000     6.4027     1.1719     0.9860     1.0970   257.0010   216.0240   215.5450   216.5030    54.7620
   605.70     2.2690     1.5561   436.7000     6.4214     1.1787     0.9860     1.0770   255.5300   216.0240   215.5450   216.5030    54.5340
