~Version information
  VERS.                            1.20: CWLS LAS  -  VERSION 1.20
  WRAP.                              NO: One line per depth step
~Well information
# MNEM.UNIT
# ====.================================:===================
  STRT.M                           1.60: First depth in file
  STOP.M                         917.00: Last depth in file
  STEP.M                           0.10: Depth increment
  NULL.                           -9999: Null values
  COMP.                         COMPANY: TOO "C.I.O.C."
  WELL.                            WELL: 302
  FLD .                           FIELD: KARATUBE
  DATE.                        LOG DATE: 22-23/01/2004
  SRVC.                 SERVICE COMPANY: AFGIS OJSC "Kazpromgeophysica"
  UWI.           Unique Well Identifier: 
~Parametr information block
# MNEM.UNIT
# ====.================================:===================
~Other information
# ------------------------- REMARKS  AREA ------------------
~Curve information
# MNEM.UNIT
# ====.================================:===================
  DEPT.M                               : Depth curve
RHOB.G/C3                              : Bulk density by DGGL
LL3 .OHMM                              : Appar.resistivity,laterolog,3electrodes
DTP .US/M                              : Interval travel time (P)
GR  .UR/H                              : Gamma Ray
NGLD.STDU                              : Neutron-gamma log
GZ3 .OHMM                              : App.resistivity by lateral A2M05N
GZ3B.OHMM                              : App.resistivity by lateral N05M2A
CILA.MMHO                              : IL sonde 7l1.6, active signal
CALI.MM                                : Caliper
PR1 .MM                                : 
PR2 .MM                                : 
SP  .MV                                : Spontaneous potential
~ASCII Log Data
# ...
   862.30     2.7431     4.5085   266.7000     5.8054     1.4779     8.3060     4.8690   188.2670   226.3110   218.9240   233.6970    45.7700
   862.40     2.7523     4.5923   266.7000     5.9920     1.4801     7.9120     5.0110   200.7030   226.9540   220.9510   232.9560    45.8700
   862.50     2.6378     4.6993   270.0000     5.9546     1.4529     7.5930     5.0520   218.8450   226.9540   218.9240   234.9830    45.9700
   862.60     2.6940     4.8421   280.0000     5.7493     1.4575     7.2520     5.1230   229.7210   226.3110   220.2760   232.3460    46.1240
   862.70     2.6368     4.7210   293.3000     5.8613     1.4779     6.8480     5.2140   238.8140   225.6680   217.5720   233.7630    46.2780
   862.80     2.6420     4.2661   300.0000     6.2161     1.4915     6.4650     5.3560   245.1440   226.3110   220.2760   232.3460    46.4320
   862.90     2.6499     4.1403   296.7000     6.4960     1.4847     6.0720     5.5390   246.2140   221.8100   219.6000   224.0200    46.5860
   863.00     2.6511     4.2270   283.3000     6.5333     1.4507     5.6990     5.7630   244.3860   223.0960   216.8960   229.2960    46.7400
   863.10     2.6815     4.4569   273.3000     6.4027     1.4575     5.3910     5.9050   248.8440   223.0960   216.2200   229.9710    46.9180
   863.20     2.5847     4.9777   270.0000     6.1601     1.4892     5.1670     6.0880   245.5450   225.0250   216.8960   233.1530    47.0960
   863.30     2.6417     5.2605   266.7000     6.0480     1.5232     4.9970     6.2710   238.5470   223.7390   218.2480   229.2300    47.2740
   863.40     2.7263     5.1645   266.7000     5.9546     1.4892     4.7200     6.4040   235.8280   224.3820   218.9240   229.8400    47.4520
   863.50     2.6886     5.2003   260.0000     5.8799     1.4461     4.5930     6.5760   231.9500   224.3820   217.5720   231.1910    47.6300
   863.60     2.6209     5.1172   260.0000     5.8053     1.5006     4.4650     6.7090   232.4400   226.3110   218.2480   234.3730    47.6040
   863.70     2.6709     5.2605   263.3000     5.5627     1.5844     4.4120     6.7900   233.4650   223.7390   218.2480   229.2300    47.5780
   863.80     2.7013     5.3337   273.3000     5.4693     1.6161     4.3060     6.9020   231.5930   224.3820   215.5450   233.2190    47.5520
   863.90     2.6146     5.0703   283.3000     5.2454     1.5368     4.1780     6.9930   231.5930   226.3110   216.8960   235.7250    47.5260
   864.00     2.5973     4.7756   283.3000     5.1520     1.4461     4.0400     7.0850   235.4270   222.4530   222.3030   222.6030    47.5000
   864.10     2.6792     4.3454   276.7000     5.3387     1.3781     3.9860     7.3690   232.6180   222.4530   219.6000   225.3060    47.1440
   864.20     2.6963     4.1786   260.0000     5.4320     1.3804     3.8910     7.7050   231.3700   222.4530   220.9510   223.9550    46.7880
   864.30     2.6310     4.3254   246.7000     5.6560     1.4280     3.8050     8.1220   236.6300   225.6680   220.9510   230.3840    46.4320
   864.40     2.5444     4.9207   226.7000     5.8613     1.4824     3.9010     8.4570   232.7970   222.4530   218.2480   226.6580    46.0760
   864.50     2.6727     6.4570   220.0000     5.9360     1.5708     4.0080     8.6700   224.1490   226.3110   220.2760   232.3460    45.7200
   864.60     2.7021     8.2800   216.7000     5.6373     1.6434     4.1570     8.6910   215.8140   225.0250   219.6000   230.4500    45.4160
   864.70     2.6689     8.5120   226.7000     4.9841     1.7227     4.2740     8.5890   208.5930   224.3820   218.9240   229.8400    45.1120
   864.80     2.6992     7.4822   226.7000     4.5546     1.6796     4.4760     8.3150   204.6700   224.3820   218.2480   230.5160    44.8080
   864.90     2.7165     6.8554   226.7000     4.1627     1.6479     4.5180     8.0500   203.8230   225.6680   218.2480   233.0870    44.5040
   865.00     2.6466     6.5770   233.3000     3.9946     1.6343     4.5400     7.8980   198.8310   223.0960   217.5720   228.6200    44.2000
   865.10     2.6876     6.5318   243.3000     3.9573     1.6932     4.5710     7.7350   199.9450   222.4530   217.5720   227.3340    44.3000
   865.20     2.7074     6.3100   253.3000     4.0880     1.6955     4.6250     7.7960   201.5940   225.0250   218.2480   231.8010    44.4000
   865.30     2.6958     5.9845   256.7000     4.1066     1.6411     4.6990     7.9180   199.0540   226.3110   220.2760   232.3460    44.5000
   865.40     2.7225     5.8214   256.7000     3.9387     1.5527     4.7630     8.0710   199.4990   226.3110   218.2480   234.3730    44.6000
   865.50     2.6812     6.0122   246.7000     3.7520     1.5141     4.8690     8.2130   198.2070   227.5960   216.8960   238.2970    44.7000
   865.60     2.6577     6.2091   233.3000     3.7520     1.5391     4.9970     8.3250   190.3170   227.5960   217.5720   237.6210    44.7000
   865.70     2.5663     6.9989   220.0000     3.8080     1.5799     5.1350     8.3650   179.8420   226.9540   216.8960   237.0110    44.7000
   865.80     2.5875     7.6389   216.7000     3.8453     1.6116     5.2310     8.3650   174.1810   226.3110   220.2760   232.3460    44.7000
   865.90     2.6387     8.0173   216.7000     3.7147     1.6547     5.3590     8.3250   165.8450   225.6680   220.9510   230.3840    44.7000
   866.00     2.8003     8.7504   223.3000     3.4346     1.6524     5.5820     8.2640   159.2480   225.0250   215.5450   234.5050    44.7000
   866.10     2.8463     9.2903   223.3000     3.4160     1.6592     5.7840     8.2230   159.1590   226.9540   218.2480   235.6590    44.4980
   866.20     2.7400     9.0371   220.0000     3.5279     1.6592     5.9650     8.0200   155.7720   226.3110   218.9240   233.6970    44.2960
   866.30     2.6763     9.1418   206.7000     3.6587     1.6705     6.0930     7.8670   157.5550   223.0960   222.3030   223.8890    44.0940
   866.40     2.6885     9.0580   200.0000     3.6214     1.6479     6.2840     7.6340   161.4330   227.5960   220.2760   234.9170    43.8920
   866.50     2.7864     8.5316   196.7000     3.4907     1.6116     6.3480     7.3790   161.3880   226.9540   220.2760   233.6310    43.6900
   866.60     2.8262     8.1476   200.0000     3.5093     1.6139     6.4650     7.2070   161.3880   232.7400   221.6270   243.8520    44.0200
   866.70     2.9179     8.1664   216.7000     3.5280     1.6615     6.6990     7.0340   166.2910   232.7400   224.3310   241.1490    44.3500
   866.80     2.8691     7.7988   223.3000     3.8081     1.6796     6.9550     6.9420   164.5970   228.8820   220.9510   236.8130    44.6800
   866.90     2.7629     7.4650   226.7000     4.1066     1.6274     7.2100     6.8100   155.9050   224.3820   218.2480   230.5160    45.0100
   867.00     2.8489     6.8554   220.0000     4.5361     1.5640     7.3910     6.7090   155.3700   225.6680   222.9790   228.3560    45.3400
   867.10     2.9425     6.1948   230.0000     4.4613     1.5345     7.4440     6.6070   150.2000   225.6680   222.3030   229.0320    46.3300
   867.20     2.8911     5.7681   243.3000     4.6107     1.5391     7.3590     6.5360   152.2950   229.5250   222.9790   236.0710    47.3200
   867.30     2.7402     5.4705   253.3000     4.9282     1.5436     7.1890     6.5760   154.4790   224.3820   220.2760   228.4880    48.3100
   867.40     2.6694     5.5339   256.7000     5.4133     1.5119     7.0180     6.6070   154.7020   223.0960   218.2480   227.9440    49.3000
   867.50     2.7140     5.5466   256.7000     5.4693     1.4847     6.8910     6.6370   157.5990   223.0960   216.8960   229.2960    50.2900
   867.60     2.5840     5.5851   300.0000     5.2453     1.4643     6.7420     6.6980   161.0310   220.5240   216.8960   224.1520    51.0260
   867.70     2.5590     5.2848   293.3000     5.3386     1.4937     6.6350     6.7590   160.8980   221.1670   216.8960   225.4380    51.7620
   867.80     2.5752     5.2364   290.0000     5.5814     1.5436     6.6250     6.8510   162.4580   224.3820   217.5720   231.1910    52.4980
   867.90     2.6947     5.5339   240.0000     5.7680     1.5617     6.6350     6.9220   169.2780   225.0250   219.6000   230.4500    53.2340
