~Version information
  VERS.                            1.20: CWLS LAS  -  VERSION 1.20
  WRAP.                              NO: One line per depth step
~Well information
# MNEM.UNIT
# ====.================================:===================
  STRT.M                           1.60: First depth in file
  STOP.M                         917.00: Last depth in file
  STEP.M                           0.10: Depth increment
  NULL.                           -9999: Null values
  COMP.                         COMPANY: TOO "C.I.O.C."
  WELL.                            WELL: 302
  FLD .                           FIELD: KARATUBE
  DATE.                        LOG DATE: 22-23/01/2004
  SRVC.                 SERVICE COMPANY: AFGIS OJSC "Kazpromgeophysica"
  UWI.           Unique Well Identifier: 
~Parametr information block
# MNEM.UNIT
# ====.================================:===================
~Other information
# ------------------------- REMARKS  AREA ------------------
~Curve information
# MNEM.UNIT
# ====.================================:===================
  DEPT.M                               : Depth curve
RHOB.G/C3                              : Bulk density by DGGL
LL3 .OHMM                              : Appar.resistivity,laterolog,3electrodes
DTP .US/M                              : Interval travel time (P)
GR  .UR/H                              : Gamma Ray
NGLD.STDU                              : Neutron-gamma log
GZ3 .OHMM                              : App.resistivity by lateral A2M05N
GZ3B.OHMM                              : App.resistivity by lateral N05M2A
CILA.MMHO                              : IL sonde 7l1.6, active signal
CALI.MM                                : Caliper
PR1 .MM                                : 
PR2 .MM                                : 
SP  .MV                                : Spontaneous potential
~ASCII Log Data
# ...
   132.70      -9999      -9999      -9999     3.0613     0.8477      -9999      -9999      -9999   232.0970   228.3860   235.8080    33.8580
   132.80      -9999      -9999      -9999     2.8933     0.7979      -9999      -9999      -9999   229.5250   227.0340   232.0160    33.4520
   132.90      -9999      -9999      -9999     3.0426     0.7775      -9999      -9999      -9999   232.0970   227.7100   236.4840    33.0460
   133.00      -9999      -9999      -9999     3.3227     0.7865      -9999      -9999      -9999   230.8110   226.3580   235.2640    32.6400
   133.10      -9999      -9999      -9999     3.6213     0.7933      -9999      -9999      -9999   227.5960   227.7100   227.4830    32.7420
   133.20      -9999      -9999      -9999     3.7707     0.7797      -9999      -9999      -9999   228.2390   228.3860   228.0930    32.8440
   133.30      -9999      -9999      -9999     3.8267     0.7661      -9999      -9999      -9999   228.2390   228.3860   228.0930    32.9460
   133.40      -9999      -9999      -9999     3.7147     0.7684      -9999      -9999      -9999   230.8110   229.0620   232.5610    33.0480
   133.50      -9999      -9999      -9999     3.5840     0.8047      -9999      -9999      -9999   229.5250   227.0340   232.0160    33.1500
   133.60      -9999      -9999      -9999     3.5467     0.8364      -9999      -9999      -9999   230.1680   229.0620   231.2750    33.1500
   133.70      -9999      -9999      -9999     3.6213     0.8341      -9999      -9999      -9999   230.1680   227.7100   232.6260    33.1500
   133.80      -9999      -9999      -9999     3.6587     0.8500      -9999      -9999      -9999   228.8820   228.3860   229.3790    33.1500
   133.90      -9999      -9999      -9999     3.8080     0.8251      -9999      -9999      -9999   230.8110   229.0620   232.5610    33.1500
   134.00      -9999      -9999      -9999     3.9760     0.8296      -9999      -9999      -9999   231.4540   228.3860   234.5220    33.1500
   134.10      -9999      -9999      -9999     4.0133     0.8092      -9999      -9999      -9999   232.7400   227.7100   237.7700    33.3280
   134.20      -9999      -9999      -9999     3.8080     0.8228      -9999      -9999      -9999   232.0970   228.3860   235.8080    33.5060
   134.30      -9999      -9999      -9999     3.5653     0.8591      -9999      -9999      -9999   232.0970   228.3860   235.8080    33.6840
   134.40      -9999      -9999      -9999     3.4907     0.8273      -9999      -9999      -9999   230.1680   229.7370   230.5990    33.8620
   134.50      -9999      -9999      -9999     3.6027     0.8183      -9999      -9999      -9999   232.0970   229.0620   235.1320    34.0400
   134.60      -9999      -9999      -9999     3.7707     0.8092      -9999      -9999      -9999   232.0970   229.0620   235.1320    34.1660
   134.70      -9999      -9999      -9999     3.7333     0.8251      -9999      -9999      -9999   232.7400   227.0340   238.4460    34.2920
   134.80      -9999      -9999      -9999     3.6587     0.8115      -9999      -9999      -9999   230.1680   227.0340   233.3020    34.4180
   134.90      -9999      -9999      -9999     3.6586     0.7729      -9999      -9999      -9999   230.8110   226.3580   235.2640    34.5440
   135.00      -9999      -9999      -9999     3.9947     0.7548      -9999      -9999      -9999   229.5250   227.0340   232.0160    34.6700
   135.10      -9999      -9999      -9999     4.1627     0.7412      -9999      -9999      -9999   228.8820   227.0340   230.7310    34.6440
   135.20      -9999      -9999      -9999     3.9760     0.7389      -9999      -9999      -9999   232.7400   226.3580   239.1220    34.6180
   135.30      -9999      -9999      -9999     3.6587     0.7865      -9999      -9999      -9999   230.1680   226.3580   233.9780    34.5920
   135.40      -9999      -9999      -9999     3.4907     0.8273      -9999      -9999      -9999   231.4540   228.3860   234.5220    34.5660
   135.50      -9999      -9999      -9999     3.5467     0.8817      -9999      -9999      -9999   230.1680   226.3580   233.9780    34.5400
   135.60      -9999      -9999   180.0000     3.6213     0.9067      -9999      -9999      -9999   230.1680   227.0340   233.3020    34.4640
   135.70      -9999      -9999   213.3000     3.5653     0.9067      -9999      -9999      -9999   230.1680   229.0620   231.2750    34.3880
   135.80      -9999      -9999   276.7000     3.6213     0.8613      -9999      -9999      -9999   229.5250   227.0340   232.0160    34.3120
   135.90      -9999      -9999   310.0000     3.6027     0.7979      -9999      -9999      -9999   226.9540   226.3580   227.5490    34.2360
   136.00      -9999      -9999   273.3000     3.7147     0.7843      -9999      -9999      -9999   228.8820   227.0340   230.7310    34.1600
   136.10      -9999      -9999   206.7000     3.6027     0.7956      -9999      -9999      -9999   230.1680   226.3580   233.9780    34.3120
   136.20      -9999      -9999   176.7000     3.5093     0.7979      -9999      -9999      -9999   229.5250   226.3580   232.6920    34.4640
   136.30      -9999      -9999   176.7000     3.2106     0.7888      -9999      -9999      -9999   229.5250   226.3580   232.6920    34.6160
   136.40      -9999      -9999   176.7000     2.8374     0.8024      -9999      -9999      -9999   229.5250   225.0060   234.0440    34.7680
   136.50      -9999      -9999   200.0000     2.6507     0.8092      -9999      -9999      -9999   230.1680   225.0060   235.3300    34.9200
   136.60      -9999      -9999   196.7000     2.8000     0.7933      -9999      -9999      -9999   228.8820   226.3580   231.4060    35.4300
   136.70      -9999      -9999   173.3000     3.0427     0.7707      -9999      -9999      -9999   228.8820   225.6820   232.0820    35.9400
   136.80      -9999      -9999   150.0000     3.1920     0.7571      -9999      -9999      -9999   229.5250   226.3580   232.6920    36.4500
   136.90      -9999      -9999   153.3000     3.2667     0.7639      -9999      -9999      -9999   231.4540   225.0060   237.9020    36.9600
   137.00      -9999      -9999   180.0000     3.2667     0.7933      -9999      -9999      -9999   229.5250   227.0340   232.0160    37.4700
   137.10      -9999      -9999   180.0000     3.3040     0.8115      -9999      -9999      -9999   230.1680   225.6820   234.6540    38.9160
   137.20      -9999      -9999   180.0000     3.0800     0.7933      -9999      -9999      -9999   230.8110   227.7100   233.9120    40.3620
   137.30      -9999      -9999   180.0000     2.9307     0.7412      -9999      -9999      -9999   230.1680   227.7100   232.6260    41.8080
   137.40      -9999      -9999   160.0000     2.9120     0.7163      -9999      -9999      -9999   230.1680   225.0060   235.3300    43.2540
   137.50      -9999      -9999   160.0000     3.0427     0.7299      -9999      -9999      -9999   230.1680   225.6820   234.6540    44.7000
   137.60      -9999      -9999   163.3000     3.0613     0.7639      -9999      -9999      -9999   226.9540   225.6820   228.2250    44.5480
   137.70      -9999      -9999   186.7000     2.9307     0.7843      -9999      -9999      -9999   228.8820   227.0340   230.7310    44.3960
   137.80      -9999      -9999   196.7000     2.7440     0.7843      -9999      -9999      -9999   230.1680   227.7100   232.6260    44.2440
   137.90      -9999      -9999   196.7000     2.5947     0.7503      -9999      -9999      -9999   227.5960   227.0340   228.1590    44.0920
   138.00      -9999      -9999   193.3000     2.4640     0.7435      -9999      -9999      -9999   226.9540   224.3310   229.5760    43.9400
   138.10      -9999      -9999   210.0000     2.3520     0.7593      -9999      -9999      -9999   225.6680   225.6820   225.6530    43.1780
   138.20      -9999      -9999   206.7000     2.3147     0.8047      -9999      -9999      -9999   228.2390   226.3580   230.1210    42.4160
   138.30      -9999      -9999   206.7000     2.2773     0.8251      -9999      -9999      -9999   228.2390   226.3580   230.1210    41.6540
