~Version information
  VERS.                            1.20: CWLS LAS  -  VERSION 1.20
  WRAP.                              NO: One line per depth step
~Well information
# MNEM.UNIT
# ====.================================:===================
  STRT.M                           1.60: First depth in file
  STOP.M                         917.00: Last depth in file
  STEP.M                           0.10: Depth increment
  NULL.                           -9999: Null values
  COMP.                         COMPANY: TOO "C.I.O.C."
  WELL.                            WELL: 302
  FLD .                           FIELD: KARATUBE
  DATE.                        LOG DATE: 22-23/01/2004
  SRVC.                 SERVICE COMPANY: AFGIS OJSC "Kazpromgeophysica"
  UWI.           Unique Well Identifier: 
~Parametr information block
# MNEM.UNIT
# ====.================================:===================
~Other information
# ------------------------- REMARKS  AREA ------------------
~Curve information
# MNEM.UNIT
# ====.================================:===================
  DEPT.M                               : Depth curve
RHOB.G/C3                              : Bulk density by DGGL
LL3 .OHMM                              : Appar.resistivity,laterolog,3electrodes
DTP .US/M                              : Interval travel time (P)
GR  .UR/H                              : Gamma Ray
NGLD.STDU                              : Neutron-gamma log
GZ3 .OHMM                              : App.resistivity by lateral A2M05N
GZ3B.OHMM                              : App.resistivity by lateral N05M2A
CILA.MMHO                              : IL sonde 7l1.6, active signal
CALI.MM                                : Caliper
PR1 .MM                                : 
PR2 .MM                                : 
SP  .MV                                : Spontaneous potential
~ASCII Log Data
# ...
   759.70     2.4696     2.4045   336.7000     5.3013     1.1832     1.7840     2.2970   294.0870   221.1670   216.8960   225.4380    32.8640
   759.80     2.4607     2.7481   333.3000     5.4133     1.2285     1.8160     2.4190   293.9090   221.8100   215.5450   228.0760    33.2960
   759.90     2.4934     3.2511   340.0000     5.3573     1.2240     1.7630     2.5100   292.0370   222.4530   216.2200   228.6860    33.7280
   760.00     2.5591     3.4676   340.0000     5.3200     1.1402     1.7950     2.6930   293.1950   222.4530   217.5720   227.3340    34.1600
   760.10     2.5783     3.4200   336.7000     5.1520     1.1152     1.8160     2.8560   293.1950   221.8100   216.2200   227.4000    34.3900
   760.20     2.4504     3.1552   320.0000     4.8721     1.1515     1.9330     3.1400   296.0040   221.1670   216.2200   226.1140    34.6200
   760.30     2.4504     2.8512   293.3000     4.8160     1.2081     2.0820     3.5370   305.0970   220.5240   217.5720   223.4760    34.8500
   760.40     2.4858     2.8975   263.3000     5.0026     1.2285     2.2310     3.8110   311.2040   221.1670   216.2200   226.1140    35.0800
   760.50     2.5108     4.1594   243.3000     5.2640     1.2806     2.5180     3.9940   311.1590   219.8810   216.8960   222.8660    35.3100
   760.60     2.6364     7.0963   243.3000     5.2827     1.3668     2.7100     3.9740   323.2830   220.5240   218.2480   222.8000    35.3100
   760.70     2.7771     8.7908   263.3000     5.1893     1.4439     2.9010     3.7910   334.4720   220.5240   216.2200   224.8280    35.3100
   760.80     2.8729     7.9989   290.0000     4.8719     1.4665     2.9860     3.5060   336.4330   220.5240   216.8960   224.1520    35.3100
   760.90     2.7904     6.0260   320.0000     4.6107     1.4167     3.0290     3.1510   331.4850   219.2380   214.8690   223.6080    35.3100
   761.00     2.7008     4.5293   340.0000     4.6481     1.3283     3.0290     2.7640   327.9640   220.5240   216.8960   224.1520    35.3100
   761.10     2.5886     3.8022   350.0000     4.9467     1.2081     2.9010     2.4490   320.8320   220.5240   216.8960   224.1520    34.8780
   761.20     2.4660     3.4358   350.0000     5.2640     1.1243     2.6780     2.2360   313.7890   223.0960   215.5450   230.6470    34.4460
   761.30     2.4541     3.1263   353.3000     5.4507     1.0880     2.4330     2.1340   308.6180   222.4530   216.2200   228.6860    34.0140
   761.40     2.4956     2.9925   353.3000     5.6373     1.1016     2.2520     2.0530   302.6900   222.4530   214.8690   230.0370    33.5820
   761.50     2.5900     2.9925   353.3000     5.5999     1.1356     2.0930     2.0730   297.2070   219.8810   215.5450   224.2180    33.1500
   761.60     2.5029     2.9856   346.7000     5.5813     1.1787     1.8900     2.0930   290.7880   220.5240   214.8690   226.1800    32.5660
   761.70     2.4657     2.9514   343.3000     5.2454     1.2104     1.8160     2.1440   275.8110   220.5240   215.5450   225.5040    31.9820
   761.80     2.4402     3.0202   343.3000     5.1146     1.2240     1.7420     2.2760   260.6560   221.1670   216.2200   226.1140    31.3980
   761.90     2.3833     3.1048   346.7000     4.8906     1.2263     1.5710     2.3370   253.3010   220.5240   215.5450   225.5040    30.8140
   762.00     2.3880     3.2287   353.3000     5.0587     1.2127     1.6240     2.4490   246.8820   220.5240   216.8960   224.1520    30.2300
   762.10     2.5000     3.2661   356.7000     5.0773     1.2127     1.6460     2.6020   242.9600   219.8810   216.2200   223.5420    28.9840
   762.20     2.5307     3.1625   360.0000     4.9840     1.1945     1.7420     2.8150   249.5570   222.4530   215.5450   229.3610    27.7380
   762.30     2.4806     2.8710   353.3000     4.6293     1.1787     1.7310     3.1000   263.7320   220.5240   216.8960   224.1520    26.4920
   762.40     2.4134     2.7041   333.3000     4.5360     1.1106     1.8050     3.3440   277.9510   220.5240   216.8960   224.1520    25.2460
   762.50     2.4543     2.8909   313.3000     4.4614     1.1197     1.9120     3.5470   294.1760   221.8100   217.5720   226.0480    24.0000
   762.60     2.4888     3.4596   303.3000     4.5733     1.1764     2.0180     3.7300   301.7090   221.8100   218.2480   225.3720    24.0000
   762.70     2.6242     3.9267   300.0000     4.7226     1.2761     2.2100     3.7810   307.6820   221.8100   216.8960   226.7240    24.0000
   762.80     2.6674     4.4059   300.0000     4.8907     1.2490     2.4760     3.8520   317.8450   221.1670   218.9240   223.4100    24.0000
   762.90     2.6631     4.1023   300.0000     5.2453     1.1741     2.7310     3.8420   321.9910   221.1670   217.5720   224.7620    24.0000
   763.00     2.5907     3.8907   310.0000     5.4507     1.1560     2.9010     3.7200   321.8570   220.5240   216.2200   224.8280    24.0000
   763.10     2.4986     3.9997   316.7000     5.5627     1.1900     2.9330     3.6180   325.9130   221.8100   216.2200   227.4000    24.9160
   763.20     2.5738     3.8285   323.3000     5.3387     1.2036     2.8690     3.5060   333.8920   220.5240   215.5450   225.5040    25.8320
   763.30     2.4402     3.4200   333.3000     4.9279     1.1469     2.7630     3.4050   331.9310   221.1670   215.5450   226.7900    26.7480
   763.40     2.4517     2.9925   340.0000     4.4987     1.0789     2.5610     3.4150   325.0660   219.8810   216.2200   223.5420    27.6640
   763.50     2.4804     2.8842   343.3000     4.4614     1.0767     2.3900     3.3950   325.5120   219.2380   216.8960   221.5800    28.5800
   763.60     2.4900     2.9176   340.0000     4.7600     1.1243     2.2200     3.4560   320.1630   221.8100   218.9240   224.6960    29.0860
   763.70     2.5810     3.1407   340.0000     5.2266     1.1560     2.0290     3.4960   314.4130   219.2380   218.2480   220.2290    29.5920
   763.80     2.5755     3.5240   336.7000     5.8988     1.1356     1.9540     3.4960   309.5100   217.9530   217.5720   218.3330    30.0980
   763.90     2.5277     4.0647   336.7000     6.0293     1.0993     1.9220     3.4860   297.5640   218.5950   217.5720   219.6190    30.6040
   764.00     2.5496     4.4364   336.7000     5.9358     1.0971     1.9220     3.4450   289.5850   221.1670   216.8960   225.4380    31.1100
   764.10     2.6318     4.6135   336.7000     5.5067     1.1039     1.9120     3.4150   287.7570   219.8810   216.2200   223.5420    30.9340
   764.20     2.5884     4.5607   336.7000     5.1707     1.1016     1.9760     3.3640   286.0640   221.8100   216.8960   226.7240    30.7580
   764.30     2.5235     4.5607   333.3000     5.1893     1.1152     2.0290     3.3540   282.4980   221.8100   217.5720   226.0480    30.5820
   764.40     2.5162     4.5397   330.0000     5.1706     1.1492     2.0930     3.3340   292.0810   221.1670   216.2200   226.1140    30.4060
   764.50     2.6011     4.7101   326.7000     5.3200     1.1696     2.1780     3.3030   303.8040   222.4530   216.2200   228.6860    30.2300
   764.60     2.5493     4.8421   330.0000     5.3200     1.1741     2.2100     3.3030   305.0970   221.1670   215.5450   226.7900    30.3560
   764.70     2.5998     4.3354   336.7000     5.1707     1.1651     2.2950     3.3030   301.0410   221.8100   216.8960   226.7240    30.4820
   764.80     2.6765     4.0929   343.3000     5.6188     1.1719     2.4330     3.2830   298.4550   219.8810   216.2200   223.5420    30.6080
   764.90     2.5978     4.0367   343.3000     6.2158     1.1492     2.5930     3.2520   290.7880   219.8810   217.5720   222.1900    30.7340
   765.00     2.5559     3.9267   343.3000     6.7760     1.1469     2.6780     3.2220   283.8350   221.8100   216.8960   226.7240    30.8600
   765.10     2.6011     3.6985   340.0000     6.4960     1.1288     2.7420     3.2120   279.2880   221.1670   217.5720   224.7620    30.5800
   765.20     2.5392     3.5812   340.0000     5.9361     1.1333     2.7840     3.2010   272.9590   220.5240   218.2480   222.8000    30.3000
   765.30     2.5068     3.7328   336.7000     5.8427     1.0993     2.7730     3.1610   266.7630   221.1670   216.8960   225.4380    30.0200
