~Version information
  VERS.                            1.20: CWLS LAS  -  VERSION 1.20
  WRAP.                              NO: One line per depth step
~Well information
# MNEM.UNIT
# ====.================================:===================
  STRT.M                           1.60: First depth in file
  STOP.M                         917.00: Last depth in file
  STEP.M                           0.10: Depth increment
  NULL.                           -9999: Null values
  COMP.                         COMPANY: TOO "C.I.O.C."
  WELL.                            WELL: 302
  FLD .                           FIELD: KARATUBE
  DATE.                        LOG DATE: 22-23/01/2004
  SRVC.                 SERVICE COMPANY: AFGIS OJSC "Kazpromgeophysica"
  UWI.           Unique Well Identifier: 
~Parametr information block
# MNEM.UNIT
# ====.================================:===================
~Other information
# ------------------------- REMARKS  AREA ------------------
~Curve information
# MNEM.UNIT
# ====.================================:===================
  DEPT.M                               : Depth curve
RHOB.G/C3                              : Bulk density by DGGL
LL3 .OHMM                              : Appar.resistivity,laterolog,3electrodes
DTP .US/M                              : Interval travel time (P)
GR  .UR/H                              : Gamma Ray
NGLD.STDU                              : Neutron-gamma log
GZ3 .OHMM                              : App.resistivity by lateral A2M05N
GZ3B.OHMM                              : App.resistivity by lateral N05M2A
CILA.MMHO                              : IL sonde 7l1.6, active signal
CALI.MM                                : Caliper
PR1 .MM                                : 
PR2 .MM                                : 
SP  .MV                                : Spontaneous potential
~ASCII Log Data
# ...
   913.60     2.3271      -9999   230.0000     1.2133     5.6712      -9999      -9999     2.5240   221.1670   211.4890   230.8450    41.4760
   913.70     2.3433      -9999   230.0000     1.2133     5.6803      -9999      -9999    -0.2850   221.8100   209.4620   234.1580    41.5520
   913.80     2.3308      -9999   230.0000     1.3254     5.6372      -9999      -9999     1.1420   221.8100   209.4620   234.1580    41.6280
   913.90     2.3055      -9999   230.0000     1.3627     5.6190      -9999      -9999     4.1280   222.4530   208.7860   236.1200    41.7040
   914.00     2.3280      -9999   230.0000     1.3253     5.5873      -9999      -9999     1.1860   223.7390   208.1100   239.3680    41.7800
   914.10     2.2923      -9999   230.0000     1.1947     5.6417      -9999      -9999     0.9190   221.1670   210.1380   232.1970    41.9320
   914.20     2.3223      -9999   230.0000     1.2320     5.6599      -9999      -9999     2.3900   221.8100   209.4620   234.1580    42.0840
   914.30     2.3244      -9999      -9999     1.2133     5.5828      -9999      -9999    -0.4630   221.1670   208.1100   234.2240    42.2360
   914.40     2.3334      -9999      -9999     1.1760     5.5873      -9999      -9999     0.3390   220.5240   208.1100   232.9380    42.3880
   914.50     2.3390      -9999      -9999     1.1947     5.5647      -9999      -9999     2.5680   221.1670   208.1100   234.2240    42.5400
   914.60     2.3074      -9999      -9999     1.3067     5.6168      -9999      -9999     1.1860   221.1670   207.4340   234.9000    42.5660
   914.70     2.2896      -9999      -9999     1.4560     5.6440      -9999      -9999     1.4980   221.8100   207.4340   236.1860    42.5920
   914.80     2.2895      -9999      -9999     1.4373     5.7233      -9999      -9999     2.6130   221.1670   208.7860   233.5480    42.6180
   914.90      -9999      -9999      -9999     1.2881     5.7777      -9999      -9999     0.1610   223.0960   208.1100   238.0820    42.6440
   915.00      -9999      -9999      -9999     1.0826     5.7573      -9999      -9999     2.4790   222.4530   208.1100   236.7960    42.6700
   915.10      -9999      -9999      -9999     1.0267     5.7437      -9999      -9999     4.0840   222.4530   208.7860   236.1200    42.5180
   915.20      -9999      -9999      -9999     1.1573     5.7301      -9999      -9999     0.9630   221.1670   208.1100   234.2240    42.3660
   915.30      -9999      -9999      -9999     1.3067     5.7845      -9999      -9999     1.2310   220.5240   208.1100   232.9380    42.2140
   915.40      -9999      -9999      -9999     1.4187     5.7347      -9999      -9999     2.8360   220.5240   206.7590   234.2900    42.0620
   915.50      -9999      -9999      -9999     1.4747     5.6372      -9999      -9999    -0.9090   221.8100   207.4340   236.1860    41.9100
   915.60      -9999      -9999      -9999     1.4840     5.5125      -9999      -9999     0.8300   222.4530   207.4340   237.4720    41.7840
   915.70      -9999      -9999      -9999      -9999     5.5148      -9999      -9999     3.5040   221.1670   206.0830   236.2520    41.6580
   915.80      -9999      -9999      -9999      -9999     5.5737      -9999      -9999     0.1170   222.4530   207.4340   237.4720    41.5320
   915.90      -9999      -9999      -9999      -9999     5.6055      -9999      -9999     1.0080   222.4530   206.7590   238.1480    41.4060
   916.00      -9999      -9999      -9999      -9999     5.6576      -9999      -9999     2.8360   222.4530   207.4340   237.4720    41.2800
   916.10      -9999      -9999      -9999      -9999     5.7143      -9999      -9999     0.2500   222.4530   207.4340   237.4720    41.3040
   916.20      -9999      -9999      -9999      -9999     5.7845      -9999      -9999     1.3200   222.4530   206.7590   238.1480    41.3280
   916.30      -9999      -9999      -9999      -9999     5.8049      -9999      -9999     3.7720   221.8100   207.4340   236.1860    41.3520
   916.40      -9999      -9999      -9999      -9999     5.7641      -9999      -9999     2.3450   221.1670   206.7590   235.5760    41.3760
   916.50      -9999      -9999      -9999      -9999     5.6962      -9999      -9999     1.0530   222.4530   206.7590   238.1480    41.4000
   916.60      -9999      -9999      -9999      -9999     5.6689      -9999      -9999     2.2560      -9999      -9999      -9999    41.5520
   916.70      -9999      -9999      -9999      -9999     5.6259      -9999      -9999    -0.1510      -9999      -9999      -9999    41.7040
   916.80      -9999      -9999      -9999      -9999     5.6100      -9999      -9999     1.9000      -9999      -9999      -9999    41.8560
   916.90      -9999      -9999      -9999      -9999     5.5601      -9999      -9999     3.4600      -9999      -9999      -9999    42.0080
   917.00      -9999      -9999      -9999      -9999     5.5511      -9999      -9999    -0.4630      -9999      -9999      -9999    42.1600
