~Version information
  VERS.                            1.20: CWLS LAS  -  VERSION 1.20
  WRAP.                              NO: One line per depth step
~Well information
# MNEM.UNIT
# ====.================================:===================
  STRT.M                           1.60: First depth in file
  STOP.M                         917.00: Last depth in file
  STEP.M                           0.10: Depth increment
  NULL.                           -9999: Null values
  COMP.                         COMPANY: TOO "C.I.O.C."
  WELL.                            WELL: 302
  FLD .                           FIELD: KARATUBE
  DATE.                        LOG DATE: 22-23/01/2004
  SRVC.                 SERVICE COMPANY: AFGIS OJSC "Kazpromgeophysica"
  UWI.           Unique Well Identifier: 
~Parametr information block
# MNEM.UNIT
# ====.================================:===================
~Other information
# ------------------------- REMARKS  AREA ------------------
~Curve information
# MNEM.UNIT
# ====.================================:===================
  DEPT.M                               : Depth curve
RHOB.G/C3                              : Bulk density by DGGL
LL3 .OHMM                              : Appar.resistivity,laterolog,3electrodes
DTP .US/M                              : Interval travel time (P)
GR  .UR/H                              : Gamma Ray
NGLD.STDU                              : Neutron-gamma log
GZ3 .OHMM                              : App.resistivity by lateral A2M05N
GZ3B.OHMM                              : App.resistivity by lateral N05M2A
CILA.MMHO                              : IL sonde 7l1.6, active signal
CALI.MM                                : Caliper
PR1 .MM                                : 
PR2 .MM                                : 
SP  .MV                                : Spontaneous potential
~ASCII Log Data
# ...
   548.80     2.3575     3.6985   443.3000    11.0881     1.0427     3.1460     3.5270   228.4280   226.3110   220.2760   232.3460    58.8780
   548.90     2.4339     3.7586   446.7000    11.3493     1.0223     3.1140     3.5670   223.3470   222.4530   220.9510   223.9550    58.9040
   549.00     2.4351     4.0647   450.0000    11.1253     1.0155     3.1350     3.6380   226.2890   223.0960   218.9240   227.2680    58.9300
   549.10     2.2948     4.4981   446.7000    10.7333     0.9701     3.1560     3.5880   226.6900   219.8810   217.5720   222.1900    58.6000
   549.20     2.1935     4.7537   440.0000    10.2667     0.9633     3.2520     3.5060   230.1220   216.0240   215.5450   216.5030    58.2700
   549.30     2.0933     4.9094   423.3000     9.6879     0.9611     3.3690     3.4150   233.7770   217.9530   216.8960   219.0090    57.9400
   549.40     1.8931     4.7537   403.3000     8.8482     0.9679     3.4220     3.2620   233.4650   218.5950   215.5450   221.6460    57.6100
   549.50     1.9900     4.3454   393.3000     7.8585     0.9928     3.4330     3.1610   235.7830   216.6670   214.8690   218.4650    57.2800
   549.60     2.1888     4.3056   393.3000     7.3733     1.0359     3.4010     3.0490   243.3160   216.6670   214.1930   219.1400    56.9240
   549.70     2.3230     4.0741   403.3000     7.4666     1.0744     3.4010     2.9570   247.6400   217.3100   214.8690   219.7500    56.5680
   549.80     2.3224     3.8818   410.0000     7.6534     1.0744     3.3590     2.9170   247.5060   218.5950   216.2200   220.9700    56.2120
   549.90     2.2716     3.7586   420.0000     7.8587     1.0064     3.3160     2.9070   251.6960   216.0240   214.1930   217.8550    55.8560
   550.00     2.2402     3.6646   423.3000     7.8960     0.9860     3.2840     2.9270   258.1600   217.9530   215.5450   220.3600    55.5000
   550.10     2.2162     3.6985   423.3000     8.0267     1.0314     3.2310     2.8660   259.4970   217.3100   215.5450   219.0750    55.6520
   550.20     2.1286     3.6060   420.0000     8.1573     1.0925     3.1670     2.8760   251.2950   217.9530   215.5450   220.3600    55.8040
   550.30     2.1461     3.3731   420.0000     8.1760     1.1107     3.0500     2.8150   249.8240   217.3100   215.5450   219.0750    55.9560
   550.40     2.2228     3.2586   420.0000     8.2880     1.0925     2.9330     2.8460   246.4810   219.2380   215.5450   222.9320    56.1080
   550.50     2.2283     3.1918   420.0000     8.1013     1.0880     2.7310     2.8560   244.2970   217.3100   215.5450   219.0750    56.2600
   550.60     2.1799     3.1771   420.0000     7.6533     1.0631     2.6030     2.8960   247.1500   217.9530   216.2200   219.6850    56.4640
   550.70     2.2132     3.1698   420.0000     7.4480     1.0699     2.5290     2.9980   248.9330   219.8810   214.8690   224.8940    56.6680
   550.80     2.2061     3.1771   420.0000     7.4294     1.1061     2.4860     3.1000   251.6070   217.3100   214.8690   219.7500    56.8720
   550.90     2.2907     3.2139   416.7000     8.0826     1.1197     2.4540     3.2220   258.0710   216.0240   215.5450   216.5030    57.0760
   551.00     2.3023     3.3039   410.0000     8.6428     1.1107     2.4970     3.4150   268.6790   216.0240   216.2200   215.8270    57.2800
   551.10     2.2864     3.5895   400.0000     8.7733     1.1016     2.5500     3.4960   274.4740   215.3810   215.5450   215.2170    57.2800
   551.20     2.3131     3.9448   396.7000     8.9227     1.1039     2.5710     3.5880   275.6330   217.9530   213.5170   222.3880    57.2800
   551.30     2.3520     4.1023   396.7000     9.0908     1.1220     2.7200     3.6280   286.6880   216.6670   213.5170   219.8160    57.2800
   551.40     2.4026     4.3056   400.0000     9.8745     1.1447     2.7840     3.6180   294.2210   217.3100   213.5170   221.1020    57.2800
   551.50     2.4054     4.2563   400.0000    10.3974     1.1605     2.8370     3.6690   296.1820   216.0240   213.5170   218.5300    57.2800
   551.60     2.3960     4.2465   403.3000    10.6960     1.1356     2.9440     3.6890   294.9340   216.6670   214.1930   219.1400    57.0760
   551.70     2.4101     4.2173   403.3000    10.7520     1.0653     2.9540     3.6890   297.2520   216.6670   216.2200   217.1130    56.8720
   551.80     2.4046     4.1118   406.7000    10.9387     1.0472     2.9440     3.6890   300.1940   216.0240   216.2200   215.8270    56.6680
   551.90     2.4977     4.1213   406.7000    11.2932     1.0880     2.8590     3.6990   302.4220   217.3100   216.8960   217.7230    56.4640
   552.00     2.4712     4.2367   410.0000    11.6294     1.1447     2.9010     3.7100   305.6320   213.4520   216.8960   210.0080    56.2600
   552.10     2.3694     4.1594   410.0000    11.8347     1.1787     2.8800     3.7100   302.9570   216.0240   215.5450   216.5030    56.1340
   552.20     2.4035     4.0367   410.0000    11.7600     1.1356     2.8690     3.7200   294.2210   215.3810   216.2200   214.5410    56.0080
   552.30     2.4254     4.0367   410.0000    11.3865     1.1016     2.8910     3.6890   290.4320   217.9530   215.5450   220.3600    55.8820
   552.40     2.4386     4.1118   410.0000    11.1254     1.0631     2.8480     3.6990   283.2110   216.0240   215.5450   216.5030    55.7560
   552.50     2.4070     4.2465   410.0000    11.2748     1.0495     2.8480     3.7200   273.6720   216.6670   214.1930   219.1400    55.6300
   552.60     2.4543     4.3254   406.7000    11.4053     1.0381     2.8690     3.7200   263.5090   217.9530   214.8690   221.0360    55.8840
   552.70     2.4795     4.3155   403.3000    11.2748     1.0313     2.8690     3.6790   263.2860   218.5950   213.5170   223.6740    56.1380
   552.80     2.5076     4.2465   406.7000    10.6212     1.0041     2.9010     3.6280   263.5090   217.9530   214.8690   221.0360    56.3920
   552.90     2.4281     4.2076   413.3000    10.2854     0.9724     2.9440     3.6080   259.9870   217.3100   214.8690   219.7500    56.6460
   553.00     2.3695     4.2563   423.3000    10.3227     0.9769     2.9010     3.5780   255.1730   217.3100   216.2200   218.3990    56.9000
   553.10     2.3851     4.3856   440.0000    10.3787     0.9815     2.9540     3.4660   255.2180   216.6670   216.2200   217.1130    57.2300
   553.20     2.2435     4.5397   460.0000    10.2668     0.9656     3.0080     3.3640   253.1670   216.6670   216.8960   216.4370    57.5600
   553.30     1.9417     4.4364   476.7000     9.4451     0.9361     3.0390     3.2930   252.9890   218.5950   215.5450   221.6460    57.8900
   553.40     1.7430     3.6143   476.7000     8.4749     0.9293     3.1030     3.1910   255.4850   221.8100   215.5450   228.0760    58.2200
   553.50     2.0050     3.2887   466.7000     7.6159     0.9633     3.1350     3.1610   253.7910   219.8810   218.2480   221.5150    58.5500
   553.60     2.3072     3.4122   453.3000     7.1867     0.9883     3.0710     3.1400   251.6520   221.8100   218.9240   224.6960    58.4740
   553.70     2.3752     3.7673   440.0000     7.4479     1.0200     3.1250     3.1000   254.7720   219.2380   218.2480   220.2290    58.3980
   553.80     2.4593     4.0274   430.0000     8.2509     1.0495     3.1140     3.0790   256.2430   218.5950   214.8690   222.3220    58.3220
   553.90     2.4522     4.1882   423.3000     9.9116     1.0789     3.1670     3.0490   253.3460   217.3100   213.5170   221.1020    58.2460
   554.00     2.4425     4.2759   416.7000    10.9575     1.1039     3.2520     3.0290   253.2570   215.3810   212.8410   217.9200    58.1700
   554.10     2.5110     4.2661   416.7000    11.4240     1.1129     3.3050     3.0390   258.2490   215.3810   210.8140   219.9480    57.8900
   554.20     2.4104     4.2076   416.7000    10.9574     1.1175     3.3370     2.9680   257.6690   214.7380   212.8410   216.6350    57.6100
   554.30     2.3840     4.2957   420.0000    10.5653     1.0925     3.3370     2.9370   248.8440   214.0950   212.8410   215.3490    57.3300
   554.40     2.3474     4.1690   416.7000    10.2108     1.0971     3.3800     2.9680   243.4950   213.4520   212.8410   214.0630    57.0500
