~Version information
  VERS.                            1.20: CWLS LAS  -  VERSION 1.20
  WRAP.                              NO: One line per depth step
~Well information
# MNEM.UNIT
# ====.================================:===================
  STRT.M                           1.60: First depth in file
  STOP.M                         917.00: Last depth in file
  STEP.M                           0.10: Depth increment
  NULL.                           -9999: Null values
  COMP.                         COMPANY: TOO "C.I.O.C."
  WELL.                            WELL: 302
  FLD .                           FIELD: KARATUBE
  DATE.                        LOG DATE: 22-23/01/2004
  SRVC.                 SERVICE COMPANY: AFGIS OJSC "Kazpromgeophysica"
  UWI.           Unique Well Identifier: 
~Parametr information block
# MNEM.UNIT
# ====.================================:===================
~Other information
# ------------------------- REMARKS  AREA ------------------
~Curve information
# MNEM.UNIT
# ====.================================:===================
  DEPT.M                               : Depth curve
RHOB.G/C3                              : Bulk density by DGGL
LL3 .OHMM                              : Appar.resistivity,laterolog,3electrodes
DTP .US/M                              : Interval travel time (P)
GR  .UR/H                              : Gamma Ray
NGLD.STDU                              : Neutron-gamma log
GZ3 .OHMM                              : App.resistivity by lateral A2M05N
GZ3B.OHMM                              : App.resistivity by lateral N05M2A
CILA.MMHO                              : IL sonde 7l1.6, active signal
CALI.MM                                : Caliper
PR1 .MM                                : 
PR2 .MM                                : 
SP  .MV                                : Spontaneous potential
~ASCII Log Data
# ...
   811.00     2.3452     3.1263   363.3000     5.0213     1.0427     2.4650     2.8760   257.8480   253.3140   270.2890   236.3390    53.3400
   811.10     2.3595     3.3345   350.0000     5.2827     1.0993     2.4540     3.0080   252.2310   250.0990   260.8270   239.3710    52.9080
   811.20     2.4303     3.4358   353.3000     5.5999     1.1039     2.5930     3.1300   246.7040   245.5980   254.0680   237.1290    52.4760
   811.30     2.4156     3.4997   360.0000     5.6559     1.1061     2.7520     3.3030   233.0640   253.9560   247.3100   260.6030    52.0440
   811.40     2.4134     3.6562   360.0000     5.3761     1.1084     2.9330     3.4450   221.6530   248.8130   250.0130   247.6130    51.6120
   811.50     2.5698     3.6310   360.0000     4.8719     1.1288     3.1250     3.5670   221.9200   250.0990   251.3650   248.8330    51.1800
   811.60     2.5729     3.6478   350.0000     4.7040     1.1492     3.3910     3.6790   219.9150   250.7420   250.6890   250.7950    51.2560
   811.70     2.5750     3.8022   346.7000     4.5733     1.1401     3.4760     3.7300   213.6740   248.8130   239.1990   258.4270    51.3320
   811.80     2.7348     3.9177   333.3000     4.4986     1.1424     3.5710     3.7400   218.4880   249.4560   239.8750   259.0370    51.4080
   811.90     2.6630     4.0274   313.3000     4.3494     1.1379     3.5820     3.8320   231.5930   246.8840   249.3370   244.4310    51.4840
   812.00     2.6006     4.0460   336.7000     4.0506     1.1333     3.7200     3.7910   247.6400   246.2410   243.2540   249.2280    51.5600
   812.10     2.6601     3.9177   376.7000     3.9573     1.1447     3.7840     3.8320   263.5530   248.8130   247.9850   249.6410    51.8900
   812.20     2.5929     3.6900   400.0000     4.1066     1.1469     3.8910     3.8110   270.1060   251.3850   242.5790   260.1910    52.2200
   812.30     2.5567     3.5078   383.3000     4.4801     1.1492     3.9540     3.8110   270.2840   251.3850   251.3650   251.4050    52.5500
   812.40     2.5396     3.3422   353.3000     4.6853     1.1129     3.9970     3.7600   271.6210   262.3150   260.1510   264.4780    52.8800
   812.50     2.4982     3.3268   350.0000     4.4799     1.0653     3.9970     3.6790   265.2920   257.1710   259.4750   254.8670    53.2100
   812.60     2.3920     3.3192   336.7000     4.3493     1.0495     3.9540     3.5980   256.9560   250.0990   258.7990   241.3990    53.5400
   812.70     2.4227     3.2065   320.0000     4.5732     1.0653     3.8270     3.4660   256.8670   260.3860   262.1780   258.5930    53.8700
   812.80     2.5031     3.1991   303.3000     4.9094     1.1084     3.5390     3.4050   256.5100   259.7430   266.2330   253.2520    54.2000
   812.90     2.5009     3.2736   290.0000     4.8908     1.1197     3.3050     3.4150   252.0980   261.6720   270.9640   252.3790    54.5300
   813.00     2.4407     3.3887   283.3000     4.6106     1.1583     3.1350     3.5060   246.4370   257.1710   262.1780   252.1640    54.8600
   813.10     2.4405     3.8639   283.3000     4.3120     1.2036     3.0500     3.5780   245.9020   244.9550   239.8750   250.0360    54.9620
   813.20     2.4145     4.4774   283.3000     4.3120     1.2353     3.0180     3.5880   242.7810   240.4550   239.1990   241.7110    55.0640
   813.30     2.4642     4.5607   283.3000     4.1440     1.2580     3.0500     3.6080   243.7180   244.3130   237.8480   250.7770    55.1660
   813.40     2.4761     4.3354   283.3000     3.8828     1.2784     3.1250     3.5570   246.5700   239.8120   239.8750   239.7490    55.2680
   813.50     2.6011     4.2563   280.0000     3.6026     1.2761     3.0930     3.4660   246.6590   237.8830   249.3370   226.4290    55.3700
   813.60     2.5753     4.0554   293.3000     3.4347     1.2603     3.0610     3.3640   251.3840   248.8130   256.7720   240.8550    55.3440
   813.70     2.4489     3.7156   306.7000     3.5280     1.2172     2.9650     3.2120   257.1790   245.5980   254.7440   236.4530    55.3180
   813.80     2.4300     3.4596   326.7000     3.5654     1.2013     2.9010     3.0390   261.1460   245.5980   254.7440   236.4530    55.2920
   813.90     2.4303     3.3115   333.3000     3.7520     1.1741     2.8590     2.9570   259.0070   253.9560   254.0680   253.8450    55.2660
   814.00     2.3358     3.0622   336.7000     4.2001     1.1787     2.7420     2.8860   265.2030   254.5990   256.0960   253.1030    55.2400
   814.10     2.3518     2.8512   340.0000     4.7973     1.2285     2.7730     2.8250   267.6990   248.8130   258.7990   238.8270    55.0120
   814.20     2.3899     2.8056   343.3000     5.3199     1.2489     2.6780     2.8560   257.8920   248.8130   255.4200   242.2060    54.7840
   814.30     2.5606     2.8909   343.3000     5.5067     1.2263     2.6880     2.9270   253.6130   251.3850   257.4470   245.3220    54.5560
   814.40     2.5671     3.0063   336.7000     5.5067     1.2013     2.6880     2.9980   251.6070   235.9540   247.3100   224.5990    54.3280
   814.50     2.4285     3.0976   326.7000     5.2079     1.2127     2.7420     3.0390   247.0610   237.2400   240.5510   233.9300    54.1000
   814.60     2.3997     3.2436   316.7000     4.7413     1.2353     2.8160     3.1200   244.4310   242.3840   241.2270   243.5410    54.0740
   814.70     2.4984     3.2736   313.3000     4.4427     1.2557     2.7630     3.1510   241.8010   243.0270   241.9030   244.1510    54.0480
   814.80     2.4283     3.2887   310.0000     4.3120     1.2285     2.7950     3.1810   240.2410   242.3840   245.2820   239.4860    54.0220
   814.90     2.4339     3.2362   316.7000     4.3867     1.1628     2.8160     3.1810   244.2520   241.0980   242.5790   239.6170    53.9960
   815.00     2.5038     3.1119   323.3000     4.3120     1.1016     2.7840     3.2010   250.9390   242.3840   245.2820   239.4860    53.9700
   815.10     2.5114     3.0202   326.7000     4.1813     1.0971     2.7200     3.3230   253.7910   239.1690   245.9580   232.3800    54.0720
   815.20     2.5359     3.1263   326.7000     3.9574     1.2013     2.7100     3.4050   264.2660   235.9540   241.2270   230.6820    54.1740
   815.30     2.4353     3.2736   323.3000     3.6399     1.3078     2.6350     3.4560   276.9260   238.5260   243.2540   233.7980    54.2760
   815.40     2.4337     3.5402   316.7000     3.3974     1.3396     2.6350     3.5470   281.6060   241.7410   235.1440   248.3370    54.3780
   815.50     2.5375     3.4836   303.3000     3.2106     1.3147     2.7420     3.7500   279.9120   241.0980   231.7650   250.4310    54.4800
   815.60     2.6341     3.3965   290.0000     3.1920     1.2829     2.8480     3.9840   279.7340   233.3830   231.7650   235.0010    54.1500
   815.70     2.5612     3.6815   276.7000     3.2107     1.2875     2.9970     4.1770   277.7730   232.0970   226.3580   237.8360    53.8200
   815.80     2.4800     4.6135   276.7000     3.2853     1.3124     3.1670     4.2790   274.5190   228.8820   222.9790   234.7860    53.4900
   815.90     2.6575     5.7284   280.0000     3.3786     1.3124     3.3160     4.2380   273.7610   230.1680   222.9790   237.3570    53.1600
   816.00     2.6210     5.7020   290.0000     3.3786     1.3396     3.3590     4.1980   269.6600   227.5960   222.9790   232.2140    52.8300
   816.10     2.6032     4.7756   290.0000     3.1733     1.3555     3.4010     4.1160   266.8520   229.5250   225.0060   234.0440    52.2720
   816.20     2.5732     4.1118   286.7000     2.8374     1.3283     3.2740     3.9230   271.2650   231.4540   227.0340   235.8740    51.7140
   816.30     2.6552     3.7328   283.3000     2.7440     1.2920     3.1030     3.8620   271.1760   229.5250   225.6820   233.3680    51.1560
   816.40     2.6840     3.6478   283.3000     2.7813     1.2784     2.9010     3.8320   267.6990   228.2390   229.7370   226.7410    50.5980
   816.50     2.5834     3.7242   286.7000     2.7813     1.3056     2.8270     3.8820   269.3480   230.1680   231.0890   229.2470    50.0400
   816.60     2.5153     3.6900   286.7000     2.8000     1.3464     2.7420     3.9540   274.5630   226.9540   227.0340   226.8730    50.0900
