~Version
 VERS              .         3.0                           : CWLS LOG ASCII STANDARD - VERSION 3.0
 WRAP              .         NO                            : ONE LINE PER DEPTH STEP
 DLM               .         SPACE                         : DELIMITING CHARACTER(SPACE TAB OR COMMA)
~Well Information
#_______________________________________________________________________________
#
#PARAMETER_NAME    .UNIT     VALUE                         : DESCRIPTION
#_______________________________________________________________________________
STRT               .M        0                             : First reference value
STOP               .M        817                           : Last reference value
STEP               .M        0.1                           : Step increment
NULL               .         -9999                         : Missing value
COMP               .                                       : Company
WELL               .         336                           : Well name
FLD                .         Karatube                      : Field
LOC                .                                       : Location
SRVC               .         SCH                           : Service Company
CTRY               .                                       : Country
DATE               .         10/25/2023                    : Service Date
LATI               .         0                             : Latitude
LONG               .         0                             : Longitude
GDAT               .                                       : Geodetic Datum
ORIGINALWELLNAME   .         Каратобе 336                  : 
RWS                .         -999                          : Def_Rw
WST                .         -999                          : Def_Rwt
~Parameter Information Block
#_______________________________________________________________________________
#
#PARAMETER_NAME    .UNIT     VALUE                         : DESCRIPTION
#_______________________________________________________________________________
SET                .         Las                           : 
TLFamily_AT10      .         Extra Shallow Resistivity     : 
TLFamily_AT20      .         Shallow Resistivity           : 
TLFamily_AT30      .         Medium Resistivity            : 
TLFamily_AT60      .         Deep Resistivity              : 
TLFamily_AT90      .         Extra Deep Resistivity        : 
TLFamily_BSC       .         Bit Size                      : 
TLFamily_CALI      .         Caliper                       : 
TLFamily_DEPTH     .         Measured Depth                : 
TLFamily_DT        .         Compressional Slowness        : 
TLFamily_GR        .         Gamma Ray                     : 
TLFamily_PEFZ      .         Photoelectric Factor          : 
TLFamily_PHI_FINAL .         Porosity                      : 
TLFamily_POTA      .         Potassium Concentration       : 
TLFamily_RHOZ      .         Bulk Density                  : 
TLFamily_RLA1      .         Extra Shallow Resistivity     : 
TLFamily_RLA2      .         Shallow Resistivity           : 
TLFamily_RLA3      .         Medium Resistivity            : 
TLFamily_RLA4      .         Deep Resistivity              : 
TLFamily_RLA5      .         Extra Deep Resistivity        : 
TLFamily_RT        .         Formation Resistivity         : 
TLFamily_RXO       .         Flushed Zone Resistivity      : 
TLFamily_SDEVM     .         Sonde Deviation               : 
TLFamily_SP        .         Spontaneous Potential         : 
TLFamily_SW_AR     .         Water Saturation              : 
TLFamily_THOR      .         Thorium Concentration         : 
TLFamily_TNPH      .         Neutron Porosity              : 
TLFamily_URAN      .         Uranium Concentration         : 
TLFamily_VSH_GR    .         Shale Volume                  : 
~Curve Information
#_______________________________________________________________________________
#
#LOGNAME           .UNIT     LOG_ID                        : DESCRIPTION
#_______________________________________________________________________________
DEPTH              .M                                      : Depth Index {F}
AT10               .ohm.m                                  : 10" Array Induction, two foot resolution Resistivity {F}
AT20               .ohm.m                                  : 20" Array Induction, two foot resolution Resistivity {F}
AT30               .ohm.m                                  : 30" Array Induction, two foot resolution Resistivity {F}
AT60               .ohm.m                                  : 60" Array Induction, two foot resolution Resistivity {F}
AT90               .ohm.m                                  : 90" Array Induction, two foot resolution Resistivity {F}
BSC                .mm                                     : Nominal Caliper {F}
CALI               .mm                                     : Caliper {F}
DT                 .US/M                                   : Sonic travel time {F}
GR                 .gAPI                                   : Gamma Ray {F}
PEFZ               .B/E                                    : Formation Photoelectric Factor {F}
PHI_FINAL          .m3/m3                                  : Porosity {F}
POTA               .%                                      : Potasium {F}
RHOZ               .g/cm3                                  : Bulk Density {F}
RLA1               .ohm.m                                  : HRLT Borehole Corrected Resistivity 1 {F}
RLA2               .ohm.m                                  : HRLT Borehole Corrected Resistivity 2 {F}
RLA3               .ohm.m                                  : HRLT Borehole Corrected Resistivity 3 {F}
RLA4               .ohm.m                                  : HRLT Borehole Corrected Resisitivity 4 {F}
RLA5               .ohm.m                                  : HRLT Borehole Corrected Resistivity 5 {F}
RT                 .ohm.m                                  : Formation Resistivity {F}
RXO                .ohm.m                                  : Flushed zone resistivity {F}
SDEVM              .deg                                    : Hole Deviation {F}
SP                 .mV                                     : Spontaneous Potential {F}
SW_AR              .m3/m3                                  :  {F}
THOR               .PPM                                    : Thorium {F}
TNPH               .v/v                                    : Neutron porosity {F}
URAN               .PPM                                    : Uranium {F}
VSH_GR             .unitless                               : Shale volume fraction from Gamma Ray {F}
~Ascii
# ...
191.5      1.3406     1.935199975967407 2.187299966812134 2.666599988937378 2.634000062942505 215.9      211.7072   611.5563   95.1821    2.5864     0.137007   3.2042     2.0125     2.6119     2.6113     2.7192     2.743      2.7171     2.7214     2.378      0.4686     4.485      1          6.9756     0.4419     0.7015     0.5347692 
191.6      1.266      1.781399965286255 1.998900055885315 2.458499908447266 2.256999969482422 215.9      211.719    611.9768   91.3508    2.5495     0.1778979  3.1182     2.0051     2.8002     2.8295     2.9017     2.9281     2.895      2.9019     2.5766     0.4696     4.8177     1          6.9999     0.4291     0.7568     0.4457311 
191.7      1.2708     1.77810001373291 1.990000009536743 2.413199901580811 2.169399976730347 215.9      211.5564   613.2891   91.1272    2.5239     0.1840795  3.0676     2.0056     2.8677     2.9377     2.9928     3.019      2.991      3.018      2.5398     0.4709     4.0218     1          7.0446     0.4445     0.73       0.4409503 
191.8      1.3455     1.871700048446655 2.138700008392334 2.543800115585327 2.373500108718872 215.9      211.7788   614.1835   89.8213    2.5059     0.1984251  3.0287     2.0109     2.8896     2.9742     3.0132     3.0385     3.004      3.031      2.5916     0.4748     3.173      1          6.776      0.4543     0.7904     0.41388   
191.9      1.4075     1.980000019073486 2.326200008392334 2.756500005722046 2.541599988937378 215.9      212.2584   615.1024   89.5345    2.4957     0.2028419  3.0233     2.0161     2.7879     2.8846     2.9123     2.9251     2.8902     2.9148     2.5623     0.4787     2.1254     1          6.5055     0.4644     0.8507     0.4081248 
192        1.4439     2.071799993515015 2.461100101470947 2.930599927902222 2.692800045013428 215.9      212.826    616.3365   92.5209    2.4887     0.1747915  3.097      2.0236     2.8685     2.9849     3.0229     3.0215     2.9924     3.0289     2.5875     0.4808     0.5986     1          6.4189     0.479      0.8583     0.4714694 
192.1      1.4835     2.1528000831604 2.516000032424927 2.990000009536743 2.866499900817871 215.9      213.1288   617.1508   92.1537    2.4781     0.1773591  3.0588     2.0279     2.946      3.0674     3.1118     3.0967     3.0654     3.1097     2.6262     0.4829     0.6702     1          6.1461     0.478      1.0134     0.4632602 
192.2      1.4817     2.143399953842163 2.483400106430054 2.956199884414673 2.909300088882446 215.9      213.1296   617.867    90.7156    2.4721     0.1928701  3.0048     2.0234     2.7681     2.8771     2.9346     2.9144     2.8952     2.9439     2.3991     0.4851     1.4518     1          5.8555     0.4768     1.1881     0.4322627 
192.3      1.4912     2.151900053024292 2.522799968719482 2.97350001335144 3.059600114822388 215.9      212.703    618.6931   89.2391    2.4631     0.2135276  3.013      2.0125     2.4566     2.5298     2.5845     2.5609     2.5467     2.5637     2.2793     0.4871     2.883      1          5.6951     0.4908     1.2768     0.4022666 
192.4      1.4332     2.032000064849854 2.388499975204468 2.829799890518188 2.941099882125854 215.9      212.4024   619.4653   86.7471    2.4539     0.2408623  2.9851     1.9994     2.4448     2.4984     2.5418     2.5153     2.5007     2.5046     2.4231     0.4886     3.4372     0.968507   5.7976     0.498      1.3002     0.3555477 
192.5      1.3551     1.926800012588501 2.230999946594238 2.67960000038147 2.683300018310547 215.9      212.261    620.1519   84.8577    2.4441     0.2586366  2.9652     1.9878     2.7317     2.8119     2.8655     2.841      2.8236     2.8372     2.5805     0.49       3.4692     0.8196459  6.0509     0.4962     1.2797     0.3231478 
192.6      1.3155     1.81439995765686 2.056299924850464 2.512700080871582 2.493900060653687 215.9      212.392    620.5672   87.3061    2.4409     0.232492   3.0424     1.9818     2.8644     2.9471     2.9967     2.9749     2.9475     2.9647     2.7128     0.4913     2.8025     0.9260728  6.4893     0.4681     1.1851     0.36562   
192.7      1.3624     1.890499949455261 2.151299953460693 2.603300094604492 2.528199911117554 215.9      212.6566   621.2539   88.8274    2.4562     0.2161528  3.0805     1.9804     2.8555     2.9401     2.9869     2.9725     2.9428     2.9642     2.6557     0.4929     1.4749     1          6.6572     0.4564     1.0868     0.3942185 
192.8      1.4073     1.998700022697449 2.317100048065186 2.826600074768066 2.724900007247925 215.9      213.0296   622.0093   90.1946    2.4798     0.202871   3.0918     1.982      2.7295     2.8193     2.8671     2.8563     2.8222     2.8494     2.5078     0.4947     0.0346     1          6.7382     0.4566     1.0013     0.4214723 
192.9      1.433      2.086199998855591 2.435499906539917 2.959800004959106 2.879300117492676 215.9      213.3328   622.327    93.5488    2.495      0.1725683  3.0623     1.9854     2.7058     2.8125     2.8565     2.8451     2.8077     2.8426     2.4721     0.4955     -0.0056    1          7.1421     0.4773     1.0069     0.4951116 
193        1.3975     2.051100015640259 2.401599884033203 2.894099950790405 2.872200012207031 215.9      213.4766   622.0596   94.0888    2.4999     0.1702763  3.0053     1.9881     2.802      2.9301     2.9744     2.9656     2.9299     2.9791     2.4915     0.4962     -0.063     1          7.1643     0.4941     1.1941     0.5079331 
193.1      1.3858     2.006700038909912 2.354599952697754 2.877799987792969 2.828399896621704 215.9      213.3772   621.3603   93.2321    2.4849     0.1830962  2.9395     1.9901     2.8554     2.9677     3.0177     3.0025     2.9727     3.009      2.5875     0.4966     -0.218     1          6.9865     0.5081     1.4731     0.487722  
193.2      1.3778     2.016799926757813 2.373699903488159 2.846400022506714 2.848000049591064 215.9      213.0108   619.9209   95.6917    2.4545     0.1562246  2.9559     1.9933     2.9236     3.0104     3.0767     3.0548     3.0325     3.0551     2.6938     0.4963     -1.2519    1          7.1535     0.5171     1.5539     0.547691  
193.3      1.4024     2.073999881744385 2.424200057983398 2.895600080490112 2.931400060653687 215.9      213.0186   618.4802   96.5382    2.4331     0.1436484  2.9709     1.9961     2.962      3.0419     3.1133     3.0875     3.0688     3.089      2.7282     0.4964     -1.8514    1          7.2924     0.5118     1.6075     0.5697554 
193.4      1.413      2.119400024414063 2.504400014877319 2.916800022125244 3.009999990463257 215.9      213.5032   617.0287   96.2126    2.4164     0.1429427  2.9839     1.9978     2.9333     3.0023     3.0746     3.0413     3.0256     3.0385     2.7592     0.497      -2.0701    1          7.4201     0.4954     1.6321     0.5611786 
193.5      1.4294     2.154999971389771 2.534800052642822 3.022300004959106 3.047499895095825 215.9      213.9312   615.3406   96.963     2.4117     0.1278929  2.9733     1.999      2.9438     3.017      3.0808     3.0591     3.0452     3.0587     2.7399     0.4973     -1.0092    1          7.7813     0.4755     1.4507     0.5811172 
193.6      1.4169     2.151999950408936 2.531500101089478 3.027100086212158 3.019399881362915 215.9      214.4704   591.4975   97.2664    2.4089     0.1221639  2.9429     1.9954     2.8953     2.9655     3.0108     2.9973     2.9751     2.9869     2.7421     0.4978     -0.8223    1          7.9722     0.4653     1.3072     0.589353  
193.7      1.3874     2.122900009155273 2.50789999961853 3.000799894332886 2.967000007629395 215.9      215.0926   547.2037   97.1574    2.4142     0.1246393  2.8941     1.9897     2.7966     2.864      2.9087     2.9094     2.8883     2.8979     2.6268     0.4985     -1.442     1          8.0057     0.464      1.1986     0.5863825 
193.8      1.3675     2.05679988861084 2.446199893951416 2.915999889373779 2.862600088119507 215.9      215.2992   545.9939   96.9353    2.409      0.1300789  2.9038     1.9887     2.847      2.9185     2.9494     2.9592     2.9353     2.9433     2.695      0.4975     -0.5812    1          7.8914     0.4728     1.1065     0.5803704 
