~Version
 VERS              .         3.0                           : CWLS LOG ASCII STANDARD - VERSION 3.0
 WRAP              .         NO                            : ONE LINE PER DEPTH STEP
 DLM               .         SPACE                         : DELIMITING CHARACTER(SPACE TAB OR COMMA)
~Well Information
#_______________________________________________________________________________
#
#PARAMETER_NAME    .UNIT     VALUE                         : DESCRIPTION
#_______________________________________________________________________________
STRT               .M        0                             : First reference value
STOP               .M        817                           : Last reference value
STEP               .M        0.1                           : Step increment
NULL               .         -9999                         : Missing value
COMP               .                                       : Company
WELL               .         336                           : Well name
FLD                .         Karatube                      : Field
LOC                .                                       : Location
SRVC               .         SCH                           : Service Company
CTRY               .                                       : Country
DATE               .         10/25/2023                    : Service Date
LATI               .         0                             : Latitude
LONG               .         0                             : Longitude
GDAT               .                                       : Geodetic Datum
ORIGINALWELLNAME   .         Каратобе 336                  : 
RWS                .         -999                          : Def_Rw
WST                .         -999                          : Def_Rwt
~Parameter Information Block
#_______________________________________________________________________________
#
#PARAMETER_NAME    .UNIT     VALUE                         : DESCRIPTION
#_______________________________________________________________________________
SET                .         Las                           : 
TLFamily_AT10      .         Extra Shallow Resistivity     : 
TLFamily_AT20      .         Shallow Resistivity           : 
TLFamily_AT30      .         Medium Resistivity            : 
TLFamily_AT60      .         Deep Resistivity              : 
TLFamily_AT90      .         Extra Deep Resistivity        : 
TLFamily_BSC       .         Bit Size                      : 
TLFamily_CALI      .         Caliper                       : 
TLFamily_DEPTH     .         Measured Depth                : 
TLFamily_DT        .         Compressional Slowness        : 
TLFamily_GR        .         Gamma Ray                     : 
TLFamily_PEFZ      .         Photoelectric Factor          : 
TLFamily_PHI_FINAL .         Porosity                      : 
TLFamily_POTA      .         Potassium Concentration       : 
TLFamily_RHOZ      .         Bulk Density                  : 
TLFamily_RLA1      .         Extra Shallow Resistivity     : 
TLFamily_RLA2      .         Shallow Resistivity           : 
TLFamily_RLA3      .         Medium Resistivity            : 
TLFamily_RLA4      .         Deep Resistivity              : 
TLFamily_RLA5      .         Extra Deep Resistivity        : 
TLFamily_RT        .         Formation Resistivity         : 
TLFamily_RXO       .         Flushed Zone Resistivity      : 
TLFamily_SDEVM     .         Sonde Deviation               : 
TLFamily_SP        .         Spontaneous Potential         : 
TLFamily_SW_AR     .         Water Saturation              : 
TLFamily_THOR      .         Thorium Concentration         : 
TLFamily_TNPH      .         Neutron Porosity              : 
TLFamily_URAN      .         Uranium Concentration         : 
TLFamily_VSH_GR    .         Shale Volume                  : 
~Curve Information
#_______________________________________________________________________________
#
#LOGNAME           .UNIT     LOG_ID                        : DESCRIPTION
#_______________________________________________________________________________
DEPTH              .M                                      : Depth Index {F}
AT10               .ohm.m                                  : 10" Array Induction, two foot resolution Resistivity {F}
AT20               .ohm.m                                  : 20" Array Induction, two foot resolution Resistivity {F}
AT30               .ohm.m                                  : 30" Array Induction, two foot resolution Resistivity {F}
AT60               .ohm.m                                  : 60" Array Induction, two foot resolution Resistivity {F}
AT90               .ohm.m                                  : 90" Array Induction, two foot resolution Resistivity {F}
BSC                .mm                                     : Nominal Caliper {F}
CALI               .mm                                     : Caliper {F}
DT                 .US/M                                   : Sonic travel time {F}
GR                 .gAPI                                   : Gamma Ray {F}
PEFZ               .B/E                                    : Formation Photoelectric Factor {F}
PHI_FINAL          .m3/m3                                  : Porosity {F}
POTA               .%                                      : Potasium {F}
RHOZ               .g/cm3                                  : Bulk Density {F}
RLA1               .ohm.m                                  : HRLT Borehole Corrected Resistivity 1 {F}
RLA2               .ohm.m                                  : HRLT Borehole Corrected Resistivity 2 {F}
RLA3               .ohm.m                                  : HRLT Borehole Corrected Resistivity 3 {F}
RLA4               .ohm.m                                  : HRLT Borehole Corrected Resisitivity 4 {F}
RLA5               .ohm.m                                  : HRLT Borehole Corrected Resistivity 5 {F}
RT                 .ohm.m                                  : Formation Resistivity {F}
RXO                .ohm.m                                  : Flushed zone resistivity {F}
SDEVM              .deg                                    : Hole Deviation {F}
SP                 .mV                                     : Spontaneous Potential {F}
SW_AR              .m3/m3                                  :  {F}
THOR               .PPM                                    : Thorium {F}
TNPH               .v/v                                    : Neutron porosity {F}
URAN               .PPM                                    : Uranium {F}
VSH_GR             .unitless                               : Shale volume fraction from Gamma Ray {F}
~Ascii
# ...
546.7      1.3545     1.59440004825592 1.660300016403198 1.717300057411194 1.672700047492981 215.9      210.409    426.511    122.7917   2.412      0.0405225  3.4398     2.115      1.8962     1.9289     1.9454     1.9314     1.9222     1.9255     1.9018     0.2138     0.6454     1          9.9715     0.3782     1.3261     0.8264986 
546.8      1.3328     1.557899951934814 1.629799962043762 1.706300020217896 1.658100008964539 215.9      210.3076   427.0682   122.5678   2.4087     0.04053018 3.5233     2.117      1.9127     1.9538     1.9583     1.9504     1.9407     1.9457     1.8686     0.2108     -1.4826    1          9.7079     0.3765     1.315      0.8224469 
546.9      1.28       1.494199991226196 1.561699986457825 1.639099955558777 1.591300010681152 215.9      210.3722   427.9367   119.1952   2.3842     0.06386153 3.4887     2.1151     1.716      1.7214     1.7255     1.7223     1.7134     1.7199     1.6971     0.2091     -0.7752    1          9.5097     0.3767     1.1797     0.7631063 
547        1.2234     1.42110002040863 1.481899976730347 1.553099989891052 1.51639997959137 215.9      210.454    429.0564   114.6123   2.3444     0.09580931 3.4274     2.1082     1.6113     1.5834     1.5948     1.5931     1.5858     1.5924     1.6334     0.2075     -0.0443    1          9.2526     0.3811     1.0879     0.6873373 
547.1      1.1759     1.356299996376038 1.406700015068054 1.475600004196167 1.449300050735474 215.9      210.428    430.5546   108.5699   2.2936     0.1369303  3.3444     2.0966     1.6094     1.5628     1.5818     1.5761     1.5695     1.5757     1.6517     0.2059     0.1055     1          8.8765     0.3928     1.1008     0.5954059 
547.2      1.1371     1.304100036621094 1.348099946975708 1.41509997844696 1.403499960899353 215.9      210.4464   432.2998   104.6646   2.2364     0.1619388  3.23       2.0854     1.5695     1.5304     1.5497     1.5433     1.5386     1.5449     1.5874     0.2043     3.5027     1          8.308      0.3952     1.2014     0.5404573 
547.3      1.1108     1.265699982643127 1.310700058937073 1.377500057220459 1.375699996948242 215.9      210.5244   433.8594   102.2385   2.1938     0.1772853  3.1205     2.0714     1.5394     1.5075     1.5177     1.5116     1.5046     1.5133     1.5655     0.2027     5.1845     1          7.8035     0.3917     1.2792     0.5079772 
547.4      1.0921     1.234699964523315 1.28600001335144 1.351600050926208 1.351500034332275 215.9      210.6468   434.9244   102.0906   2.1687     0.1783699  3.0342     2.0604     1.4517     1.4306     1.428      1.4243     1.413      1.4214     1.531      0.2013     1.907      1          7.5127     0.3792     1.273      0.5060368 
547.5      1.0774     1.212499976158142 1.266499996185303 1.327299952507019 1.326099991798401 215.9      210.494    436.0214   106.0794   2.165      0.1584425  3.0797     2.0575     1.528      1.5232     1.5169     1.5154     1.5011     1.5108     1.6325     0.1989     3.6921     1          7.4746     0.3734     1.2919     0.5599765 
547.6      1.08       1.209400057792664 1.256800055503845 1.320299983024597 1.317899942398071 215.9      210.254    436.8573   111.1921   2.1874     0.1293229  3.1859     2.0603     1.8851     1.9074     1.9029     1.8977     1.874      1.8931     1.9637     0.1966     5.7294     1          7.5439     0.3718     1.3484     0.6342341 
547.7      1.143      1.266299962997437 1.315600037574768 1.382599949836731 1.381500005722046 215.9      210.2652   436.9638   116.3707   2.2231     0.09656507 3.3613     2.0683     2.1151     2.1374     2.1346     2.1226     2.088      2.1194     2.1274     0.1951     4.8099     1          7.7222     0.3764     1.4886     0.7157673 
547.8      1.1971     1.366999983787537 1.424900054931641 1.472499966621399 1.466699957847595 215.9      210.3312   435.5951   119.8644   2.2636     0.07612567 3.5516     2.0787     1.9885     1.989      1.9893     1.9767     1.9414     1.9718     2.0394     0.1937     2.2456     1          8.018      0.3982     1.5662     0.7746328 
547.9      1.2805     1.491099953651428 1.565000057220459 1.624500036239624 1.621799945831299 215.9      210.4418   433.9698   122.4777   2.3077     0.06227143 3.6915     2.0851     1.9024     1.8869     1.8941     1.8825     1.8489     1.8732     1.9904     0.1925     -0.201     1          8.2868     0.4207     1.6146     0.8208205 
548        1.3381     1.564900040626526 1.635699987411499 1.714900016784668 1.71969997882843 215.9      210.5486   433.2727   124.0679   2.3401     0.05354775 3.6341     2.087      1.9243     1.9093     1.9251     1.9145     1.8819     1.9087     1.9435     0.1914     -0.181     1          8.3137     0.4241     1.6384     0.8498659 
548.1      1.3048     1.552000045776367 1.617300033569336 1.70169997215271 1.695899963378906 215.9      210.5442   431.8715   121.3831   2.3499     0.06917626 3.4875     2.0874     1.7409     1.7123     1.7291     1.7172     1.6879     1.7082     1.8133     0.1904     0.1685     1          8.1775     0.4213     1.6358     0.8012439 
548.2      1.247      1.481400012969971 1.538100004196167 1.618000030517578 1.611400008201599 215.9      210.4896   430.2564   117.3231   2.3459     0.09291198 3.3169     2.0867     1.5691     1.5288     1.5502     1.5357     1.5098     1.5163     1.7335     0.1894     -0.0767    1          7.9691     0.4132     1.6228     0.731496  
548.3      1.2356     1.409199953079224 1.450600028038025 1.530099987983704 1.536200046539307 215.9      210.5988   429.0698   115.4946   2.3347     0.09895241 3.2156     2.0861     1.6454     1.5982     1.6249     1.6108     1.583      1.587      1.8341     0.1882     -3.9154    1          7.7497     0.3918     1.6133     0.7015045 
548.4      1.1944     1.352399945259094 1.385400056838989 1.468299984931946 1.46370005607605 215.9      210.739    429.338    112.7207   2.3262     0.1122381  3.2257     2.0887     1.77       1.7223     1.7451     1.729      1.6968     1.6963     2.0161     0.1868     -4.0833    1          8.1382     0.3794     1.578      0.6576163 
548.5      1.188      1.344599962234497 1.381399989128113 1.453999996185303 1.440199971199036 215.9      210.8366   430.3104   110.4388   2.3402     0.1229967  3.2955     2.0941     1.9995     1.9729     1.9797     1.9606     1.9222     1.9323     2.2498     0.1854     -2.3281    1          8.7876     0.3734     1.5551     0.6229157 
548.6      1.2666     1.411200046539307 1.460100054740906 1.527799963951111 1.52649998664856 215.9      210.6662   430.7033   115.4975   2.3688     0.09288622 3.3636     2.0999     2.1443     2.1415     2.1302     2.1078     2.0648     2.0881     2.3633     0.1847     -0.9649    1          8.9493     0.3782     1.7245     0.7015514 
548.7      1.3151     1.491199970245361 1.551399946212769 1.604099988937378 1.598600029945374 215.9      210.5132   431.4965   119.9179   2.4001     0.06904742 3.4137     2.1036     2.0684     2.0759     2.0534     2.0328     1.9933     2.0141     2.3069     0.1839     0.9091     1          9.1226     0.399      1.8156     0.7755595 
548.8      1.3695     1.563500046730042 1.633399963378906 1.693099975585938 1.669399976730347 215.9      210.4994   432.6724   123.7675   2.4363     0.05225782 3.4463     2.1003     2.0709     2.0686     2.043      2.0176     1.9815     1.9816     2.4258     0.1831     2.9222     1          9.3025     0.4283     1.8446     0.8443234 
548.9      1.4118     1.613399982452393 1.670799970626831 1.747699975967407 1.738499999046326 215.9      210.9868   435.1801   125.9447   2.4482     0.04527317 3.4155     2.0968     2.1076     2.0769     2.0542     2.0187     1.9851     1.9412     2.6184     0.1824     2.6195     1          9.4709     0.4335     1.7603     0.8850906 
549        1.4054     1.613299965858459 1.652799963951111 1.733100056648254 1.724799990653992 215.9      212.1548   437.4065   126.397    2.4389     0.04519745 3.3531     2.0936     2.1519     2.1014     2.0851     2.0488     2.0202     1.965      2.6704     0.1824     2.2099     1          9.5698     0.4374     1.6667     0.8937358 
