~Version
 VERS              .         3.0                           : CWLS LOG ASCII STANDARD - VERSION 3.0
 WRAP              .         NO                            : ONE LINE PER DEPTH STEP
 DLM               .         SPACE                         : DELIMITING CHARACTER(SPACE TAB OR COMMA)
~Well Information
#_______________________________________________________________________________
#
#PARAMETER_NAME    .UNIT     VALUE                         : DESCRIPTION
#_______________________________________________________________________________
STRT               .M        0                             : First reference value
STOP               .M        817                           : Last reference value
STEP               .M        0.1                           : Step increment
NULL               .         -9999                         : Missing value
COMP               .                                       : Company
WELL               .         336                           : Well name
FLD                .         Karatube                      : Field
LOC                .                                       : Location
SRVC               .         SCH                           : Service Company
CTRY               .                                       : Country
DATE               .         10/25/2023                    : Service Date
LATI               .         0                             : Latitude
LONG               .         0                             : Longitude
GDAT               .                                       : Geodetic Datum
ORIGINALWELLNAME   .         Каратобе 336                  : 
RWS                .         -999                          : Def_Rw
WST                .         -999                          : Def_Rwt
~Parameter Information Block
#_______________________________________________________________________________
#
#PARAMETER_NAME    .UNIT     VALUE                         : DESCRIPTION
#_______________________________________________________________________________
SET                .         Las                           : 
TLFamily_AT10      .         Extra Shallow Resistivity     : 
TLFamily_AT20      .         Shallow Resistivity           : 
TLFamily_AT30      .         Medium Resistivity            : 
TLFamily_AT60      .         Deep Resistivity              : 
TLFamily_AT90      .         Extra Deep Resistivity        : 
TLFamily_BSC       .         Bit Size                      : 
TLFamily_CALI      .         Caliper                       : 
TLFamily_DEPTH     .         Measured Depth                : 
TLFamily_DT        .         Compressional Slowness        : 
TLFamily_GR        .         Gamma Ray                     : 
TLFamily_PEFZ      .         Photoelectric Factor          : 
TLFamily_PHI_FINAL .         Porosity                      : 
TLFamily_POTA      .         Potassium Concentration       : 
TLFamily_RHOZ      .         Bulk Density                  : 
TLFamily_RLA1      .         Extra Shallow Resistivity     : 
TLFamily_RLA2      .         Shallow Resistivity           : 
TLFamily_RLA3      .         Medium Resistivity            : 
TLFamily_RLA4      .         Deep Resistivity              : 
TLFamily_RLA5      .         Extra Deep Resistivity        : 
TLFamily_RT        .         Formation Resistivity         : 
TLFamily_RXO       .         Flushed Zone Resistivity      : 
TLFamily_SDEVM     .         Sonde Deviation               : 
TLFamily_SP        .         Spontaneous Potential         : 
TLFamily_SW_AR     .         Water Saturation              : 
TLFamily_THOR      .         Thorium Concentration         : 
TLFamily_TNPH      .         Neutron Porosity              : 
TLFamily_URAN      .         Uranium Concentration         : 
TLFamily_VSH_GR    .         Shale Volume                  : 
~Curve Information
#_______________________________________________________________________________
#
#LOGNAME           .UNIT     LOG_ID                        : DESCRIPTION
#_______________________________________________________________________________
DEPTH              .M                                      : Depth Index {F}
AT10               .ohm.m                                  : 10" Array Induction, two foot resolution Resistivity {F}
AT20               .ohm.m                                  : 20" Array Induction, two foot resolution Resistivity {F}
AT30               .ohm.m                                  : 30" Array Induction, two foot resolution Resistivity {F}
AT60               .ohm.m                                  : 60" Array Induction, two foot resolution Resistivity {F}
AT90               .ohm.m                                  : 90" Array Induction, two foot resolution Resistivity {F}
BSC                .mm                                     : Nominal Caliper {F}
CALI               .mm                                     : Caliper {F}
DT                 .US/M                                   : Sonic travel time {F}
GR                 .gAPI                                   : Gamma Ray {F}
PEFZ               .B/E                                    : Formation Photoelectric Factor {F}
PHI_FINAL          .m3/m3                                  : Porosity {F}
POTA               .%                                      : Potasium {F}
RHOZ               .g/cm3                                  : Bulk Density {F}
RLA1               .ohm.m                                  : HRLT Borehole Corrected Resistivity 1 {F}
RLA2               .ohm.m                                  : HRLT Borehole Corrected Resistivity 2 {F}
RLA3               .ohm.m                                  : HRLT Borehole Corrected Resistivity 3 {F}
RLA4               .ohm.m                                  : HRLT Borehole Corrected Resisitivity 4 {F}
RLA5               .ohm.m                                  : HRLT Borehole Corrected Resistivity 5 {F}
RT                 .ohm.m                                  : Formation Resistivity {F}
RXO                .ohm.m                                  : Flushed zone resistivity {F}
SDEVM              .deg                                    : Hole Deviation {F}
SP                 .mV                                     : Spontaneous Potential {F}
SW_AR              .m3/m3                                  :  {F}
THOR               .PPM                                    : Thorium {F}
TNPH               .v/v                                    : Neutron porosity {F}
URAN               .PPM                                    : Uranium {F}
VSH_GR             .unitless                               : Shale volume fraction from Gamma Ray {F}
~Ascii
# ...
237.1      3.1255     4.322500228881836 4.64169979095459 5.066199779510498 4.843100070953369 215.9      214.3276   407.5695   110.9972   2.494      0.1606706  3.3844     2.2172     6.645      6.7012     6.9089     6.9203     7.1101     7.2037     5.2442     0.409      -29.7881   0.9209273  10.3719    0.3766     0.5007     0.5081135 
237.2      3.3048     4.590400218963623 4.868000030517578 5.283899784088135 5.190000057220459 215.9      216.8026   411.1757   109.6914   2.5431     0.1617946  3.3443     2.2308     5.4994     5.4923     5.6512     5.6237     5.7784     5.7715     4.6101     0.4111     -29.3703   1          10.2759    0.3672     0.5124     0.4863108 
237.3      3.4036     4.904099941253662 5.280700206756592 5.826200008392334 5.817299842834473 215.9      220.8374   419.6633   109.6968   2.6074     0.1591293  3.3038     2.2373     4.3293     4.2879     4.4002     4.3601     4.4791     4.4198     3.9319     0.4129     -28.809    1          10.084     0.3642     0.5254     0.4863993 
237.4      3.1514     4.498000144958496 5.062699794769287 5.348800182342529 5.51609992980957 215.9      223.2404   450.8352   106.5659   2.6521     0.1772488  3.2666     2.228      3.8661     3.8329     3.9063     3.8677     3.9736     3.9081     3.7026     0.4142     -29.7783   1          9.905      0.3584     0.6815     0.4373352 
237.5      2.7344     3.718699932098389 4.127299785614014 4.474400043487549 4.726699829101563 215.9      223.4926   471.5024   106.9711   2.6558     0.1848329  3.2067     2.2045     3.7645     3.7182     3.7399     3.7153     3.8004     3.7481     3.7306     0.4159     -29.8199   1          10.2567    0.37       0.6169     0.4434388 
237.6      2.4743     3.19569993019104 3.557399988174438 3.929199934005737 3.963599920272827 215.9      221.7884   485.6014   109.3236   2.6084     0.1888305  3.1467     2.1662     3.6949     3.6323     3.6027     3.5979     3.6621     3.6344     3.7427     0.4175     -29.3106   1          10.9376    0.3918     0.404      0.4803162 
237.7      2.3038     2.865499973297119 3.096999883651733 3.430799961090088 3.482800006866455 215.9      221.3808   501.4026   108.0714   2.5258     0.2107208  3.2506     2.1224     3.6505     3.5553     3.4888     3.4993     3.5415     3.5008     4.0261     0.4144     -29.2871   0.91882    11.5028    0.4015     0.1082     0.4603764 
237.8      2.2715     2.699100017547607 2.932100057601929 3.286700010299683 3.184600114822388 215.9      222.3134   512.3073   108.0742   2.4427     0.2224054  3.308      2.0903     3.7125     3.5758     3.4815     3.5001     3.524      3.4079     4.4676     0.4073     -29.9166   0.8656561  11.8668    0.4117     -0.0434    0.4604202 
237.9      2.2018     2.572200059890747 2.849299907684326 3.266299962997437 3.06850004196167 215.9      223.9358   519.3444   109.0829   2.369      0.2257698  3.3269     2.0688     3.8898     3.7598     3.6651     3.6821     3.6908     3.5839     4.6493     0.3975     -30.9758   0.8251107  12.0808    0.4225     -0.0774    0.4764273 
238        2.1324     2.568900108337402 2.897200107574463 3.311800003051758 3.128999948501587 215.9      222.5138   525.8903   110.5639   2.3209     0.2250464  3.3028     2.0561     3.8956     3.7512     3.6761     3.684      3.684      3.5692     4.6782     0.3974     -30.0357   0.8305901  12.4873    0.4376     -0.0029    0.5007878 
238.1      2.1209     2.639699935913086 2.994199991226196 3.377599954605103 3.215699911117554 215.9      220.998    528.9304   110.9094   2.3031     0.2318941  3.2911     2.045      3.6291     3.4644     3.4179     3.4103     3.3973     3.257      4.4526     0.3954     -29.1903   0.8390301  12.8683    0.4575     0.0113     0.5066217 
238.2      2.1617     2.769500017166138 3.153800010681152 3.467999935150146 3.317100048065186 215.9      220.791    528.6021   110.1641   2.308      0.2458183  3.2912     2.0331     3.2942     3.1312     3.1272     3.1006     3.0823     2.962      4.0335     0.3918     -28.4361   0.8184398  13.2247    0.4821     -0.0323    0.4941089 
238.3      2.1315     2.79229998588562 3.1389000415802 3.431900024414063 3.506999969482422 215.9      223.0742   548.3345   109.3744   2.3333     0.2566517  3.2614     2.0202     3.1915     3.0659     3.1133     3.0564     3.0345     2.9936     3.7086     0.3906     -28.8416   0.7688428  13.1806    0.4939     -0.1859    0.4811403 
238.4      2.1616     2.756700038909912 3.087599992752075 3.31060004234314 3.435699939727783 215.9      224.7508   552.316    108.7762   2.3728     0.2653891  3.2287     2.0045     3.3822     3.286      3.348      3.2675     3.2327     3.2184     3.8911     0.3902     -28.613    0.7070404  13.2168    0.4994     -0.1642    0.471511  
238.5      2.1817     2.751199960708618 3.00789999961853 3.162800073623657 3.431600093841553 215.9      223.7516   537.5694   108.4035   2.4228     0.266711   3.1926     2.0052     3.6895     3.5999     3.6605     3.562      3.5118     3.4739     4.4288     0.3907     -27.6262   0.6732365  13.3518    0.4976     0.0645     0.4655949 
238.6      2.2079     2.805500030517578 2.991100072860718 3.052700042724609 3.435899972915649 215.9      220.2836   527.14     107.7927   2.4932     0.2524303  3.1028     2.0346     4.5094     4.3966     4.4358     4.3166     4.2372     4.1138     5.7115     0.3919     -28.7265   0.6580835  12.5903    0.4606     0.2218     0.4560353 
238.7      2.2805     2.897300004959106 3.049099922180176 3.187400102615356 3.479300022125244 215.9      217.028    510.6523   105.2339   2.5947     0.2410594  3.0056     2.0836     6.52       6.3741     6.3953     6.2393     6.0896     5.9125     8.2295     0.3926     -29.4236   0.5700684  12.03      0.4216     0.3253     0.4177653 
238.8      2.3478     3.052799940109253 3.182499885559082 3.278899908065796 3.427700042724609 215.9      216.2538   485.418    100.0061   2.7267     0.235883   2.9029     2.1508     6.8854     6.7294     6.6886     6.5385     6.3575     6.1434     8.645      0.3926     -29.3798   0.5675356  11.8263    0.3828     0.3611     0.3478152 
238.9      2.3954     3.1875     3.410200119018555 3.753299951553345 3.577100038528442 215.9      217.559    506.8042   94.6237    2.867      0.2285613  2.6706     2.2205     5.4452     5.313      5.2544     5.151      5.0013     4.8099     6.8503     0.3936     -29.8612   0.6646942  10.9562    0.3497     0.6163     0.2859906 
239        2.4522     3.322099924087524 3.588200092315674 4.180500030517578 3.785700082778931 215.9      221.6442   519.8677   90.9284    2.964      0.2269472  2.5504     2.2516     4.1349     4.0134     3.9702     3.911      3.792      3.6256     5.2444     0.3944     -29.6861   0.7720482  10.4027    0.3269     0.7545     0.2487622 
239.1      2.3843     3.297199964523315 3.440599918365479 3.965699911117554 3.599499940872192 215.9      230.1488   508.9489   90.1385    2.9832     0.2332004  2.6485     2.2353     3.3492     3.1855     3.1544     3.1176     3.0256     2.8184     4.332      0.395      -28.2826   0.8544347  10.5283    0.3202     0.6472     0.2413051 
239.2      2.0755     2.833800077438354 2.901999950408936 3.400799989700317 3.186399936676025 215.9      238.4924   532.1711   95.4595    2.9224     0.2366838  2.7632     2.183      2.9807     2.7804     2.755      2.73       2.6484     2.4015     3.8787     0.3951     -27.5473   0.9373834  10.3829    0.3482     0.8656     0.2949742 
239.3      1.8525     2.428200006484985 2.5485999584198 2.944499969482422 2.833199977874756 215.9      247.035    555.4506   100.4053   2.8025     0.250003   2.8818     2.1008     2.7925     2.5467     2.5278     2.505      2.4294     2.1283     3.6011     0.3949     -25.997    0.9489059  10.2293    0.3877     1.1439     0.3527933 
239.4      1.6747     2.11080002784729 2.267699956893921 2.591799974441528 2.552000045776367 215.9      254.467    565.0331   102.0798   2.6611     0.279057   3.002      2.0133     2.7316     2.4534     2.4365     2.4184     2.3482     2.0127     3.4879     0.3943     -22.4439   0.8536607  10.168     0.4373     1.4179     0.3743099 
