~Version
 VERS              .         3.0                           : CWLS LOG ASCII STANDARD - VERSION 3.0
 WRAP              .         NO                            : ONE LINE PER DEPTH STEP
 DLM               .         SPACE                         : DELIMITING CHARACTER(SPACE TAB OR COMMA)
~Well Information
#_______________________________________________________________________________
#
#PARAMETER_NAME    .UNIT     VALUE                         : DESCRIPTION
#_______________________________________________________________________________
STRT               .M        0                             : First reference value
STOP               .M        817                           : Last reference value
STEP               .M        0.1                           : Step increment
NULL               .         -9999                         : Missing value
COMP               .                                       : Company
WELL               .         336                           : Well name
FLD                .         Karatube                      : Field
LOC                .                                       : Location
SRVC               .         SCH                           : Service Company
CTRY               .                                       : Country
DATE               .         10/25/2023                    : Service Date
LATI               .         0                             : Latitude
LONG               .         0                             : Longitude
GDAT               .                                       : Geodetic Datum
ORIGINALWELLNAME   .         Каратобе 336                  : 
RWS                .         -999                          : Def_Rw
WST                .         -999                          : Def_Rwt
~Parameter Information Block
#_______________________________________________________________________________
#
#PARAMETER_NAME    .UNIT     VALUE                         : DESCRIPTION
#_______________________________________________________________________________
SET                .         Las                           : 
TLFamily_AT10      .         Extra Shallow Resistivity     : 
TLFamily_AT20      .         Shallow Resistivity           : 
TLFamily_AT30      .         Medium Resistivity            : 
TLFamily_AT60      .         Deep Resistivity              : 
TLFamily_AT90      .         Extra Deep Resistivity        : 
TLFamily_BSC       .         Bit Size                      : 
TLFamily_CALI      .         Caliper                       : 
TLFamily_DEPTH     .         Measured Depth                : 
TLFamily_DT        .         Compressional Slowness        : 
TLFamily_GR        .         Gamma Ray                     : 
TLFamily_PEFZ      .         Photoelectric Factor          : 
TLFamily_PHI_FINAL .         Porosity                      : 
TLFamily_POTA      .         Potassium Concentration       : 
TLFamily_RHOZ      .         Bulk Density                  : 
TLFamily_RLA1      .         Extra Shallow Resistivity     : 
TLFamily_RLA2      .         Shallow Resistivity           : 
TLFamily_RLA3      .         Medium Resistivity            : 
TLFamily_RLA4      .         Deep Resistivity              : 
TLFamily_RLA5      .         Extra Deep Resistivity        : 
TLFamily_RT        .         Formation Resistivity         : 
TLFamily_RXO       .         Flushed Zone Resistivity      : 
TLFamily_SDEVM     .         Sonde Deviation               : 
TLFamily_SP        .         Spontaneous Potential         : 
TLFamily_SW_AR     .         Water Saturation              : 
TLFamily_THOR      .         Thorium Concentration         : 
TLFamily_TNPH      .         Neutron Porosity              : 
TLFamily_URAN      .         Uranium Concentration         : 
TLFamily_VSH_GR    .         Shale Volume                  : 
~Curve Information
#_______________________________________________________________________________
#
#LOGNAME           .UNIT     LOG_ID                        : DESCRIPTION
#_______________________________________________________________________________
DEPTH              .M                                      : Depth Index {F}
AT10               .ohm.m                                  : 10" Array Induction, two foot resolution Resistivity {F}
AT20               .ohm.m                                  : 20" Array Induction, two foot resolution Resistivity {F}
AT30               .ohm.m                                  : 30" Array Induction, two foot resolution Resistivity {F}
AT60               .ohm.m                                  : 60" Array Induction, two foot resolution Resistivity {F}
AT90               .ohm.m                                  : 90" Array Induction, two foot resolution Resistivity {F}
BSC                .mm                                     : Nominal Caliper {F}
CALI               .mm                                     : Caliper {F}
DT                 .US/M                                   : Sonic travel time {F}
GR                 .gAPI                                   : Gamma Ray {F}
PEFZ               .B/E                                    : Formation Photoelectric Factor {F}
PHI_FINAL          .m3/m3                                  : Porosity {F}
POTA               .%                                      : Potasium {F}
RHOZ               .g/cm3                                  : Bulk Density {F}
RLA1               .ohm.m                                  : HRLT Borehole Corrected Resistivity 1 {F}
RLA2               .ohm.m                                  : HRLT Borehole Corrected Resistivity 2 {F}
RLA3               .ohm.m                                  : HRLT Borehole Corrected Resistivity 3 {F}
RLA4               .ohm.m                                  : HRLT Borehole Corrected Resisitivity 4 {F}
RLA5               .ohm.m                                  : HRLT Borehole Corrected Resistivity 5 {F}
RT                 .ohm.m                                  : Formation Resistivity {F}
RXO                .ohm.m                                  : Flushed zone resistivity {F}
SDEVM              .deg                                    : Hole Deviation {F}
SP                 .mV                                     : Spontaneous Potential {F}
SW_AR              .m3/m3                                  :  {F}
THOR               .PPM                                    : Thorium {F}
TNPH               .v/v                                    : Neutron porosity {F}
URAN               .PPM                                    : Uranium {F}
VSH_GR             .unitless                               : Shale volume fraction from Gamma Ray {F}
~Ascii
# ...
813.6      12.0283    56.9324    21.3338    15.1931    17.4026    215.9      72.3022    185.3952   39.5514    -9999      0          1.0132     -9999      6.9451     7.013      6.9317     6.7129     6.3665     8.1116     1.2398     0.4516     45.7252    1          0.7044     -0.0173    0.3066     0         
813.7      -9999      -9999      -9999      -9999      -9999      215.9      72.4162    185.3952   39.5514    -9999      0          1.0132     -9999      6.9451     7.013      6.9317     6.7129     6.3665     8.1116     1.2398     0.4516     47.2303    1          0.7044     -0.0173    0.3066     0         
813.8      -9999      -9999      -9999      -9999      -9999      215.9      72.3762    185.3952   39.5514    -9999      0          1.0132     -9999      6.9451     7.013      6.9317     6.7129     6.3665     8.1116     1.2398     0.4516     45.7801    1          0.7044     -0.0173    0.3066     0         
813.9      -9999      -9999      -9999      -9999      -9999      215.9      72.6518    185.3952   39.5514    -9999      0          1.0132     -9999      6.9451     7.013      6.9317     6.7129     6.3665     8.1116     1.2398     0.4516     35.3172    1          0.7044     -0.0173    0.3066     0         
814        -9999      -9999      -9999      -9999      -9999      215.9      72.843     185.3952   39.5514    -9999      0          1.0132     -9999      6.9451     7.013      6.9317     6.7129     6.3665     8.1116     1.2398     0.4516     27.383     1          0.7044     -0.0173    0.3066     0         
814.1      -9999      -9999      -9999      -9999      -9999      215.9      72.4708    185.3952   39.5514    -9999      0          1.0132     -9999      6.9451     7.013      6.9317     6.7129     6.3665     8.1116     1.2398     0.4516     28.4707    1          0.7044     -0.0173    0.3066     0         
814.2      -9999      -9999      -9999      -9999      -9999      215.9      72.503     185.3952   39.5514    -9999      0          1.0132     -9999      6.9451     7.013      6.9317     6.7129     6.3665     8.1116     1.2398     0.4516     28.3045    1          0.7044     -0.0173    0.3066     0         
814.3      -9999      -9999      -9999      -9999      -9999      215.9      72.6424    185.3952   39.5514    -9999      0          1.0132     -9999      6.9451     7.013      6.9317     6.7129     6.3665     8.1116     1.2398     0.4516     27.7121    1          0.7044     -0.0173    0.3066     0         
814.4      -9999      -9999      -9999      -9999      -9999      215.9      72.4276    185.3952   39.5514    -9999      0          1.0132     -9999      6.9451     7.013      6.9317     6.7129     6.3665     8.1116     1.2398     0.4516     26.8684    1          0.7044     -0.0173    0.3066     0         
814.5      -9999      -9999      -9999      -9999      -9999      215.9      72.542     185.3952   39.5514    -9999      0          1.0132     -9999      6.9451     7.013      6.9317     6.7129     6.3665     8.1116     1.2398     0.4516     26.3404    1          0.7044     -0.0173    0.3066     0         
814.6      -9999      -9999      -9999      -9999      -9999      215.9      72.788     185.3952   39.5514    -9999      0          1.0132     -9999      6.9451     7.013      6.9317     6.7129     6.3665     8.1116     1.2398     0.4516     25.9113    1          0.7044     -0.0173    0.3066     0         
814.7      -9999      -9999      -9999      -9999      -9999      215.9      72.6594    185.3952   39.5514    -9999      0          1.0132     -9999      6.9451     7.013      6.9317     6.7129     6.3665     8.1116     1.2398     0.4516     25.44      1          0.7044     -0.0173    0.3066     0         
814.8      -9999      -9999      -9999      -9999      -9999      215.9      72.5378    185.3952   39.5514    -9999      0          1.0132     -9999      6.9451     7.013      6.9317     6.7129     6.3665     8.1116     1.2398     0.4516     24.8025    1          0.7044     -0.0173    0.3066     0         
814.9      -9999      -9999      -9999      -9999      -9999      215.9      72.4238    185.3952   39.5514    -9999      0          1.0132     -9999      6.9451     7.013      6.9317     6.7129     6.3665     8.1116     1.2398     0.4516     24.0836    1          0.7044     -0.0173    0.3066     0         
815        -9999      -9999      -9999      -9999      -9999      215.9      72.3274    185.3952   39.5514    -9999      0          1.0132     -9999      -9999      -9999      -9999      -9999      -9999      -9999      -9999      0.4516     23.3146    -9999      0.7044     -0.0173    0.3066     0         
815.1      -9999      -9999      -9999      -9999      -9999      215.9      72.281     185.3952   39.5514    -9999      0          1.0132     -9999      -9999      -9999      -9999      -9999      -9999      -9999      -9999      0.4516     21.8211    -9999      0.7044     -0.0173    0.3066     0         
815.2      -9999      -9999      -9999      -9999      -9999      215.9      72.281     185.3952   39.5514    -9999      0          1.0132     -9999      -9999      -9999      -9999      -9999      -9999      -9999      -9999      0.4516     20.0326    -9999      0.7044     -0.0173    0.3066     0         
815.3      -9999      -9999      -9999      -9999      -9999      215.9      72.281     185.3952   39.5514    -9999      0          1.0132     -9999      -9999      -9999      -9999      -9999      -9999      -9999      -9999      0.4516     18.9422    -9999      0.7044     -0.0173    0.3066     0         
815.4      -9999      -9999      -9999      -9999      -9999      215.9      72.281     185.3952   39.5514    -9999      0          1.0132     -9999      -9999      -9999      -9999      -9999      -9999      -9999      -9999      0.4516     18.9809    -9999      0.7044     -0.0173    0.3066     0         
815.5      -9999      -9999      -9999      -9999      -9999      215.9      72.281     185.3952   39.5514    -9999      0          1.0132     -9999      -9999      -9999      -9999      -9999      -9999      -9999      -9999      0.4516     19.6964    -9999      0.7044     -0.0173    0.3066     0         
815.6      -9999      -9999      -9999      -9999      -9999      215.9      72.281     185.3952   39.5514    -9999      0          1.0132     -9999      -9999      -9999      -9999      -9999      -9999      -9999      -9999      0.4516     19.5411    -9999      0.7044     -0.0173    0.3066     0         
815.7      -9999      -9999      -9999      -9999      -9999      215.9      72.281     185.3952   39.5514    -9999      0          1.0132     -9999      -9999      -9999      -9999      -9999      -9999      -9999      -9999      0.4516     18.0009    -9999      0.7044     -0.0173    0.3066     0         
815.8      -9999      -9999      -9999      -9999      -9999      215.9      72.281     185.3952   39.5514    -9999      0          1.0132     -9999      -9999      -9999      -9999      -9999      -9999      -9999      -9999      0.4516     15.4029    -9999      0.7044     -0.0173    0.3066     0         
815.9      -9999      -9999      -9999      -9999      -9999      215.9      72.281     185.3952   39.5514    -9999      0          1.0132     -9999      -9999      -9999      -9999      -9999      -9999      -9999      -9999      0.4516     15.2352    -9999      0.7044     -0.0173    0.3066     0         
816        -9999      -9999      -9999      -9999      -9999      215.9      72.281     185.3952   39.5514    -9999      0          1.0132     -9999      -9999      -9999      -9999      -9999      -9999      -9999      -9999      0.4516     15.1514    -9999      0.7044     -0.0173    0.3066     0         
816.1      -9999      -9999      -9999      -9999      -9999      215.9      72.281     185.3952   39.5514    -9999      0          1.0132     -9999      -9999      -9999      -9999      -9999      -9999      -9999      -9999      0.4516     15.1514    -9999      0.7044     -0.0173    0.3066     0         
