~Version
 VERS              .         3.0                           : CWLS LOG ASCII STANDARD - VERSION 3.0
 WRAP              .         NO                            : ONE LINE PER DEPTH STEP
 DLM               .         SPACE                         : DELIMITING CHARACTER(SPACE TAB OR COMMA)
~Well Information
#_______________________________________________________________________________
#
#PARAMETER_NAME    .UNIT     VALUE                         : DESCRIPTION
#_______________________________________________________________________________
STRT               .M        0                             : First reference value
STOP               .M        817                           : Last reference value
STEP               .M        0.1                           : Step increment
NULL               .         -9999                         : Missing value
COMP               .                                       : Company
WELL               .         336                           : Well name
FLD                .         Karatube                      : Field
LOC                .                                       : Location
SRVC               .         SCH                           : Service Company
CTRY               .                                       : Country
DATE               .         10/25/2023                    : Service Date
LATI               .         0                             : Latitude
LONG               .         0                             : Longitude
GDAT               .                                       : Geodetic Datum
ORIGINALWELLNAME   .         Каратобе 336                  : 
RWS                .         -999                          : Def_Rw
WST                .         -999                          : Def_Rwt
~Parameter Information Block
#_______________________________________________________________________________
#
#PARAMETER_NAME    .UNIT     VALUE                         : DESCRIPTION
#_______________________________________________________________________________
SET                .         Las                           : 
TLFamily_AT10      .         Extra Shallow Resistivity     : 
TLFamily_AT20      .         Shallow Resistivity           : 
TLFamily_AT30      .         Medium Resistivity            : 
TLFamily_AT60      .         Deep Resistivity              : 
TLFamily_AT90      .         Extra Deep Resistivity        : 
TLFamily_BSC       .         Bit Size                      : 
TLFamily_CALI      .         Caliper                       : 
TLFamily_DEPTH     .         Measured Depth                : 
TLFamily_DT        .         Compressional Slowness        : 
TLFamily_GR        .         Gamma Ray                     : 
TLFamily_PEFZ      .         Photoelectric Factor          : 
TLFamily_PHI_FINAL .         Porosity                      : 
TLFamily_POTA      .         Potassium Concentration       : 
TLFamily_RHOZ      .         Bulk Density                  : 
TLFamily_RLA1      .         Extra Shallow Resistivity     : 
TLFamily_RLA2      .         Shallow Resistivity           : 
TLFamily_RLA3      .         Medium Resistivity            : 
TLFamily_RLA4      .         Deep Resistivity              : 
TLFamily_RLA5      .         Extra Deep Resistivity        : 
TLFamily_RT        .         Formation Resistivity         : 
TLFamily_RXO       .         Flushed Zone Resistivity      : 
TLFamily_SDEVM     .         Sonde Deviation               : 
TLFamily_SP        .         Spontaneous Potential         : 
TLFamily_SW_AR     .         Water Saturation              : 
TLFamily_THOR      .         Thorium Concentration         : 
TLFamily_TNPH      .         Neutron Porosity              : 
TLFamily_URAN      .         Uranium Concentration         : 
TLFamily_VSH_GR    .         Shale Volume                  : 
~Curve Information
#_______________________________________________________________________________
#
#LOGNAME           .UNIT     LOG_ID                        : DESCRIPTION
#_______________________________________________________________________________
DEPTH              .M                                      : Depth Index {F}
AT10               .ohm.m                                  : 10" Array Induction, two foot resolution Resistivity {F}
AT20               .ohm.m                                  : 20" Array Induction, two foot resolution Resistivity {F}
AT30               .ohm.m                                  : 30" Array Induction, two foot resolution Resistivity {F}
AT60               .ohm.m                                  : 60" Array Induction, two foot resolution Resistivity {F}
AT90               .ohm.m                                  : 90" Array Induction, two foot resolution Resistivity {F}
BSC                .mm                                     : Nominal Caliper {F}
CALI               .mm                                     : Caliper {F}
DT                 .US/M                                   : Sonic travel time {F}
GR                 .gAPI                                   : Gamma Ray {F}
PEFZ               .B/E                                    : Formation Photoelectric Factor {F}
PHI_FINAL          .m3/m3                                  : Porosity {F}
POTA               .%                                      : Potasium {F}
RHOZ               .g/cm3                                  : Bulk Density {F}
RLA1               .ohm.m                                  : HRLT Borehole Corrected Resistivity 1 {F}
RLA2               .ohm.m                                  : HRLT Borehole Corrected Resistivity 2 {F}
RLA3               .ohm.m                                  : HRLT Borehole Corrected Resistivity 3 {F}
RLA4               .ohm.m                                  : HRLT Borehole Corrected Resisitivity 4 {F}
RLA5               .ohm.m                                  : HRLT Borehole Corrected Resistivity 5 {F}
RT                 .ohm.m                                  : Formation Resistivity {F}
RXO                .ohm.m                                  : Flushed zone resistivity {F}
SDEVM              .deg                                    : Hole Deviation {F}
SP                 .mV                                     : Spontaneous Potential {F}
SW_AR              .m3/m3                                  :  {F}
THOR               .PPM                                    : Thorium {F}
TNPH               .v/v                                    : Neutron porosity {F}
URAN               .PPM                                    : Uranium {F}
VSH_GR             .unitless                               : Shale volume fraction from Gamma Ray {F}
~Ascii
# ...
635.5      2.508      2.864599943161011 3.055599927902222 3.208199977874756 3.263000011444092 215.9      210.07     403.9239   96.6972    2.6565     0.1658397  2.415      2.2167     3.5495     3.4768     3.5021     3.464      3.3232     3.2967     4.2566     0.1986     -6.8669    0.5884304  6.9997     0.4216     1.7024     0.4504118 
635.6      2.3206     2.530900001525879 2.727200031280518 2.823600053787231 2.893599987030029 215.9      210.283    407.0426   96.0024    2.6325     0.1705568  2.4399     2.2112     3.268      3.192      3.2259     3.1886     3.0526     3.0221     3.9459     0.1967     -4.6143    0.6004797  7.0523     0.4211     1.9078     0.4418027 
635.7      2.1663     2.337899923324585 2.470299959182739 2.548399925231934 2.607399940490723 215.9      210.5106   409.3556   95.7474    2.5985     0.1736751  2.4719     2.2071     3.0354     2.9581     2.9937     2.9544     2.8217     2.7797     3.7163     0.1951     -1.2667    0.6177354  7.1965     0.424      2.0016     0.4386669 
635.8      2.0108     2.126399993896484 2.240200042724609 2.299499988555908 2.342400074005127 215.9      210.5574   410.497    96.3399    2.544      0.1734989  2.5023     2.2068     2.8806     2.8099     2.8401     2.8041     2.6735     2.6288     3.5531     0.194      3.2124     0.6378376  7.4819     0.4333     1.9245     0.4459727 
635.9      1.893      1.986700057983398 2.091700077056885 2.13700008392334 2.169899940490723 215.9      210.1226   410.9141   97.325     2.4729     0.1685912  2.5076     2.2045     2.8389     2.7936     2.8161     2.7836     2.6472     2.6242     3.469      0.1929     -0.6167    0.6570443  7.3459     0.4297     2.1076     0.4582733 
636        1.8049     1.882699966430664 1.967700004577637 2.012500047683716 2.035399913787842 215.9      209.6426   408.985    98.6255    2.4101     0.1645019  2.5117     2.1986     2.8171     2.7832     2.7942     2.7713     2.6311     2.6151     3.4306     0.192      -1.8737    0.6746784  7.242      0.4311     2.2945     0.4748115 
636.1      1.7608     1.825999975204468 1.895400047302246 1.941699981689453 1.955399990081787 215.9      209.6002   402.8997   100.4028   2.3865     0.1619666  2.5206     2.1914     2.7816     2.7598     2.753      2.7379     2.5981     2.5767     3.4228     0.1914     3.9515     0.6908936  7.3146     0.4455     2.416      0.4979755 
636.2      1.759      1.817899942398071 1.877099990844727 1.923400044441223 1.931399941444397 215.9      209.6918   397.128    101.884    2.3982     0.153285   2.5493     2.1939     2.9603     2.9519     2.9449     2.9316     2.7849     2.7862     3.5718     0.1911     7.1961     0.6989992  7.8309     0.4513     2.4061     0.5177889 
636.3      1.7772     1.858700037002563 1.910400032997131 1.954100012779236 1.965299963951111 215.9      209.8246   392.0199   103.6356   2.4382     0.1349687  2.5839     2.212      3.1494     3.1381     3.1482     3.1346     2.9791     3.0084     3.6714     0.1909     8.3274     0.7607299  8.247      0.4467     2.4624     0.541832  
636.4      1.7998     1.922700047492981 1.973999977111816 2.023699998855591 2.021199941635132 215.9      209.9      388.2994   106.1701   2.5432     0.1041725  2.6227     2.2412     3.0446     3.0042     3.0324     3.0183     2.8709     2.8917     3.5347     0.1911     5.8493     1          8.2025     0.4217     2.7403     0.5778338 
636.5      1.8136     1.950799942016602 2.010200023651123 2.066800117492676 2.069700002670288 215.9      210.0982   382.2739   108.6338   2.6727     0.07490731 2.6805     2.2694     2.7883     2.7193     2.7623     2.7462     2.616      2.6149     3.2836     0.1913     2.6593     1          8.7175     0.4043     2.655      0.6142544 
636.6      1.7602     1.902500033378601 1.958199977874756 2.022200107574463 2.007800102233887 215.9      210.2208   377.8891   110.6342   2.8129     0.05132408 2.7364     2.2905     2.6325     2.5642     2.6147     2.6028     2.4842     2.4966     3.036      0.1917     0.6233     1          9.2558     0.3883     2.508      0.6448982 
636.7      1.7057     1.825299978256226 1.870700001716614 1.937800049781799 1.921200037002563 215.9      209.8674   380.3772   111.3049   2.934      0.04075726 2.7703     2.3044     2.709      2.6622     2.7269     2.7235     2.6044     2.6577     2.9045     0.1925     2.6522     1          9.3909     0.3705     2.4827     0.6553935 
636.8      1.661      1.771900057792664 1.814100027084351 1.87880003452301 1.866299986839294 215.9      209.698    379.4558   111.0026   3.0256     0.04180611 2.7658     2.3132     2.815      2.7904     2.8577     2.8635     2.7425     2.8084     2.8901     0.1932     0.3253     1          9.302      0.382      2.3707     0.6506491 
636.9      1.6748     1.786999940872192 1.84469997882843 1.924000024795532 1.916700005531311 215.9      209.7094   375.0122   110.2154   3.0673     0.04707737 2.7468     2.3166     2.8356     2.8167     2.8762     2.8932     2.7819     2.8359     2.948      0.1938     -1.91      1          9.0608     0.4004     2.2539     0.6384014 
637        1.7828     1.875900030136108 1.956300020217896 2.053699970245361 2.040199995040894 215.9      209.8964   361.5241   108.9281   3.0817     0.04554999 2.7264     2.3242     3.1791     3.1712     3.2261     3.2559     3.1417     3.1904     3.3866     0.1942     2.6651     1          8.5418     0.4023     2.2459     0.6187016 
637.1      1.9243     2.017899990081787 2.116400003433228 2.235100030899048 2.216700077056885 215.9      210.0326   354.8892   108.6505   3.0652     0.04454578 2.7058     2.3352     3.9905     3.9953     4.052      4.0873     3.9569     4.0141     4.0898     0.195      1.8845     1          8.2621     0.4178     2.1278     0.6145062 
637.2      2.0541     2.230999946594238 2.352699995040894 2.506799936294556 2.48769998550415 215.9      210.1144   350.8624   109.0052   3.0557     0.04487304 2.6898     2.3393     4.247      4.2392     4.2845     4.3181     4.1967     4.2629     4.1256     0.1956     -1.6234    1          8.1783     0.4291     1.9626     0.6198701 
637.3      2.2544     2.454099893569946 2.616300106048584 2.818399906158447 2.807699918746948 215.9      210.144    343.5969   110.1856   3.0193     0.03332177 2.6978     2.3314     3.6884     3.6564     3.6876     3.712      3.6263     3.6777     3.6032     0.1948     -6.217     1          8.5307     0.3841     1.822      0.6379408 
637.4      2.2849     2.538700103759766 2.73769998550415 2.974999904632568 2.993200063705444 215.9      210.1348   339.9216   110.2593   2.9832     0.03467434 2.7027     2.312      3.3047     3.2557     3.2914     3.3121     3.2551     3.2844     3.2928     0.1941     -6.7164    1          8.5974     0.3634     1.8011     0.6390804 
637.5      2.1857     2.442500114440918 2.65339994430542 2.889100074768066 2.938600063323975 215.9      210.0972   339.9708   109.7819   2.9398     0.04471579 2.7116     2.2788     3.2476     3.2003     3.2444     3.2633     3.229      3.2383     3.2752     0.1935     -4.5427    1          8.5341     0.3561     1.8331     0.6317222 
637.6      2.1327     2.327800035476685 2.540999889373779 2.773999929428101 2.838000059127808 215.9      210.0868   353.094    110.1042   2.8943     0.05023356 2.7691     2.2464     3.3864     3.3401     3.3919     3.4067     3.3902     3.3848     3.451      0.1926     -0.1961    1          8.7779     0.3407     1.7244     0.6366837 
637.7      2.1258     2.299400091171265 2.512099981307983 2.757999897003174 2.838399887084961 215.9      210.0392   359.9797   110.2827   2.8729     0.05578791 2.7759     2.2252     3.6929     3.6469     3.7151     3.7338     3.7318     3.705      3.7072     0.1904     0.8376     1          8.8688     0.3402     1.6949     0.6394425 
637.8      2.2125     2.396500110626221 2.616199970245361 2.879499912261963 2.964699983596802 215.9      209.9816   362.3767   110.2156   2.9068     0.05879231 2.749      2.2225     3.8742     3.8217     3.8978     3.9215     3.9178     3.8899     3.8101     0.1874     -0.707     1          8.8401     0.3504     1.7199     0.6384045 
