~Version
 VERS              .         3.0                           : CWLS LOG ASCII STANDARD - VERSION 3.0
 WRAP              .         NO                            : ONE LINE PER DEPTH STEP
 DLM               .         SPACE                         : DELIMITING CHARACTER(SPACE TAB OR COMMA)
~Well Information
#_______________________________________________________________________________
#
#PARAMETER_NAME    .UNIT     VALUE                         : DESCRIPTION
#_______________________________________________________________________________
STRT               .M        0                             : First reference value
STOP               .M        817                           : Last reference value
STEP               .M        0.1                           : Step increment
NULL               .         -9999                         : Missing value
COMP               .                                       : Company
WELL               .         336                           : Well name
FLD                .         Karatube                      : Field
LOC                .                                       : Location
SRVC               .         SCH                           : Service Company
CTRY               .                                       : Country
DATE               .         10/25/2023                    : Service Date
LATI               .         0                             : Latitude
LONG               .         0                             : Longitude
GDAT               .                                       : Geodetic Datum
ORIGINALWELLNAME   .         Каратобе 336                  : 
RWS                .         -999                          : Def_Rw
WST                .         -999                          : Def_Rwt
~Parameter Information Block
#_______________________________________________________________________________
#
#PARAMETER_NAME    .UNIT     VALUE                         : DESCRIPTION
#_______________________________________________________________________________
SET                .         Las                           : 
TLFamily_AT10      .         Extra Shallow Resistivity     : 
TLFamily_AT20      .         Shallow Resistivity           : 
TLFamily_AT30      .         Medium Resistivity            : 
TLFamily_AT60      .         Deep Resistivity              : 
TLFamily_AT90      .         Extra Deep Resistivity        : 
TLFamily_BSC       .         Bit Size                      : 
TLFamily_CALI      .         Caliper                       : 
TLFamily_DEPTH     .         Measured Depth                : 
TLFamily_DT        .         Compressional Slowness        : 
TLFamily_GR        .         Gamma Ray                     : 
TLFamily_PEFZ      .         Photoelectric Factor          : 
TLFamily_PHI_FINAL .         Porosity                      : 
TLFamily_POTA      .         Potassium Concentration       : 
TLFamily_RHOZ      .         Bulk Density                  : 
TLFamily_RLA1      .         Extra Shallow Resistivity     : 
TLFamily_RLA2      .         Shallow Resistivity           : 
TLFamily_RLA3      .         Medium Resistivity            : 
TLFamily_RLA4      .         Deep Resistivity              : 
TLFamily_RLA5      .         Extra Deep Resistivity        : 
TLFamily_RT        .         Formation Resistivity         : 
TLFamily_RXO       .         Flushed Zone Resistivity      : 
TLFamily_SDEVM     .         Sonde Deviation               : 
TLFamily_SP        .         Spontaneous Potential         : 
TLFamily_SW_AR     .         Water Saturation              : 
TLFamily_THOR      .         Thorium Concentration         : 
TLFamily_TNPH      .         Neutron Porosity              : 
TLFamily_URAN      .         Uranium Concentration         : 
TLFamily_VSH_GR    .         Shale Volume                  : 
~Curve Information
#_______________________________________________________________________________
#
#LOGNAME           .UNIT     LOG_ID                        : DESCRIPTION
#_______________________________________________________________________________
DEPTH              .M                                      : Depth Index {F}
AT10               .ohm.m                                  : 10" Array Induction, two foot resolution Resistivity {F}
AT20               .ohm.m                                  : 20" Array Induction, two foot resolution Resistivity {F}
AT30               .ohm.m                                  : 30" Array Induction, two foot resolution Resistivity {F}
AT60               .ohm.m                                  : 60" Array Induction, two foot resolution Resistivity {F}
AT90               .ohm.m                                  : 90" Array Induction, two foot resolution Resistivity {F}
BSC                .mm                                     : Nominal Caliper {F}
CALI               .mm                                     : Caliper {F}
DT                 .US/M                                   : Sonic travel time {F}
GR                 .gAPI                                   : Gamma Ray {F}
PEFZ               .B/E                                    : Formation Photoelectric Factor {F}
PHI_FINAL          .m3/m3                                  : Porosity {F}
POTA               .%                                      : Potasium {F}
RHOZ               .g/cm3                                  : Bulk Density {F}
RLA1               .ohm.m                                  : HRLT Borehole Corrected Resistivity 1 {F}
RLA2               .ohm.m                                  : HRLT Borehole Corrected Resistivity 2 {F}
RLA3               .ohm.m                                  : HRLT Borehole Corrected Resistivity 3 {F}
RLA4               .ohm.m                                  : HRLT Borehole Corrected Resisitivity 4 {F}
RLA5               .ohm.m                                  : HRLT Borehole Corrected Resistivity 5 {F}
RT                 .ohm.m                                  : Formation Resistivity {F}
RXO                .ohm.m                                  : Flushed zone resistivity {F}
SDEVM              .deg                                    : Hole Deviation {F}
SP                 .mV                                     : Spontaneous Potential {F}
SW_AR              .m3/m3                                  :  {F}
THOR               .PPM                                    : Thorium {F}
TNPH               .v/v                                    : Neutron porosity {F}
URAN               .PPM                                    : Uranium {F}
VSH_GR             .unitless                               : Shale volume fraction from Gamma Ray {F}
~Ascii
# ...
503.5      1.4628     1.792700052261353 1.903599977493286 2.000999927520752 2.099200010299683 215.9      210.2542   430.8307   113.3373   2.5317     0.09286065 3.0912     2.1644     2.5717     2.6748     2.6005     2.5234     2.5236     2.5652     2.8174     0.225      -6.4031    1          9.0007     0.4019     2.0542     0.6672078 
503.6      1.4577     1.787899971008301 1.907299995422363 2.021600008010864 2.078399896621704 215.9      210.1178   431.2461   112.0708   2.5164     0.10472    3.0758     2.159      2.5296     2.5666     2.489      2.419      2.4181     2.3994     3.0591     0.2257     -2.7917    1          8.7936     0.4122     2.1156     0.6476066 
503.7      1.4307     1.748600006103516 1.862300038337708 1.993899941444397 2.015000104904175 215.9      210.0056   431.5964   110.5039   2.4927     0.11846    3.0829     2.1505     2.2782     2.2243     2.1615     2.1056     2.1047     1.9781     2.9855     0.2266     2.5802     1          8.7583     0.4217     2.0241     0.6238886 
503.8      1.3756     1.653800010681152 1.74399995803833 1.877099990844727 1.884799957275391 215.9      210.1052   432.5789   110.9661   2.4724     0.1184921  3.0721     2.138      1.9777     1.8579     1.8164     1.7749     1.7727     1.5873     2.6412     0.2273     1.5209     1          8.8114     0.4181     1.7862     0.6308245 
503.9      1.3021     1.537600040435791 1.595700025558472 1.731600046157837 1.722800016403198 215.9      210.1856   431.849    107.9172   2.4945     0.1410173  3.0709     2.1215     1.9654     1.8291     1.7964     1.763      1.7604     1.5719     2.6146     0.2275     2.4914     1          8.7936     0.4217     1.7713     0.5859866 
504        1.2719     1.476400017738342 1.506100058555603 1.657799959182739 1.648000001907349 215.9      210.446    426.4111   103.51     2.5604     0.1642316  3.0673     2.1166     2.1283     1.9904     1.9564     1.9234     1.9174     1.7286     2.827      0.2273     3.7948     1          8.7701     0.4267     1.8623     0.5248457 
504.1      1.3015     1.495399951934814 1.523000001907349 1.686800003051758 1.674100041389465 215.9      211.5718   395.369    102.1184   2.7034     0.1490986  3.0146     2.1349     2.4007     2.2692     2.233      2.1977     2.1836     1.9965     3.1942     0.2268     0.3273     1          8.954      0.4157     1.8931     0.5064012 
504.2      1.3909     1.607200026512146 1.685799956321716 1.822900056838989 1.803900003433228 215.9      212.9802   362.0043   100.8891   2.9245     0.1214222  2.9538     2.1878     3.1753     3.07       3.0193     2.9763     2.9494     2.7561     4.2811     0.226      -0.668     1          8.9755     0.4072     1.9099     0.4904391 
504.3      1.6779     2.004699945449829 2.158400058746338 2.307600021362305 2.299799919128418 215.9      214.2206   326.988    99.6659    3.2005     0.07876622 2.8753     2.2792     6.9109     6.9788     6.9416     6.8601     6.7766     6.7048     9.3809     0.225      -0.1379    1          8.8452     0.3959     1.9166     0.4748586 
504.4      2.1258     2.712100028991699 2.913500070571899 3.059299945831299 3.055299997329712 215.9      213.7924   290.0566   97.3205    3.557      0.03600142 2.6553     2.3979     28.5951    30.4822    31.0168    30.7899    30.4675    31.1227    26.1222    0.2231     -0.2437    1          8.1617     0.3355     1.9088     0.4458069 
504.5      2.8196     4.285600185394287 4.594500064849854 5.011899948120117 4.979499816894531 215.9      213.1958   271.6196   94.8554    3.8924     0.01027551 2.4931     2.52       48.5468    49.293     50.3808    50.07      49.7722    50.5061    38.5059    0.2217     -3.0747    1          7.6475     0.2795     1.8093     0.416402  
504.6      3.8801     6.980100154876709 7.803599834442139 8.484100341796875 8.487400054931641 215.9      212.5874   269.2086   92.4122    4.1135     0          2.3843     2.6132     19.4561    19.2983    19.6218    19.5854    19.6249    19.6568    14.2002    0.2207     -7.8288    1          7.2888     0.2285     1.6438     0.3883583 
504.7      4.3895     7.301300048828125 9.145899772644043 9.661899566650391 9.53279972076416 215.9      211.6852   302.6736   92.7478    4.1748     0          2.4617     2.6443     5.6356     5.5094     5.4435     5.4017     5.4383     5.4844     5.4766     0.2202     -7.3425    1          7.4699     0.2135     1.6297     0.3921471 
504.8      3.5106     6.133299827575684 8.014699935913086 8.593299865722656 8.416600227355957 215.9      210.9148   339.8318   96.8456    4.0552     0.01381984 2.6083     2.5981     3.0688     2.9322     2.9159     2.8877     2.9179     2.8425     3.5846     0.2198     -6.0896    1          7.8721     0.2204     1.6841     0.4400533 
504.9      2.1906     3.865400075912476 4.530700206756592 5.035099983215332 4.832399845123291 215.9      210.5844   380.5383   104.5581   3.79       0.02025179 2.8215     2.4999     2.5965     2.4473     2.426      2.3982     2.4181     2.2735     3.2937     0.2194     -4.1003    1          8.4866     0.2486     1.8041     0.5390055 
505        1.899      2.521300077438354 2.697400093078613 2.95169997215271 2.836499929428101 215.9      210.953    414.7242   109.4005   3.4863     0.02932629 2.9491     2.3898     2.5594     2.3792     2.3492     2.3161     2.3265     2.1139     3.3588     0.2177     -3.3726    1          8.7171     0.3087     2.1109     0.6075327 
505.1      1.5856     1.989699959754944 2.079200029373169 2.264300107955933 2.164999961853027 215.9      211.4468   434.1963   113.7186   3.2435     0.04489509 3.0173     2.2949     2.6201     2.4325     2.3923     2.3581     2.3625     2.1233     3.4628     0.2164     -1.2228    1          8.8195     0.3657     2.1919     0.6731855 
505.2      1.4596     1.74590003490448 1.840999960899353 1.992300033569336 1.896600008010864 215.9      211.7192   436.4731   117.4554   3.1143     0.05139263 3.0166     2.236      2.6279     2.4686     2.4103     2.3729     2.3649     2.1275     3.499      0.2157     2.6116     1          8.7761     0.4188     2.0057     0.7336996 
505.3      1.4588     1.668900012969971 1.788900017738342 1.926100015640259 1.846300005912781 215.9      211.4054   436.762    116.5583   3.0404     0.06396532 3.0378     2.2154     2.5632     2.4767     2.4027     2.364      2.3487     2.181      3.3876     0.2151     -0.009     1          8.7451     0.4223     1.9854     0.7188469 
505.4      1.4561     1.671499967575073 1.799700021743774 1.925799965858459 1.872200012207031 215.9      210.962    437.5182   116.1775   3.0023     0.06510651 3.0681     2.213      2.4515     2.4499     2.3723     2.3303     2.3134     2.2644     3.0191     0.2146     -2.5911    1          8.709      0.4146     2.0116     0.7126052 
505.5      1.443      1.686800003051758 1.813599944114685 1.932999968528748 1.901999950408936 215.9      210.6948   439.0948   116.9179   2.9862     0.05684125 3.109      2.2106     2.3972     2.4645     2.389      2.3403     2.318      2.3512     2.6566     0.2141     -4.5511    1          8.6647     0.3959     2.0872     0.7247756 
505.6      1.441      1.713299989700317 1.84060001373291 1.961400032043457 1.940099954605103 215.9      210.6828   439.0057   115.0315   2.9438     0.07072604 3.1535     2.2023     2.3963     2.4888     2.4571     2.3962     2.364      2.4205     2.4703     0.2133     -2.2344    1          8.9299     0.3953     2.0536     0.6940441 
505.7      1.4412     1.723600029945374 1.866199970245361 1.986600041389465 1.980499982833862 215.9      210.757    438.6934   113.0904   2.8732     0.08548093 3.1969     2.1917     2.3837     2.451      2.4951     2.4233     2.3853     2.4251     2.4101     0.2128     -0.6394    1          9.1038     0.3957     2.0331     0.6633559 
505.8      1.445      1.730200052261353 1.878000020980835 1.992300033569336 2.032000064849854 215.9      210.7164   438.3515   111.6092   2.7916     0.09734752 3.2376     2.179      2.3387     2.3841     2.4539     2.3841     2.3424     2.378      2.3554     0.2126     -1.173     1          9.0569     0.3937     2.0581     0.6405588 
