~Version
 VERS              .         3.0                           : CWLS LOG ASCII STANDARD - VERSION 3.0
 WRAP              .         NO                            : ONE LINE PER DEPTH STEP
 DLM               .         SPACE                         : DELIMITING CHARACTER(SPACE TAB OR COMMA)
~Well Information
#_______________________________________________________________________________
#
#PARAMETER_NAME    .UNIT     VALUE                         : DESCRIPTION
#_______________________________________________________________________________
STRT               .M        0                             : First reference value
STOP               .M        817                           : Last reference value
STEP               .M        0.1                           : Step increment
NULL               .         -9999                         : Missing value
COMP               .                                       : Company
WELL               .         336                           : Well name
FLD                .         Karatube                      : Field
LOC                .                                       : Location
SRVC               .         SCH                           : Service Company
CTRY               .                                       : Country
DATE               .         10/25/2023                    : Service Date
LATI               .         0                             : Latitude
LONG               .         0                             : Longitude
GDAT               .                                       : Geodetic Datum
ORIGINALWELLNAME   .         Каратобе 336                  : 
RWS                .         -999                          : Def_Rw
WST                .         -999                          : Def_Rwt
~Parameter Information Block
#_______________________________________________________________________________
#
#PARAMETER_NAME    .UNIT     VALUE                         : DESCRIPTION
#_______________________________________________________________________________
SET                .         Las                           : 
TLFamily_AT10      .         Extra Shallow Resistivity     : 
TLFamily_AT20      .         Shallow Resistivity           : 
TLFamily_AT30      .         Medium Resistivity            : 
TLFamily_AT60      .         Deep Resistivity              : 
TLFamily_AT90      .         Extra Deep Resistivity        : 
TLFamily_BSC       .         Bit Size                      : 
TLFamily_CALI      .         Caliper                       : 
TLFamily_DEPTH     .         Measured Depth                : 
TLFamily_DT        .         Compressional Slowness        : 
TLFamily_GR        .         Gamma Ray                     : 
TLFamily_PEFZ      .         Photoelectric Factor          : 
TLFamily_PHI_FINAL .         Porosity                      : 
TLFamily_POTA      .         Potassium Concentration       : 
TLFamily_RHOZ      .         Bulk Density                  : 
TLFamily_RLA1      .         Extra Shallow Resistivity     : 
TLFamily_RLA2      .         Shallow Resistivity           : 
TLFamily_RLA3      .         Medium Resistivity            : 
TLFamily_RLA4      .         Deep Resistivity              : 
TLFamily_RLA5      .         Extra Deep Resistivity        : 
TLFamily_RT        .         Formation Resistivity         : 
TLFamily_RXO       .         Flushed Zone Resistivity      : 
TLFamily_SDEVM     .         Sonde Deviation               : 
TLFamily_SP        .         Spontaneous Potential         : 
TLFamily_SW_AR     .         Water Saturation              : 
TLFamily_THOR      .         Thorium Concentration         : 
TLFamily_TNPH      .         Neutron Porosity              : 
TLFamily_URAN      .         Uranium Concentration         : 
TLFamily_VSH_GR    .         Shale Volume                  : 
~Curve Information
#_______________________________________________________________________________
#
#LOGNAME           .UNIT     LOG_ID                        : DESCRIPTION
#_______________________________________________________________________________
DEPTH              .M                                      : Depth Index {F}
AT10               .ohm.m                                  : 10" Array Induction, two foot resolution Resistivity {F}
AT20               .ohm.m                                  : 20" Array Induction, two foot resolution Resistivity {F}
AT30               .ohm.m                                  : 30" Array Induction, two foot resolution Resistivity {F}
AT60               .ohm.m                                  : 60" Array Induction, two foot resolution Resistivity {F}
AT90               .ohm.m                                  : 90" Array Induction, two foot resolution Resistivity {F}
BSC                .mm                                     : Nominal Caliper {F}
CALI               .mm                                     : Caliper {F}
DT                 .US/M                                   : Sonic travel time {F}
GR                 .gAPI                                   : Gamma Ray {F}
PEFZ               .B/E                                    : Formation Photoelectric Factor {F}
PHI_FINAL          .m3/m3                                  : Porosity {F}
POTA               .%                                      : Potasium {F}
RHOZ               .g/cm3                                  : Bulk Density {F}
RLA1               .ohm.m                                  : HRLT Borehole Corrected Resistivity 1 {F}
RLA2               .ohm.m                                  : HRLT Borehole Corrected Resistivity 2 {F}
RLA3               .ohm.m                                  : HRLT Borehole Corrected Resistivity 3 {F}
RLA4               .ohm.m                                  : HRLT Borehole Corrected Resisitivity 4 {F}
RLA5               .ohm.m                                  : HRLT Borehole Corrected Resistivity 5 {F}
RT                 .ohm.m                                  : Formation Resistivity {F}
RXO                .ohm.m                                  : Flushed zone resistivity {F}
SDEVM              .deg                                    : Hole Deviation {F}
SP                 .mV                                     : Spontaneous Potential {F}
SW_AR              .m3/m3                                  :  {F}
THOR               .PPM                                    : Thorium {F}
TNPH               .v/v                                    : Neutron porosity {F}
URAN               .PPM                                    : Uranium {F}
VSH_GR             .unitless                               : Shale volume fraction from Gamma Ray {F}
~Ascii
# ...
325.9      4.5587     6.899099826812744 8.517200469970703 10.83650016784668 12.22070026397705 215.9      211.868    458.7823   99.3873    2.2839     0.2870965  3.2964     2.0371     9.5734     9.6794     9.8566     9.7245     9.3605     9.6038     10.0392    0.337      -23.2923   0.343711   7.9091     0.4484     1.0792     0.3402105 
326        4.6195     7.141200065612793 8.981300354003906 12.07890033721924 13.6117000579834 215.9      212.3414   461.8708   100.494    2.2707     0.2841601  3.2696     2.0326     9.8163     9.9253     10.0148    9.892      9.509      9.7439     10.6217    0.3401     -20.8687   0.3462571  7.504      0.45       1.105      0.3539073 
326.1      4.7587     7.402200222015381 9.447799682617188 13.47729969024658 15.10070037841797 215.9      213.511    464.918    101.1897   2.2525     0.279155   3.24       2.0223     9.9322     10.0748    10.0996    9.9587     9.546      9.7629     11.1059    0.3417     -19.475    0.3542352  7.0996     0.4319     1.1081     0.3627434 
326.2      4.7871     7.270899772644043 9.279399871826172 13.22729969024658 14.62339973449707 215.9      214.0508   466.7637   101.1061   2.2095     0.2779627  3.2204     2.0172     9.3567     9.4298     9.3986     9.2449     8.8541     8.9393     11.0252    0.3428     -20.5582   0.373956   6.6559     0.4081     1.1884     0.3616723 
326.3      4.6351     6.980599880218506 8.824600219726563 12.140700340271 13.23270034790039 215.9      214.0664   467.7925   100.789    2.1648     0.2758445  3.2177     2.0197     8.0746     8.0625     8.026      7.8708     7.5376     7.4658     9.967      0.3438     -22.5607   0.4170288  6.2439     0.3847     1.2924     0.3576326 
326.4      4.4652     6.603899955749512 8.138500213623047 10.92580032348633 11.71829986572266 215.9      214.4706   467.7866   101.9736   2.1509     0.2699072  3.2978     2.023      7.0434     6.9083     6.8587     6.6947     6.3953     6.0724     9.247      0.3451     -21.0874   0.4820797  6.2277     0.388      1.2522     0.3729142 
326.5      4.219      5.997300148010254 7.112599849700928 9.45460033416748 9.747599601745605 215.9      214.4276   467.8551   100.0698   2.1505     0.2773899  3.3332     2.0281     7.1603     6.9738     6.9206     6.7338     6.4242     5.9823     9.5557     0.3436     -20.3944   0.4675471  6.3205     0.3983     1.2395     0.3486057 
326.6      3.9634     5.396299839019775 6.189599990844727 8.005399703979492 8.066399574279785 215.9      213.711    467.8905   96.3888    2.177      0.2913766  3.3423     2.0339     8.2843     8.1005     8.0516     7.8302     7.4706     7.0059     11.0547    0.3402     -19.8635   0.398932   6.4899     0.4118     1.2405     0.3052197 
326.7      3.8505     5.17609977722168 5.901700019836426 7.281899929046631 7.481500148773193 215.9      212.5786   466.7986   97.6083    2.2319     0.2850629  3.4134     2.0364     9.2458     9.0868     9.0403     8.7928     8.3704     7.9331     12.224     0.3385     -14.2818   0.3838458  6.672      0.4048     1.1698     0.3190873 
326.8      3.9444     5.407599925994873 6.238200187683105 7.318600177764893 7.811299800872803 215.9      212.0934   466.6371   97.7265    2.2662     0.2841095  3.44       2.0358     9.3394     9.2272     9.1839     8.9374     8.5061     8.1348     12.2834    0.335      -13.2294   0.3802315  6.7635     0.3984     1.0976     0.3204575 
326.9      4.3034     5.914400100708008 7.014400005340576 8.447299957275391 9.281499862670898 215.9      212.466    467.2599   96.9929    2.2798     0.2870295  3.4281     2.0338     9.9235     9.945      9.9199     9.6617     9.1899     8.9915     12.8262    0.33       -15.9867   0.354403   6.7715     0.3928     1.0243     0.3120284 
327        4.555      6.530600070953369 7.928699970245361 9.397299766540527 10.6072998046875 215.9      212.4674   467.4706   100.4964   2.2826     0.2747303  3.3893     2.0312     11.3597    11.5855    11.6174    11.3128    10.7358    10.8713    13.6863    0.3275     -16.3622   0.3399567  6.4641     0.4004     0.9681     0.3539375 
327.1      4.8817     7.192299842834473 8.862400054931641 11.01029968261719 12.78520011901855 215.9      212.4288   468.0779   101.3792   2.2617     0.2736078  3.3805     2.027      11.9137    12.2268    12.3463    12.0261    11.4278    11.7905    13.3258    0.326      -17.0484   0.3273088  6.1991     0.4109     0.8756     0.3651812 
327.2      5.0231     8.001999855041504 9.874899864196777 12.3459997177124 13.98610019683838 215.9      212.4032   469.0818   99.6413    2.231      0.2839856  3.4015     2.0222     11.7432    12.0006    12.2381    11.9076    11.312     11.692     12.9409    0.3256     -18.0451   0.3125327  5.9765     0.4244     0.7467     0.3433156 
327.3      5.2051     8.418399810791016 10.17870044708252 12.7898998260498 14.43850040435791 215.9      212.2582   470.4799   100.6739   2.2086     0.284224   3.3498     2.0156     11.5205    11.6194    11.9237    11.5902    11.0102    11.2954    13.0434    0.325      -13.7139   0.3190078  6.2701     0.4361     0.6441     0.3561753 
327.4      5.4473     8.505100250244141 10.34799957275391 13.06289958953857 14.50590038299561 215.9      212.5658   471.6861   100.8224   2.1984     0.2866718  3.2942     2.0098     12.0895    12.1732    12.5437    12.1989    11.6246    11.9382    13.4963    0.3243     -12.6052   0.3061442  6.2487     0.4419     0.6377     0.3580564 
327.5      5.5673     8.683099746704102 10.57900047302246 13.38599967956543 14.37100028991699 215.9      213.609    472.6427   99.7857    2.187      0.291323   3.2365     2.0071     13.1028    13.2243    13.5504    13.2031    12.5849    12.9156    14.6917    0.3236     -15.6367   0.286562   5.823      0.4405     0.7481     0.345091  
327.6      5.6207     8.923999786376953 10.72999954223633 13.63230037689209 14.17539978027344 215.9      214.075    472.4488   101.9658   2.192      0.2844727  3.1544     2.0054     13.3451    13.428     13.6406    13.3278    12.7126    12.944     15.3908    0.3233     -17.6117   0.2962272  5.4118     0.4477     0.8758     0.3728118 
327.7      5.6688     9.00100040435791 11.09710025787354 14.07950019836426 14.1988000869751 215.9      214.308    472.0035   103.7697   2.2009     0.2774326  3.0847     2.0024     12.7792    12.7165    12.8035    12.552     12.0251    12.0132    15.4048    0.3232     -18.9436   0.3197244  5.2417     0.449      0.9499     0.3971013 
327.8      5.6563     9.170000076293945 11.59239959716797 14.87730026245117 14.66189956665039 215.9      214.5124   471.3312   104.5897   2.2046     0.2716555  3.0367     2.0006     12.3039    12.1137    12.1061    11.8783    11.4125    11.1279    15.489     0.3233     -19.4484   0.3431076  5.4313     0.4404     0.9414     0.4085665 
327.9      5.5099     8.982600212097168 11.75800037384033 15.26910018920898 15.152099609375 215.9      214.8818   470.041    104.1015   2.2147     0.2744627  3.0272     1.9998     11.9371    11.6106    11.5301    11.3215    10.8951    10.3648    15.4228    0.3199     -17.1049   0.35201    5.7285     0.4415     0.9135     0.401708  
328        5.343      8.637100219726563 11.3769998550415 14.32260036468506 14.93459987640381 215.9      215.2168   467.936    103.6421   2.221      0.2768481  3.0772     2.0009     11.1411    10.7571    10.648     10.4664    10.0965    9.482      14.5088    0.3165     -15.9555   0.3655402  6.0206     0.4433     0.9212     0.3953414 
328.1      5.1126     7.962200164794922 10.14869976043701 12.57400035858154 13.11929988861084 215.9      215.2914   464.4741   103.5675   2.2291     0.276485   3.228      2.0045     10.188     9.7384     9.6301     9.4671     9.1581     8.464      13.3769    0.3138     -17.7449   0.3899481  6.2762     0.4442     0.9998     0.3943155 
328.2      4.9535     7.3471999168396 9.116800308227539 10.92770004272461 11.43809986114502 215.9      215.3368   462.9352   104.2923   2.2387     0.2715192  3.3544     2.0098     9.9158     9.46       9.3517     9.1925     8.9104     8.1979     13.0904    0.3108     -20.3167   0.4066702  6.2785     0.4433     0.9318     0.404377  
