~Version
 VERS              .         3.0                           : CWLS LOG ASCII STANDARD - VERSION 3.0
 WRAP              .         NO                            : ONE LINE PER DEPTH STEP
 DLM               .         SPACE                         : DELIMITING CHARACTER(SPACE TAB OR COMMA)
~Well Information
#_______________________________________________________________________________
#
#PARAMETER_NAME    .UNIT     VALUE                         : DESCRIPTION
#_______________________________________________________________________________
STRT               .M        0                             : First reference value
STOP               .M        817                           : Last reference value
STEP               .M        0.1                           : Step increment
NULL               .         -9999                         : Missing value
COMP               .                                       : Company
WELL               .         336                           : Well name
FLD                .         Karatube                      : Field
LOC                .                                       : Location
SRVC               .         SCH                           : Service Company
CTRY               .                                       : Country
DATE               .         10/25/2023                    : Service Date
LATI               .         0                             : Latitude
LONG               .         0                             : Longitude
GDAT               .                                       : Geodetic Datum
ORIGINALWELLNAME   .         Каратобе 336                  : 
RWS                .         -999                          : Def_Rw
WST                .         -999                          : Def_Rwt
~Parameter Information Block
#_______________________________________________________________________________
#
#PARAMETER_NAME    .UNIT     VALUE                         : DESCRIPTION
#_______________________________________________________________________________
SET                .         Las                           : 
TLFamily_AT10      .         Extra Shallow Resistivity     : 
TLFamily_AT20      .         Shallow Resistivity           : 
TLFamily_AT30      .         Medium Resistivity            : 
TLFamily_AT60      .         Deep Resistivity              : 
TLFamily_AT90      .         Extra Deep Resistivity        : 
TLFamily_BSC       .         Bit Size                      : 
TLFamily_CALI      .         Caliper                       : 
TLFamily_DEPTH     .         Measured Depth                : 
TLFamily_DT        .         Compressional Slowness        : 
TLFamily_GR        .         Gamma Ray                     : 
TLFamily_PEFZ      .         Photoelectric Factor          : 
TLFamily_PHI_FINAL .         Porosity                      : 
TLFamily_POTA      .         Potassium Concentration       : 
TLFamily_RHOZ      .         Bulk Density                  : 
TLFamily_RLA1      .         Extra Shallow Resistivity     : 
TLFamily_RLA2      .         Shallow Resistivity           : 
TLFamily_RLA3      .         Medium Resistivity            : 
TLFamily_RLA4      .         Deep Resistivity              : 
TLFamily_RLA5      .         Extra Deep Resistivity        : 
TLFamily_RT        .         Formation Resistivity         : 
TLFamily_RXO       .         Flushed Zone Resistivity      : 
TLFamily_SDEVM     .         Sonde Deviation               : 
TLFamily_SP        .         Spontaneous Potential         : 
TLFamily_SW_AR     .         Water Saturation              : 
TLFamily_THOR      .         Thorium Concentration         : 
TLFamily_TNPH      .         Neutron Porosity              : 
TLFamily_URAN      .         Uranium Concentration         : 
TLFamily_VSH_GR    .         Shale Volume                  : 
~Curve Information
#_______________________________________________________________________________
#
#LOGNAME           .UNIT     LOG_ID                        : DESCRIPTION
#_______________________________________________________________________________
DEPTH              .M                                      : Depth Index {F}
AT10               .ohm.m                                  : 10" Array Induction, two foot resolution Resistivity {F}
AT20               .ohm.m                                  : 20" Array Induction, two foot resolution Resistivity {F}
AT30               .ohm.m                                  : 30" Array Induction, two foot resolution Resistivity {F}
AT60               .ohm.m                                  : 60" Array Induction, two foot resolution Resistivity {F}
AT90               .ohm.m                                  : 90" Array Induction, two foot resolution Resistivity {F}
BSC                .mm                                     : Nominal Caliper {F}
CALI               .mm                                     : Caliper {F}
DT                 .US/M                                   : Sonic travel time {F}
GR                 .gAPI                                   : Gamma Ray {F}
PEFZ               .B/E                                    : Formation Photoelectric Factor {F}
PHI_FINAL          .m3/m3                                  : Porosity {F}
POTA               .%                                      : Potasium {F}
RHOZ               .g/cm3                                  : Bulk Density {F}
RLA1               .ohm.m                                  : HRLT Borehole Corrected Resistivity 1 {F}
RLA2               .ohm.m                                  : HRLT Borehole Corrected Resistivity 2 {F}
RLA3               .ohm.m                                  : HRLT Borehole Corrected Resistivity 3 {F}
RLA4               .ohm.m                                  : HRLT Borehole Corrected Resisitivity 4 {F}
RLA5               .ohm.m                                  : HRLT Borehole Corrected Resistivity 5 {F}
RT                 .ohm.m                                  : Formation Resistivity {F}
RXO                .ohm.m                                  : Flushed zone resistivity {F}
SDEVM              .deg                                    : Hole Deviation {F}
SP                 .mV                                     : Spontaneous Potential {F}
SW_AR              .m3/m3                                  :  {F}
THOR               .PPM                                    : Thorium {F}
TNPH               .v/v                                    : Neutron porosity {F}
URAN               .PPM                                    : Uranium {F}
VSH_GR             .unitless                               : Shale volume fraction from Gamma Ray {F}
~Ascii
# ...
681.1      3.3881     3.562599897384644 3.77020001411438 3.963900089263916 3.579600095748901 215.9      212.3422   313.3769   74.9737    3.0532     0.1083673  2.368      2.459      6.044      5.7836     5.7211     5.576      5.5011     5.1035     7.9403     0.0399     -0.692     0.7063946  7.3425     0.2775     -0.14      0.2990256 
681.2      3.624      3.885799884796143 4.107200145721436 4.26669979095459 3.872600078582764 215.9      211.0638   322.9249   74.3772    3.079      0.1169271  2.3015     2.4526     5.7691     5.4678     5.4368     5.2778     5.2153     4.7882     7.597      0.0393     -0.2246    0.6782922  6.8708     0.2699     -0.1054    0.2915508 
681.3      3.6884     4.01830005645752 4.299399852752686 4.409900188446045 4.105299949645996 215.9      210.5514   329.1859   75.7668    3.1022     0.1196499  2.32       2.4357     5.5463     5.2114     5.2094     5.0594     5.0109     4.5902     7.2688     0.0431     0.9118     0.6785926  6.7431     0.2702     -0.0951    0.3091035 
681.4      3.4806     3.867399930953979 4.18690013885498 4.386000156402588 4.201799869537354 215.9      210.605    336.092    77.0519    3.0917     0.1273703  2.3554     2.4055     5.3092     4.9775     4.9691     4.8447     4.8052     4.4048     6.9345     0.047      1.7154     0.6522298  6.6569     0.2736     -0.0494    0.325777  
681.5      3.1625     3.558900117874146 3.853300094604492 4.126200199127197 3.984200000762939 215.9      210.6212   350.6913   74.8304    3.0511     0.1546739  2.3252     2.3734     5.1349     4.824      4.7787     4.6867     4.6637     4.2822     6.6853     0.0444     0.1468     0.5455849  6.2019     0.2774     0.1764     0.2972217 
681.6      2.8893     3.269799947738647 3.572499990463257 3.824899911880493 3.755899906158447 215.9      210.618    357.2746   74.297     3.0107     0.16829    2.3489     2.3475     4.5688     4.2989     4.2202     4.1662     4.1548     3.8116     5.9392     0.0427     0.5916     0.534946   6.132      0.2799     0.2266     0.2905526 
681.7      2.8025     3.104199886322021 3.359800100326538 3.607899904251099 3.584700107574463 215.9      210.602    360.2415   74.417     2.9674     0.1752665  2.3886     2.3288     3.9083     3.6622     3.5809     3.5417     3.5332     3.1999     5.1418     0.0416     1.5792     0.5660767  6.2428     0.2828     0.1774     0.2920468 
681.8      2.6344     2.902400016784668 3.176100015640259 3.427000045776367 3.448199987411499 215.9      210.6022   365.0872   73.5282    2.9082     0.1869983  2.3688     2.3149     3.7252     3.4744     3.3932     3.3566     3.3525     2.9993     4.9547     0.0404     0.0242     0.5499925  6.3028     0.2918     0.0555     0.2810648 
681.9      2.4396     2.671499967575073 2.894799947738647 3.128400087356567 3.145100116729736 215.9      210.6026   370.2069   75.0391    2.8656     0.1885899  2.4043     2.3052     4.2597     3.9825     3.8887     3.8376     3.838      3.4401     5.662      0.0425     -0.6943    0.5053497  6.3256     0.3052     -0.0013    0.2998506 
682        2.3535     2.587500095367432 2.77049994468689 3.012599945068359 3.002300024032593 215.9      210.618    375.0342   77.5945    2.834      0.1858252  2.4688     2.2949     4.4477     4.1831     4.0858     4.0173     4.0169     3.6246     5.8983     0.0463     -0.8981    0.4981968  6.3454     0.3204     -0.0222    0.3329469 
682.1      2.4226     2.635900020599365 2.839299917221069 3.105299949645996 3.150500059127808 215.9      210.6932   375.7186   76.3144    2.8074     0.1979566  2.4873     2.279      4.321      4.0885     3.9996     3.9191     3.9237     3.5722     5.72       0.0483     -1.0843    0.4714644  6.5421     0.3292     -0.0794    0.3161558 
682.2      2.5478     2.786900043487549 3.004800081253052 3.316999912261963 3.413199901580811 215.9      210.7106   375.4423   76.2492    2.7716     0.2029936  2.5145     2.2653     4.1784     3.9955     3.9257     3.8236     3.8201     3.5264     5.5159     0.0501     -1.5748    0.4630736  6.3673     0.3342     -0.0364    0.3153121 
682.3      2.6453     2.903000116348267 3.132800102233887 3.477499961853027 3.619699954986572 215.9      210.6446   374.4308   76.8217    2.7234     0.2019356  2.5442     2.2594     4.1011     3.9715     3.9159     3.7949     3.7851     3.5491     5.3953     0.052      -2.3604    0.4638434  5.948      0.3353     0.0701     0.3227586 
682.4      2.6791     3.007200002670288 3.269299983978271 3.712300062179565 3.914200067520142 215.9      210.5554   372.6659   72.7966    2.6925     0.2152733  2.5008     2.2557     4.407      4.3047     4.259      4.1231     4.1016     3.901      5.7402     0.0547     -4.5691    0.4128425  5.9932     0.3163     0.0012     0.2721708 
682.5      2.7804     3.099600076675415 3.42140007019043 3.924000024795532 4.183899879455566 215.9      210.5468   373.2327   70.3229    2.6761     0.2219795  2.4565     2.2599     5.1068     5.004      4.9651     4.8168     4.761      4.5843     6.4945     0.0566     -3.6244    0.3660318  5.9558     0.3054     -0.0375    0.2430461 
682.6      2.9076     3.315099954605103 3.666399955749512 4.185299873352051 4.607900142669678 215.9      210.6034   375.8671   69.2252    2.6698     0.2245941  2.4114     2.2673     4.9195     4.816      4.7842     4.6697     4.5932     4.4622     6.1061     0.0579     0.1167     0.3672371  5.8452     0.3016     -0.0492    0.2305774 
682.7      2.9915     3.439899921417236 3.891999959945679 4.464799880981445 4.935200214385986 215.9      210.4598   378.1068   67.8836    2.6947     0.2302383  2.4433     2.2641     4.3565     4.2649     4.2227     4.1433     4.0597     3.93       5.4636     0.0591     -5.7666    0.3844235  5.5564     0.2944     -0.0148    0.2157062 
682.8      2.9283     3.397200107574463 3.83870005607605 4.348199844360352 4.937699794769287 215.9      210.4118   382.7882   68.6171    2.6995     0.2355113  2.4695     2.2507     4.0902     4.0102     3.9549     3.8951     3.8045     3.6716     5.1797     0.0583     -6.6651    0.390288   5.5142     0.3044     -0.0387    0.2237873 
682.9      2.7274     3.217299938201904 3.559900045394897 4.039000034332275 4.572000026702881 215.9      210.5514   390.1146   71.5987    2.6896     0.2363129  2.4894     2.2314     3.9557     3.8505     3.8062     3.7578     3.6554     3.4976     5.068      0.0552     -2.1634    0.3995982  5.7391     0.3331     -0.1259    0.2578867 
683        2.6497     3.029200077056885 3.389800071716309 3.78439998626709 4.303899765014648 215.9      210.5094   393.829    74.0639    2.6796     0.2350781  2.4994     2.2119     3.9453     3.7724     3.7516     3.7019     3.5842     3.3591     5.1254     0.0551     -2.512     0.4108159  5.8134     0.3489     -0.1566    0.2876605 
683.1      2.6206     2.960700035095215 3.22760009765625 3.561599969863892 3.996799945831299 215.9      210.4844   395.5288   76.0657    2.6521     0.2307823  2.5017     2.2036     3.9244     3.7037     3.702      3.6434     3.5145     3.2394     5.1192     0.0549     -0.0368    0.4269841  6.0019     0.3575     -0.2084    0.3129432 
683.2      2.5449     2.873800039291382 3.10509991645813 3.416100025177002 3.81439995765686 215.9      210.563    394.7575   77.4819    2.6172     0.2228367  2.4944     2.2099     3.7879     3.5743     3.5801     3.5205     3.3858     3.1227     4.9361     0.0546     6.4496     0.451315   6.3501     0.3573     -0.2915    0.3314526 
683.3      2.4412     2.761399984359741 2.929100036621094 3.19539999961853 3.670700073242188 215.9      210.52     392.5464   78.9571    2.6139     0.2108759  2.4979     2.2226     3.589      3.4398     3.4259     3.3734     3.2327     3.0205     4.6916     0.0558     4.4751     0.4858118  6.6033     0.3483     -0.3195    0.3512999 
683.4      2.3287     2.626199960708618 2.759399890899658 2.988199949264526 3.277499914169312 215.9      210.46     386.8799   79.7337    2.6349     0.2012029  2.5109     2.2371     3.5566     3.4564     3.4224     3.3765     3.2236     3.0435     4.6612     0.0567     3.4543     0.5070263  6.7922     0.338      -0.2972    0.3619864 
