~Version
 VERS              .         3.0                           : CWLS LOG ASCII STANDARD - VERSION 3.0
 WRAP              .         NO                            : ONE LINE PER DEPTH STEP
 DLM               .         SPACE                         : DELIMITING CHARACTER(SPACE TAB OR COMMA)
~Well Information
#_______________________________________________________________________________
#
#PARAMETER_NAME    .UNIT     VALUE                         : DESCRIPTION
#_______________________________________________________________________________
STRT               .M        0                             : First reference value
STOP               .M        817                           : Last reference value
STEP               .M        0.1                           : Step increment
NULL               .         -9999                         : Missing value
COMP               .                                       : Company
WELL               .         336                           : Well name
FLD                .         Karatube                      : Field
LOC                .                                       : Location
SRVC               .         SCH                           : Service Company
CTRY               .                                       : Country
DATE               .         10/25/2023                    : Service Date
LATI               .         0                             : Latitude
LONG               .         0                             : Longitude
GDAT               .                                       : Geodetic Datum
ORIGINALWELLNAME   .         Каратобе 336                  : 
RWS                .         -999                          : Def_Rw
WST                .         -999                          : Def_Rwt
~Parameter Information Block
#_______________________________________________________________________________
#
#PARAMETER_NAME    .UNIT     VALUE                         : DESCRIPTION
#_______________________________________________________________________________
SET                .         Las                           : 
TLFamily_AT10      .         Extra Shallow Resistivity     : 
TLFamily_AT20      .         Shallow Resistivity           : 
TLFamily_AT30      .         Medium Resistivity            : 
TLFamily_AT60      .         Deep Resistivity              : 
TLFamily_AT90      .         Extra Deep Resistivity        : 
TLFamily_BSC       .         Bit Size                      : 
TLFamily_CALI      .         Caliper                       : 
TLFamily_DEPTH     .         Measured Depth                : 
TLFamily_DT        .         Compressional Slowness        : 
TLFamily_GR        .         Gamma Ray                     : 
TLFamily_PEFZ      .         Photoelectric Factor          : 
TLFamily_PHI_FINAL .         Porosity                      : 
TLFamily_POTA      .         Potassium Concentration       : 
TLFamily_RHOZ      .         Bulk Density                  : 
TLFamily_RLA1      .         Extra Shallow Resistivity     : 
TLFamily_RLA2      .         Shallow Resistivity           : 
TLFamily_RLA3      .         Medium Resistivity            : 
TLFamily_RLA4      .         Deep Resistivity              : 
TLFamily_RLA5      .         Extra Deep Resistivity        : 
TLFamily_RT        .         Formation Resistivity         : 
TLFamily_RXO       .         Flushed Zone Resistivity      : 
TLFamily_SDEVM     .         Sonde Deviation               : 
TLFamily_SP        .         Spontaneous Potential         : 
TLFamily_SW_AR     .         Water Saturation              : 
TLFamily_THOR      .         Thorium Concentration         : 
TLFamily_TNPH      .         Neutron Porosity              : 
TLFamily_URAN      .         Uranium Concentration         : 
TLFamily_VSH_GR    .         Shale Volume                  : 
~Curve Information
#_______________________________________________________________________________
#
#LOGNAME           .UNIT     LOG_ID                        : DESCRIPTION
#_______________________________________________________________________________
DEPTH              .M                                      : Depth Index {F}
AT10               .ohm.m                                  : 10" Array Induction, two foot resolution Resistivity {F}
AT20               .ohm.m                                  : 20" Array Induction, two foot resolution Resistivity {F}
AT30               .ohm.m                                  : 30" Array Induction, two foot resolution Resistivity {F}
AT60               .ohm.m                                  : 60" Array Induction, two foot resolution Resistivity {F}
AT90               .ohm.m                                  : 90" Array Induction, two foot resolution Resistivity {F}
BSC                .mm                                     : Nominal Caliper {F}
CALI               .mm                                     : Caliper {F}
DT                 .US/M                                   : Sonic travel time {F}
GR                 .gAPI                                   : Gamma Ray {F}
PEFZ               .B/E                                    : Formation Photoelectric Factor {F}
PHI_FINAL          .m3/m3                                  : Porosity {F}
POTA               .%                                      : Potasium {F}
RHOZ               .g/cm3                                  : Bulk Density {F}
RLA1               .ohm.m                                  : HRLT Borehole Corrected Resistivity 1 {F}
RLA2               .ohm.m                                  : HRLT Borehole Corrected Resistivity 2 {F}
RLA3               .ohm.m                                  : HRLT Borehole Corrected Resistivity 3 {F}
RLA4               .ohm.m                                  : HRLT Borehole Corrected Resisitivity 4 {F}
RLA5               .ohm.m                                  : HRLT Borehole Corrected Resistivity 5 {F}
RT                 .ohm.m                                  : Formation Resistivity {F}
RXO                .ohm.m                                  : Flushed zone resistivity {F}
SDEVM              .deg                                    : Hole Deviation {F}
SP                 .mV                                     : Spontaneous Potential {F}
SW_AR              .m3/m3                                  :  {F}
THOR               .PPM                                    : Thorium {F}
TNPH               .v/v                                    : Neutron porosity {F}
URAN               .PPM                                    : Uranium {F}
VSH_GR             .unitless                               : Shale volume fraction from Gamma Ray {F}
~Ascii
# ...
457.9      3.0585     3.755199909210205 4.055699825286865 4.439300060272217 4.245500087738037 215.9      213.7014   366.5075   70.6655    1.9034     0.202288   1.5631     2.2594     4.634      4.6014     4.6651     4.6126     4.5289     4.5979     4.7607     0.2774     -10.5104   0.5900777  7.2828     0.324      1.417      0.180862  
458        2.812      3.577600002288818 3.902199983596802 4.301499843597412 4.107699871063232 215.9      216.1572   389.9929   66.7837    1.9183     0.2192024  1.5835     2.2756     4.5497     4.5172     4.577      4.5108     4.4269     4.4958     4.75       0.2779     -9.6629    0.5506868  7.2441     0.3174     1.2555     0.1507052 
458.1      2.6718     3.402100086212158 3.628200054168701 3.979099988937378 3.865999937057495 215.9      218.1726   411.422    71.6487    1.9551     0.215922   1.7106     2.2831     4.3273     4.2632     4.3116     4.236      4.1619     4.1931     4.786      0.2786     -9.2106    0.5812848  7.5827     0.335      1.1912     0.188796  
458.2      2.5907     3.248600006103516 3.490099906921387 3.809700012207031 3.664599895477295 215.9      217.893    422.6254   76.6774    1.9937     0.2110073  1.9164     2.2805     4.3375     4.2489     4.2847     4.1994     4.1344     4.1184     5.0249     0.2782     -8.934     0.6011697  8.1474     0.3622     1.1603     0.2313436 
458.3      2.5468     3.142800092697144 3.366400003433228 3.650799989700317 3.497600078582764 215.9      216.8992   429.4098   82.5702    1.9971     0.2025658  2.1057     2.2646     4.3647     4.2559     4.2848     4.1955     4.1365     4.0872     5.1659     0.2774     -8.479     0.6288646  8.6065     0.383      1.2119     0.2856631 
458.4      2.4857     3.066800117492676 3.267199993133545 3.549499988555908 3.376499891281128 215.9      216.7468   430.6023   90.1633    1.9961     0.1804416  2.2352     2.2455     4.2298     4.0988     4.0943     4.01       3.9608     3.8337     5.2453     0.2762     -7.6038    0.7352051  8.7767     0.3878     1.4199     0.363477  
458.5      2.4361     2.998899936676025 3.174599885940552 3.423199892044067 3.24810004234314 215.9      216.4682   424.0671   92.0696    1.998      0.1762549  2.4416     2.2281     4.2644     4.1428     4.1063     4.0321     3.9959     3.8567     5.3179     0.2753     -6.1206    0.7495135  9.3134     0.3946     1.4346     0.384511  
458.6      2.3983     2.943000078201294 3.125400066375732 3.354199886322021 3.261399984359741 215.9      215.8542   418.2997   93.3499    1.9974     0.1748247  2.6623     2.2099     4.383      4.2825     4.2264     4.1589     4.1272     4.0197     5.3457     0.2729     -4.3877    0.7389194  9.8149     0.4002     1.3969     0.3989947 
458.7      2.4235     2.972899913787842 3.174700021743774 3.429100036621094 3.328299999237061 215.9      214.522    419.1678   96.4507    2.0031     0.1653268  2.8729     2.1975     4.2206     4.1403     4.0832     4.0265     4.0058     3.9393     5.0135     0.2663     -2.3793    0.7912202  10.0051    0.401      1.3407     0.4353015 
458.8      2.4297     2.983000040054321 3.217499971389771 3.490900039672852 3.401599884033203 215.9      213.6856   421.6266   98.1654    2.0255     0.1583789  3.0153     2.1923     4.1275     4.0528     4.0011     3.943      3.9339     3.8817     4.845      0.2625     -5.4955    0.8333994  9.8822     0.3935     1.3052     0.4561495 
458.9      2.4522     3.002500057220459 3.219799995422363 3.506200075149536 3.440599918365479 215.9      213.397    424.5561   99.5672    2.0405     0.1522931  3.1098     2.1855     4.296      4.2251     4.1869     4.1301     4.1268     4.1041     4.8759     0.2599     -8.301     0.8408972  9.5879     0.3807     1.3018     0.4736144 
459        2.5493     3.156699895858765 3.408799886703491 3.762200117111206 3.761600017547607 215.9      213.8042   427.3859   101.3645   2.0529     0.1437815  3.121      2.174      4.8569     4.8007     4.7856     4.7241     4.7351     4.7487     5.1659     0.2578     -4.998     0.8222596  9.0636     0.3594     1.3791     0.4965756 
459.1      2.7223     3.391799926757813 3.773099899291992 4.21999979019165 4.280700206756592 215.9      213.8258   432.1925   103.8967   2.0601     0.1361895  3.1423     2.1564     5.5601     5.5154     5.5457     5.4836     5.5174     5.523      5.6068     0.256      -1.8902    0.8049993  8.6948     0.349      1.2622     0.5300429 
459.2      2.9114     3.710000038146973 4.226500034332275 4.829899787902832 4.891799926757813 215.9      213.6226   437.3928   105.9348   2.0763     0.1313131  3.1707     2.1346     5.7997     5.7549     5.8163     5.7675     5.8091     5.7911     5.7843     0.2544     0.2892     0.8145511  8.4321     0.346      1.0656     0.5579616 
459.3      3.118      4.053999900817871 4.763400077819824 5.613900184631348 5.541299819946289 215.9      213.7202   440.8287   104.5871   2.0947     0.1466435  3.2123     2.1121     5.9054     5.8789     5.9656     5.9339     5.9836     5.9387     5.888      0.2539     -1.1493    0.7173559  8.3512     0.3559     0.8675     0.5394006 
459.4      3.2989     4.358399868011475 5.18779993057251 6.227200031280518 6.298699855804443 215.9      213.8668   443.1611   102.5414   2.1176     0.1658978  3.1856     2.0942     6.4824     6.5359     6.6509     6.649      6.7162     6.6844     6.0141     0.2543     -0.9776    0.5921342  7.912      0.375      0.8952     0.5119652 
459.5      3.495      4.598100185394287 5.729199886322021 7.022299766540527 7.204400062561035 215.9      213.964    444.9252   100.1432   2.1572     0.1868327  3.1307     2.0801     7.2388     7.395      7.5515     7.5834     7.6653     7.7494     6.1023     0.2553     -0.4916    0.4831767  7.3764     0.3995     1.0273     0.4809027 
459.6      3.7153     4.999100208282471 6.271299839019775 7.939799785614014 8.354499816894531 215.9      213.707    446.6904   97.7878    2.2013     0.2076307  3.1189     2.0693     7.8514     8.0342     8.2326     8.2993     8.3854     8.5489     6.3388     0.2572     -3.1698    0.4109354  7.3831     0.4275     1.0868     0.4515103 
459.7      3.9535     5.501599788665771 6.939000129699707 9.192500114440918 9.776599884033203 215.9      213.5284   447.7477   95.3869    2.2368     0.2238328  3.0801     2.061      8.1585     8.324      8.5412     8.6295     8.7461     8.9333     6.4445     0.2591     -2.6896    0.3714961  7.2176     0.4389     1.2065     0.4226463 
459.8      4.0987     5.924499988555908 7.482900142669678 10.00520038604736 10.99709987640381 215.9      213.641    448.2334   93.343     2.2689     0.2349908  3.0289     2.0541     7.8766     7.9942     8.196      8.2847     8.4024     8.5297     6.3474     0.261      -0.4973    0.3627431  7.007      0.4402     1.3531     0.3989159 
459.9      4.0358     6.117599964141846 7.732399940490723 10.00940036773682 11.32730007171631 215.9      214.4112   447.3257   95.1916    2.302      0.2283353  3.0207     2.0514     7.2951     7.3619     7.5088     7.5877     7.6901     7.7307     6.1118     0.2631     -0.5662    0.3945437  7.4072     0.4427     1.397      0.4203458 
460        3.7971     5.732600212097168 7.219699859619141 9.27400016784668 10.40670013427734 215.9      214.6584   445.3552   97.4047    2.325      0.2162411  3.05       2.059      5.9825     5.95       6.0278     6.0741     6.1488     6.0926     5.4376     0.2653     -0.4753    0.4760317  7.9126     0.4424     1.3283     0.4468315 
460.1      3.3385     4.825799942016602 5.798299789428711 7.013999938964844 8.073300361633301 215.9      214.1406   442.64     99.977     2.34       0.1982265  3.107      2.0782     4.7064     4.5999     4.6434     4.6612     4.7047     4.6603     4.5348     0.2676     -0.4001    0.6036352  8.508      0.4396     1.1722     0.4787929 
460.2      2.8938     4.014599800109863 4.513899803161621 5.101099967956543 5.621600151062012 215.9      213.5352   441.2928   104.5686   2.3635     0.1643652  3.149      2.1054     4.1971     4.0639     4.0772     4.0806     4.0912     4.0788     4.291      0.2678     -3.5956    0.7870933  9.3596     0.4263     0.9512     0.5391486 
