~Version
 VERS              .         3.0                           : CWLS LOG ASCII STANDARD - VERSION 3.0
 WRAP              .         NO                            : ONE LINE PER DEPTH STEP
 DLM               .         SPACE                         : DELIMITING CHARACTER(SPACE TAB OR COMMA)
~Well Information
#_______________________________________________________________________________
#
#PARAMETER_NAME    .UNIT     VALUE                         : DESCRIPTION
#_______________________________________________________________________________
STRT               .M        0                             : First reference value
STOP               .M        817                           : Last reference value
STEP               .M        0.1                           : Step increment
NULL               .         -9999                         : Missing value
COMP               .                                       : Company
WELL               .         336                           : Well name
FLD                .         Karatube                      : Field
LOC                .                                       : Location
SRVC               .         SCH                           : Service Company
CTRY               .                                       : Country
DATE               .         10/25/2023                    : Service Date
LATI               .         0                             : Latitude
LONG               .         0                             : Longitude
GDAT               .                                       : Geodetic Datum
ORIGINALWELLNAME   .         Каратобе 336                  : 
RWS                .         -999                          : Def_Rw
WST                .         -999                          : Def_Rwt
~Parameter Information Block
#_______________________________________________________________________________
#
#PARAMETER_NAME    .UNIT     VALUE                         : DESCRIPTION
#_______________________________________________________________________________
SET                .         Las                           : 
TLFamily_AT10      .         Extra Shallow Resistivity     : 
TLFamily_AT20      .         Shallow Resistivity           : 
TLFamily_AT30      .         Medium Resistivity            : 
TLFamily_AT60      .         Deep Resistivity              : 
TLFamily_AT90      .         Extra Deep Resistivity        : 
TLFamily_BSC       .         Bit Size                      : 
TLFamily_CALI      .         Caliper                       : 
TLFamily_DEPTH     .         Measured Depth                : 
TLFamily_DT        .         Compressional Slowness        : 
TLFamily_GR        .         Gamma Ray                     : 
TLFamily_PEFZ      .         Photoelectric Factor          : 
TLFamily_PHI_FINAL .         Porosity                      : 
TLFamily_POTA      .         Potassium Concentration       : 
TLFamily_RHOZ      .         Bulk Density                  : 
TLFamily_RLA1      .         Extra Shallow Resistivity     : 
TLFamily_RLA2      .         Shallow Resistivity           : 
TLFamily_RLA3      .         Medium Resistivity            : 
TLFamily_RLA4      .         Deep Resistivity              : 
TLFamily_RLA5      .         Extra Deep Resistivity        : 
TLFamily_RT        .         Formation Resistivity         : 
TLFamily_RXO       .         Flushed Zone Resistivity      : 
TLFamily_SDEVM     .         Sonde Deviation               : 
TLFamily_SP        .         Spontaneous Potential         : 
TLFamily_SW_AR     .         Water Saturation              : 
TLFamily_THOR      .         Thorium Concentration         : 
TLFamily_TNPH      .         Neutron Porosity              : 
TLFamily_URAN      .         Uranium Concentration         : 
TLFamily_VSH_GR    .         Shale Volume                  : 
~Curve Information
#_______________________________________________________________________________
#
#LOGNAME           .UNIT     LOG_ID                        : DESCRIPTION
#_______________________________________________________________________________
DEPTH              .M                                      : Depth Index {F}
AT10               .ohm.m                                  : 10" Array Induction, two foot resolution Resistivity {F}
AT20               .ohm.m                                  : 20" Array Induction, two foot resolution Resistivity {F}
AT30               .ohm.m                                  : 30" Array Induction, two foot resolution Resistivity {F}
AT60               .ohm.m                                  : 60" Array Induction, two foot resolution Resistivity {F}
AT90               .ohm.m                                  : 90" Array Induction, two foot resolution Resistivity {F}
BSC                .mm                                     : Nominal Caliper {F}
CALI               .mm                                     : Caliper {F}
DT                 .US/M                                   : Sonic travel time {F}
GR                 .gAPI                                   : Gamma Ray {F}
PEFZ               .B/E                                    : Formation Photoelectric Factor {F}
PHI_FINAL          .m3/m3                                  : Porosity {F}
POTA               .%                                      : Potasium {F}
RHOZ               .g/cm3                                  : Bulk Density {F}
RLA1               .ohm.m                                  : HRLT Borehole Corrected Resistivity 1 {F}
RLA2               .ohm.m                                  : HRLT Borehole Corrected Resistivity 2 {F}
RLA3               .ohm.m                                  : HRLT Borehole Corrected Resistivity 3 {F}
RLA4               .ohm.m                                  : HRLT Borehole Corrected Resisitivity 4 {F}
RLA5               .ohm.m                                  : HRLT Borehole Corrected Resistivity 5 {F}
RT                 .ohm.m                                  : Formation Resistivity {F}
RXO                .ohm.m                                  : Flushed zone resistivity {F}
SDEVM              .deg                                    : Hole Deviation {F}
SP                 .mV                                     : Spontaneous Potential {F}
SW_AR              .m3/m3                                  :  {F}
THOR               .PPM                                    : Thorium {F}
TNPH               .v/v                                    : Neutron porosity {F}
URAN               .PPM                                    : Uranium {F}
VSH_GR             .unitless                               : Shale volume fraction from Gamma Ray {F}
~Ascii
# ...
769.9      4.316      4.777500152587891 5.218200206756592 5.653200149536133 5.603300094604492 215.9      216.3324   230.1206   46.4357    3.241      0.07999142 1.7692     2.5706     4.9423     4.4991     4.4369     4.3808     4.3687     3.8266     6.4454     0.2991     18.6736    1          2.9657     0.1123     0.3375     0.02483719
770        4.2767     4.793799877166748 5.447299957275391 6.214300155639648 6.286600112915039 215.9      216.3312   224.9182   47.1208    3.1891     0.07957906 1.832      2.5584     4.6925     4.2926     4.2357     4.19       4.1776     3.7013     6.1237     0.2984     17.9322    1          3.2146     0.1244     0.3092     0.02970296
770.1      4.3772     4.619999885559082 5.339799880981445 6.365099906921387 6.451300144195557 215.9      216.1594   218.0289   48.1935    3.121      0.07932635 1.8708     2.5371     4.5072     4.1444     4.0944     4.0555     4.0387     3.6182     5.8737     0.2982     17.3832    1          3.3499     0.137      0.2661     0.03745594
770.2      4.2578     4.368500232696533 5.051499843597412 5.616199970245361 5.791999816894531 215.9      215.9016   213.4705   49.0997    3.0665     0.08400965 1.8353     2.5057     4.4527     4.1635     4.1152     4.083      4.0616     3.7431     5.7399     0.3031     17.8096    1          3.2629     0.148      0.1474     0.0441356 
770.3      4.1442     4.145999908447266 4.934199810028076 5.30109977722168 5.569799900054932 215.9      217.5588   209.9078   49.7643    3.0001     0.08597422 1.8242     2.4847     4.4815     4.2449     4.1927     4.1711     4.1437     3.9021     5.6696     0.3051     18.6283    1          3.2278     0.1525     0.1278     0.04911146
770.4      4.0724     3.885200023651123 4.892899990081787 5.391600131988525 5.63700008392334 215.9      221.1594   208.9765   50.2876    2.9075     0.09087577 1.8229     2.4619     4.4341     4.2206     4.1721     4.1536     4.1208     3.9422     5.421      0.3067     19.406     0.9722804  3.2883     0.1549     0.1297     0.05307594
770.5      3.8016     4.008500099182129 4.673299789428711 5.314599990844727 5.726099967956543 215.9      226.6382   218.0887   50.6385    2.8237     0.1083619  1.8193     2.4311     3.8311     3.6968     3.6884     3.6815     3.657      3.6411     4.1523     0.313      19.2313    0.8521834  3.6825     0.161      0.0358     0.05575751
770.6      3.3626     3.93339991569519 4.698100090026855 5.416999816894531 5.752900123596191 215.9      232.577    227.3805   51.4017    2.7639     0.1253463  1.91       2.4001     3.3152     3.2188     3.2417     3.2353     3.2151     3.2285     3.4021     0.3148     18.8703    0.7876181  3.9618     0.1683     -0.0321    0.06165488
770.7      2.8919     3.302799940109253 3.87719988822937 4.320600032806396 5.007299900054932 215.9      236.5174   237.8222   52.2688    2.7368     0.1426648  2.0263     2.3692     3.1244     3.037      3.0774     3.0726     3.0567     3.0685     3.1425     0.3153     18.4761    0.7118265  4.1667     0.177      -0.0893    0.06846458
770.8      2.5114     2.854300022125244 3.194799900054932 3.526799917221069 3.871599912643433 215.9      231.0702   255.3416   52.4093    2.7725     0.1660624  1.9903     2.3429     3.0381     2.9557     3.0227     3.0225     3.0085     3.0102     3.0302     0.3214     18.5023    0.6180845  4.2705     0.1922     -0.164     0.0695791 
770.9      2.2248     2.500499963760376 2.777199983596802 3.052000045776367 3.218499898910522 215.9      226.403    277.08     52.9317    2.8703     0.18825    2.0093     2.3216     3.0033     2.9061     2.9782     2.9821     2.9641     2.9667     3.0162     0.3234     19.0215    0.5496627  4.3785     0.2039     -0.2571    0.07375039
771        2.1028     2.309099912643433 2.492199897766113 2.773000001907349 2.823899984359741 215.9      224.0902   299.854    53.6131    2.9994     0.2059977  2.0602     2.3098     3.0283     2.9214     2.9887     3.0016     2.9815     2.9839     3.0366     0.3232     19.8629    0.500696   4.4783     0.2131     -0.3704    0.07925675
771.1      2.0367     2.257999897003174 2.415600061416626 2.701299905776978 2.706199884414673 215.9      225.0042   303.5182   53.3148    3.0955     0.2093853  2.0725     2.3115     3.0931     3.0092     3.0802     3.0965     3.0635     3.0717     3.0203     0.3275     20.7855    0.4847226  4.4526     0.2206     -0.5807    0.07683703
771.2      2.0255     2.25029993057251 2.416199922561646 2.681099891662598 2.720200061798096 215.9      228.4972   306.5307   53.5851    3.1244     0.2087849  2.0915     2.3168     2.9368     2.9055     2.9783     3.0044     2.9643     2.9641     2.862      0.3311     21.0273    0.4958425  4.4883     0.2204     -0.6612    0.07902902
771.3      1.9925     2.249599933624268 2.426300048828125 2.697299957275391 2.77180004119873 215.9      234.3674   309.3082   54.2177    3.0943     0.2046518  2.1152     2.3275     2.7979     2.7962     2.8617     2.895      2.8534     2.8525     2.7225     0.3339     20.7761    0.5167575  4.5621     0.2145     -0.6408    0.08420539
771.4      1.9836     2.217099905014038 2.383399963378906 2.639600038528442 2.784600019454956 215.9      238.7856   318.7305   52.8238    3.0207     0.2099047  2.1229     2.3403     2.7828     2.7766     2.8387     2.8753     2.8308     2.8298     2.7318     0.3344     21.5276    0.506067   4.3923     0.2161     -0.6447    0.07288525
771.5      1.9622     2.175600051879883 2.31030011177063 2.524199962615967 2.727999925613403 215.9      241.509    322.9337   52.3288    2.9429     0.2116186  2.1886     2.3483     2.8011     2.7947     2.8699     2.9091     2.8633     2.8601     2.7449     0.336      21.4354    0.4990069  4.2285     0.2183     -0.6357    0.06894016
771.6      1.9384     2.142199993133545 2.261800050735474 2.421099901199341 2.673399925231934 215.9      241.2382   322.1224   52.6973    2.8992     0.2129621  2.31       2.3405     2.789      2.7475     2.8403     2.8739     2.8216     2.8212     2.7594     0.3387     20.5325    0.4996458  4.0704     0.2211     -0.6142    0.07187337
771.7      1.9114     2.115700006484985 2.218899965286255 2.367899894714355 2.613199949264526 215.9      237.4124   324.0565   52.0646    2.8846     0.2209531  2.3976     2.3252     2.6894     2.6293     2.7231     2.7587     2.7103     2.7076     2.6671     0.3401     19.7222    0.492698   4.0146     0.2257     -0.581     0.06685036
771.8      1.8838     2.082499980926514 2.170300006866455 2.312099933624268 2.552000045776367 215.9      232.7886   328.309    51.8787    2.8629     0.2254276  2.4301     2.3222     2.6212     2.5622     2.6574     2.6978     2.6492     2.6437     2.5992     0.3405     19.3029    0.4893687  3.9071     0.2297     -0.4986    0.06538644
771.9      1.8443     2.021699905395508 2.096299886703491 2.26230001449585 2.491499900817871 215.9      228.5412   335.2505   52.2294    2.8359     0.2316118  2.3985     2.313      2.6274     2.5759     2.6684     2.7189     2.6702     2.657      2.5618     0.3399     19.3414    0.4749761  3.7379     0.2332     -0.3587    0.06815262
772        1.8006     2.003499984741211 2.057300090789795 2.20110011100769 2.473099946975708 215.9      225.227    338.6162   52.3823    2.7957     0.2357984  2.3235     2.3027     2.6469     2.6115     2.6997     2.7596     2.7115     2.7025     2.4683     0.3395     19.2059    0.4621627  3.5182     0.2298     -0.3492    0.06936468
772.1      1.7957     2.019799947738647 2.073899984359741 2.243099927902222 2.525199890136719 215.9      223.2992   338.3021   53.3696    2.7372     0.2326066  2.2787     2.3043     2.591      2.5713     2.6591     2.7259     2.6781     2.677      2.3421     0.339      19.1659    0.4709785  3.3034     0.23       -0.3634    0.07728046
772.2      1.7934     2.028800010681152 2.082299947738647 2.293499946594238 2.569099903106689 215.9      223.4162   333.2214   55.5264    2.6775     0.2285893  2.2795     2.2925     2.5862     2.5743     2.6601     2.7316     2.6857     2.687      2.3234     0.3384     19.2733    0.478264   3.1        0.2358     -0.3986    0.09512293
