~Version
 VERS              .         3.0                           : CWLS LOG ASCII STANDARD - VERSION 3.0
 WRAP              .         NO                            : ONE LINE PER DEPTH STEP
 DLM               .         SPACE                         : DELIMITING CHARACTER(SPACE TAB OR COMMA)
~Well Information
#_______________________________________________________________________________
#
#PARAMETER_NAME    .UNIT     VALUE                         : DESCRIPTION
#_______________________________________________________________________________
STRT               .M        0                             : First reference value
STOP               .M        817                           : Last reference value
STEP               .M        0.1                           : Step increment
NULL               .         -9999                         : Missing value
COMP               .                                       : Company
WELL               .         336                           : Well name
FLD                .         Karatube                      : Field
LOC                .                                       : Location
SRVC               .         SCH                           : Service Company
CTRY               .                                       : Country
DATE               .         10/25/2023                    : Service Date
LATI               .         0                             : Latitude
LONG               .         0                             : Longitude
GDAT               .                                       : Geodetic Datum
ORIGINALWELLNAME   .         Каратобе 336                  : 
RWS                .         -999                          : Def_Rw
WST                .         -999                          : Def_Rwt
~Parameter Information Block
#_______________________________________________________________________________
#
#PARAMETER_NAME    .UNIT     VALUE                         : DESCRIPTION
#_______________________________________________________________________________
SET                .         Las                           : 
TLFamily_AT10      .         Extra Shallow Resistivity     : 
TLFamily_AT20      .         Shallow Resistivity           : 
TLFamily_AT30      .         Medium Resistivity            : 
TLFamily_AT60      .         Deep Resistivity              : 
TLFamily_AT90      .         Extra Deep Resistivity        : 
TLFamily_BSC       .         Bit Size                      : 
TLFamily_CALI      .         Caliper                       : 
TLFamily_DEPTH     .         Measured Depth                : 
TLFamily_DT        .         Compressional Slowness        : 
TLFamily_GR        .         Gamma Ray                     : 
TLFamily_PEFZ      .         Photoelectric Factor          : 
TLFamily_PHI_FINAL .         Porosity                      : 
TLFamily_POTA      .         Potassium Concentration       : 
TLFamily_RHOZ      .         Bulk Density                  : 
TLFamily_RLA1      .         Extra Shallow Resistivity     : 
TLFamily_RLA2      .         Shallow Resistivity           : 
TLFamily_RLA3      .         Medium Resistivity            : 
TLFamily_RLA4      .         Deep Resistivity              : 
TLFamily_RLA5      .         Extra Deep Resistivity        : 
TLFamily_RT        .         Formation Resistivity         : 
TLFamily_RXO       .         Flushed Zone Resistivity      : 
TLFamily_SDEVM     .         Sonde Deviation               : 
TLFamily_SP        .         Spontaneous Potential         : 
TLFamily_SW_AR     .         Water Saturation              : 
TLFamily_THOR      .         Thorium Concentration         : 
TLFamily_TNPH      .         Neutron Porosity              : 
TLFamily_URAN      .         Uranium Concentration         : 
TLFamily_VSH_GR    .         Shale Volume                  : 
~Curve Information
#_______________________________________________________________________________
#
#LOGNAME           .UNIT     LOG_ID                        : DESCRIPTION
#_______________________________________________________________________________
DEPTH              .M                                      : Depth Index {F}
AT10               .ohm.m                                  : 10" Array Induction, two foot resolution Resistivity {F}
AT20               .ohm.m                                  : 20" Array Induction, two foot resolution Resistivity {F}
AT30               .ohm.m                                  : 30" Array Induction, two foot resolution Resistivity {F}
AT60               .ohm.m                                  : 60" Array Induction, two foot resolution Resistivity {F}
AT90               .ohm.m                                  : 90" Array Induction, two foot resolution Resistivity {F}
BSC                .mm                                     : Nominal Caliper {F}
CALI               .mm                                     : Caliper {F}
DT                 .US/M                                   : Sonic travel time {F}
GR                 .gAPI                                   : Gamma Ray {F}
PEFZ               .B/E                                    : Formation Photoelectric Factor {F}
PHI_FINAL          .m3/m3                                  : Porosity {F}
POTA               .%                                      : Potasium {F}
RHOZ               .g/cm3                                  : Bulk Density {F}
RLA1               .ohm.m                                  : HRLT Borehole Corrected Resistivity 1 {F}
RLA2               .ohm.m                                  : HRLT Borehole Corrected Resistivity 2 {F}
RLA3               .ohm.m                                  : HRLT Borehole Corrected Resistivity 3 {F}
RLA4               .ohm.m                                  : HRLT Borehole Corrected Resisitivity 4 {F}
RLA5               .ohm.m                                  : HRLT Borehole Corrected Resistivity 5 {F}
RT                 .ohm.m                                  : Formation Resistivity {F}
RXO                .ohm.m                                  : Flushed zone resistivity {F}
SDEVM              .deg                                    : Hole Deviation {F}
SP                 .mV                                     : Spontaneous Potential {F}
SW_AR              .m3/m3                                  :  {F}
THOR               .PPM                                    : Thorium {F}
TNPH               .v/v                                    : Neutron porosity {F}
URAN               .PPM                                    : Uranium {F}
VSH_GR             .unitless                               : Shale volume fraction from Gamma Ray {F}
~Ascii
# ...
369.1      2.0233     2.376100063323975 2.503299951553345 2.667999982833862 2.69350004196167 215.9      214.6198   540.7426   123.7241   2.6898     0.09584316 3.1766     2.0813     3.4371     3.2888     3.2121     3.1765     3.0674     2.7904     4.5828     0.3969     -19.1682   1          12.0788    0.4136     2.0069     0.7494618 
369.2      1.9923     2.371799945831299 2.524499893188477 2.69379997253418 2.739500045776367 215.9      214.3618   546.3207   125.2466   2.6926     0.08053222 3.218      2.0847     3.5878     3.4054     3.343      3.309      3.193      2.8967     4.7548     0.3973     -18.6891   1          12.35      0.4098     1.9612     0.7863587 
369.3      2.0526     2.428699970245361 2.592700004577637 2.787899971008301 2.849100112915039 215.9      213.8434   546.2844   126.5705   2.6915     0.06804264 3.2439     2.0917     3.7409     3.5482     3.5107     3.4779     3.3541     3.0873     4.9032     0.397      -17.4242   1          12.4095    0.4166     1.9385     0.8197697 
369.4      2.1585     2.522599935531616 2.69350004196167 2.922100067138672 3.054699897766113 215.9      212.9088   542.7892   129.0978   2.6863     0.04697645 3.2521     2.1005     3.8327     3.6643     3.6575     3.621      3.4931     3.3033     4.9198     0.3949     -15.1125   1          12.1146    0.4393     2.0001     0.8871567 
369.5      2.2717     2.629899978637695 2.830100059509277 3.09689998626709 3.322999954223633 215.9      212.4868   524.249    123.6854   2.6879     0.1040392  3.2317     2.1043     3.912      3.7837     3.7968     3.7596     3.6245     3.51       4.8994     0.3932     -13.8869   1          11.3901    0.4625     1.919      0.7485447 
369.6      2.3931     2.714600086212158 2.96589994430542 3.364099979400635 3.515700101852417 215.9      212.208    506.1901   117.6749   2.6952     0.1567177  3.1943     2.1066     4.4791     4.412      4.4406     4.3987     4.2417     4.2064     5.4716     0.3915     -12.3906   1          10.6186    0.477      1.8309     0.6176968 
369.7      2.6123     2.891499996185303 3.18560004234314 3.630199909210205 3.659300088882446 215.9      211.5986   496.9601   114.3356   2.709      0.1779986  3.1315     2.1048     6.9912     7.0911     7.2025     7.1371     6.8777     7.0101     7.7999     0.3897     -9.7066    0.8669062  9.9573     0.4705     1.7997     0.5541181 
369.8      3.089      3.297399997711182 3.695899963378906 4.232999801635742 4.236899852752686 215.9      211.1914   491.1305   111.4446   2.7339     0.1978142  3.0113     2.0947     9.8568     10.196     10.5328    10.4145    9.9911     10.2067    9.63       0.3877     -9.161     0.5958316  9.5812     0.4673     1.7887     0.5037534 
369.9      3.4987     4.138299942016602 4.814499855041504 5.679500102996826 5.86269998550415 215.9      211.1408   488.0466   109.3971   2.7528     0.2103118  2.9069     2.0869     8.412      8.6578     8.9811     8.8278     8.4442     8.6571     8.1517     0.3855     -9.2991    0.5938794  9.3721     0.4628     1.7405     0.4705109 
370        4.2745     5.376800060272217 6.524400234222412 8.112000465393066 8.513999938964844 215.9      211.8062   490.322    109.5012   2.755      0.2082035  2.899      2.078      6.7992     6.9896     7.2379     7.0652     6.7523     6.961      6.7874     0.3832     -9.6787    0.6806219  9.4228     0.4514     1.5637     0.4721546 
370.1      4.5291     5.898900032043457 7.230800151824951 8.726699829101563 9.09689998626709 215.9      212.1122   511.5403   108.8373   2.7512     0.2177109  2.9147     2.0602     5.7599     5.8862     6.0116     5.8245     5.5476     5.7219     6.3363     0.3811     -10.0288   0.7096925  9.6085     0.4543     1.4554     0.4617546 
370.2      3.6235     5.223299980163574 6.199100017547607 7.222899913787842 7.434899806976318 215.9      212.6744   536.4727   107.9994   2.7196     0.2278502  2.9682     2.0469     4.7563     4.7849     4.7959     4.6275     4.4042     4.3307     6.0727     0.3789     -10.8679   0.7745361  9.919      0.4599     1.3551     0.4489065 
370.3      2.9312     4.23829984664917 4.817500114440918 5.431000232696533 5.540200233459473 215.9      215.0482   548.2364   107.6019   2.6911     0.2295094  3.1378     2.044      4.244      4.1882     4.1289     3.9863     3.7866     3.5089     5.7235     0.3761     -13.7074   0.8609574  10.5291    0.4561     1.1861     0.4429178 
370.4      2.6645     3.379899978637695 3.683000087738037 4.000699996948242 4.181000232696533 215.9      216.1358   553.0008   109.5124   2.698      0.2177722  3.2443     2.0496     3.9572     3.8219     3.7137     3.5929     3.4074     2.9605     5.2986     0.374      -16.2548   1          10.9493    0.4577     1.0459     0.4723317 
370.5      2.2976     2.845999956130981 3.048399925231934 3.335900068283081 3.351000070571899 215.9      216.3704   553.7233   112.6993   2.7101     0.1957773  3.3192     2.0658     3.8209     3.6396     3.4937     3.388      3.2146     2.6559     5.0407     0.3721     -18.144    1          11.2697    0.4621     0.9553     0.5251034 
370.6      2.0943     2.586199998855591 2.769799947738647 2.98799991607666 3.000499963760376 215.9      217.3742   550.5183   116.8857   2.7259     0.1639772  3.3841     2.0869     3.9698     3.7813     3.6051     3.4946     3.3157     2.7017     5.3554     0.3694     -17.2992   1          11.5357    0.4672     1.0537     0.6021205 
370.7      2.0127     2.478300094604492 2.648900032043457 2.842400074005127 2.83899998664856 215.9      217.3378   545.3054   118.7853   2.7521     0.1432746  3.3822     2.1044     4.0298     3.8253     3.6416     3.5237     3.3491     2.706      5.4227     0.3666     -17.3013   1          11.712     0.4618     1.1255     0.640214  
370.8      2.0239     2.473700046539307 2.636899948120117 2.833400011062622 2.80839991569519 215.9      216.08     542.2617   119.2633   2.7534     0.1324781  3.3558     2.1169     3.8229     3.6596     3.512      3.3865     3.2258     2.6757     5.1133     0.3638     -17.6559   1          11.8425    0.4511     1.1708     0.6501285 
370.9      2.1016     2.510699987411499 2.677799940109253 2.883599996566772 2.846400022506714 215.9      214.2224   566.311    119.1056   2.7409     0.1310944  3.4483     2.1221     3.9925     3.8759     3.7605     3.6118     3.4407     2.9714     5.421      0.3609     -16.8388   1          12.0274    0.4476     1.129      0.6468426 
371        2.2365     2.568900108337402 2.724100112915039 2.986000061035156 2.887500047683716 215.9      212.4314   581.9802   118.9095   2.7282     0.1337433  3.4446     2.1176     4.7106     4.6523     4.5813     4.3845     4.185      3.8185     6.4738     0.3584     -17.3478   1          12.0503    0.4473     1.1097     0.6427771 
371.1      2.4369     2.788500070571899 2.951800107955933 3.289200067520142 3.149100065231323 215.9      211.0234   591.2286   118.6897   2.7125     0.1390284  3.3721     2.1074     5.8184     5.8752     5.8924     5.6405     5.3813     5.2573     7.6032     0.3562     -18.6695   1          11.9524    0.4498     1.111      0.6382472 
371.2      2.753      3.197400093078613 3.442899942398071 3.856199979782104 3.710599899291992 215.9      210.6446   594.9544   118.5307   2.6758     0.1496712  3.3156     2.0879     7.3113     7.551      7.686      7.3908     7.0416     7.2543     8.4629     0.3534     -17.6759   1          11.7969    0.4618     1.1803     0.634988  
371.3      3.1655     3.738199949264526 4.197100162506104 4.754199981689453 4.578400135040283 215.9      210.7212   599.2629   118.5854   2.6171     0.1572681  3.2291     2.0584     9.7968     10.356     10.6507    10.3306    9.8464     10.1727    10.4203    0.351      -16.9577   0.8565051  11.5305    0.4622     1.1843     0.6361077 
371.4      3.7121     4.740399837493896 5.613399982452393 6.625100135803223 6.349400043487549 215.9      211.04     604.0314   118.845    2.5527     0.1596722  3.1178     2.0302     11.4497    12.2207    12.5612    12.2982    11.7085    12.0617    11.4315    0.3491     -16.4664   0.7576096  11.1679    0.453      1.1335     0.6414449 
