~Version
 VERS              .         3.0                           : CWLS LOG ASCII STANDARD - VERSION 3.0
 WRAP              .         NO                            : ONE LINE PER DEPTH STEP
 DLM               .         SPACE                         : DELIMITING CHARACTER(SPACE TAB OR COMMA)
~Well Information
#_______________________________________________________________________________
#
#PARAMETER_NAME    .UNIT     VALUE                         : DESCRIPTION
#_______________________________________________________________________________
STRT               .M        0                             : First reference value
STOP               .M        817                           : Last reference value
STEP               .M        0.1                           : Step increment
NULL               .         -9999                         : Missing value
COMP               .                                       : Company
WELL               .         336                           : Well name
FLD                .         Karatube                      : Field
LOC                .                                       : Location
SRVC               .         SCH                           : Service Company
CTRY               .                                       : Country
DATE               .         10/25/2023                    : Service Date
LATI               .         0                             : Latitude
LONG               .         0                             : Longitude
GDAT               .                                       : Geodetic Datum
ORIGINALWELLNAME   .         Каратобе 336                  : 
RWS                .         -999                          : Def_Rw
WST                .         -999                          : Def_Rwt
~Parameter Information Block
#_______________________________________________________________________________
#
#PARAMETER_NAME    .UNIT     VALUE                         : DESCRIPTION
#_______________________________________________________________________________
SET                .         Las                           : 
TLFamily_AT10      .         Extra Shallow Resistivity     : 
TLFamily_AT20      .         Shallow Resistivity           : 
TLFamily_AT30      .         Medium Resistivity            : 
TLFamily_AT60      .         Deep Resistivity              : 
TLFamily_AT90      .         Extra Deep Resistivity        : 
TLFamily_BSC       .         Bit Size                      : 
TLFamily_CALI      .         Caliper                       : 
TLFamily_DEPTH     .         Measured Depth                : 
TLFamily_DT        .         Compressional Slowness        : 
TLFamily_GR        .         Gamma Ray                     : 
TLFamily_PEFZ      .         Photoelectric Factor          : 
TLFamily_PHI_FINAL .         Porosity                      : 
TLFamily_POTA      .         Potassium Concentration       : 
TLFamily_RHOZ      .         Bulk Density                  : 
TLFamily_RLA1      .         Extra Shallow Resistivity     : 
TLFamily_RLA2      .         Shallow Resistivity           : 
TLFamily_RLA3      .         Medium Resistivity            : 
TLFamily_RLA4      .         Deep Resistivity              : 
TLFamily_RLA5      .         Extra Deep Resistivity        : 
TLFamily_RT        .         Formation Resistivity         : 
TLFamily_RXO       .         Flushed Zone Resistivity      : 
TLFamily_SDEVM     .         Sonde Deviation               : 
TLFamily_SP        .         Spontaneous Potential         : 
TLFamily_SW_AR     .         Water Saturation              : 
TLFamily_THOR      .         Thorium Concentration         : 
TLFamily_TNPH      .         Neutron Porosity              : 
TLFamily_URAN      .         Uranium Concentration         : 
TLFamily_VSH_GR    .         Shale Volume                  : 
~Curve Information
#_______________________________________________________________________________
#
#LOGNAME           .UNIT     LOG_ID                        : DESCRIPTION
#_______________________________________________________________________________
DEPTH              .M                                      : Depth Index {F}
AT10               .ohm.m                                  : 10" Array Induction, two foot resolution Resistivity {F}
AT20               .ohm.m                                  : 20" Array Induction, two foot resolution Resistivity {F}
AT30               .ohm.m                                  : 30" Array Induction, two foot resolution Resistivity {F}
AT60               .ohm.m                                  : 60" Array Induction, two foot resolution Resistivity {F}
AT90               .ohm.m                                  : 90" Array Induction, two foot resolution Resistivity {F}
BSC                .mm                                     : Nominal Caliper {F}
CALI               .mm                                     : Caliper {F}
DT                 .US/M                                   : Sonic travel time {F}
GR                 .gAPI                                   : Gamma Ray {F}
PEFZ               .B/E                                    : Formation Photoelectric Factor {F}
PHI_FINAL          .m3/m3                                  : Porosity {F}
POTA               .%                                      : Potasium {F}
RHOZ               .g/cm3                                  : Bulk Density {F}
RLA1               .ohm.m                                  : HRLT Borehole Corrected Resistivity 1 {F}
RLA2               .ohm.m                                  : HRLT Borehole Corrected Resistivity 2 {F}
RLA3               .ohm.m                                  : HRLT Borehole Corrected Resistivity 3 {F}
RLA4               .ohm.m                                  : HRLT Borehole Corrected Resisitivity 4 {F}
RLA5               .ohm.m                                  : HRLT Borehole Corrected Resistivity 5 {F}
RT                 .ohm.m                                  : Formation Resistivity {F}
RXO                .ohm.m                                  : Flushed zone resistivity {F}
SDEVM              .deg                                    : Hole Deviation {F}
SP                 .mV                                     : Spontaneous Potential {F}
SW_AR              .m3/m3                                  :  {F}
THOR               .PPM                                    : Thorium {F}
TNPH               .v/v                                    : Neutron porosity {F}
URAN               .PPM                                    : Uranium {F}
VSH_GR             .unitless                               : Shale volume fraction from Gamma Ray {F}
~Ascii
# ...
280.3      3.1361     3.927200078964233 4.658299922943115 5.472499847412109 5.57919979095459 215.9      218.166    481.3278   95.9756    2.3257     0.286775   3.3327     2.0626     4.294      4.1931     4.2037     4.0927     3.9468     3.8061     5.4632     0.3789     -23.337    0.5703236  9.6082     0.4236     0.3964     0.3006303 
280.4      2.8198     3.594899892807007 4.041600227355957 4.576099872589111 4.617499828338623 215.9      215.4766   483.9632   101.0444   2.3198     0.2628673  3.3278     2.0684     3.9759     3.8748     3.8906     3.7817     3.6389     3.4781     5.1574     0.3778     -24.9179   0.6781616  9.8247     0.4152     0.4554     0.3608834 
280.5      2.6823     3.247299909591675 3.539999961853027 3.867799997329712 3.934299945831299 215.9      215.964    484.0673   102.9199   2.3544     0.2553426  3.3768     2.0754     4.2649     4.1378     4.1589     4.047      3.8872     3.6881     5.5827     0.3779     -25.3044   0.6842762  10.2241    0.4261     0.5008     0.3855016 
280.6      2.4775     2.952300071716309 3.179199934005737 3.466000080108643 3.494100093841553 215.9      217.5644   484.2665   104.6348   2.4171     0.2481432  3.3991     2.0784     5.1445     5.0035     5.0368     4.9171     4.7108     4.5209     6.6199     0.3782     -26.1255   0.6363199  10.3201    0.4322     0.5216     0.409205  
280.7      2.5155     2.913000106811523 3.219399929046631 3.558099985122681 3.636199951171875 215.9      217.7404   485.6923   107.3008   2.4725     0.2327351  3.3426     2.0759     5.9231     5.8843     5.9432     5.8226     5.5695     5.5918     7.0033     0.3785     -28.3535   0.6178221  9.6974     0.4208     0.4955     0.4484578 
280.8      2.7199     3.216599941253662 3.594599962234497 4.077199935913086 4.13670015335083 215.9      216.9732   486.8298   104.0918   2.4987     0.2490195  3.3481     2.0681     5.6006     5.6522     5.6915     5.5797     5.3317     5.4246     6.4501     0.3794     -27.2013   0.5718702  9.4243     0.414      0.4524     0.4015726 
280.9      2.8425     3.466799974441528 3.888299942016602 4.539299964904785 4.565000057220459 215.9      216.0338   486.8039   100.5493   2.4929     0.266341   3.3413     2.0583     5.2864     5.3135     5.3188     5.2232     4.9919     5.0072     6.3809     0.3808     -25.8637   0.5440221  9.1802     0.4086     0.4515     0.3546032 
281        2.965      3.694900035858154 4.144800186157227 4.876699924468994 5.013700008392334 215.9      216.475    483.8397   100.3272   2.4669     0.2689257  3.2568     2.0506     5.7431     5.7871     5.7923     5.6968     5.451      5.5077     6.7811     0.3828     -26.4547   0.5094002  8.7627     0.4038     0.5772     0.351815  
281.1      2.9934     3.756400108337402 4.248499870300293 5.013700008392334 5.262599945068359 215.9      217.6864   479.6021   98.4491    2.4381     0.2788362  3.2026     2.0469     6.1824     6.264      6.3053     6.1908     5.9527     6.1143     6.6449     0.3841     -25.1211   0.4570239  8.6363     0.4119     0.6727     0.3289359 
281.2      3.0996     3.888099908828735 4.459000110626221 5.335299968719482 5.706399917602539 215.9      218.5584   475.948    96.4648    2.4207     0.2893377  3.1613     2.047      5.6057     5.6618     5.7336     5.6003     5.4152     5.5627     5.9157     0.3849     -23.702    0.4575178  8.5829     0.4238     0.7517     0.3060698 
281.3      3.1143     3.808099985122681 4.508800029754639 5.46619987487793 5.956399917602539 215.9      216.1604   475.9492   96.1666    2.4151     0.2922879  3.1285     2.0487     4.7644     4.765      4.8324     4.7004     4.5584     4.6319     5.3376     0.3851     -24.3767   0.4997937  8.4261     0.4329     0.8098     0.302745  
281.4      2.9933     3.616699934005737 4.189099788665771 5.081399917602539 5.4899001121521 215.9      213.9124   474.8555   96.3363    2.4107     0.2907713  3.1851     2.0522     4.4932     4.4648     4.5225     4.3923     4.2727     4.2778     5.3544     0.384      -25.0658   0.5259824  8.2104     0.4332     0.7936     0.3046336 
281.5      2.8151     3.381500005722046 3.763999938964844 4.434400081634521 4.842400074005127 215.9      212.1758   473.081    96.8083    2.4015     0.287392   3.2836     2.0563     5.2196     5.2006     5.2321     5.0926     4.959      4.9405     6.3525     0.3821     -25.7909   0.4932554  8.0721     0.4314     0.7315     0.3099352 
281.6      2.7559     3.325299978256226 3.620800018310547 4.160999774932861 4.605100154876709 215.9      211.9832   470.2731   97.7774    2.3906     0.2842916  3.3995     2.061      6.5368     6.5621     6.5546     6.4128     6.2329     6.2819     7.6072     0.3785     -26.6618   0.4386582  8.4343     0.4386     0.5996     0.3210489 
281.7      2.981      3.51200008392334 3.905499935150146 4.397799968719482 5.001399993896484 215.9      211.6626   471.3812   100.7638   2.3864     0.2694314  3.4512     2.067      6.9231     6.9886     6.9603     6.854      6.6684     6.8077     7.4567     0.3738     -27.1003   0.4522191  8.5818     0.4348     0.5145     0.3573131 
281.8      3.2603     4.003300189971924 4.60890007019043 5.149600028991699 6.029300212860107 215.9      211.3172   474.6985   104.321    2.388      0.2504567  3.4599     2.0703     6.3855     6.4604     6.4126     6.3562     6.1964     6.3247     6.7597     0.3684     -26.9442   0.5213873  8.628      0.4267     0.4501     0.4047797 
281.9      3.5708     4.557899951934814 5.326600074768066 6.08080005645752 7.05679988861084 215.9      211.5324   478.7535   104.0974   2.3873     0.2520129  3.4068     2.0708     6.3297     6.4327     6.3632     6.3356     6.1706     6.2889     6.8294     0.3619     -24.1359   0.5186194  8.7794     0.4292     0.3529     0.4016507 
282        3.5926     4.837800025939941 5.496900081634521 6.239399909973145 7.129600048065186 215.9      211.6972   481.9802   102.401    2.3772     0.2602618  3.3544     2.0679     7.0613     7.204      7.1203     7.1099     6.923      7.0581     7.5832     0.3545     -22.1406   0.4650034  8.6088     0.428      0.3197     0.3785569 
282.1      3.7808     4.915900230407715 5.532899856567383 6.383399963378906 7.206099987030029 215.9      211.8088   484.6418   99.5399    2.3537     0.2747022  3.2952     2.057      8.2847     8.3201     8.3035     8.2985     8.0965     8.2329     8.6482     0.3465     -20.8803   0.3958581  8.2209     0.4247     0.3359     0.3420733 
282.2      3.9594     5.184700012207031 5.770199775695801 6.642000198364258 7.070400238037109 215.9      212.1066   487.1544   94.5787    2.3233     0.2981144  3.1515     2.044      8.3701     8.1417     8.244      8.2467     8.0669     8.1356     8.8952     0.3399     -21.8393   0.3551155  7.8038     0.428      0.4277     0.285513  
282.3      4.1909     5.517899990081787 6.156099796295166 6.916800022125244 6.928100109100342 215.9      212.1778   488.488    89.5993    2.2917     0.3162873  3.0285     2.0327     7.7995     7.4005     7.5858     7.6008     7.4222     7.3821     8.7586     0.3325     -22.5234   0.343658   7.744      0.422      0.5276     0.2363113 
282.4      4.3882     5.8125     6.644299983978271 7.782199859619141 7.176400184631348 215.9      212.1368   488.7099   84.774     2.265      0.3316755  2.9228     2.0239     8.556      8.2096     8.4489     8.4866     8.2924     8.3337     9.1592     0.3247     -22.9482   0.2990421  7.9641     0.4093     0.6341     0.1949086 
282.5      4.6111     6.168900012969971 7.083799839019775 8.701299667358398 7.43209981918335 215.9      212.9814   484.176    85.4059    2.2587     0.3319475  2.8268     2.0229     10.6765    10.4326    10.7259    10.8504    10.6023    10.6681    10.7321    0.3184     -22.2633   0.2610098  7.7827     0.4254     0.7407     0.2000089 
282.6      4.8421     6.549300193786621 7.616899967193604 9.487299919128418 7.434599876403809 215.9      213.8854   463.2032   85.8336    2.2734     0.3339614  2.8089     2.0229     11.0285    10.796     11.0718    11.2369    10.9571    11.0338    10.8115    0.3128     -22.3551   0.2547371  7.6577     0.4375     0.8431     0.2035142 
