~Version
 VERS              .         3.0                           : CWLS LOG ASCII STANDARD - VERSION 3.0
 WRAP              .         NO                            : ONE LINE PER DEPTH STEP
 DLM               .         SPACE                         : DELIMITING CHARACTER(SPACE TAB OR COMMA)
~Well Information
#_______________________________________________________________________________
#
#PARAMETER_NAME    .UNIT     VALUE                         : DESCRIPTION
#_______________________________________________________________________________
STRT               .M        0                             : First reference value
STOP               .M        817                           : Last reference value
STEP               .M        0.1                           : Step increment
NULL               .         -9999                         : Missing value
COMP               .                                       : Company
WELL               .         336                           : Well name
FLD                .         Karatube                      : Field
LOC                .                                       : Location
SRVC               .         SCH                           : Service Company
CTRY               .                                       : Country
DATE               .         10/25/2023                    : Service Date
LATI               .         0                             : Latitude
LONG               .         0                             : Longitude
GDAT               .                                       : Geodetic Datum
ORIGINALWELLNAME   .         Каратобе 336                  : 
RWS                .         -999                          : Def_Rw
WST                .         -999                          : Def_Rwt
~Parameter Information Block
#_______________________________________________________________________________
#
#PARAMETER_NAME    .UNIT     VALUE                         : DESCRIPTION
#_______________________________________________________________________________
SET                .         Las                           : 
TLFamily_AT10      .         Extra Shallow Resistivity     : 
TLFamily_AT20      .         Shallow Resistivity           : 
TLFamily_AT30      .         Medium Resistivity            : 
TLFamily_AT60      .         Deep Resistivity              : 
TLFamily_AT90      .         Extra Deep Resistivity        : 
TLFamily_BSC       .         Bit Size                      : 
TLFamily_CALI      .         Caliper                       : 
TLFamily_DEPTH     .         Measured Depth                : 
TLFamily_DT        .         Compressional Slowness        : 
TLFamily_GR        .         Gamma Ray                     : 
TLFamily_PEFZ      .         Photoelectric Factor          : 
TLFamily_PHI_FINAL .         Porosity                      : 
TLFamily_POTA      .         Potassium Concentration       : 
TLFamily_RHOZ      .         Bulk Density                  : 
TLFamily_RLA1      .         Extra Shallow Resistivity     : 
TLFamily_RLA2      .         Shallow Resistivity           : 
TLFamily_RLA3      .         Medium Resistivity            : 
TLFamily_RLA4      .         Deep Resistivity              : 
TLFamily_RLA5      .         Extra Deep Resistivity        : 
TLFamily_RT        .         Formation Resistivity         : 
TLFamily_RXO       .         Flushed Zone Resistivity      : 
TLFamily_SDEVM     .         Sonde Deviation               : 
TLFamily_SP        .         Spontaneous Potential         : 
TLFamily_SW_AR     .         Water Saturation              : 
TLFamily_THOR      .         Thorium Concentration         : 
TLFamily_TNPH      .         Neutron Porosity              : 
TLFamily_URAN      .         Uranium Concentration         : 
TLFamily_VSH_GR    .         Shale Volume                  : 
~Curve Information
#_______________________________________________________________________________
#
#LOGNAME           .UNIT     LOG_ID                        : DESCRIPTION
#_______________________________________________________________________________
DEPTH              .M                                      : Depth Index {F}
AT10               .ohm.m                                  : 10" Array Induction, two foot resolution Resistivity {F}
AT20               .ohm.m                                  : 20" Array Induction, two foot resolution Resistivity {F}
AT30               .ohm.m                                  : 30" Array Induction, two foot resolution Resistivity {F}
AT60               .ohm.m                                  : 60" Array Induction, two foot resolution Resistivity {F}
AT90               .ohm.m                                  : 90" Array Induction, two foot resolution Resistivity {F}
BSC                .mm                                     : Nominal Caliper {F}
CALI               .mm                                     : Caliper {F}
DT                 .US/M                                   : Sonic travel time {F}
GR                 .gAPI                                   : Gamma Ray {F}
PEFZ               .B/E                                    : Formation Photoelectric Factor {F}
PHI_FINAL          .m3/m3                                  : Porosity {F}
POTA               .%                                      : Potasium {F}
RHOZ               .g/cm3                                  : Bulk Density {F}
RLA1               .ohm.m                                  : HRLT Borehole Corrected Resistivity 1 {F}
RLA2               .ohm.m                                  : HRLT Borehole Corrected Resistivity 2 {F}
RLA3               .ohm.m                                  : HRLT Borehole Corrected Resistivity 3 {F}
RLA4               .ohm.m                                  : HRLT Borehole Corrected Resisitivity 4 {F}
RLA5               .ohm.m                                  : HRLT Borehole Corrected Resistivity 5 {F}
RT                 .ohm.m                                  : Formation Resistivity {F}
RXO                .ohm.m                                  : Flushed zone resistivity {F}
SDEVM              .deg                                    : Hole Deviation {F}
SP                 .mV                                     : Spontaneous Potential {F}
SW_AR              .m3/m3                                  :  {F}
THOR               .PPM                                    : Thorium {F}
TNPH               .v/v                                    : Neutron porosity {F}
URAN               .PPM                                    : Uranium {F}
VSH_GR             .unitless                               : Shale volume fraction from Gamma Ray {F}
~Ascii
# ...
724.3      6.7163     8.051899909973145 8.351799964904785 7.746200084686279 7.718800067901611 215.9      213.9926   259.0966   36.4804    3.5267     0.1243372  1.3917     2.5429     5.9582     5.4895     5.3544     5.2208     5.0443     4.2154     7.6735     0.1961     6.601      0.6846551  2.5136     0.1392     -0.069     0         
724.4      5.557      6.492000102996826 6.894999980926514 6.296599864959717 6.218100070953369 215.9      214.3172   265.509    38.0202    3.4901     0.1323534  1.4348     2.533      4.5817     4.1957     4.0793     3.9937     3.8538     3.157      5.9135     0.195      5.4352     0.7552583  2.6497     0.1426     -0.0928    0         
724.5      4.5688     5.082600116729736 5.258100032806396 5.082200050354004 5.072000026702881 215.9      214.4494   272.7152   39.4272    3.4289     0.1425672  1.4751     2.5199     4.8335     4.4078     4.2824     4.1922     4.0385     3.2795     6.4262     0.1942     1.4184     0.6864771  2.6982     0.1511     -0.1074    0         
724.6      3.806      3.995300054550171 4.076399803161621 4.0447998046875 4.025499820709229 215.9      214.4904   275.2585   41.5379    3.3555     0.1474906  1.4684     2.5125     5.6483     5.1066     4.9497     4.8446     4.6492     3.7248     7.9767     0.2002     1.2683     0.6182466  2.5374     0.1574     0.1247     0         
724.7      3.4742     3.638700008392334 3.674700021743774 3.650599956512451 3.638000011444092 215.9      214.4318   274.9447   42.3851    3.3442     0.1501825  1.42       2.5046     7.1576     6.4807     6.297      6.1583     5.879      4.7353     9.9249     0.2043     1.3302     0.5313652  2.3888     0.1611     0.3282     0         
724.8      3.7573     3.738100051879883 3.760699987411499 3.706300020217896 3.693000078201294 215.9      214.2716   270.8146   41.0434    3.3862     0.1500776  1.3119     2.4951     6.9107     6.3147     6.1408     6.0072     5.7258     4.6749     9.2754     0.2038     1.0369     0.5355423  2.298      0.1609     0.44       0         
724.9      3.7135     4.009500026702881 4.06790018081665 3.980600118637085 3.920500040054321 215.9      214.29     265.2721   40.6645    3.4705     0.1463789  1.276      2.4895     6.0282     5.6129     5.4626     5.342      5.096      4.2789     7.8506     0.2025     2.5205     0.576749   2.3555     0.1522     0.4414     0         
725        3.8348     4.240799903869629 4.327600002288818 4.195700168609619 4.066500186920166 215.9      214.3322   261.7932   41.0174    3.526      0.1457309  1.2751     2.4795     5.1026     4.8712     4.7546     4.6547     4.4375     3.9192     6.7628     0.2016     3.5238     0.6082746  2.4978     0.1458     0.4188     0         
725.1      3.7682     4.190700054168701 4.269599914550781 4.146200180053711 4.02839994430542 215.9      214.3822   262.9709   42.538     3.5121     0.1487486  1.3213     2.4727     4.7549     4.5662     4.4878     4.3974     4.1849     3.7793     6.3256     0.2019     2.9646     0.608091   2.7632     0.147      0.3841     0         
725.2      3.4023     3.921000003814697 3.981100082397461 3.877899885177612 3.821500062942505 215.9      215.1394   268.3038   46.3058    3.4578     0.1446549  1.4738     2.475      4.7532     4.5332     4.4988     4.4075     4.1934     3.8155     6.2646     0.2009     3.7085     0.6219968  3.1466     0.1517     0.3496     0.024123  
725.3      3.1239     3.592700004577637 3.632400035858154 3.544699907302856 3.529500007629395 215.9      215.8332   275.0931   50.8382    3.3774     0.1402992  1.6274     2.4709     4.5373     4.2754     4.2885     4.1968     3.9941     3.6328     5.9159     0.2        5.755      0.6590298  3.4647     0.1572     0.3692     0.05779514
725.4      2.9385     3.30019998550415 3.319999933242798 3.285000085830688 3.279700040817261 215.9      215.2246   283.1208   55.9815    3.3335     0.1323206  1.7203     2.4718     4.0713     3.8112     3.842      3.7546     3.5732     3.2338     5.3017     0.2003     10.3645    0.745425   3.5436     0.1623     0.5278     0.09990018
725.5      2.7657     3.043900012969971 3.056400060653687 3.051399946212769 3.056900024414063 215.9      215.0454   290.4331   58.1223    3.3387     0.128861   1.8309     2.4809     3.8918     3.6444     3.6619     3.5833     3.4083     3.0688     5.0808     0.2        7.0417     0.7880357  3.5296     0.1664     0.6369     0.1187457 
725.6      2.6077     2.836299896240234 2.831599950790405 2.854099988937378 2.861000061035156 215.9      215.0616   298.3868   59.0464    3.3485     0.1337956  1.9132     2.4753     3.8264     3.5932     3.5841     3.5156     3.3425     2.9939     5.0031     0.199      4.1811     0.7694627  3.5144     0.1729     0.7007     0.1271338 
725.7      2.4649     2.670399904251099 2.658699989318848 2.68339991569519 2.676500082015991 215.9      214.774    309.0874   59.1204    3.338      0.1477568  1.8877     2.4577     3.614      3.4181     3.3886     3.3322     3.1708     2.8585     4.7408     0.1958     10.7171    0.7149044  3.5884     0.1883     0.6705     0.1278122 
725.8      2.3322     2.509599924087524 2.517600059509277 2.52209997177124 2.549599885940552 215.9      214.4836   318.4389   59.5652    3.3021     0.1590535  1.8878     2.4448     3.2526     3.1049     3.0664     3.0165     2.8732     2.6132     4.2996     0.1979     13.0679    0.6980711  3.6417     0.2087     0.6393     0.1319115 
725.9      2.2079     2.404799938201904 2.391700029373169 2.402400016784668 2.444299936294556 215.9      214.5108   326.0712   60.3296    3.2425     0.1692481  1.8944     2.43       3.1165     2.9888     2.947      2.892      2.7559     2.5058     4.1484     0.2012     14.0273    0.671498   3.7064     0.2318     0.609      0.1390421 
726        2.0707     2.273799896240234 2.267100095748901 2.299700021743774 2.343800067901611 215.9      215.7724   328.724    61.8106    3.1665     0.1785647  1.8841     2.4019     3.1928     3.0729     3.0305     2.965      2.8325     2.5844     4.2617     0.2006     16.3421    0.6256351  3.8547     0.2571     0.5843     0.1531721 
726.1      1.9542     2.154900074005127 2.160500049591064 2.181600093841553 2.238899946212769 215.9      216.8112   331.7462   62.6094    3.1174     0.1862219  1.9088     2.382      3.209      3.1003     3.0523     2.98       2.8556     2.612      4.2943     0.2014     15.9731    0.5963799  3.9934     0.273      0.5352     0.1609693 
726.2      1.918      2.120399951934814 2.13319993019104 2.150700092315674 2.211199998855591 215.9      217.342    334.6075   62.8689    3.0936     0.1921225  1.9549     2.3701     3.2238     3.104      3.0514     2.9775     2.8589     2.5938     4.3234     0.2029     14.2222    0.5803134  4.1539     0.2827     0.4497     0.1635292 
726.3      1.9453     2.144999980926514 2.156699895858765 2.18939995765686 2.253599882125854 215.9      216.7206   335.3114   61.9745    3.0784     0.2019143  2.0224     2.3486     3.3234     3.1885     3.1332     3.0617     2.9503     2.6732     4.4477     0.2046     12.476     0.5429987  4.4786     0.2841     0.2181     0.1547618 
726.4      2.0083     2.182600021362305 2.191900014877319 2.228300094604492 2.303600072860718 215.9      216.2786   333.4718   60.8539    3.0731     0.2072999  2.0448     2.3378     3.3224     3.1676     3.113      3.0438     2.942      2.6515     4.4273     0.2049     10.4297    0.5312921  4.5521     0.2824     0.0402     0.1439965 
726.5      2.0847     2.222899913787842 2.234200000762939 2.27049994468689 2.351700067520142 215.9      216.2276   330.1642   59.6209    3.0719     0.2067152  2.0377     2.344      3.2045     3.0469     2.9971     2.9388     2.8467     2.5727     4.263      0.2043     8.3536     0.5418003  4.4573     0.278      -0.0856    0.1324274 
726.6      2.1296     2.263099908828735 2.268899917602539 2.307300090789795 2.383399963378906 215.9      217.0046   327.7773   58.652     3.0705     0.2038601  2.0107     2.3519     3.2115     3.0437     3.0046     2.9479     2.8586     2.589      4.2633     0.2044     7.8383     0.5474639  4.218      0.2656     -0.0183    0.1235348 
