~Version
 VERS              .         3.0                           : CWLS LOG ASCII STANDARD - VERSION 3.0
 WRAP              .         NO                            : ONE LINE PER DEPTH STEP
 DLM               .         SPACE                         : DELIMITING CHARACTER(SPACE TAB OR COMMA)
~Well Information
#_______________________________________________________________________________
#
#PARAMETER_NAME    .UNIT     VALUE                         : DESCRIPTION
#_______________________________________________________________________________
STRT               .M        0                             : First reference value
STOP               .M        817                           : Last reference value
STEP               .M        0.1                           : Step increment
NULL               .         -9999                         : Missing value
COMP               .                                       : Company
WELL               .         336                           : Well name
FLD                .         Karatube                      : Field
LOC                .                                       : Location
SRVC               .         SCH                           : Service Company
CTRY               .                                       : Country
DATE               .         10/25/2023                    : Service Date
LATI               .         0                             : Latitude
LONG               .         0                             : Longitude
GDAT               .                                       : Geodetic Datum
ORIGINALWELLNAME   .         Каратобе 336                  : 
RWS                .         -999                          : Def_Rw
WST                .         -999                          : Def_Rwt
~Parameter Information Block
#_______________________________________________________________________________
#
#PARAMETER_NAME    .UNIT     VALUE                         : DESCRIPTION
#_______________________________________________________________________________
SET                .         Las                           : 
TLFamily_AT10      .         Extra Shallow Resistivity     : 
TLFamily_AT20      .         Shallow Resistivity           : 
TLFamily_AT30      .         Medium Resistivity            : 
TLFamily_AT60      .         Deep Resistivity              : 
TLFamily_AT90      .         Extra Deep Resistivity        : 
TLFamily_BSC       .         Bit Size                      : 
TLFamily_CALI      .         Caliper                       : 
TLFamily_DEPTH     .         Measured Depth                : 
TLFamily_DT        .         Compressional Slowness        : 
TLFamily_GR        .         Gamma Ray                     : 
TLFamily_PEFZ      .         Photoelectric Factor          : 
TLFamily_PHI_FINAL .         Porosity                      : 
TLFamily_POTA      .         Potassium Concentration       : 
TLFamily_RHOZ      .         Bulk Density                  : 
TLFamily_RLA1      .         Extra Shallow Resistivity     : 
TLFamily_RLA2      .         Shallow Resistivity           : 
TLFamily_RLA3      .         Medium Resistivity            : 
TLFamily_RLA4      .         Deep Resistivity              : 
TLFamily_RLA5      .         Extra Deep Resistivity        : 
TLFamily_RT        .         Formation Resistivity         : 
TLFamily_RXO       .         Flushed Zone Resistivity      : 
TLFamily_SDEVM     .         Sonde Deviation               : 
TLFamily_SP        .         Spontaneous Potential         : 
TLFamily_SW_AR     .         Water Saturation              : 
TLFamily_THOR      .         Thorium Concentration         : 
TLFamily_TNPH      .         Neutron Porosity              : 
TLFamily_URAN      .         Uranium Concentration         : 
TLFamily_VSH_GR    .         Shale Volume                  : 
~Curve Information
#_______________________________________________________________________________
#
#LOGNAME           .UNIT     LOG_ID                        : DESCRIPTION
#_______________________________________________________________________________
DEPTH              .M                                      : Depth Index {F}
AT10               .ohm.m                                  : 10" Array Induction, two foot resolution Resistivity {F}
AT20               .ohm.m                                  : 20" Array Induction, two foot resolution Resistivity {F}
AT30               .ohm.m                                  : 30" Array Induction, two foot resolution Resistivity {F}
AT60               .ohm.m                                  : 60" Array Induction, two foot resolution Resistivity {F}
AT90               .ohm.m                                  : 90" Array Induction, two foot resolution Resistivity {F}
BSC                .mm                                     : Nominal Caliper {F}
CALI               .mm                                     : Caliper {F}
DT                 .US/M                                   : Sonic travel time {F}
GR                 .gAPI                                   : Gamma Ray {F}
PEFZ               .B/E                                    : Formation Photoelectric Factor {F}
PHI_FINAL          .m3/m3                                  : Porosity {F}
POTA               .%                                      : Potasium {F}
RHOZ               .g/cm3                                  : Bulk Density {F}
RLA1               .ohm.m                                  : HRLT Borehole Corrected Resistivity 1 {F}
RLA2               .ohm.m                                  : HRLT Borehole Corrected Resistivity 2 {F}
RLA3               .ohm.m                                  : HRLT Borehole Corrected Resistivity 3 {F}
RLA4               .ohm.m                                  : HRLT Borehole Corrected Resisitivity 4 {F}
RLA5               .ohm.m                                  : HRLT Borehole Corrected Resistivity 5 {F}
RT                 .ohm.m                                  : Formation Resistivity {F}
RXO                .ohm.m                                  : Flushed zone resistivity {F}
SDEVM              .deg                                    : Hole Deviation {F}
SP                 .mV                                     : Spontaneous Potential {F}
SW_AR              .m3/m3                                  :  {F}
THOR               .PPM                                    : Thorium {F}
TNPH               .v/v                                    : Neutron porosity {F}
URAN               .PPM                                    : Uranium {F}
VSH_GR             .unitless                               : Shale volume fraction from Gamma Ray {F}
~Ascii
# ...
592.3      0.9461     1.09850001335144 1.146000027656555 1.181300044059753 1.17739999294281 215.9      209.8638   413.1749   96.6434    2.2988     0.16519    2.4323     2.1636     1.2335     1.2335     1.2432     1.2434     1.2631     1.2481     1.1834     0.2268     -3.2283    1          6.8775     0.3718     1.2438     0.4376166 
592.4      0.9248     1.072199940681458 1.118100047111511 1.153599977493286 1.14900004863739 215.9      209.892    415.5875   92.9391    2.2476     0.1877552  2.3168     2.1489     1.1911     1.1907     1.2005     1.2028     1.2242     1.2097     1.1113     0.2275     -3.8554    1          6.0762     0.3762     1.1936     0.3943157 
592.5      0.8809     1.020900011062622 1.065500020980835 1.096500039100647 1.09280002117157 215.9      209.9326   419.068    86.6281    2.1828     0.222643   2.2856     2.1268     1.0713     1.0672     1.0774     1.0811     1.1024     1.0868     1.0046     0.228      -2.8889    1          5.7068     0.3823     1.1385     0.3260949 
592.6      0.8312     0.9537000060081482 0.9908000230789185 1.020599961280823 1.014700055122375 215.9      209.951    422.0603   80.1753    2.1058     0.255399   2.2907     2.1033     1.0027     0.9956     1.0045     1.0095     1.028      1.0124     0.9555     0.2285     -2.2953    1          5.5429     0.3869     0.9653     0.2629802 
592.7      0.7831     0.8902999758720398 0.9218000173568726 0.9545999765396118 0.9474999904632568 215.9      209.998    424.2967   74.6298    2.0312     0.2814937  2.3141     2.0827     0.9871     0.98       0.9911     0.9965     1.0168     1.0011     0.9243     0.2289     -1.9516    0.9881988  5.4426     0.3903     0.7684     0.2136132 
592.8      0.7395     0.8324000239372253 0.8615000247955322 0.8910999894142151 0.8824999928474426 215.9      210.187    423.7163   74.1825    1.9711     0.2864015  2.3483     2.0706     0.9949     0.9902     1.0033     1.01       1.0321     1.0185     0.9012     0.2294     -2.0397    0.961959   5.1907     0.3921     0.7265     0.2098152 
592.9      0.7102     0.8025000095367432 0.8345000147819519 0.8565000295639038 0.8496000170707703 215.9      210.1304   423.502    74.1009    1.9283     0.2874945  2.41       2.0685     0.9783     0.9773     0.9899     0.9973     1.0194     1.0074     0.8783     0.2296     -1.6659    0.9641463  5.079      0.3937     0.6705     0.2091252 
593        0.7094     0.8001999855041504 0.8317000269889832 0.8525000214576721 0.8456000089645386 215.9      209.8956   423.424    74.308     1.9117     0.2864688  2.4807     2.0701     0.9832     0.9846     0.9978     1.0047     1.0257     1.0164     0.8714     0.2298     -1.0302    0.9628586  5.0621     0.3942     0.5963     0.2108781 
593.1      0.7224     0.8123999834060669 0.842199981212616 0.8604000210762024 0.8531000018119812 215.9      209.9444   422.8358   75.1227    1.9194     0.2811118  2.5023     2.073      1.0131     1.0242     1.0399     1.0487     1.0734     1.0752     0.8407     0.2301     -0.3787    0.9511486  5.1624     0.3865     0.447      0.2178295 
593.2      0.7318     0.8292000293731689 0.8517000079154968 0.8712000250816345 0.8633000254631042 215.9      210.0438   422.5222   74.5772    1.9395     0.2799546  2.5022     2.077      1.0075     1.0195     1.0369     1.0457     1.071      1.077      0.817      0.2307     -0.3386    0.9541281  4.9927     0.3786     0.4008     0.2131652 
593.3      0.7391     0.8337000012397766 0.8557000160217285 0.8741000294685364 0.8661999702453613 215.9      210.1164   422.5996   73.0352    1.9481     0.2826849  2.4816     2.0793     0.9867     1.0017     1.0219     1.03       1.0566     1.0689     0.7781     0.2314     -0.5782    0.9486799  4.6442     0.3706     0.428      0.2001943 
593.4      0.728      0.8306000232696533 0.850600004196167 0.8666999936103821 0.8580999970436096 215.9      209.972    425.3346   70.8137    1.9422     0.2904994  2.3893     2.0768     0.9556     0.9675     0.9895     0.9984     1.0265     1.0386     0.747      0.2318     1.1106     0.9377035  4.4148     0.3631     0.4767     0.1820501 
593.5      0.7109     0.8187999725341797 0.8367999792098999 0.8504999876022339 0.8428000211715698 215.9      209.8954   426.8135   67.739     1.9323     0.30241    2.3048     2.0719     0.9369     0.9448     0.9691     0.9778     1.0075     1.0185     0.7292     0.2324     2.4382     0.9102539  4.1231     0.368      0.4137     0.1579574 
593.6      0.6967     0.7998999953269958 0.8169000148773193 0.8292999863624573 0.8224999904632568 215.9      209.9656   427.2329   63.927     1.9103     0.3184617  2.2274     2.0628     0.9247     0.93       0.9528     0.961      0.9903     0.9968     0.7334     0.2331     3.4095     0.8744414  3.7796     0.3828     0.2559     0.1296553 
593.7      0.6834     0.7839999794960022 0.8015000224113464 0.817799985408783 0.8093000054359436 215.9      210.0822   428.1655   59.6038    1.8806     0.3318422  2.1775     2.0512     0.9042     0.9089     0.9317     0.9405     0.9702     0.9781     0.708      0.2334     2.0115     0.8477257  3.5061     0.3669     0.1139     0.09953914
593.8      0.6719     0.7735999822616577 0.7885000109672546 0.8046000003814697 0.7957999706268311 215.9      210.1508   428.3818   55.739     1.8579     0.3430597  2.1472     2.0429     0.9021     0.9073     0.9307     0.9415     0.9734     0.984      0.6936     0.2337     1.2131     0.8170299  3.2395     0.356      0.0208     0.07429061
593.9      0.6645     0.7633000016212463 0.7775999903678894 0.7947999835014343 0.7857999801635742 215.9      210.1314   427.8817   52.3328    1.8379     0.3505293  2.1364     2.0417     0.9014     0.9105     0.9329     0.9444     0.977      0.9915     0.6826     0.2339     1.0143     0.7960702  2.9798     0.3501     -0.0236    0.05327145
594        0.6624     0.7572000026702881 0.7713000178337097 0.7896999716758728 0.7806000113487244 215.9      210.1218   426.8365   51.5798    1.819      0.3500733  2.154      2.0447     0.895      0.9058     0.927      0.9402     0.9734     0.9897     0.6724     0.234      0.721      0.7978776  3.2608     0.3438     -0.2092    0.04877432
594.1      0.6618     0.7519999742507935 0.7667000293731689 0.7875000238418579 0.7781000137329102 215.9      210.134    426.2727   51.6107    1.8062     0.3477218  2.1344     2.0509     0.8852     0.8978     0.9172     0.9318     0.9671     0.9851     0.6583     0.234      0.3584     0.8053543  3.4182     0.3442     -0.3378    0.04895781
594.2      0.6605     0.7465999722480774 0.7638000249862671 0.7853000164031982 0.7767000198364258 215.9      210.1658   426.3177   52.4994    1.7982     0.3439402  2.0684     2.0591     0.8806     0.8951     0.912      0.9258     0.9611     0.9781     0.6597     0.2337     -0.0853    0.8174808  3.404      0.3529     -0.3914    0.05427362
594.3      0.6576     0.7394999861717224 0.7591000199317932 0.7860999703407288 0.7753999829292297 215.9      210.139    426.7885   53.3933    1.7893     0.3407463  2.0906     2.0655     0.8744     0.89       0.909      0.9221     0.9597     0.9809     0.6422     0.2335     0.4522     0.8238723  3.1065     0.3601     -0.292     0.05969574
594.4      0.6557     0.7355999946594238 0.7570000290870667 0.7860000133514404 0.7767000198364258 215.9      210.0876   427.548    54.4965    1.7837     0.3382908  2.1163     2.0691     0.8659     0.8791     0.8999     0.9128     0.9522     0.9721     0.636      0.2334     0.5844     0.8340717  2.8757     0.3691     -0.1925    0.066493  
594.5      0.6549     0.7332000136375427 0.7563999891281128 0.7824000120162964 0.7774999737739563 215.9      210.0188   428.6851   55.9127    1.7831     0.3366229  2.1359     2.0718     0.8712     0.8808     0.902      0.9144     0.9546     0.9702     0.6479     0.2332     -0.0192    0.8391932  2.7818     0.3811     -0.1131    0.07539287
594.6      0.6569     0.734499990940094 0.7590000033378601 0.781499981880188 0.7782999873161316 215.9      209.9056   428.9587   55.6266    1.7825     0.337961   2.2171     2.0728     0.8811     0.8863     0.9056     0.9174     0.957      0.9667     0.6686     0.233      -0.7861    0.8375316  2.7625     0.3849     -0.1175    0.07357895
