~Version
 VERS              .         3.0                           : CWLS LOG ASCII STANDARD - VERSION 3.0
 WRAP              .         NO                            : ONE LINE PER DEPTH STEP
 DLM               .         SPACE                         : DELIMITING CHARACTER(SPACE TAB OR COMMA)
~Well Information
#_______________________________________________________________________________
#
#PARAMETER_NAME    .UNIT     VALUE                         : DESCRIPTION
#_______________________________________________________________________________
STRT               .M        0                             : First reference value
STOP               .M        817                           : Last reference value
STEP               .M        0.1                           : Step increment
NULL               .         -9999                         : Missing value
COMP               .                                       : Company
WELL               .         336                           : Well name
FLD                .         Karatube                      : Field
LOC                .                                       : Location
SRVC               .         SCH                           : Service Company
CTRY               .                                       : Country
DATE               .         10/25/2023                    : Service Date
LATI               .         0                             : Latitude
LONG               .         0                             : Longitude
GDAT               .                                       : Geodetic Datum
ORIGINALWELLNAME   .         Каратобе 336                  : 
RWS                .         -999                          : Def_Rw
WST                .         -999                          : Def_Rwt
~Parameter Information Block
#_______________________________________________________________________________
#
#PARAMETER_NAME    .UNIT     VALUE                         : DESCRIPTION
#_______________________________________________________________________________
SET                .         Las                           : 
TLFamily_AT10      .         Extra Shallow Resistivity     : 
TLFamily_AT20      .         Shallow Resistivity           : 
TLFamily_AT30      .         Medium Resistivity            : 
TLFamily_AT60      .         Deep Resistivity              : 
TLFamily_AT90      .         Extra Deep Resistivity        : 
TLFamily_BSC       .         Bit Size                      : 
TLFamily_CALI      .         Caliper                       : 
TLFamily_DEPTH     .         Measured Depth                : 
TLFamily_DT        .         Compressional Slowness        : 
TLFamily_GR        .         Gamma Ray                     : 
TLFamily_PEFZ      .         Photoelectric Factor          : 
TLFamily_PHI_FINAL .         Porosity                      : 
TLFamily_POTA      .         Potassium Concentration       : 
TLFamily_RHOZ      .         Bulk Density                  : 
TLFamily_RLA1      .         Extra Shallow Resistivity     : 
TLFamily_RLA2      .         Shallow Resistivity           : 
TLFamily_RLA3      .         Medium Resistivity            : 
TLFamily_RLA4      .         Deep Resistivity              : 
TLFamily_RLA5      .         Extra Deep Resistivity        : 
TLFamily_RT        .         Formation Resistivity         : 
TLFamily_RXO       .         Flushed Zone Resistivity      : 
TLFamily_SDEVM     .         Sonde Deviation               : 
TLFamily_SP        .         Spontaneous Potential         : 
TLFamily_SW_AR     .         Water Saturation              : 
TLFamily_THOR      .         Thorium Concentration         : 
TLFamily_TNPH      .         Neutron Porosity              : 
TLFamily_URAN      .         Uranium Concentration         : 
TLFamily_VSH_GR    .         Shale Volume                  : 
~Curve Information
#_______________________________________________________________________________
#
#LOGNAME           .UNIT     LOG_ID                        : DESCRIPTION
#_______________________________________________________________________________
DEPTH              .M                                      : Depth Index {F}
AT10               .ohm.m                                  : 10" Array Induction, two foot resolution Resistivity {F}
AT20               .ohm.m                                  : 20" Array Induction, two foot resolution Resistivity {F}
AT30               .ohm.m                                  : 30" Array Induction, two foot resolution Resistivity {F}
AT60               .ohm.m                                  : 60" Array Induction, two foot resolution Resistivity {F}
AT90               .ohm.m                                  : 90" Array Induction, two foot resolution Resistivity {F}
BSC                .mm                                     : Nominal Caliper {F}
CALI               .mm                                     : Caliper {F}
DT                 .US/M                                   : Sonic travel time {F}
GR                 .gAPI                                   : Gamma Ray {F}
PEFZ               .B/E                                    : Formation Photoelectric Factor {F}
PHI_FINAL          .m3/m3                                  : Porosity {F}
POTA               .%                                      : Potasium {F}
RHOZ               .g/cm3                                  : Bulk Density {F}
RLA1               .ohm.m                                  : HRLT Borehole Corrected Resistivity 1 {F}
RLA2               .ohm.m                                  : HRLT Borehole Corrected Resistivity 2 {F}
RLA3               .ohm.m                                  : HRLT Borehole Corrected Resistivity 3 {F}
RLA4               .ohm.m                                  : HRLT Borehole Corrected Resisitivity 4 {F}
RLA5               .ohm.m                                  : HRLT Borehole Corrected Resistivity 5 {F}
RT                 .ohm.m                                  : Formation Resistivity {F}
RXO                .ohm.m                                  : Flushed zone resistivity {F}
SDEVM              .deg                                    : Hole Deviation {F}
SP                 .mV                                     : Spontaneous Potential {F}
SW_AR              .m3/m3                                  :  {F}
THOR               .PPM                                    : Thorium {F}
TNPH               .v/v                                    : Neutron porosity {F}
URAN               .PPM                                    : Uranium {F}
VSH_GR             .unitless                               : Shale volume fraction from Gamma Ray {F}
~Ascii
# ...
148.2      -9999      -9999      -9999      -9999      -9999      215.9      230.555    709.8198   58.5413    -9999      0.3677596  2.2298     -9999      0.2438     0.2116     0.1943     0.1794     0.1491     0.0614     0.4009     0.6354     34.3833    1          4.5139     0.5078     0.2744     0.08122809
148.3      -9999      -9999      -9999      -9999      -9999      215.9      224.1928   848.2182   61.9856    -9999      -9999      2.3813     -9999      1.049      0.9104     0.8316     0.7619     0.6321     0.2363     1.667      0.7248     27.8834    -9999      4.767      0.5158     0.2283     0.07738983
148.4      0.7411     7.432499885559082 3.512099981307983 3.00189995765686 5.361599922180176 215.9      223.2814   754.1851   68.9466    -9999      0.3020871  2.5229     -9999      1.8004     1.5624     1.4323     1.3135     1.0942     0.4165     2.8393     0.8554     21.3767    1          5.1362     0.5009     0.1555     0.1298052 
148.5      0.655      5.853899955749512 3.280999898910522 2.831599950790405 5.512400150299072 215.9      222.2668   680.2867   74.6418    -9999      0.2726791  2.6938     -9999      2.3578     2.0618     1.8984     1.7518     1.4579     0.596      3.7119     0.947      16.3922    1          5.5117     0.4785     0.1375     0.1851985 
148.6      0.6376     5.610099792480469 2.881099939346313 2.57699990272522 4.997799873352051 215.9      222.2102   621.586    79.495     2.933      0.2618451  2.8742     2.0748     2.2951     2.1065     1.9668     1.8381     1.5185     0.7823     3.6094     1.011      12.5402    1          5.8219     0.4532     0.1618     0.243645  
148.7      0.8313     4.685100078582764 2.726599931716919 2.589200019836426 4.730199813842773 215.9      227.8572   588.5978   83.7524    2.6688     0.2497294  2.9785     1.9992     2.3926     2.2927     2.1448     2.0102     1.6565     0.9594     3.7676     1.0424     10.4843    1          5.5098     0.443      0.2645     0.3053155 
148.8      0.902      4.082900047302246 2.654999971389771 2.759299993515015 3.98169994354248 215.9      234.652    585.2174   87.5593    2.5055     0.2179487  3.1825     1.9966     2.7152     2.6471     2.4674     2.2951     1.8956     1.1122     4.3917     1.0668     8.6763     1          5.5108     0.4369     0.3064     0.3702582 
148.9      1.2044     5.208199977874756 2.788300037384033 2.808900117874146 4.310500144958496 215.9      240.422    603.413    90.9486    2.44       0.1802193  3.4501     2.0175     3.0733     3.1201     2.9894     2.8162     2.3143     1.66       5.0789     1.0855     7.026      1          5.7288     0.4352     0.3097     0.4371628 
149        1.5988     5.935699939727783 2.984999895095825 2.720999956130981 3.10509991645813 215.9      239.854    624.186    92.6061    2.421      0.1650372  3.5546     2.0389     3.3254     3.4091     3.3655     3.1864     2.6093     2.0647     5.3354     1.0906     4.9618     1          5.7663     0.4609     0.4211     0.4733919 
149.1      1.6532     3.469899892807007 2.19539999961853 2.678299903869629 2.71970009803772 215.9      242.1634   651.4904   93.5421    2.4284     0.1555402  3.5976     2.0543     3.4486     3.4588     3.4164     3.2027     2.6304     1.9828     5.6051     1.088      2.8211     1          5.7534     0.4771     0.5357     0.4949543 
149.2      1.7484     3.042399883270264 2.056900024414063 2.553900003433228 2.743200063705444 215.9      250.1084   684.5867   93.8383    2.4527     0.1531738  3.5858     2.0586     3.4212     3.4141     3.4123     3.2045     2.6318     2.0419     5.5335     1.0788     0.6125     1          5.696      0.4847     0.6534     0.5019506 
149.3      1.7845     2.31220006942749 2.237600088119507 2.677099943161011 2.101399898529053 215.9      259.7472   655.3379   91.453     2.4703     0.1827958  3.4329     2.0508     3.2531     3.2541     3.2797     3.0862     2.5271     1.9904     5.2694     1.0727     0.1273     1          5.617      0.4924     0.526      0.4479308 
149.4      1.6445     1.943099975585938 2.200500011444092 3.132999897003174 2.116899967193604 215.9      273.9828   639.7063   89.3097    2.4569     0.2103545  3.3331     2.0336     3.5477     3.5417     3.604      3.4059     2.7815     2.2582     5.7626     1.0677     -0.125     1          5.4762     0.501      0.4047     0.4036604 
149.5      1.4281     2.143399953842163 2.224699974060059 2.780900001525879 2.275700092315674 215.9      290.634    638.8266   87.4285    2.4103     0.2358917  3.2909     2.0094     4.5171     4.4184     4.5616     4.3886     3.6018     3.0617     7.0052     1.0638     -0.125     0.8910135  5.2685     0.5106     0.29       0.3678561 
149.6      1.5698     2.152899980545044 2.500600099563599 2.957600116729736 2.505399942398071 215.9      289.8886   624.777    84.4804    2.3394     0.2620887  3.2439     1.9886     4.7488     4.517      4.7031     4.5859     3.789      3.2663     7.0753     1.0609     -0.125     0.7442548  4.8534     0.4989     0.3932     0.3169705 
149.7      1.7715     2.10260009765625 2.839600086212158 3.252599954605103 2.759399890899658 215.9      286.0832   619.4673   82.7746    2.2636     0.2753694  3.2661     1.9775     4.1235     3.8778     4.0345     3.9348     3.2638     2.7664     6.1627     1.0591     -0.1945    0.7620628  4.628      0.4907     0.4558     0.2901937 
149.8      1.9145     2.372499942779541 3.291300058364868 3.688100099563599 3.280499935150146 215.9      285.7132   626.4705   82.7747    2.2122     0.2758483  3.3804     1.9732     3.8454     3.5387     3.6563     3.5645     2.9639     2.3969     5.8334     1.0585     -0.3563    0.8233438  4.6657     0.4885     0.4527     0.2901952 
149.9      2.0828     2.372200012207031 3.433300018310547 3.640399932861328 3.522300004959106 215.9      284.932    631.4783   84.055     2.1976     0.2553047  3.3985     1.9771     3.4477     3.2108     3.2867     3.2223     2.6832     2.2086     5.2164     1.0575     -1.0212    0.9581329  4.6565     0.4508     0.4963     0.3101181 
150        1.9318     2.109299898147583 3.105999946594238 3.234899997711182 3.400599956512451 215.9      283.9158   626.1748   85.6204    2.2081     0.2330986  3.4334     1.9869     3.157      3.0535     3.1013     3.0647     2.5512     2.2069     4.7132     1.0566     -1.3961    1          4.6078     0.4219     0.53       0.3359283 
150.1      1.7279     1.9514000415802 2.690099954605103 2.840199947357178 3.066200017929077 215.9      282.8926   604.3694   87.4444    2.2403     0.2157282  3.5114     1.9907     3.3543     3.2834     3.3099     3.2968     2.7796     2.4584     4.7796     1.0561     -1.2165    1          4.5019     0.4135     0.5398     0.3681474 
150.2      1.589      1.79639995098114 2.490600109100342 2.739300012588501 2.829999923706055 215.9      282.6634   601.8479   88.0202    2.2686     0.2112297  3.4863     1.9881     3.6883     3.632      3.6435     3.6462     3.1349     2.8354     5.0081     1.0553     -0.8987    1          4.433      0.4105     0.6653     0.3788243 
150.3      1.6071     1.847900032997131 2.680000066757202 3.168499946594238 3.384900093078613 215.9      282.712    603.3224   88.3418    2.2663     0.2100301  3.4616     1.9832     3.629      3.664      3.6758     3.6923     3.2321     3.1241     4.9155     1.0544     -0.6956    1          4.5793     0.4106     0.7375     0.3848971 
150.4      1.6338     1.970999956130981 2.947200059890747 3.928900003433228 3.426800012588501 215.9      282.511    606.4601   88.5641    2.2389     0.2122231  3.4705     1.9723     3.4321     3.465      3.4861     3.5016     3.1233     3.0963     4.4898     1.0531     -0.7588    1          5.1315     0.4152     0.6698     0.3891415 
150.5      1.6443     2.101000070571899 3.329400062561035 5.052199840545654 4.247099876403809 215.9      282.148    606.9558   88.7769    2.2014     0.2163514  3.4385     1.9584     3.3506     3.2812     3.3368     3.3446     3.0434     3.0085     4.1964     1.0521     -0.6576    1          5.5711     0.4278     0.5698     0.3932406 
150.6      1.6329     2.14109992980957 3.186300039291382 4.401899814605713 4.485799789428711 215.9      281.7628   607.2786   88.819     2.1699     0.2193059  3.4215     1.9508     3.1927     3.0283     3.1209     3.1252     2.8842     2.8233     3.892      1.0511     -0.571     1          5.8196     0.4349     0.5304     0.3940557 
