~Version
 VERS              .         3.0                           : CWLS LOG ASCII STANDARD - VERSION 3.0
 WRAP              .         NO                            : ONE LINE PER DEPTH STEP
 DLM               .         SPACE                         : DELIMITING CHARACTER(SPACE TAB OR COMMA)
~Well Information
#_______________________________________________________________________________
#
#PARAMETER_NAME    .UNIT     VALUE                         : DESCRIPTION
#_______________________________________________________________________________
STRT               .M        0                             : First reference value
STOP               .M        817                           : Last reference value
STEP               .M        0.1                           : Step increment
NULL               .         -9999                         : Missing value
COMP               .                                       : Company
WELL               .         336                           : Well name
FLD                .         Karatube                      : Field
LOC                .                                       : Location
SRVC               .         SCH                           : Service Company
CTRY               .                                       : Country
DATE               .         10/25/2023                    : Service Date
LATI               .         0                             : Latitude
LONG               .         0                             : Longitude
GDAT               .                                       : Geodetic Datum
ORIGINALWELLNAME   .         Каратобе 336                  : 
RWS                .         -999                          : Def_Rw
WST                .         -999                          : Def_Rwt
~Parameter Information Block
#_______________________________________________________________________________
#
#PARAMETER_NAME    .UNIT     VALUE                         : DESCRIPTION
#_______________________________________________________________________________
SET                .         Las                           : 
TLFamily_AT10      .         Extra Shallow Resistivity     : 
TLFamily_AT20      .         Shallow Resistivity           : 
TLFamily_AT30      .         Medium Resistivity            : 
TLFamily_AT60      .         Deep Resistivity              : 
TLFamily_AT90      .         Extra Deep Resistivity        : 
TLFamily_BSC       .         Bit Size                      : 
TLFamily_CALI      .         Caliper                       : 
TLFamily_DEPTH     .         Measured Depth                : 
TLFamily_DT        .         Compressional Slowness        : 
TLFamily_GR        .         Gamma Ray                     : 
TLFamily_PEFZ      .         Photoelectric Factor          : 
TLFamily_PHI_FINAL .         Porosity                      : 
TLFamily_POTA      .         Potassium Concentration       : 
TLFamily_RHOZ      .         Bulk Density                  : 
TLFamily_RLA1      .         Extra Shallow Resistivity     : 
TLFamily_RLA2      .         Shallow Resistivity           : 
TLFamily_RLA3      .         Medium Resistivity            : 
TLFamily_RLA4      .         Deep Resistivity              : 
TLFamily_RLA5      .         Extra Deep Resistivity        : 
TLFamily_RT        .         Formation Resistivity         : 
TLFamily_RXO       .         Flushed Zone Resistivity      : 
TLFamily_SDEVM     .         Sonde Deviation               : 
TLFamily_SP        .         Spontaneous Potential         : 
TLFamily_SW_AR     .         Water Saturation              : 
TLFamily_THOR      .         Thorium Concentration         : 
TLFamily_TNPH      .         Neutron Porosity              : 
TLFamily_URAN      .         Uranium Concentration         : 
TLFamily_VSH_GR    .         Shale Volume                  : 
~Curve Information
#_______________________________________________________________________________
#
#LOGNAME           .UNIT     LOG_ID                        : DESCRIPTION
#_______________________________________________________________________________
DEPTH              .M                                      : Depth Index {F}
AT10               .ohm.m                                  : 10" Array Induction, two foot resolution Resistivity {F}
AT20               .ohm.m                                  : 20" Array Induction, two foot resolution Resistivity {F}
AT30               .ohm.m                                  : 30" Array Induction, two foot resolution Resistivity {F}
AT60               .ohm.m                                  : 60" Array Induction, two foot resolution Resistivity {F}
AT90               .ohm.m                                  : 90" Array Induction, two foot resolution Resistivity {F}
BSC                .mm                                     : Nominal Caliper {F}
CALI               .mm                                     : Caliper {F}
DT                 .US/M                                   : Sonic travel time {F}
GR                 .gAPI                                   : Gamma Ray {F}
PEFZ               .B/E                                    : Formation Photoelectric Factor {F}
PHI_FINAL          .m3/m3                                  : Porosity {F}
POTA               .%                                      : Potasium {F}
RHOZ               .g/cm3                                  : Bulk Density {F}
RLA1               .ohm.m                                  : HRLT Borehole Corrected Resistivity 1 {F}
RLA2               .ohm.m                                  : HRLT Borehole Corrected Resistivity 2 {F}
RLA3               .ohm.m                                  : HRLT Borehole Corrected Resistivity 3 {F}
RLA4               .ohm.m                                  : HRLT Borehole Corrected Resisitivity 4 {F}
RLA5               .ohm.m                                  : HRLT Borehole Corrected Resistivity 5 {F}
RT                 .ohm.m                                  : Formation Resistivity {F}
RXO                .ohm.m                                  : Flushed zone resistivity {F}
SDEVM              .deg                                    : Hole Deviation {F}
SP                 .mV                                     : Spontaneous Potential {F}
SW_AR              .m3/m3                                  :  {F}
THOR               .PPM                                    : Thorium {F}
TNPH               .v/v                                    : Neutron porosity {F}
URAN               .PPM                                    : Uranium {F}
VSH_GR             .unitless                               : Shale volume fraction from Gamma Ray {F}
~Ascii
# ...
414.7      2.0985     2.796099901199341 3.164099931716919 3.545700073242188 3.574199914932251 215.9      214.2156   514.8385   124.1342   2.6103     0.05546587 3.4793     2.1199     4.1359     4.1058     4.1375     4.0836     4.06       4.0985     4.1908     0.4783     -8.1388    1          10.8589    0.4618     1.4347     0.8510926 
414.8      2.1178     2.950200080871582 3.401299953460693 3.88129997253418 3.973599910736084 215.9      215.8258   520.2419   123.7389   2.618      0.05782961 3.5104     2.1221     4.1447     4.1343     4.1604     4.1168     4.0988     4.131      4.122      0.4774     -8.4372    1          10.9781    0.4652     1.6733     0.843797  
414.9      2.1362     3.023000001907349 3.54259991645813 4.130099773406982 4.292099952697754 215.9      216.7044   524.7835   125.3066   2.622      0.0483543  3.5028     2.1236     3.975      3.9718     3.9824     3.9496     3.9391     3.9644     3.9146     0.4759     -7.2429    1          11.1655    0.4589     1.6143     0.872998  
415        2.1667     2.990400075912476 3.523299932479858 4.168499946594238 4.372399806976318 215.9      216.389    528.6477   127.2476   2.6269     0.03661424 3.4899     2.1284     3.6715     3.6526     3.6404     3.6185     3.608      3.6338     3.6949     0.474      -5.5292    1          11.3898    0.4532     1.4376     0.9101607 
415.1      2.121      2.884500026702881 3.35290002822876 3.924599885940552 4.104800224304199 215.9      214.0038   531.0783   125.8256   2.6413     0.05207089 3.5546     2.1316     3.5361     3.509      3.4949     3.4765     3.47       3.4909     3.5858     0.4707     -5.039     1          11.6335    0.4783     1.4255     0.8828244 
415.2      2.0371     2.663800001144409 3.099699974060059 3.575599908828735 3.732800006866455 215.9      212.4124   530.7668   122.9684   2.6536     0.06366172 3.5134     2.1312     3.3601     3.3086     3.2925     3.2786     3.2677     3.2816     3.5171     0.4647     -7.6242    1          11.5678    0.4744     1.393      0.8297061 
415.3      1.9448     2.546499967575073 2.879899978637695 3.267999887466431 3.404799938201904 215.9      211.8686   528.8413   119.5521   2.6425     0.07934361 3.4145     2.1316     3.2103     3.1441     3.1342     3.1219     3.1045     3.1095     3.4575     0.4576     -11.5159   1          11.3895    0.4572     1.3556     0.7692387 
415.4      1.8698     2.39680004119873 2.71970009803772 3.101900100708008 3.253799915313721 215.9      211.7494   527.515    119.0202   2.6241     0.09187382 3.3804     2.1321     3.202      3.1389     3.1361     3.1258     3.1019     3.1177     3.3671     0.4562     -10.2019   1          11.9055    0.4797     1.3861     0.7601121 
415.5      1.8099     2.319400072097778 2.642800092697144 3.017400026321411 3.182899951934814 215.9      211.5424   526.7912   121.5916   2.6215     0.0759374  3.3063     2.1274     3.1503     3.113      3.1161     3.1152     3.0777     3.1085     3.1837     0.4543     -9.3681    1          12.0415    0.4791     1.4259     0.804947  
415.6      1.797      2.29889988899231 2.60450005531311 2.979399919509888 3.164900064468384 215.9      211.2538   526.5889   126.173    2.6187     0.04738423 3.2091     2.1188     3.0389     3.0367     3.0399     3.0456     2.9964     3.0302     3.0503     0.4522     -8.8801    1          11.915     0.4629     1.4759     0.8894465 
415.7      1.7977     2.308700084686279 2.59470009803772 2.990799903869629 3.196199893951416 215.9      211.284    528.0067   126.2474   2.6158     0.05079289 3.2176     2.1115     3.0249     3.0279     3.0376     3.0407     2.9925     3.0238     3.035      0.4519     -8.3573    1          12.0304    0.467      1.5918     0.8908695 
415.8      1.7958     2.311599969863892 2.576600074768066 2.949599981307983 3.157599925994873 215.9      211.4152   536.0463   124.5242   2.6222     0.05582335 3.1582     2.099      3.0217     3.0436     3.0587     3.0647     3.008      3.0388     3.0704     0.4513     -7.9817    1          11.935     0.4507     1.6543     0.8583348 
415.9      1.7947     2.311599969863892 2.549099922180176 2.874399900436401 3.056699991226196 215.9      212.0804   549.9583   121.2069   2.5962     0.07163515 3.0385     2.0782     3.2071     3.238      3.2784     3.2735     3.1962     3.2376     3.2958     0.4505     -7.7366    1          11.6527    0.4163     1.6693     0.7981239 
416        1.8093     2.342299938201904 2.569700002670288 2.84060001373291 2.970999956130981 215.9      214.6948   556.4057   114.7666   2.51       0.1218395  2.9986     2.0601     3.4259     3.4667     3.5264     3.514      3.4189     3.4693     3.466      0.4497     -9.1288    1          11.8314    0.4336     1.524      0.6898009 
416.1      1.8558     2.424299955368042 2.65910005569458 2.881500005722046 3.016999959945679 215.9      217.482    563.4136   110.6569   2.4058     0.1539237  2.903      2.0491     3.4863     3.5231     3.5931     3.5731     3.474      3.5293     3.4302     0.449      -9.186     0.9141946  11.6334    0.4514     1.4315     0.626179  
416.2      1.9175     2.525000095367432 2.783299922943115 2.956700086593628 3.08870005607605 215.9      219.196    571.0286   109.072    2.2971     0.1698538  2.7469     2.0443     3.1109     3.1367     3.2095     3.1784     3.0783     3.143      3.0608     0.4484     -7.7972    0.881425   11.0273    0.4699     1.3963     0.6027177 
416.3      1.9451     2.554399967193604 2.811899900436401 2.976099967956543 3.108999967575073 215.9      218.3596   607.2628   106.4302   2.1982     0.1913463  2.6706     2.054      2.8101     2.8383     2.9001     2.8677     2.7696     2.8349     2.8381     0.448      -8.8393    0.8262831  10.0288    0.5059     1.5534     0.5648836 
416.4      1.8967     2.464099884033203 2.675600051879883 2.868099927902222 2.980400085449219 215.9      217.2374   606.3375   104.0788   2.1421     0.209712   2.5734     2.0667     2.698      2.7212     2.771      2.74       2.6432     2.7077     2.7938     0.4485     -11.0508   0.7719151  9.4176     0.5406     1.6015     0.5325013 
416.5      1.799      2.298399925231934 2.455600023269653 2.633899927139282 2.700400114059448 215.9      217.119    554.5736   102.1706   2.1198     0.2263511  2.4441     2.0727     2.6788     2.697      2.7326     2.7011     2.5964     2.6595     2.8787     0.4503     -14.678    0.7213442  9.3415     0.5726     1.4946     0.5070858 
416.6      1.7316     2.160000085830688 2.27839994430542 2.453900098800659 2.494199991226196 215.9      217.5482   546.4929   102.43     2.1344     0.2193694  2.429      2.0756     2.7186     2.729      2.752      2.7248     2.6163     2.6695     3.0056     0.4505     -16.8506   0.7430501  9.3927     0.5538     1.4229     0.5104963 
416.7      1.6883     2.064899921417236 2.186399936676025 2.340100049972534 2.383100032806396 215.9      218.1648   547.428    103.4093   2.1716     0.2088669  2.4674     2.0737     2.754      2.7571     2.7699     2.7457     2.6341     2.6752     3.114      0.4505     -18.1884   0.7801367  9.5535     0.531      1.4912     0.5234975 
416.8      1.6856     2.02209997177124 2.136499881744385 2.282700061798096 2.31820011138916 215.9      218.5286   556.0243   105.2132   2.2163     0.1942623  2.5744     2.0724     2.7271     2.7182     2.7215     2.6988     2.5862     2.606      3.1824     0.4505     -18.3991   0.8523313  9.8723     0.5096     1.7818     0.5479748 
416.9      1.6488     1.96560001373291 2.075000047683716 2.211100101470947 2.234999895095825 215.9      218.0272   563.6595   110.1836   2.2597     0.1591702  2.6672     2.0792     2.6445     2.628      2.6243     2.6024     2.4953     2.4971     3.146      0.4512     -18.5422   1          10.3336    0.4847     1.9481     0.6191117 
417        1.6309     1.914499998092651 2.014300107955933 2.152199983596802 2.180099964141846 215.9      218.1626   572.6663   115.577    2.2981     0.1207881  2.796      2.0867     2.5073     2.4733     2.4625     2.4367     2.3409     2.3056     3.089      0.4516     -19.4498   1          10.7392    0.4679     2.084      0.7028377 
