~Version
 VERS              .         3.0                           : CWLS LOG ASCII STANDARD - VERSION 3.0
 WRAP              .         NO                            : ONE LINE PER DEPTH STEP
 DLM               .         SPACE                         : DELIMITING CHARACTER(SPACE TAB OR COMMA)
~Well Information
#_______________________________________________________________________________
#
#PARAMETER_NAME    .UNIT     VALUE                         : DESCRIPTION
#_______________________________________________________________________________
STRT               .m        0.8                           : First reference value
STOP               .m        927                           : Last reference value
STEP               .m        0.1                           : Step increment
NULL               .         -9999                         : Missing value
COMP               .         ICPetroleum                   : Company
WELL               .         312                           : Well name
FLD                .         Karatobe                      : Field
LOC                .                                       : Location
SRVC               .         KF GIS "Kazpromgeophysika"    : Service Company
CTRY               .         KZ                            : Country
DATE               .         13/12/04                      : Service Date
LATI               .         0                             : Latitude
LONG               .         0                             : Longitude
GDAT               .         WGS 84                        : Geodetic Datum
CNTY               .         Kyzyl-Orda                    : 
COORDIN            .                                       : Grid System
COUNTRY            .         Kazakhstan                    : 
COUNTRY            .         Kazakhstan                    : 
EREF               .m        137.6                         : 
KB                 .         136.4                         : KB Elevation
ORIGINALWELLNAME   .         312                           : 
PROV               .                                       : Province
RWS                .         -999                          : Def_Rw
UWI                .         _                             : 
WST                .         -999                          : Def_Rwt
X                  .km       467139.84                     : 
XCOORD             .                                       : X or East-West Coordinate
Y                  .km       5308307.31                    : 
YCOORD             .                                       : Y or North-South Coordinate
~Parameter Information Block
#_______________________________________________________________________________
#
#PARAMETER_NAME    .UNIT     VALUE                         : DESCRIPTION
#_______________________________________________________________________________
SET                .         Las                           : 
TLFamily_DEPT      .         Measured Depth                : 
TLFamily_PHI_FINAL .         Porosity                      : 
TLFamily_SW_AR     .         Water Saturation              : 
TLFamily_VSH_FINAL .         Shale Volume                  : 
~Curve Information
#_______________________________________________________________________________
#
#LOGNAME           .UNIT     LOG_ID                        : DESCRIPTION
#_______________________________________________________________________________
DEPT               .m                                      :  {F}
PHI_FINAL          .m3/m3                                  : Porosity {F}
SW_AR              .m3/m3                                  :  {F}
VSH_FINAL          .unitless                               : Vshale {F}
~Ascii
# ...
555.5      0.2715009  -9999      0.340411  
555.6      0.2631311  -9999      0.3723375 
555.6999999999999 0.2656401  1          0.3667963 
555.8      0.2681403  1          0.3613232 
555.9      0.2799401  -9999      0.3376711 
556        0.292341   -9999      0.3152811 
556.1      0.2963027  -9999      0.2929436 
556.1999999999999 0.2993709  -9999      0.2718616 
556.3      0.3009944  -9999      0.2664892 
556.4      0.3128565  -9999      0.2611988 
556.5      0.3146527  -9999      0.2750017 
556.6      0.3094695  -9999      0.2893563 
556.6999999999999 0.3183548  -9999      0.2468055 
556.8      0.3238434  -9999      0.2091219 
556.9      0.3298828  -9999      0.1734059 
557        0.3376992  -9999      0.1420607 
557.1      0.3427935  1          0.1231125 
557.1999999999999 0.3500651  1          0.1057616 
557.3      0.3499093  -9999      0.09039804
557.4      0.3375209  -9999      0.07628664
557.5      0.3016015  -9999      0.08829284
557.6      0.265799   -9999      0.1012023 
557.6999999999999 0.2244812  -9999      0.1217945 
557.8      0.1760768  -9999      0.1446855 
557.9      0.1558667  1          0.1236395 
558        0.1369723  1          0.1045412 
558.1      0.1675966  1          0.0846522 
558.1999999999999 0.1922726  1          0.06687467
558.3      0.2368421  1          0.05636368
558.4      0.2743355  1          0.04659105
558.5      0.3028338  1          0.05890888
558.6      0.328509   1          0.07239573
558.6999999999999 0.340401   1          0.08359434
558.8      0.3517922  -9999      0.09559834
558.9      0.3499629  -9999      0.09941378
559        0.3491573  -9999      0.1033102 
559.1      0.3470514  -9999      0.0966557 
559.1999999999999 0.3532706  -9999      0.09023971
559.3      0.3567742  -9999      0.09609485
559.4      0.3573494  -9999      0.1021471 
559.5      0.3550587  -9999      0.09880664
559.6      0.3524076  -9999      0.09552695
559.6999999999999 0.3574308  -9999      0.08708266
559.8      0.3579598  -9999      0.07903879
559.9      0.352322   -9999      0.09018153
560        0.34357    -9999      0.1020889 
560.1      0.3295233  -9999      0.1464134 
560.1999999999999 0.3151195  -9999      0.2013446 
560.3      0.3213045  -9999      0.2074047 
560.4      0.3269321  -9999      0.2135932 
560.5      0.3259369  -9999      0.2126732 
560.6      0.3261153  -9999      0.2117561 
560.6999999999999 0.3201312  -9999      0.2198616 
560.8      0.3156078  -9999      0.2281888 
560.9      0.3142777  -9999      0.2291041 
561        0.3154863  -9999      0.2300219 
561.1      0.3049749  1          0.2515154 
561.1999999999999 0.2899717  1          0.2744816 
561.3      0.2767639  1          0.2865303 
561.4      0.270461   1          0.2989834 
561.5      0.2717112  -9999      0.30359   
561.6      0.2778744  -9999      0.3082515 
561.6999999999999 0.2922248  1          0.2657787 
561.8      0.3080583  1          0.2279211 
561.9      0.3089836  1          0.2383991 
562        0.3087351  1          0.249229  
562.1      0.285369   1          0.2851292 
562.1999999999999 0.2609303  1          0.3249034 
562.3      0.2644388  -9999      0.3139241 
562.4      0.2735437  -9999      0.3032416 
562.5      0.2695761  -9999      0.3162473 
562.6      0.2623908  -9999      0.329689  
562.6999999999999 0.2584493  -9999      0.3222376 
562.8      0.2606234  -9999      0.3149216 
562.9      0.2714603  -9999      0.285956  
563        0.2865159  -9999      0.2591023 
563.1      0.3087656  -9999      0.2076187 
563.1999999999999 0.3215501  1          0.1638882 
563.3      0.3196473  1          0.1522322 
563.4      0.3208467  1          0.1411278 
563.5      0.3128546  -9999      0.1713983 
563.6      0.3062114  -9999      0.2057523 
563.6999999999999 0.2996855  -9999      0.2457305 
563.8      0.2841717  -9999      0.2912374 
563.9      0.3123239  -9999      0.2199595 
564        0.3331794  -9999      0.1622638 
564.1      0.3268853  -9999      0.179075  
564.1999999999999 0.3240023  -9999      0.197036  
564.3      0.3064145  -9999      0.247542  
564.4      0.2815838  1          0.3071486 
564.5      0.278282   -9999      0.301271  
564.6      0.2760271  -9999      0.2954825 
564.6999999999999 0.2690314  -9999      0.3263103 
564.8      0.2564744  -9999      0.3596447 
564.9      0.2611638  -9999      0.3336959 
565        0.2607599  -9999      0.3092715 
565.1      0.2668121  -9999      0.2862815 
565.1999999999999 0.2760643  -9999      0.2646416 
565.3      0.2545226  1          0.3322676 
565.4      0.2233121  1          0.4130373 
565.5      0.2148747  1          0.4534089 
565.6      0.2060835  1          0.4970605 
565.6999999999999 0.2169107  1          0.4883137 
565.8      0.2188466  -9999      0.4796999 
565.9      0.2316686  1          0.4325536 
566        0.2435613  1          0.3893629 
566.1      0.2286285  1          0.4386803 
566.1999999999999 0.2161372  1          0.4931393 
566.3      0.232464   1          0.4577539 
566.4      0.238552   1          0.4245461 
566.5      0.2239223  1          0.4447514 
566.6      0.2116996  1          0.4657584 
566.6999999999999 0.1961588  1          0.5032756 
566.8      0.1769575  1          0.5433527 
566.9      0.1098345  1          0.7210892 
567        0.02435957 1          0.9492271 
567.1      0.01807755 1          0.990254  
567.1999999999999 0.01564837 1          1         
567.3      0.01687045 1          1         
567.4      0.02057756 1          1         
567.5      0.03841968 1          0.9452834 
567.6      0.06594324 1          0.8648704 
567.6999999999999 0.05907448 1          0.8761987 
567.8      0.05306491 1          0.8876609 
567.9      0.04428445 1          0.9111534 
568        0.03142166 1          0.9352115 
568.1      0.05332537 1          0.8901201 
568.1999999999999 0.07191432 1          0.8470315 
568.3      0.1083672  1          0.7743394 
568.4      0.1440267  1          0.7073372 
568.5      0.2932709  1          0.3460952 
568.6      0.3753208  1          0.1499857 
568.6999999999999 0.4089875  0.7768193  0.07083071
568.8      0.4300994  0.6113589  0.01857344
568.9      0.4173205  0.6029675  0.03294188
569        0.3996661  0.6029489  0.04934059
569.1      0.3487192  0.7596602  0.1241357 
569.1999999999999 0.2800606  1          0.241184  
569.3      0.2260947  0.9808435  0.3317829 
569.4      0.1711606  1          0.4476844 
569.5      0.1595202  1          0.4976977 
569.6      0.1471943  1          0.5524171 
569.6999999999999 0.1675166  1          0.531671  
569.8      0.1894791  1          0.5116045 
569.9      0.1906261  1          0.5097448 
570        0.1979765  1          0.5078908 
570.1      0.185879   1          0.5558262 
570.1999999999999 0.1761196  1          0.6076431 
570.3      0.1776502  1          0.6034113 
570.4      0.1764199  1          0.5992058 
570.5      0.1734937  1          0.5970666 
570.6      0.1717082  1          0.5949346 
570.6999999999999 0.1513098  1          0.6389774 
570.8      0.1350562  1          0.6858754 
570.9      0.1531965  1          0.663019  
571        0.1671984  1          0.6408449 
571.1      0.1528146  1          0.6672996 
571.1999999999999 0.1362091  1          0.6947177 
571.3      0.1138225  1          0.7602714 
571.4      0.09845592 1          0.8313413 
571.5      0.101362   1          0.8202865 
571.6      0.1006461  1          0.8093669 
571.6999999999999 0.1157549  1          0.7472111 
571.8      0.1343085  1          0.6893914 
571.9      0.1398996  1          0.6754968 
572        0.1450608  1          0.6618538 
572.1      0.1498755  1          0.6662316 
572.1999999999999 0.1438923  1          0.6706344 
572.3      0.1478345  1          0.6548645 
572.4      0.1510912  1          0.6394266 
572.5      0.1430991  1          0.6635621 
572.6      0.1338282  1          0.6885005 
572.6999999999999 0.1257922  1          0.716664  
572.8      0.1231279  1          0.7458519 
572.9      0.1413991  1          0.7309475 
573        0.1582694  1          0.7163127 
573.1      0.2033945  1          0.6090434 
