~Version
 VERS              .         3.0                           : CWLS LOG ASCII STANDARD - VERSION 3.0
 WRAP              .         NO                            : ONE LINE PER DEPTH STEP
 DLM               .         SPACE                         : DELIMITING CHARACTER(SPACE TAB OR COMMA)
~Well Information
#_______________________________________________________________________________
#
#PARAMETER_NAME    .UNIT     VALUE                         : DESCRIPTION
#_______________________________________________________________________________
STRT               .m        0.8                           : First reference value
STOP               .m        927                           : Last reference value
STEP               .m        0.1                           : Step increment
NULL               .         -9999                         : Missing value
COMP               .         ICPetroleum                   : Company
WELL               .         312                           : Well name
FLD                .         Karatobe                      : Field
LOC                .                                       : Location
SRVC               .         KF GIS "Kazpromgeophysika"    : Service Company
CTRY               .         KZ                            : Country
DATE               .         13/12/04                      : Service Date
LATI               .         0                             : Latitude
LONG               .         0                             : Longitude
GDAT               .         WGS 84                        : Geodetic Datum
CNTY               .         Kyzyl-Orda                    : 
COORDIN            .                                       : Grid System
COUNTRY            .         Kazakhstan                    : 
COUNTRY            .         Kazakhstan                    : 
EREF               .m        137.6                         : 
KB                 .         136.4                         : KB Elevation
ORIGINALWELLNAME   .         312                           : 
PROV               .                                       : Province
RWS                .         -999                          : Def_Rw
UWI                .         _                             : 
WST                .         -999                          : Def_Rwt
X                  .km       467139.84                     : 
XCOORD             .                                       : X or East-West Coordinate
Y                  .km       5308307.31                    : 
YCOORD             .                                       : Y or North-South Coordinate
~Parameter Information Block
#_______________________________________________________________________________
#
#PARAMETER_NAME    .UNIT     VALUE                         : DESCRIPTION
#_______________________________________________________________________________
SET                .         Las                           : 
TLFamily_DEPT      .         Measured Depth                : 
TLFamily_PHI_FINAL .         Porosity                      : 
TLFamily_SW_AR     .         Water Saturation              : 
TLFamily_VSH_FINAL .         Shale Volume                  : 
~Curve Information
#_______________________________________________________________________________
#
#LOGNAME           .UNIT     LOG_ID                        : DESCRIPTION
#_______________________________________________________________________________
DEPT               .m                                      :  {F}
PHI_FINAL          .m3/m3                                  : Porosity {F}
SW_AR              .m3/m3                                  :  {F}
VSH_FINAL          .unitless                               : Vshale {F}
~Ascii
# ...
271.3      0.1757827  1          0.6966385 
271.4      0.2069612  1          0.5935907 
271.5      0.2061166  1          0.5934767 
271.6      0.203972   0.9709168  0.5933627 
271.7      0.19974    1          0.6294509 
271.8      0.1948189  1          0.6674585 
271.9      0.1584208  1          0.7813994 
272        0.1059066  1          0.9126164 
272.1      0.1100466  1          0.8760322 
272.2      0.1218557  1          0.8407978 
272.3      0.1503294  1          0.787205  
272.4      0.1710232  1          0.7367289 
272.5      0.1757756  1          0.7184751 
272.6      0.1787996  1          0.7006313 
272.7      0.1373616  1          0.8095021 
272.8      0.09663811 1          0.9334767 
272.9      0.1224682  1          0.8816804 
273        0.1455558  1          0.8325316 
273.1      0.1332587  1          0.8741517 
273.2      0.1195637  1          0.917657  
273.3      0.09833744 1          0.9788158 
273.4      0.08959439 1          1         
273.5      0.08376721 1          1         
273.6      0.07510269 1          1         
273.7      0.06929806 1          1         
273.8      0.07459325 1          0.993628  
273.9      0.08107378 1          1         
274        0.08832344 1          1         
274.1      0.09092708 1          1         
274.2      0.08748034 1          1         
274.3      0.09054989 1          0.9805955 
274.4      0.1496263  1          0.8233066 
274.5      0.1613795  1          0.8064499 
274.6      0.1684294  1          0.789909  
274.7      0.171784   1          0.7547888 
274.8      0.1745394  1          0.7210873 
274.9      0.1753387  1          0.6830329 
275        0.1794466  1          0.6467849 
275.1      0.1676377  1          0.6493736 
275.2      0.1547786  1          0.651971  
275.3      0.1482332  1          0.6356474 
275.4      0.1406462  1          0.6196889 
275.5      0.1001874  1          0.7230525 
275.6      0.05137759 1          0.8416004 
275.7      0.02415757 1          0.9697136 
275.8      0.02381824 1          1         
275.9      0.04585439 1          1         
276        0.05570088 1          0.9345029 
276.1      0.07914305 1          0.8136827 
276.2      0.1101845  1          0.707225  
276.3      0.1274865  1          0.6560268 
276.4      0.1447457  1          0.6081533 
276.5      0.1911924  0.9319434  0.4995994 
276.6      0.2323807  0.8076897  0.4081088 
276.7      0.24945    0.7581112  0.3746164 
276.8      0.2572579  0.7390656  0.3434131 
276.9      0.2520957  0.7847031  0.3481285 
277        0.2473735  0.8330129  0.3528954 
277.1      0.2479828  0.8660159  0.3626453 
277.2      0.2469307  0.907199   0.3726115 
277.3      0.2497266  0.8736085  0.3691833 
277.4      0.2504968  0.8482419  0.3657815 
277.5      0.2436971  0.8785756  0.3913841 
277.6      0.2437101  0.8866189  0.4184426 
277.7      0.2352744  0.9566255  0.4470401 
277.8      0.2145859  1          0.4772635 
277.9      0.2050865  1          0.4961801 
278        0.2041264  0.9517961  0.5157322 
278.1      0.2166856  0.8742971  0.511217  
278.2      0.2265087  0.8152772  0.5067368 
278.3      0.241745   0.7831309  0.4747657 
278.4      0.2577664  0.7531297  0.4445327 
278.5      0.2678854  0.7568443  0.4013721 
278.6      0.2806092  0.7558045  0.361749  
278.7      0.2917901  0.7626157  0.3163964 
278.8      0.3105482  0.7539802  0.275675  
278.9      0.300867   0.7845189  0.3207575 
279        0.2864504  0.8299293  0.371498  
279.1      0.2708071  0.7920269  0.4081849 
279.2      0.2546446  0.7647858  0.4478265 
279.3      0.2643429  0.719647   0.4172203 
279.4      0.276841   0.6718135  0.3883834 
279.5      0.2781208  0.7022581  0.3813905 
279.6      0.2886083  0.7130355  0.3745025 
279.7      0.3056132  0.6868778  0.3371106 
279.8      0.3184933  0.6718829  0.3027801 
279.9      0.3196054  0.6805543  0.2887191 
280        0.3200374  0.6908615  0.2751729 
280.1      0.2925568  0.7591532  0.3447338 
280.2      0.2596572  0.8578717  0.4277896 
280.3      0.2654619  0.8228823  0.4146597 
280.4      0.2685494  0.7974792  0.4018696 
280.5      0.2926071  0.7264662  0.3445101 
280.6      0.3143861  0.6706703  0.2939437 
280.7      0.325277   0.6494094  0.2683238 
280.8      0.328846   0.6427403  0.2444488 
280.9      0.309208   0.6971863  0.2774532 
281        0.2957419  0.7444329  0.3137779 
281.1      0.2878932  0.7820463  0.3473455 
281.2      0.280351   0.8216449  0.3837467 
281.3      0.2822992  0.7901213  0.3906341 
281.4      0.2829863  0.7636318  0.397622  
281.5      0.2870207  0.7504041  0.3801181 
281.6      0.2901179  0.7398058  0.3632543 
281.7      0.2889715  0.7433212  0.3438406 
281.8      0.2923055  0.7360317  0.3252746 
281.9      0.3082538  0.7121395  0.2743811 
282        0.3233164  0.6927139  0.2298384 
282.1      0.3207663  0.6964961  0.2415769 
282.2      0.3142133  0.7087799  0.2537539 
282.3      0.2928819  0.7638482  0.2945643 
282.4      0.2764294  0.8135697  0.3403129 
282.5      0.2742279  0.8214753  0.3433957 
282.6      0.2792024  0.8093295  0.3465006 
282.7      0.270111   0.8743878  0.3759563 
282.8      0.262965   0.940708   0.407427  
282.9      0.2663552  1          0.4128188 
283        0.2625978  1          0.418269  
283.1      0.2264309  1          0.4936673 
283.2      0.1864244  1          0.5803918 
283.3      0.1523219  1          0.6773308 
283.4      0.1180517  1          0.788416  
283.5      0.1069986  1          0.8176736 
283.6      0.08375529 1          0.8479079 
283.7      0.09013022 1          0.814016  
283.8      0.1079629  1          0.7813631 
283.9      0.09671399 1          0.8303689 
284        0.08610447 1          0.8821441 
284.1      0.1080576  1          0.8300202 
284.2      0.1338151  1          0.7807193 
284.3      0.1223251  1          0.8296723 
284.4      0.110902   1          0.8813915 
284.5      0.1261337  1          0.853178  
284.6      0.1382971  1          0.8257941 
284.7      0.1301397  1          0.8493737 
284.8      0.1177517  1          0.8735614 
284.9      0.1170354  1          0.8733757 
285        0.1159883  1          0.87319   
285.1      0.1252918  1          0.84523   
285.2      0.1344234  1          0.818092  
285.3      0.1337806  1          0.8146077 
285.4      0.131423   1          0.8111379 
285.5      0.09969431 1          0.8687496 
285.6      0.05838651 1          0.9300637 
285.7      0.02706212 1          1         
285.8      0.02959654 1          1         
285.9      0.04187694 1          1         
286        0.04280651 1          0.9828175 
286.1      0.03069353 1          0.9984137 
286.2      0.03116509 1          1         
286.3      0.03270394 1          1         
286.4      0.03454609 1          1         
286.5      0.04914276 1          0.9817386 
286.6      0.1028282  1          0.8772709 
286.7      0.1275894  1          0.8288649 
286.8      0.1485314  1          0.7829062 
286.9      0.1712114  1          0.7154154 
287        0.1975385  1          0.653194  
287.1      0.1756517  1          0.7151286 
287.2      0.1506722  1          0.7822623 
287.3      0.1441591  1          0.8014094 
287.4      0.134341   1          0.8209772 
287.5      0.1304235  1          0.8274795 
287.6      0.1269669  1          0.8340278 
287.7      0.06797653 1          0.994898  
287.8      0.06623608 1          1         
287.9      0.05808814 1          1         
288        0.08166849 1          0.9252535 
288.1      0.06937671 1          0.9324934 
288.2      0.05921582 1          0.9397844 
288.3      0.0448672  1          1         
288.4      0.05978855 1          1         
288.5      0.07452219 1          0.9931471 
288.6      0.1076766  1          0.9166821 
288.7      0.1471853  1          0.8254088 
288.8      0.1827915  1          0.7424815 
288.9      0.1408903  1          0.8351294 
289        0.09272378 1          0.9381582 
289.1      0.06888314 1          0.9878969 
289.2      0.06616138 1          1         
289.3      0.104509   1          0.9043635 
289.4      0.1511081  1          0.7850894 
