~Version
 VERS              .         3.0                           : CWLS LOG ASCII STANDARD - VERSION 3.0
 WRAP              .         NO                            : ONE LINE PER DEPTH STEP
 DLM               .         SPACE                         : DELIMITING CHARACTER(SPACE TAB OR COMMA)
~Well Information
#_______________________________________________________________________________
#
#PARAMETER_NAME    .UNIT     VALUE                         : DESCRIPTION
#_______________________________________________________________________________
STRT               .m        0.8                           : First reference value
STOP               .m        927                           : Last reference value
STEP               .m        0.1                           : Step increment
NULL               .         -9999                         : Missing value
COMP               .         ICPetroleum                   : Company
WELL               .         312                           : Well name
FLD                .         Karatobe                      : Field
LOC                .                                       : Location
SRVC               .         KF GIS "Kazpromgeophysika"    : Service Company
CTRY               .         KZ                            : Country
DATE               .         13/12/04                      : Service Date
LATI               .         0                             : Latitude
LONG               .         0                             : Longitude
GDAT               .         WGS 84                        : Geodetic Datum
CNTY               .         Kyzyl-Orda                    : 
COORDIN            .                                       : Grid System
COUNTRY            .         Kazakhstan                    : 
COUNTRY            .         Kazakhstan                    : 
EREF               .m        137.6                         : 
KB                 .         136.4                         : KB Elevation
ORIGINALWELLNAME   .         312                           : 
PROV               .                                       : Province
RWS                .         -999                          : Def_Rw
UWI                .         _                             : 
WST                .         -999                          : Def_Rwt
X                  .km       467139.84                     : 
XCOORD             .                                       : X or East-West Coordinate
Y                  .km       5308307.31                    : 
YCOORD             .                                       : Y or North-South Coordinate
~Parameter Information Block
#_______________________________________________________________________________
#
#PARAMETER_NAME    .UNIT     VALUE                         : DESCRIPTION
#_______________________________________________________________________________
SET                .         Las                           : 
TLFamily_DEPT      .         Measured Depth                : 
TLFamily_PHI_FINAL .         Porosity                      : 
TLFamily_SW_AR     .         Water Saturation              : 
TLFamily_VSH_FINAL .         Shale Volume                  : 
~Curve Information
#_______________________________________________________________________________
#
#LOGNAME           .UNIT     LOG_ID                        : DESCRIPTION
#_______________________________________________________________________________
DEPT               .m                                      :  {F}
PHI_FINAL          .m3/m3                                  : Porosity {F}
SW_AR              .m3/m3                                  :  {F}
VSH_FINAL          .unitless                               : Vshale {F}
~Ascii
# ...
378.5000000000001 0.07442397 1          1         
378.6      0.06640442 1          1         
378.7      0.05787385 1          1         
378.8      0.04856688 1          1         
378.9      0.04053919 1          1         
379.0000000000001 0.03506182 1          1         
379.1      0.04175311 1          1         
379.2      0.05330599 1          1         
379.3      0.05957096 1          1         
379.4      0.06100425 1          1         
379.5000000000001 0.05207746 1          1         
379.6      0.04437567 1          1         
379.7      0.03327302 1          1         
379.8      0.02571392 1          1         
379.9      0.02370329 1          1         
380.0000000000001 0.03359024 1          0.9692855 
380.1      0.07324547 1          0.8663056 
380.2      0.1151338  1          0.7734169 
380.3      0.06305641 1          0.9579388 
380.4      0.06553312 1          1         
380.5000000000001 0.07149421 1          1         
380.6      0.08037777 1          1         
380.7      0.0816911  1          1         
380.8      0.13327    1          0.8586383 
380.9      0.135773   1          0.8424856 
381.0000000000001 0.1357999  1          0.8266124 
381.1      0.1104939  1          0.8645995 
381.2      0.07797316 1          0.904167  
381.3      0.07291031 1          0.9006132 
381.4      0.07639726 1          0.897073  
381.5000000000001 0.07602561 1          0.9070092 
381.6      0.07020721 1          0.9170449 
381.7      0.053663   1          0.9552231 
381.8      0.03771073 1          0.9948523 
381.9      0.05907149 1          0.9372287 
382.0000000000001 0.0755949  1          0.8826935 
382.1      0.1091402  1          0.8125064 
382.2      0.142703   1          0.7474295 
382.3      0.1392857  1          0.785049  
382.4      0.1295919  1          0.8243667 
382.5000000000001 0.1372587  1          0.7997175 
382.6      0.1466708  1          0.7757414 
382.7      0.1366052  1          0.7814868 
382.8      0.1208236  1          0.7872694 
382.9      0.1064823  1          0.7991024 
383.0000000000001 0.09691056 1          0.8110944 
383.1      0.07093947 1          0.9075002 
383.2      0.04636    1          1         
383.3      0.06774139 1          0.9735861 
383.4      0.08524404 1          0.9344034 
383.5000000000001 0.1199261  1          0.8413739 
383.6      0.154789   1          0.7568632 
383.7      0.1550795  1          0.7567198 
383.8      0.1537059  1          0.7565767 
383.9      0.1400301  1          0.7593071 
384.0000000000001 0.1316596  1          0.7620457 
384.1      0.1206284  1          0.7882851 
384.2      0.1128752  1          0.815335  
384.3      0.1078136  1          0.8463905 
384.4      0.1005324  1          0.8785142 
384.5000000000001 0.1078386  1          0.8685406 
384.6      0.1149221  1          0.8586717 
384.7      0.1342664  1          0.8053993 
384.8      0.1569455  1          0.7551476 
384.9      0.1535789  1          0.7694351 
385.0000000000001 0.1474493  1          0.783964  
385.1      0.1417348  1          0.7957332 
385.2      0.1342338  1          0.80766   
385.3      0.1038622  1          0.8934811 
385.4      0.06432862 1          0.9875566 
385.5000000000001 0.05075221 1          1         
385.6      0.04230206 1          1         
385.7      0.04019212 1          1         
385.8      0.04686947 1          1         
385.9      0.05624397 1          1         
386.0000000000001 0.06174169 1          1         
386.1      0.0643349  1          1         
386.2      0.0680535  1          1         
386.3      0.07179143 1          1         
386.4      0.07047483 1          1         
386.5000000000001 0.07196794 1          1         
386.6      0.0691952  1          1         
386.7      0.06148644 1          1         
386.8      0.05108446 1          1         
386.9      0.05004132 1          1         
387.0000000000001 0.05905351 1          1         
387.1      0.06841716 1          1         
387.2      0.07352607 1          0.962341  
387.3      0.07217111 1          0.9271222 
387.4      0.07812974 1          0.8930947 
387.5000000000001 0.07605772 1          0.8929179 
387.6      0.08060975 1          0.8927413 
387.7      0.06278268 1          0.9472305 
387.8      0.04501469 1          1         
387.9      0.04876179 1          1         
388.0000000000001 0.05789077 1          1         
388.1      0.06612681 1          1         
388.2      0.06107089 1          1         
388.3      0.05301103 1          1         
388.4      0.05518708 1          1         
388.5000000000001 0.05889304 1          1         
388.6      0.0584231  1          1         
388.7      0.04964009 1          1         
388.8      0.04365695 1          1         
388.9      0.04203756 1          1         
389.0000000000001 0.04542687 1          0.9949273 
389.1      0.04752822 1          1         
389.2      0.04521155 1          1         
389.3      0.04111075 1          1         
389.4      0.0392026  1          1         
389.5000000000001 0.04849921 1          1         
389.6      0.05342905 1          1         
389.7      0.04818742 1          1         
389.8      0.04519843 1          1         
389.9      0.04102069 1          1         
390.0000000000001 0.04147015 1          1         
390.1      0.03228745 1          1         
390.2      0.02086455 1          1         
390.3      0.01056522 1          1         
390.4      0.002777159 1          1         
390.5000000000001 0.004362941 1          1         
390.6      0.006030858 1          1         
390.7      0.01009588 1          1         
390.8      0.01266436 1          1         
390.9      0.01786362 1          1         
391.0000000000001 0.02882555 1          1         
391.1      0.04025478 1          1         
391.2      0.04665346 1          1         
391.3      0.05228944 1          1         
391.4      0.05402969 1          1         
391.5000000000001 0.0559171  1          1         
391.6      0.0576033  1          1         
391.7      0.0687452  1          1         
391.8      0.07671307 1          0.9965849 
391.9      0.1119996  1          0.8984445 
392.0000000000001 0.1369321  1          0.809238  
392.1      0.06085075 1          1         
392.2      0.06388661 1          1         
392.3      0.06813392 1          1         
392.4      0.06528348 1          1         
392.5000000000001 0.05529076 1          1         
392.6      0.05439923 1          1         
392.7      0.05975616 1          1         
392.8      0.06099106 1          1         
392.9      0.05329471 1          1         
393.0000000000001 0.04561279 1          1         
393.1      0.04241404 1          1         
393.2      0.04278154 1          1         
393.3      0.04403679 1          1         
393.4      0.04552373 1          1         
393.5000000000001 0.04635039 1          1         
393.6      0.04819044 1          1         
393.7      0.05329496 1          1         
393.8      0.0641125  1          1         
393.9      0.07617295 1          1         
394.0000000000001 0.07719558 1          1         
394.1      0.07369749 1          1         
394.2      0.06697597 1          1         
394.3      0.06695844 1          1         
394.4      0.06474929 1          1         
394.5000000000001 0.05686739 1          1         
394.6      0.05060461 1          1         
394.7      0.05999669 1          0.9549397 
394.8      0.08678395 1          0.8607783 
394.9      0.08273694 1          0.8702553 
395.0000000000001 0.08183123 1          0.8798257 
395.1      0.07408455 1          0.9196113 
395.2      0.06095272 1          0.9610345 
395.3      0.04856128 1          0.99682   
395.4      0.05492803 1          1         
395.5000000000001 0.04897064 1          1         
395.6      0.04864828 1          1         
395.7      0.05090331 1          1         
395.8      0.05950968 1          1         
395.9      0.06082177 1          1         
396.0000000000001 0.06308025 1          1         
396.1      0.1063621  1          0.8746834 
