~Version
 VERS              .         3.0                           : CWLS LOG ASCII STANDARD - VERSION 3.0
 WRAP              .         NO                            : ONE LINE PER DEPTH STEP
 DLM               .         SPACE                         : DELIMITING CHARACTER(SPACE TAB OR COMMA)
~Well Information
#_______________________________________________________________________________
#
#PARAMETER_NAME    .UNIT     VALUE                         : DESCRIPTION
#_______________________________________________________________________________
STRT               .m        0.8                           : First reference value
STOP               .m        927                           : Last reference value
STEP               .m        0.1                           : Step increment
NULL               .         -9999                         : Missing value
COMP               .         ICPetroleum                   : Company
WELL               .         312                           : Well name
FLD                .         Karatobe                      : Field
LOC                .                                       : Location
SRVC               .         KF GIS "Kazpromgeophysika"    : Service Company
CTRY               .         KZ                            : Country
DATE               .         13/12/04                      : Service Date
LATI               .         0                             : Latitude
LONG               .         0                             : Longitude
GDAT               .         WGS 84                        : Geodetic Datum
CNTY               .         Kyzyl-Orda                    : 
COORDIN            .                                       : Grid System
COUNTRY            .         Kazakhstan                    : 
COUNTRY            .         Kazakhstan                    : 
EREF               .m        137.6                         : 
KB                 .         136.4                         : KB Elevation
ORIGINALWELLNAME   .         312                           : 
PROV               .                                       : Province
RWS                .         -999                          : Def_Rw
UWI                .         _                             : 
WST                .         -999                          : Def_Rwt
X                  .km       467139.84                     : 
XCOORD             .                                       : X or East-West Coordinate
Y                  .km       5308307.31                    : 
YCOORD             .                                       : Y or North-South Coordinate
~Parameter Information Block
#_______________________________________________________________________________
#
#PARAMETER_NAME    .UNIT     VALUE                         : DESCRIPTION
#_______________________________________________________________________________
SET                .         Las                           : 
TLFamily_DEPT      .         Measured Depth                : 
TLFamily_PHI_FINAL .         Porosity                      : 
TLFamily_SW_AR     .         Water Saturation              : 
TLFamily_VSH_FINAL .         Shale Volume                  : 
~Curve Information
#_______________________________________________________________________________
#
#LOGNAME           .UNIT     LOG_ID                        : DESCRIPTION
#_______________________________________________________________________________
DEPT               .m                                      :  {F}
PHI_FINAL          .m3/m3                                  : Porosity {F}
SW_AR              .m3/m3                                  :  {F}
VSH_FINAL          .unitless                               : Vshale {F}
~Ascii
# ...
234.9      0.2934709  0.6299473  0.3987402 
235        0.3503741  0.5517874  0.2244155 
235.1      0.3633498  0.5779631  0.1867799 
235.2      0.3754128  0.6103835  0.1537572 
235.3      0.321757   0.6790243  0.2921807 
235.4      0.2436668  0.8501267  0.51149   
235.5      0.1904456  1          0.6797388 
235.6      0.1232885  1          0.8955634 
235.7      0.1629047  1          0.7957293 
235.8      0.1955351  1          0.706094  
235.9      0.1642677  1          0.7987618 
236        0.1311954  1          0.9022937 
236.1      0.1312818  1          0.8908246 
236.2      0.126868   1          0.879491  
236.3      0.1073917  1          0.905472  
236.4      0.09500226 1          0.9321496 
236.5      0.1019162  1          0.9280564 
236.6      0.102703   1          0.9239801 
236.7      0.09906415 1          0.9199211 
236.8      0.09454837 1          0.9158794 
236.9      0.07733634 1          0.9788224 
237        0.07662529 1          1         
237.1      0.09064166 1          0.9622329 
237.2      0.1160029  1          0.8849334 
237.3      0.1340761  1          0.8202552 
237.4      0.1535667  1          0.7599089 
237.5      0.1651286  1          0.7469346 
237.6      0.173677   1          0.7341619 
237.7      0.1712787  1          0.7529978 
237.8      0.1613106  1          0.7722641 
237.9      0.1490326  1          0.8088843 
238        0.1315344  1          0.8470656 
238.1      0.119937   1          0.8684863 
238.2      0.1034368  1          0.8903968 
238.3      0.1146075  1          0.8572442 
238.4      0.1268368  1          0.8252261 
238.5      0.1448737  1          0.7976669 
238.6      0.1540945  1          0.7709485 
238.7      0.1595121  1          0.7642756 
238.8      0.1598771  1          0.7576556 
238.9      0.1607135  1          0.7542856 
239        0.1611423  1          0.7509302 
239.1      0.1575778  1          0.7701287 
239.2      0.1573253  1          0.7897655 
239.3      0.1755911  1          0.7441034 
239.4      0.1908592  1          0.7008375 
239.5      0.1533123  1          0.8163531 
239.6      0.1153178  1          0.9488695 
239.7      0.1028649  1          1         
239.8      0.1005758  1          1         
239.9      0.09614307 1          1         
240        0.1076603  1          0.9719313 
240.1      0.0997128  1          1         
240.2      0.09846608 1          1         
240.3      0.09010179 1          1         
240.4      0.1090126  1          0.9315318 
240.5      0.1022765  1          0.9469435 
240.6      0.09465094 1          0.962587  
240.7      0.1297287  1          0.8635296 
240.8      0.1602282  1          0.7738713 
240.9      0.1292094  1          0.8667715 
241        0.08988653 1          0.9697253 
241.1      0.1389336  1          0.8273349 
241.2      0.1783924  1          0.704223  
241.3      0.1709269  1          0.7010777 
241.4      0.1703949  1          0.6979455 
241.5      0.1672732  1          0.7189482 
241.6      0.1665309  1          0.7405121 
241.7      0.1931601  1          0.6597292 
241.8      0.214945   0.9186222  0.5868822 
241.9      0.1969502  1          0.6235251 
242        0.1804429  1          0.6621659 
242.1      0.151952   1          0.7428809 
242.2      0.1245971  1          0.8323227 
242.3      0.1321483  1          0.8286573 
242.4      0.1342228  1          0.8250071 
242.5      0.1293857  1          0.8352767 
242.6      0.1200247  1          0.8456608 
242.7      0.1210982  1          0.821017  
242.8      0.1229893  1          0.7970313 
242.9      0.1034456  1          0.8451079 
243        0.08270608 1          0.8958021 
243.1      0.08203418 1          0.8918797 
243.2      0.07623307 1          0.8879741 
243.3      0.1144849  1          0.8029059 
243.4      0.1559166  1          0.7253034 
243.5      0.1726168  0.9850006  0.7129253 
243.6      0.1844657  0.9016889  0.7007388 
243.7      0.16388    1          0.7723724 
243.8      0.1433513  1          0.8505398 
243.9      0.1110675  1          0.9713789 
244        0.1088571  1          1         
244.1      0.1083295  1          1         
244.2      0.1172739  1          0.9627216 
244.3      0.1704802  0.9878467  0.8045595 
244.4      0.2183496  0.778239   0.6703396 
244.5      0.2026409  0.7913833  0.7205779 
244.6      0.1819457  0.831509   0.7741572 
244.7      0.1288286  1          0.9341602 
244.8      0.1048115  1          1         
244.9      0.133453   1          0.9145715 
245        0.1861904  1          0.7415097 
245.1      0.1650226  1          0.7798803 
245.2      0.1476363  1          0.82003   
245.3      0.1281619  1          0.8765369 
245.4      0.1101333  1          0.9365695 
245.5      0.1473219  1          0.8298607 
245.6      0.1805864  1          0.7343352 
245.7      0.1415745  1          0.8364717 
245.8      0.09831848 1          0.9513512 
245.9      0.1143378  1          0.9087597 
246        0.1326269  1          0.8679288 
246.1      0.1226021  1          0.9083565 
246.2      0.1105047  1          0.9504958 
246.3      0.09472561 1          1         
246.4      0.09436998 1          1         
246.5      0.09047531 1          1         
246.6      0.1091785  1          0.9340573 
246.7      0.1063425  1          0.9299906 
246.8      0.1052085  1          0.925941  
246.9      0.1307778  1          0.8844309 
247        0.1547547  1          0.8446352 
247.1      0.1537451  1          0.8730799 
247.2      0.1444553  1          0.9023919 
247.3      0.1565872  1          0.869073  
247.4      0.1728121  1          0.8368861 
247.5      0.1737373  1          0.8262828 
247.6      0.1708556  1          0.8158039 
247.7      0.09710913 1          0.9953459 
247.8      0.09424628 1          1         
247.9      0.09550223 1          1         
248        0.1204983  1          0.9388723 
248.1      0.1071371  1          0.9741786 
248.2      0.09732316 1          1         
248.3      0.09243552 1          1         
248.4      0.08976658 1          1         
248.5      0.09424575 1          0.9813474 
248.6      0.1154961  1          0.9298953 
248.7      0.1485682  1          0.8380241 
248.8      0.1751112  1          0.7544988 
248.9      0.1504534  1          0.8169381 
249        0.1259751  1          0.8840206 
249.1      0.1535253  1          0.8200064 
249.2      0.1810397  1          0.7602395 
249.3      0.1745629  1          0.796002  
249.4      0.1651051  1          0.8332747 
249.5      0.1189968  1          0.9671137 
249.6      0.1074577  1          1         
249.7      0.1093607  1          1         
249.8      0.1133417  1          1         
249.9      0.1158027  1          1         
250        0.1115605  1          1         
250.1      0.09933554 1          1         
250.2      0.09852013 1          0.9816099 
250.3      0.1259141  1          0.8925313 
250.4      0.156016   1          0.8109189 
250.5      0.1197843  1          0.8884504 
250.6      0.07858132 1          0.9726923 
250.7      0.1186735  1          0.8206111 
250.8      0.1577053  1          0.6904587 
250.9      0.1944072  0.9872856  0.6098614 
251        0.2282554  0.8322988  0.5376739 
251.1      0.2406972  0.8112401  0.5446638 
251.2      0.2367627  0.8448236  0.5517311 
251.3      0.1984726  1          0.6582248 
251.4      0.1568486  1          0.7825637 
251.5      0.1144754  1          0.9125416 
251.6      0.08714117 1          1         
251.7      0.08917974 1          1         
251.8      0.1040455  1          0.9700664 
251.9      0.1379955  1          0.8747861 
252        0.1693981  1          0.7881404 
252.1      0.1766403  1          0.7781402 
252.2      0.1840349  1          0.7682567 
252.3      0.1614804  1          0.8143979 
252.4      0.1392889  1          0.8630314 
252.5      0.1306129  1          0.859272  
252.6      0.1196531  1          0.8555284 
252.7      0.09720309 1          0.8482704 
252.8      0.06451917 1          0.8410701 
252.9      0.1430407  1          0.5595921 
253        0.1879601  1          0.3638806 
