~Version
 VERS              .         3.0                           : CWLS LOG ASCII STANDARD - VERSION 3.0
 WRAP              .         NO                            : ONE LINE PER DEPTH STEP
 DLM               .         SPACE                         : DELIMITING CHARACTER(SPACE TAB OR COMMA)
~Well Information
#_______________________________________________________________________________
#
#PARAMETER_NAME    .UNIT     VALUE                         : DESCRIPTION
#_______________________________________________________________________________
STRT               .m        0.8                           : First reference value
STOP               .m        927                           : Last reference value
STEP               .m        0.1                           : Step increment
NULL               .         -9999                         : Missing value
COMP               .         ICPetroleum                   : Company
WELL               .         312                           : Well name
FLD                .         Karatobe                      : Field
LOC                .                                       : Location
SRVC               .         KF GIS "Kazpromgeophysika"    : Service Company
CTRY               .         KZ                            : Country
DATE               .         13/12/04                      : Service Date
LATI               .         0                             : Latitude
LONG               .         0                             : Longitude
GDAT               .         WGS 84                        : Geodetic Datum
CNTY               .         Kyzyl-Orda                    : 
COORDIN            .                                       : Grid System
COUNTRY            .         Kazakhstan                    : 
COUNTRY            .         Kazakhstan                    : 
EREF               .m        137.6                         : 
KB                 .         136.4                         : KB Elevation
ORIGINALWELLNAME   .         312                           : 
PROV               .                                       : Province
RWS                .         -999                          : Def_Rw
UWI                .         _                             : 
WST                .         -999                          : Def_Rwt
X                  .km       467139.84                     : 
XCOORD             .                                       : X or East-West Coordinate
Y                  .km       5308307.31                    : 
YCOORD             .                                       : Y or North-South Coordinate
~Parameter Information Block
#_______________________________________________________________________________
#
#PARAMETER_NAME    .UNIT     VALUE                         : DESCRIPTION
#_______________________________________________________________________________
SET                .         Las                           : 
TLFamily_DEPT      .         Measured Depth                : 
TLFamily_PHI_FINAL .         Porosity                      : 
TLFamily_SW_AR     .         Water Saturation              : 
TLFamily_VSH_FINAL .         Shale Volume                  : 
~Curve Information
#_______________________________________________________________________________
#
#LOGNAME           .UNIT     LOG_ID                        : DESCRIPTION
#_______________________________________________________________________________
DEPT               .m                                      :  {F}
PHI_FINAL          .m3/m3                                  : Porosity {F}
SW_AR              .m3/m3                                  :  {F}
VSH_FINAL          .unitless                               : Vshale {F}
~Ascii
# ...
845        0.01750246 1          0.3034901 
845.1      0.004426028 1          0.3132682 
845.2      0          1          0.3231972 
845.3      0          1          0.3635032 
845.4      0          1          0.4062964 
845.5      0          1          0.4052718 
845.6      0          1          0.4042487 
845.7      0          1          0.378141  
845.8      0          1          0.3529616 
845.9      0.003635389 1          0.3070285 
846        0.01990411 1          0.2641847 
846.1      0          1          0.2650127 
846.2      0          1          0.2658418 
846.3      0          1          0.2973453 
846.4      0.007183552 1          0.3305144 
846.5      0          1          0.3940953 
846.6      0          1          0.4637963 
846.7      0          1          0.4828115 
846.8      0          1          0.5022821 
846.9      0          1          0.4671193 
847        0          1          0.4334422 
847.1      0.01668391 1          0.3971264 
847.2      0.05684531 1          0.3625383 
847.3      0.09529201 1          0.3332795 
847.4      0.1309126  1          0.3052568 
847.5      0.1279859  1          0.2843776 
847.6      0.1243554  1          0.2641847 
847.7      0.1177259  1          0.2567846 
847.8      0.1107375  1          0.2494767 
847.9      0.1044052  1          0.2658418 
848        0.09789427 1          0.282669  
848.1      0.09238665 1          0.3096952 
848.2      0.08633905 1          0.3379136 
848.3      0.09002978 1          0.3529616 
848.4      0.09329698 1          0.3683486 
848.5      0.1015243  1          0.3586915 
848.6      0.1096249  1          0.3491681 
848.7      0.1110802  1          0.3510622 
848.8      0.1125169  1          0.3529616 
848.9      0.1213879  1          0.3520112 
849        0.1299933  1          0.3510622 
849.1      0.1299933  1          0.3510622 
849.2      0.1299933  1          0.3510622 
849.3      0.1310847  1          0.3482231 
849.4      0.1321715  1          0.3453957 
849.5      0.1183046  1          0.3654374 
849.6      0.1040433  1          0.3860737 
849.7      0.09252336 1          0.410409  
849.8      0.08066117 1          0.4355713 
849.9      0.08352481 1          0.4281452 
850        0.08636068 1          0.4207911 
850.1      0.08537161 1          0.4062964 
850.2      0.0841286  1          0.3920815 
850.3      0.08223752 1          0.3910768 
850.4      0.08032811 1          0.3900734 
850.5      0.08445612 1          0.3673768 
850.6      0.08823895 1          0.3453957 
850.7      0.09363858 1          0.3314348 
850.8      0.09892667 1          0.3177626 
850.9      0.1008338  1          0.3250189 
851        0.1026355  1          0.3323565 
851.1      0.1190624  1          0.3132682 
851.2      0.1349718  1          0.29473   
851.3      0.1253796  1          0.3416443 
851.4      0.1142254  1          0.3920815 
851.5      0.1257602  1          0.3567762 
851.6      0.1366265  1          0.3231972 
851.7      0.1358659  1          0.3034901 
851.8      0.1346257  1          0.2843776 
851.9      0.1279852  1          0.2843776 
852        0.1211792  1          0.2843776 
852.1      0.1253962  1          0.2675035 
852.2      0.1294174  0.9955342  0.2510928 
852.3      0.1350992  0.8935418  0.2180827 
852.4      0.1398804  0.8114716  0.1869477 
852.5      0.1182629  0.9607878  0.2037721 
852.6      0.09563256 1          0.221144  
852.7      0.08716696 1          0.2430572 
852.8      0.07836474 1          0.2658418 
852.9      0.08685847 1          0.2438558 
853        0.09503884 1          0.222681  
853.1      0.1280112  0.8628137  0.2112567 
853.2      0.1583058  0.6949889  0.2000686 
853.3      0.1642906  0.6593599  0.2075013 
853.4      0.1699499  0.628058   0.2150383 
853.5      0.1697591  0.6089004  0.2045158 
853.6      0.169424   0.591252   0.1941965 
853.7      0.1645275  0.6320725  0.2180827 
853.8      0.1591531  0.6792622  0.2430572 
853.9      0.1485801  0.8099175  0.2921257 
854        0.1361933  0.9928041  0.3453957 
854.1      0.15047    0.939171   0.3820963 
854.2      0.1612185  0.9254445  0.4207911 
854.3      0.1555532  0.9646227  0.4052719 
854.4      0.1492117  1          0.3900734 
854.5      0.1379825  1          0.371272  
854.6      0.1251752  1          0.3529616 
854.7      0.1101673  1          0.3305144 
854.8      0.09273106 1          0.3088051 
854.9      0.08469752 1          0.3231973 
855        0.07651802 1          0.3379136 
855.1      0.06298695 1          0.3664065 
855.2      0.04896633 1          0.3961146 
855.3      0.05978446 1          0.3615746 
855.4      0.06994406 1          0.3286775 
855.5      0.07913625 1          0.2982194 
855.6      0.08775865 1          0.2691698 
855.7      0.09117082 1          0.2535253 
855.8      0.09439988 1          0.2382893 
855.9      0.1012249  1          0.2343464 
856        0.1079501  1          0.2304308 
856.1      0.1056579  1          0.229651  
856.2      0.1033427  1          0.2288722 
856.3      0.09919314 1          0.2327769 
856.4      0.09501086 1          0.2367088 
856.5      0.08374973 1          0.2519025 
856.6      0.07224694 1          0.2675035 
856.7      0.08535987 1          0.2406683 
856.8      0.09799143 1          0.2150383 
856.9      0.1150918  0.9175826  0.2052606 
857        0.1315618  0.7752041  0.1956584 
857.1      0.1267878  0.8075424  0.1883894 
857.2      0.1217706  0.8447531  0.1812209 
857.3      0.1124096  0.9126324  0.1985944 
857.4      0.1028001  0.9975123  0.2165584 
857.5      0.09174315 1          0.2312118 
857.6      0.08044839 1          0.246258  
857.7      0.08688892 1          0.2367088 
857.8      0.09324743 1          0.2273179 
857.9      0.08778268 1          0.2414635 
858        0.08217909 1          0.2559681 
858.1      0.08597266 1          0.2390812 
858.2      0.08955003 1          0.222681  
858.3      0.1027451  1          0.2097514 
858.4      0.1156204  0.904624   0.1971244 
858.5      0.1095438  0.9840261  0.2060065 
858.6      0.1033877  1          0.2150383 
858.7      0.1088888  1          0.2008072 
858.8      0.1142463  0.9950453  0.1869477 
858.9      0.1096868  1          0.177674  
859        0.1048348  1          0.1685666 
859.1      0.07735537 1          0.1869477 
859.2      0.04841426 1          0.2060065 
859.3      0.0368751  1          0.2022876 
859.4      0.02486962 1          0.1985944 
859.5      0.02897256 1          0.1876681 
859.6      0.03299056 1          0.1769675 
859.7      0.07399285 1          0.1555488 
859.8      0.1120482  0.7700645  0.1350351 
859.9      0.09144233 1          0.1657973 
860        0.06987239 1          0.1985944 
860.1      0.06269118 1          0.21732   
860.2      0.05525583 1          0.2367088 
860.3      0.05671908 1          0.2249946 
860.4      0.05805489 1          0.2135226 
860.5      0.07451309 1          0.2249946 
860.6      0.08961952 1          0.2367088 
860.7      0.09754747 1          0.2438558 
860.8      0.1050771  1          0.2510928 
860.9      0.1119461  0.9863209  0.2398742 
861        0.1187102  0.9037169  0.2288722 
861.1      0.1235907  0.8610266  0.222681  
861.2      0.1284233  0.8222945  0.2165584 
861.3      0.1237684  0.8565333  0.2157979 
861.4      0.1190271  0.8945439  0.2150383 
861.5      0.1127269  0.9411854  0.2180827 
861.6      0.1063314  0.9952545  0.221144  
861.7      0.1007021  1          0.2150383 
861.8      0.09483132 1          0.2090004 
861.9      0.09540994 1          0.2075013 
862        0.09598704 1          0.2060065 
862.1      0.09758969 1          0.2090004 
862.2      0.09916092 1          0.212011  
862.3      0.1024537  1          0.2105036 
862.4      0.1057217  1          0.2090004 
862.5      0.1051406  1          0.2105036 
862.6      0.1045579  1          0.212011  
862.7      0.09983759 1          0.2242223 
862.8      0.09501086 1          0.2367088 
862.9      0.09939382 1          0.2390812 
863        0.1036823  1          0.2414635 
863.1      0.1021627  1          0.2112567 
