~Version
 VERS              .         3.0                           : CWLS LOG ASCII STANDARD - VERSION 3.0
 WRAP              .         NO                            : ONE LINE PER DEPTH STEP
 DLM               .         SPACE                         : DELIMITING CHARACTER(SPACE TAB OR COMMA)
~Well Information
#_______________________________________________________________________________
#
#PARAMETER_NAME    .UNIT     VALUE                         : DESCRIPTION
#_______________________________________________________________________________
STRT               .m        0.8                           : First reference value
STOP               .m        927                           : Last reference value
STEP               .m        0.1                           : Step increment
NULL               .         -9999                         : Missing value
COMP               .         ICPetroleum                   : Company
WELL               .         312                           : Well name
FLD                .         Karatobe                      : Field
LOC                .                                       : Location
SRVC               .         KF GIS "Kazpromgeophysika"    : Service Company
CTRY               .         KZ                            : Country
DATE               .         13/12/04                      : Service Date
LATI               .         0                             : Latitude
LONG               .         0                             : Longitude
GDAT               .         WGS 84                        : Geodetic Datum
CNTY               .         Kyzyl-Orda                    : 
COORDIN            .                                       : Grid System
COUNTRY            .         Kazakhstan                    : 
COUNTRY            .         Kazakhstan                    : 
EREF               .m        137.6                         : 
KB                 .         136.4                         : KB Elevation
ORIGINALWELLNAME   .         312                           : 
PROV               .                                       : Province
RWS                .         -999                          : Def_Rw
UWI                .         _                             : 
WST                .         -999                          : Def_Rwt
X                  .km       467139.84                     : 
XCOORD             .                                       : X or East-West Coordinate
Y                  .km       5308307.31                    : 
YCOORD             .                                       : Y or North-South Coordinate
~Parameter Information Block
#_______________________________________________________________________________
#
#PARAMETER_NAME    .UNIT     VALUE                         : DESCRIPTION
#_______________________________________________________________________________
SET                .         Las                           : 
TLFamily_DEPT      .         Measured Depth                : 
TLFamily_PHI_FINAL .         Porosity                      : 
TLFamily_SW_AR     .         Water Saturation              : 
TLFamily_VSH_FINAL .         Shale Volume                  : 
~Curve Information
#_______________________________________________________________________________
#
#LOGNAME           .UNIT     LOG_ID                        : DESCRIPTION
#_______________________________________________________________________________
DEPT               .m                                      :  {F}
PHI_FINAL          .m3/m3                                  : Porosity {F}
SW_AR              .m3/m3                                  :  {F}
VSH_FINAL          .unitless                               : Vshale {F}
~Ascii
# ...
699.4      0.1730698  1          0.3722492 
699.5      0.1730269  1          0.4062964 
699.6      0.1717854  1          0.4419944 
699.7      0.1799177  1          0.4473881 
699.8      0.1875852  1          0.4528194 
699.9      0.2041582  1          0.4260367 
700        0.2201155  1          0.4001703 
700.1      0.2081047  1          0.4011878 
700.2      0.1953702  1          0.4022067 
700.3      0.2080151  1          0.3683486 
700.4      0.2200754  1          0.3360561 
700.5      0.236726   1          0.3241074 
700.6      0.2525282  1          0.3123731 
700.7      0.2521003  1          0.3332795 
700.8      0.2512047  1          0.3548663 
700.9      0.2488571  1          0.3388444 
701        0.246043   1          0.3231972 
701.1      0.2462416  1          0.2733561 
701.2      0.2434808  1          0.2273179 
701.3      0.2396496  1          0.2374986 
701.4      0.2357483  1          0.2478651 
701.5      0.2381242  1          0.2494767 
701.6      0.2404571  1          0.2510928 
701.7      0.240758   1          0.2265424 
701.8      0.2403342  1          0.2030293 
701.9      0.2426927  1          0.1755576 
702        0.2442604  0.7507176  0.1495018 
702.1      0.2578991  0.3827814  0.131166  
702.2      0.2710352  0.2140903  0.1135313 
702.3      0.2930242  0.3285182  0.09955136
702.4      0.3134595  0.5469701  0.08601203
702.5      0.317196   0.5260451  0.08312564
702.6      0.3208845  0.5062582  0.08025927
702.7      0.3038827  0.5915167  0.1007493 
702.8      0.2859385  0.6999643  0.1222627 
702.9      0.2697613  0.8503704  0.141556  
703        0.2528063  1          0.1616722 
703.1      0.2399205  1          0.2165583 
703.2      0.224569   1          0.2775715 
703.3      0.2240984  1          0.3177626 
703.4      0.2218453  1          0.3606122 
703.5      0.2094594  1          0.4187031 
703.6      0.1950558  1          0.4816804 
703.7      0.1772628  1          0.5092649 
703.8      0.1587432  1          0.5377867 
703.9      0.1571314  1          0.5198491 
704        0.1550976  1          0.5022821 
704.1      0.1602549  1          0.4884904 
704.2      0.1653269  1          0.4749272 
704.3      0.1821124  1          0.4377064 
704.4      0.1981818  1          0.4022067 
704.5      0.2255897  1          0.3250189 
704.6      0.2499859  1          0.2559681 
704.7      0.243725   1          0.246258  
704.8      0.2369273  1          0.2367088 
704.9      0.2299709  1          0.2304308 
705        0.2225781  1          0.2242223 
705.1      0.2258356  1          0.2112567 
705.2      0.2289707  1          0.1985944 
705.3      0.2386034  1          0.1949269 
705.4      0.2479108  1          0.1912849 
705.5      0.2567677  1          0.1920112 
705.6      0.2652322  1          0.1927387 
705.7      0.2496367  1          0.2188464 
705.8      0.2333291  1          0.246258  
705.9      0.2241117  1          0.2288722 
706        0.2135337  1          0.212011  
706.1      0.2017065  1          0.2097514 
706.2      0.1891525  1          0.2075013 
706.3      0.2016594  0.9176121  0.2000686 
706.4      0.2137319  0.8170331  0.1927387 
706.5      0.2224328  0.9737303  0.2157978 
706.6      0.229557   1          0.2398742 
706.7      0.2348046  1          0.2382893 
706.8      0.2399468  1          0.2367088 
706.9      0.2273601  1          0.2288722 
707        0.2135545  1          0.221144  
707.1      0.1974351  1          0.225768  
707.2      0.1803463  1          0.2304308 
707.3      0.194022   1          0.2150383 
707.4      0.207267   1          0.2000686 
707.5      0.2342459  1          0.1891117 
707.6      0.2589051  1          0.1783814 
707.7      0.2666523  1          0.1927387 
707.8      0.2734851  -9999      0.2075013 
707.9      0.2565889  -9999      0.2382893 
708        0.2388187  -9999      0.2708408 
708.1      0.2273217  -9999      0.2938607 
708.2      0.2154306  1          0.3177626 
708.3      0.2063702  1          0.3259316 
708.4      0.1970816  1          0.3342037 
708.5      0.1965545  1          0.3314348 
708.6      0.1960129  1          0.3286775 
708.7      0.1911969  1          0.3286775 
708.8      0.1862737  1          0.3286775 
708.9      0.1876805  1          0.2982194 
709        0.1881585  1          0.2691698 
709.1      0.1748588  1          0.2343464 
709.2      0.1577347  1          0.2015469 
709.3      0.1430154  1          0.203772  
709.4      0.1275579  1          0.2060065 
709.5      0.1323337  0.6553563  0.2127662 
709.6      0.1368893  0.4074529  0.2196112 
709.7      0.1746485  0.6235163  0.229651  
709.8      0.2064205  1          0.2398742 
709.9      0.2127745  1          0.2801149 
710        0.2163228  1          0.3231972 
710.1      0.2098667  1          0.3558206 
710.2      0.2027074  1          0.3900734 
710.3      0.2019448  1          0.3693217 
710.4      0.2006552  1          0.3491681 
710.5      0.1928757  1          0.3369842 
710.6      0.1843194  1          0.3250189 
710.7      0.1785062  1          0.3177626 
710.8      0.1723483  1          0.3105866 
710.9      0.1654904  1          0.3043729 
711        0.1582554  1          0.2982195 
711.1      0.1469298  1          0.3017284 
711.2      0.1351852  1          0.3052568 
711.3      0.1345025  1          0.3070285 
711.4      0.1338179  1          0.3088051 
711.5      0.1419091  1          0.3305145 
711.6      0.1487778  1          0.3529616 
711.7      0.1477307  1          0.403227  
711.8      0.1442104  1          0.4571919 
711.9      0.1666501  1          0.4355712 
712        0.1879069  1          0.4145445 
712.1      0.1991926  1          0.403227  
712.2      0.2101527  1          0.3920815 
712.3      0.2046418  1          0.4176613 
712.4      0.1987537  1          0.4441473 
712.5      0.1882479  1          0.4760487 
712.6      0.1772629  1          0.5092648 
712.7      0.1746601  1          0.5163062 
712.8      0.1720352  1          0.5234066 
712.9      0.173766   1          0.508097  
713        0.1753396  1          0.493062  
713.1      0.1624427  1          0.4942088 
713.2      0.1487651  1          0.4953574 
713.3      0.1365065  1          0.486214  
713.4      0.1231083  1          0.4771719 
713.5      0.1270693  1          0.4292017 
713.6      0.1292229  1          0.3840822 
713.7      0.1428325  1          0.3332795 
713.8      0.1549682  1          0.286091  
713.9      0.1662337  1          0.2567846 
714        0.1769631  0.9873835  0.2288722 
714.1      0.1803469  0.9911524  0.2304308 
714.2      0.1836661  0.9958782  0.2319938 
714.3      0.1848834  1          0.2438558 
714.4      0.1858826  1          0.2559681 
714.5      0.191741   1          0.2502842 
714.6      0.1975165  1          0.2446554 
714.7      0.1962339  1          0.2527134 
714.8      0.1948977  1          0.2608843 
714.9      0.1970831  1          0.2551528 
715        0.1992474  1          0.2494767 
715.1      0.1918572  1          0.2641847 
715.2      0.1843044  1          0.2792659 
715.3      0.1792291  1          0.2878092 
715.4      0.1740904  1          0.2964723 
715.5      0.1712435  1          0.2990948 
715.6      0.1683771  1          0.3017284 
715.7      0.1677701  1          0.2835227 
715.8      0.1667465  1          0.2658418 
715.9      0.1683772  1          0.2406683 
716        0.1693642  1          0.2165584 
716.1      0.1726314  1          0.2135226 
716.2      0.1758738  0.9126879  0.2105036 
716.3      0.1834008  0.9908751  0.21732   
716.4      0.1905015  1          0.2242223 
716.5      0.1980932  1          0.2288722 
716.6      0.2053164  1          0.2335611 
716.7      0.199555   1          0.2486703 
716.8      0.1936391  1          0.2641847 
716.9      0.1980133  1          0.2527134 
717        0.202303   1          0.2414635 
717.1      0.208823   1          0.2150383 
717.2      0.2148415  1          0.1898351 
717.3      0.2109309  1          0.2000686 
717.4      0.2069431  1          0.2105036 
717.5      0.1926696  1          0.2430572 
