~Version
 VERS              .         3.0                           : CWLS LOG ASCII STANDARD - VERSION 3.0
 WRAP              .         NO                            : ONE LINE PER DEPTH STEP
 DLM               .         SPACE                         : DELIMITING CHARACTER(SPACE TAB OR COMMA)
~Well Information
#_______________________________________________________________________________
#
#PARAMETER_NAME    .UNIT     VALUE                         : DESCRIPTION
#_______________________________________________________________________________
STRT               .m        0.8                           : First reference value
STOP               .m        927                           : Last reference value
STEP               .m        0.1                           : Step increment
NULL               .         -9999                         : Missing value
COMP               .         ICPetroleum                   : Company
WELL               .         312                           : Well name
FLD                .         Karatobe                      : Field
LOC                .                                       : Location
SRVC               .         KF GIS "Kazpromgeophysika"    : Service Company
CTRY               .         KZ                            : Country
DATE               .         13/12/04                      : Service Date
LATI               .         0                             : Latitude
LONG               .         0                             : Longitude
GDAT               .         WGS 84                        : Geodetic Datum
CNTY               .         Kyzyl-Orda                    : 
COORDIN            .                                       : Grid System
COUNTRY            .         Kazakhstan                    : 
COUNTRY            .         Kazakhstan                    : 
EREF               .m        137.6                         : 
KB                 .         136.4                         : KB Elevation
ORIGINALWELLNAME   .         312                           : 
PROV               .                                       : Province
RWS                .         -999                          : Def_Rw
UWI                .         _                             : 
WST                .         -999                          : Def_Rwt
X                  .km       467139.84                     : 
XCOORD             .                                       : X or East-West Coordinate
Y                  .km       5308307.31                    : 
YCOORD             .                                       : Y or North-South Coordinate
~Parameter Information Block
#_______________________________________________________________________________
#
#PARAMETER_NAME    .UNIT     VALUE                         : DESCRIPTION
#_______________________________________________________________________________
SET                .         Las                           : 
TLFamily_DEPT      .         Measured Depth                : 
TLFamily_PHI_FINAL .         Porosity                      : 
TLFamily_SW_AR     .         Water Saturation              : 
TLFamily_VSH_FINAL .         Shale Volume                  : 
~Curve Information
#_______________________________________________________________________________
#
#LOGNAME           .UNIT     LOG_ID                        : DESCRIPTION
#_______________________________________________________________________________
DEPT               .m                                      :  {F}
PHI_FINAL          .m3/m3                                  : Porosity {F}
SW_AR              .m3/m3                                  :  {F}
VSH_FINAL          .unitless                               : Vshale {F}
~Ascii
# ...
325.4      0.0588178  1          1         
325.5000000000001 0.04637578 1          1         
325.6      0.03906658 1          1         
325.7      0.04455921 1          1         
325.8      0.05560386 1          1         
325.9      0.05796039 1          1         
326.0000000000001 0.05735278 1          1         
326.1      0.05532114 1          1         
326.2      0.06232094 1          1         
326.3      0.06330305 1          1         
326.4      0.06268784 1          1         
326.5000000000001 0.0635471  1          1         
326.6      0.0657208  1          1         
326.7      0.06689563 1          1         
326.8      0.06179842 1          1         
326.9      0.04989127 1          1         
327.0000000000001 0.04117795 1          1         
327.1      0.03652875 1          1         
327.2      0.02924959 1          1         
327.3      0.02515092 1          1         
327.4      0.02549569 1          1         
327.5000000000001 0.02392028 1          1         
327.6      0.06495151 1          0.8581536 
327.7      0.08760216 1          0.7994967 
327.8      0.1120421  1          0.7445042 
327.9      0.1450341  1          0.6684505 
328.0000000000001 0.1768289  1          0.5993971 
328.1      0.1677952  1          0.6290962 
328.2      0.1513443  1          0.6600831 
328.3      0.1476911  1          0.6494442 
328.4      0.149488   1          0.6389593 
328.5000000000001 0.1562404  1          0.6260954 
328.6      0.1630428  1          0.6134626 
328.7      0.1911032  1          0.5450088 
328.8      0.2215427  0.8691276  0.483292  
328.9      0.213509   0.9130228  0.5164096 
329.0000000000001 0.1978512  0.995527   0.5514584 
329.1      0.1767901  1          0.5861634 
329.2      0.1592863  1          0.6227611 
329.3      0.1762584  1          0.585949  
329.4      0.1909539  1          0.5510623 
329.5000000000001 0.1903216  1          0.5600549 
329.6      0.1899519  1          0.5691739 
329.7      0.1991428  0.9990019  0.559853  
329.8      0.2062297  0.9836492  0.5506668 
329.9      0.2023862  1          0.5665488 
330.0000000000001 0.1969176  1          0.5828262 
330.1      0.148458   1          0.70952   
330.2      0.08683657 1          0.8602957 
330.3      0.09118269 1          0.8601197 
330.4      0.1005235  1          0.859944  
330.5000000000001 0.07878535 1          0.9149798 
330.6      0.04421334 1          0.9732187 
330.7      0.04584336 1          0.9433905 
330.8      0.05732927 1          0.9144091 
330.9      0.0314971  1          1         
331.0000000000001 0.03998139 1          1         
331.1      0.04626968 1          1         
331.2      0.05386975 1          1         
331.3      0.05424365 1          1         
331.4      0.08581396 1          0.9347455 
331.5000000000001 0.07712209 1          0.9527952 
331.6      0.06541166 1          0.9711624 
331.7      0.05075927 1          0.9709573 
331.8      0.03844783 1          0.9707519 
331.9      0.04913832 1          0.9301625 
332.0000000000001 0.06028217 1          0.8911429 
332.1      0.07304649 1          0.8636673 
332.2      0.09152798 1          0.8369712 
332.3      0.1481817  1          0.7093223 
332.4      0.1993995  1          0.5994009 
332.5000000000001 0.2135932  0.999437   0.5502544 
332.6      0.2273518  0.9586932  0.5046545 
332.7      0.2408053  0.9202321  0.4681849 
332.8      0.2488886  0.9041244  0.4339839 
332.9      0.2394482  0.9329148  0.4525941 
333.0000000000001 0.2333171  0.9511194  0.4718713 
333.1      0.2247441  0.9823057  0.5021337 
333.2      0.2092007  1          0.5340416 
333.3      0.2081952  1          0.5274121 
333.4      0.2124244  1          0.520855  
333.5000000000001 0.2179946  0.9723682  0.5272259 
333.6      0.2206971  0.9335962  0.5336628 
333.7      0.2295381  0.9067179  0.5057729 
333.8      0.2376911  0.8843045  0.4791484 
333.9      0.2261024  0.9402753  0.5140089 
334.0000000000001 0.2086397  1          0.5510253 
334.1      0.2045067  1          0.5554402 
334.2      0.2032652  1          0.5598851 
334.3      0.2219788  0.9626946  0.5136487 
334.4      0.2415104  0.8925597  0.470744  
334.5000000000001 0.2558405  0.850371   0.4364272 
334.6      0.2718049  0.8079876  0.4042418 
334.7      0.2589014  0.8486321  0.4418347 
334.8      0.2390424  0.9179986  0.4823216 
334.9      0.2565462  0.8622296  0.4109998 
335.0000000000001 0.2780228  0.8024417  0.348685  
335.1      0.2744284  0.8056481  0.3705899 
335.2      0.2707331  0.8093247  0.3936027 
335.3      0.2457156  0.887989   0.4507662 
335.4      0.2146459  1          0.5147753 
335.5000000000001 0.228485   0.953197   0.4837463 
335.6      0.2425961  0.9016076  0.4543328 
335.7      0.2511598  0.8788608  0.4619241 
335.8      0.2507375  0.8867126  0.4696215 
335.9      0.2527044  0.8719451  0.4715023 
336.0000000000001 0.2537527  0.8604645  0.4733893 
336.1      0.2779008  0.7969726  0.420786  
336.2      0.2956083  0.7588399  0.373163  
336.3      0.2932509  0.76297    0.3779751 
336.4      0.2897811  0.7699574  0.3828372 
336.5000000000001 0.2827147  0.7849295  0.3995633 
336.6      0.2662252  0.8274584  0.4168872 
336.7      0.2456193  0.9032053  0.4385097 
336.8      0.2339075  0.9568526  0.461064  
336.9      0.2238045  0.962086   0.507126  
337.0000000000001 0.215235   0.9635803  0.5570794 
337.1      0.2267713  0.9300955  0.523891  
337.2      0.2361835  0.9077602  0.4924283 
337.3      0.217009   0.9885591  0.5237071 
337.4      0.2014655  1          0.5566806 
337.5000000000001 0.2126054  1          0.5149997 
337.6      0.2313747  0.925597   0.4760405 
337.7      0.2174783  0.9874848  0.542954  
337.8      0.1933307  1          0.6178644 
337.9      0.202199   1          0.583896  
338.0000000000001 0.2101888  1          0.5515789 
338.1      0.1991716  1          0.5955773 
338.2      0.1840387  1          0.6426191 
338.3      0.133807   1          0.7736649 
338.4      0.07402898 1          0.928352  
338.5000000000001 0.07787277 1          0.9174911 
338.6      0.0857665  1          0.9067492 
338.7      0.05317745 1          1         
338.8      0.05156362 1          1         
338.9      0.05013573 1          1         
339.0000000000001 0.04649298 1          1         
339.1      0.04976049 1          1         
339.2      0.05160461 1          1         
339.3      0.05881032 1          1         
339.4      0.06697597 1          1         
339.5000000000001 0.07721253 1          1         
339.6      0.0926756  1          1         
339.7      0.09434068 1          1         
339.8      0.08796807 1          1         
339.9      0.06689906 1          1         
340.0000000000001 0.05048874 1          1         
340.1      0.02356782 1          1         
340.2      0.005659074 1          1         
340.3      0          1          1         
340.4      0          1          1         
340.5000000000001 0          1          1         
340.6      0          1          1         
340.7      0          1          1         
340.8      0          1          1         
340.9      0          1          1         
341.0000000000001 0          1          1         
341.1      0.001390815 1          1         
341.2      0.0005962402 1          1         
341.3      0.000370577 1          1         
341.4      0.001189426 1          1         
341.5000000000001 0.006137624 1          1         
341.6      0.01259139 1          1         
341.7      0.02229144 1          1         
341.8      0.0286747  1          1         
341.9      0.03186476 1          1         
342.0000000000001 0.03841093 1          1         
342.1      0.04063351 1          1         
342.2      0.04620513 1          1         
342.3      0.0485304  1          1         
342.4      0.09042182 1          0.8791258 
342.5000000000001 0.1035879  1          0.8230014 
342.6      0.1145333  1          0.7701584 
342.7      0.1404901  1          0.6736872 
342.8      0.1636249  1          0.5881366 
342.9      0.1368361  1          0.6446757 
343.0000000000001 0.1103494  1          0.7059677 
