~Version
 VERS              .         3.0                           : CWLS LOG ASCII STANDARD - VERSION 3.0
 WRAP              .         NO                            : ONE LINE PER DEPTH STEP
 DLM               .         SPACE                         : DELIMITING CHARACTER(SPACE TAB OR COMMA)
~Well Information
#_______________________________________________________________________________
#
#PARAMETER_NAME    .UNIT     VALUE                         : DESCRIPTION
#_______________________________________________________________________________
STRT               .m        0.8                           : First reference value
STOP               .m        927                           : Last reference value
STEP               .m        0.1                           : Step increment
NULL               .         -9999                         : Missing value
COMP               .         ICPetroleum                   : Company
WELL               .         312                           : Well name
FLD                .         Karatobe                      : Field
LOC                .                                       : Location
SRVC               .         KF GIS "Kazpromgeophysika"    : Service Company
CTRY               .         KZ                            : Country
DATE               .         13/12/04                      : Service Date
LATI               .         0                             : Latitude
LONG               .         0                             : Longitude
GDAT               .         WGS 84                        : Geodetic Datum
CNTY               .         Kyzyl-Orda                    : 
COORDIN            .                                       : Grid System
COUNTRY            .         Kazakhstan                    : 
COUNTRY            .         Kazakhstan                    : 
EREF               .m        137.6                         : 
KB                 .         136.4                         : KB Elevation
ORIGINALWELLNAME   .         312                           : 
PROV               .                                       : Province
RWS                .         -999                          : Def_Rw
UWI                .         _                             : 
WST                .         -999                          : Def_Rwt
X                  .km       467139.84                     : 
XCOORD             .                                       : X or East-West Coordinate
Y                  .km       5308307.31                    : 
YCOORD             .                                       : Y or North-South Coordinate
~Parameter Information Block
#_______________________________________________________________________________
#
#PARAMETER_NAME    .UNIT     VALUE                         : DESCRIPTION
#_______________________________________________________________________________
SET                .         Las                           : 
TLFamily_DEPT      .         Measured Depth                : 
TLFamily_PHI_FINAL .         Porosity                      : 
TLFamily_SW_AR     .         Water Saturation              : 
TLFamily_VSH_FINAL .         Shale Volume                  : 
~Curve Information
#_______________________________________________________________________________
#
#LOGNAME           .UNIT     LOG_ID                        : DESCRIPTION
#_______________________________________________________________________________
DEPT               .m                                      :  {F}
PHI_FINAL          .m3/m3                                  : Porosity {F}
SW_AR              .m3/m3                                  :  {F}
VSH_FINAL          .unitless                               : Vshale {F}
~Ascii
# ...
467.0000000000001 0.1401286  1          0.6854148 
467.1      0.1412332  1          0.6927531 
467.2      0.1457724  1          0.7001606 
467.3      0.1663231  1          0.6559528 
467.4      0.1786237  1          0.6142462 
467.5000000000001 0.1783024  1          0.6008083 
467.6      0.1852768  1          0.5876313 
467.7      0.1723275  1          0.6367329 
467.8      0.1519541  1          0.6894217 
467.9      0.1329236  1          0.7353578 
468.0000000000001 0.1073842  1          0.7840189 
468.1      0.1050611  1          0.7783172 
468.2      0.107255   1          0.7726539 
468.3      0.1102125  1          0.7401175 
468.4      0.1108414  1          0.7088226 
468.5000000000001 0.1219522  1          0.6738369 
468.6      0.1386999  1          0.6404018 
468.7      0.2153198  1          0.5057359 
468.8      0.2721033  0.9427215  0.3961529 
468.9      0.3095599  0.9903128  0.3423512 
469.0000000000001 0.3362214  1          0.2945969 
469.1      0.3588234  0.92037    0.2364262 
469.2      0.3757434  0.7795198  0.1872232 
469.3      0.3617526  0.9186828  0.214559  
469.4      0.3444709  1          0.2446557 
469.5000000000001 0.2997301  1          0.3475629 
469.6      0.2452261  1          0.4827689 
469.7      0.204447   1          0.5813116 
469.8      0.1529575  1          0.6970006 
469.9      0.1439618  1          0.6844487 
470.0000000000001 0.1430852  1          0.6721008 
470.1      0.1651588  1          0.6137115 
470.2      0.1795827  1          0.5598444 
470.3      0.1889636  1          0.5044591 
470.4      0.1978877  1          0.4538527 
470.5000000000001 0.20014    1          0.4503458 
470.6      0.2017696  1          0.4468625 
470.7      0.2108348  1          0.4284039 
470.8      0.2209659  1          0.4105909 
470.9      0.2353701  1          0.3888331 
471.0000000000001 0.2494598  1          0.3680373 
471.1      0.2415993  1          0.3948173 
471.2      0.2351495  1          0.4231832 
471.3      0.2331667  1          0.439632  
471.4      0.2304923  1          0.4566131 
471.5000000000001 0.207404   1          0.5149109 
471.6      0.1838188  1          0.5794975 
471.7      0.1758612  1          0.6076249 
471.8      0.159712   1          0.6369424 
471.9      0.1817799  1          0.5813405 
472.0000000000001 0.2021614  1          0.5300396 
472.1      0.1614621  1          0.6459153 
472.2      0.1030874  1          0.7836728 
472.3      0.0985708  1          0.7697431 
472.4      0.09974928 1          0.7560394 
472.5000000000001 0.1395145  1          0.6525214 
472.6      0.1739305  1          0.5617872 
472.7      0.1819181  1          0.5274854 
472.8      0.1841703  1          0.4950128 
472.9      0.1771153  1          0.5042766 
473.0000000000001 0.177157   1          0.5136879 
473.1      0.1851463  1          0.5271489 
473.2      0.1930265  1          0.5409115 
473.3      0.1919709  1          0.5757674 
473.4      0.1893945  1          0.6125653 
473.5000000000001 0.2004842  1          0.6191836 
473.6      0.2068616  1          0.6258635 
473.7      0.1723129  1          0.7331016 
473.8      0.1289832  1          0.8565444 
473.9      0.1040748  1          0.9250064 
474.0000000000001 0.07088598 1          0.9984459 
474.1      0.1059078  1          0.8681853 
474.2      0.1266853  1          0.7536296 
474.3      0.1511016  1          0.6576135 
474.4      0.1760173  1          0.5726277 
474.5000000000001 0.1740399  1          0.5895504 
474.6      0.1767978  1          0.6069073 
474.7      0.1595067  1          0.6715274 
474.8      0.1300205  1          0.7421896 
474.9      0.1650298  1          0.6245003 
475.0000000000001 0.2016488  1          0.5236089 
475.1      0.2179619  1          0.4786611 
475.2      0.235942   1          0.4370497 
475.3      0.2102063  1          0.5042535 
475.4      0.1809038  1          0.5801307 
475.5000000000001 0.185952   1          0.5736985 
475.6      0.1965069  1          0.5673299 
475.7      0.2034642  1          0.5672376 
475.8      0.2033331  1          0.5671453 
475.9      0.1988908  1          0.5796554 
476.0000000000001 0.1855644  1          0.5924045 
476.1      0.193699   1          0.5484203 
476.2      0.1998594  1          0.507306  
476.3      0.2004875  1          0.5072261 
476.4      0.2021411  1          0.5071463 
476.5000000000001 0.1633602  1          0.6006079 
476.6      0.1191096  1          0.708855  
476.7      0.1194476  1          0.7240726 
476.8      0.1199805  1          0.7395803 
476.9      0.1239915  1          0.7607637 
477.0000000000001 0.1271587  1          0.7824892 
477.1      0.1481766  1          0.7686242 
477.2      0.1633335  1          0.7549831 
477.3      0.234237   1          0.5657632 
477.4      0.2900339  1          0.4192875 
477.5000000000001 0.3555329  0.7063666  0.2421537 
477.6      0.3889844  0.5450651  0.1274996 
477.7      0.3875937  0.5590464  0.105811  
477.8      0.3866866  0.5729126  0.08635972
477.9      0.3895032  0.5975416  0.08260495
478.0000000000001 0.3872085  0.6322427  0.07893393
478.1      0.3705079  0.6847599  0.1131471 
478.2      0.3498046  0.7520534  0.1545825 
478.3      0.3284014  0.8275864  0.2141056 
478.4      0.3077675  0.913321   0.2885301 
478.5000000000001 0.3080441  0.9300235  0.3017778 
478.6      0.3060985  0.9538671  0.315496  
478.7      0.2838598  1          0.3755768 
478.8      0.2611025  1          0.4447059 
478.9      0.1882231  1          0.6501524 
479.0000000000001 0.08900754 1          0.9355376 
479.1      0.06573664 1          0.9990593 
479.2      0.07052431 1          1         
479.3      0.06746107 1          1         
479.4      0.05968813 1          1         
479.5000000000001 0.03683664 1          1         
479.6      0.02546215 1          1         
479.7      0.02185838 1          1         
479.8      0.02372748 1          1         
479.9      0.02852292 1          1         
480.0000000000001 0.03033069 1          1         
480.1      0.03557686 1          1         
480.2      0.0332501  1          1         
480.3      0.02617031 1          1         
480.4      0.02372748 1          1         
480.5000000000001 0.03888439 1          0.9361527 
480.6      0.1105222  1          0.6890389 
480.7      0.183692   1          0.4745409 
480.8      0.2209367  0.957259   0.3196558 
480.9      0.2534776  0.830453   0.2569997 
481.0000000000001 0.2842637  0.7362077  0.2041    
481.1      0.2905349  0.7680793  0.2369497 
481.2      0.2949527  0.8089502  0.2735528 
481.3      0.2821134  0.8418512  0.3285201 
481.4      0.2662249  0.8873212  0.3919518 
481.5000000000001 0.2639394  0.8736328  0.4026116 
481.6      0.2581177  0.8717328  0.4135088 
481.7      0.2383271  0.9321598  0.4580654 
481.8      0.2135926  1          0.5066134 
481.9      0.196098   1          0.527568  
482.0000000000001 0.1755204  1          0.5492643 
482.1      0.1570021  1          0.592928  
482.2      0.1404926  1          0.6396004 
482.3      0.1548852  1          0.6101786 
482.4      0.1639439  1          0.5819586 
482.5000000000001 0.1803458  1          0.5251256 
482.6      0.1997146  1          0.473157  
482.7      0.1680418  1          0.5649501 
482.8      0.134061   1          0.6718775 
482.9      0.03819897 1          0.9384355 
483.0000000000001 0.02330317 1          1         
483.1      0.02238896 1          1         
483.2      0.0189341  1          1         
483.3      0.01675737 1          1         
483.4      0.01179317 1          1         
483.5000000000001 0.008144498 1          1         
483.6      0.006317884 1          1         
483.7      0.008992374 1          1         
483.8      0.02636421 1          0.9336122 
483.9      0.02492556 1          0.9596497 
484.0000000000001 0.01999071 1          0.9863502 
484.1      0.02336191 1          1         
484.2      0.02638642 1          1         
484.3      0.03890065 1          1         
484.4      0.04442627 1          1         
484.5000000000001 0.0550205  1          1         
484.6      0.0669446  1          1         
