~Version
 VERS              .         3.0                           : CWLS LOG ASCII STANDARD - VERSION 3.0
 WRAP              .         NO                            : ONE LINE PER DEPTH STEP
 DLM               .         SPACE                         : DELIMITING CHARACTER(SPACE TAB OR COMMA)
~Well Information
#_______________________________________________________________________________
#
#PARAMETER_NAME    .UNIT     VALUE                         : DESCRIPTION
#_______________________________________________________________________________
STRT               .m        0.8                           : First reference value
STOP               .m        927                           : Last reference value
STEP               .m        0.1                           : Step increment
NULL               .         -9999                         : Missing value
COMP               .         ICPetroleum                   : Company
WELL               .         312                           : Well name
FLD                .         Karatobe                      : Field
LOC                .                                       : Location
SRVC               .         KF GIS "Kazpromgeophysika"    : Service Company
CTRY               .         KZ                            : Country
DATE               .         13/12/04                      : Service Date
LATI               .         0                             : Latitude
LONG               .         0                             : Longitude
GDAT               .         WGS 84                        : Geodetic Datum
CNTY               .         Kyzyl-Orda                    : 
COORDIN            .                                       : Grid System
COUNTRY            .         Kazakhstan                    : 
COUNTRY            .         Kazakhstan                    : 
EREF               .m        137.6                         : 
KB                 .         136.4                         : KB Elevation
ORIGINALWELLNAME   .         312                           : 
PROV               .                                       : Province
RWS                .         -999                          : Def_Rw
UWI                .         _                             : 
WST                .         -999                          : Def_Rwt
X                  .km       467139.84                     : 
XCOORD             .                                       : X or East-West Coordinate
Y                  .km       5308307.31                    : 
YCOORD             .                                       : Y or North-South Coordinate
~Parameter Information Block
#_______________________________________________________________________________
#
#PARAMETER_NAME    .UNIT     VALUE                         : DESCRIPTION
#_______________________________________________________________________________
SET                .         Las                           : 
TLFamily_DEPT      .         Measured Depth                : 
TLFamily_PHI_FINAL .         Porosity                      : 
TLFamily_SW_AR     .         Water Saturation              : 
TLFamily_VSH_FINAL .         Shale Volume                  : 
~Curve Information
#_______________________________________________________________________________
#
#LOGNAME           .UNIT     LOG_ID                        : DESCRIPTION
#_______________________________________________________________________________
DEPT               .m                                      :  {F}
PHI_FINAL          .m3/m3                                  : Porosity {F}
SW_AR              .m3/m3                                  :  {F}
VSH_FINAL          .unitless                               : Vshale {F}
~Ascii
# ...
608.6      0.01979572 1          1         
608.6999999999999 0.01738583 1          1         
608.8      0.01511779 1          1         
608.9      0.01303633 1          1         
609        0.00797841 1          1         
609.1      0.001953617 1          1         
609.1999999999999 0.006603897 1          0.9646745 
609.3      0.03205967 1          0.8111916 
609.4      0.05633679 1          0.6802091 
609.5      0.07742698 1          0.6366671 
609.6      0.1017774  1          0.5956143 
609.6999999999999 0.1276887  1          0.6116156 
609.8      0.1414767  1          0.6279922 
609.9      0.1777341  1          0.5776938 
610        0.1968174  1          0.5309595 
610.1      0.2040033  1          0.5255113 
610.1999999999999 0.2096526  1          0.5201122 
610.3      0.2289027  1          0.484066  
610.4      0.2420667  1          0.4501785 
610.5      0.2537591  1          0.4257141 
610.6      0.2636806  1          0.4023752 
610.6999999999999 0.2617318  1          0.413823  
610.8      0.2611203  1          0.4255395 
610.9      0.247235   1          0.451428  
611        0.2341792  1          0.4786309 
611.1      0.2286275  1          0.4704039 
611.1999999999999 0.2193338  1          0.4622985 
611.3      0.2005052  1          0.4883738 
611.4      0.184772   1          0.5156926 
611.5      0.2034749  1          0.4949609 
611.6      0.2133282  1          0.4749495 
611.6999999999999 0.2120295  1          0.4524906 
611.8      0.2112182  1          0.4309382 
611.9      0.2080603  1          0.4384518 
612        0.2037779  1          0.4460741 
612.1      0.2021015  1          0.4538069 
612.1999999999999 0.1958643  1          0.4616516 
612.3      0.2063152  1          0.4382101 
612.4      0.2119154  1          0.4157801 
612.5      0.2075066  1          0.4215922 
612.6      0.2026408  1          0.4274715 
612.6999999999999 0.2067779  1          0.4170713 
612.8      0.2111675  1          0.4068842 
612.9      0.2096817  1          0.4140429 
613        0.2116636  1          0.4213053 
613.1      0.2200745  1          0.4197759 
613.1999999999999 0.2317427  1          0.4182515 
613.3      0.2489863  1          0.3788069 
613.4      0.2587668  1          0.3424707 
613.5      0.2621764  1          0.3124499 
613.6      0.2660323  1          0.2845508 
613.6999999999999 0.2409755  1          0.3386266 
613.8      0.2164991  1          0.4006501 
613.9      0.2041409  1          0.4357278 
614        0.1920999  1          0.4733446 
614.1      0.2048376  1          0.4206752 
614.1999999999999 0.2085606  1          0.3729979 
614.3      0.1792705  1          0.433976  
614.4      0.1540355  1          0.503099  
614.5      0.1511137  1          0.5437493 
614.6      0.140038   1          0.5872137 
614.6999999999999 0.08382303 1          0.7585692 
614.8      0.02087653 -9999      0.9737055 
614.9      0.02279085 -9999      0.958222  
615        0.02146173 -9999      0.9429672 
615.1      0.1000212  -9999      0.7314939 
615.2      0.1664419  -9999      0.5636286 
615.3      0.1892533  -9999      0.5162849 
615.4      0.2031571  -9999      0.4724129 
615.5      0.189951   -9999      0.497203  
615.6      0.1794412  -9999      0.5230967 
615.7      0.2255063  -9999      0.411034  
615.8      0.2650805  -9999      0.3197013 
615.9      0.2852818  -9999      0.2742526 
616        0.2938489  -9999      0.2339381 
616.1      0.2987243  -9999      0.2065028 
616.2      0.3047345  -9999      0.1814453 
616.3      0.3126723  -9999      0.1642639 
616.4      0.3219124  -9999      0.1482009 
616.5      0.3265445  -9999      0.148186  
616.6      0.3290831  -9999      0.1481711 
616.7      0.3325682  -9999      0.1325275 
616.8      0.3293532  -9999      0.1179443 
616.9      0.3285569  -9999      0.1196989 
617        0.328797   -9999      0.1214686 
617.1      0.3469705  -9999      0.08714321
617.2      0.3600527  -9999      0.05858349
617.3      0.3711748  -9999      0.03311523
617.4      0.3810188  -9999      0.0122306 
617.5      0.3824034  -9999      0.01419318
617.6      0.3818489  -9999      0.01619596
617.7      0.3830871  -9999      0.013345  
617.8      0.3852755  -9999      0.01057633
617.9      0.3874842  -9999      0.01504288
618        0.3864665  -9999      0.01972201
618.1      0.3809493  -9999      0.02780648
618.2      0.3780979  -9999      0.03652607
618.3      0.382905   -9999      0.02942864
618.4      0.3880781  -9999      0.02275346
618.5      0.3897196  -9999      0.01305751
618.6      0.3884405  -9999      0.004251585
618.7      0.3840173  -9999      0.006569205
618.8      0.3807471  -9999      0.008948075
618.9      0.3804617  -9999      0.01417969
619        0.3807144  -9999      0.01970826
619.1      0.3803483  -9999      0.0252349 
619.2      0.3798519  -9999      0.03105819
619.3      0.3840978  -9999      0.02304736
619.4      0.3899132  -9999      0.01560007
619.5      0.3903575  -9999      0.01111083
619.6      0.3941098  -9999      0.006826496
619.7      0.4021103  -9999      0.006564914
619.8      0.4075127  -9999      0.006304126
619.9      0.3995255  -9999      0.003994411
620        0.3916407  -9999      0.001744719
620.1      0.385534   -9999      0.01138068
620.2      0.3847874  -9999      0.02211089
620.3      0.3770787  -9999      0.03236841
620.4      0.369861   -9999      0.04362544
620.5      0.3648511  -9999      0.05004344
620.6      0.3615121  -9999      0.05678586
620.7      0.3647596  -9999      0.05597024
620.8      0.3718662  -9999      0.05515949
620.9      0.3855235  -9999      0.04887171
621        0.3854136  -9999      0.04287084
621.1      0.381326   -9999      0.04250195
621.2      0.3803695  -9999      0.04213421
621.3      0.3822774  -9999      0.03819103
621.4      0.3797126  -9999      0.03437256
621.5      0.3710529  -9999      0.03748248
621.6      0.3658214  -9999      0.04067438
621.7      0.359673   -9999      0.05194394
621.8      0.3553008  -9999      0.06423879
621.9      0.350044   -9999      0.07811982
622        0.3450936  -9999      0.09330751
622.1      0.3389383  -9999      0.1060385 
622.2      0.3346508  -9999      0.119687  
622.3      0.3320003  -9999      0.131807  
622.4      0.3293595  -9999      0.1446501 
622.5      0.3308386  -9999      0.1317814 
622.6      0.333676   -9999      0.1196417 
622.7      0.3420895  -9999      0.1043397 
622.8      0.3512513  -9999      0.09019493
622.9      0.3604803  -9999      0.07665516
623        0.3667977  -9999      0.06417536
623.1      0.3600256  -9999      0.07207088
623.2      0.3537874  -9999      0.0803889 
623.3      0.3452842  -9999      0.09319939
623.4      0.341318   -9999      0.1070125 
623.5      0.3467913  -9999      0.09996228
623.6      0.3472821  -9999      0.09317449
623.7      0.3366825  -9999      0.1212892 
623.8      0.3231654  -9999      0.1538863 
623.9      0.330551   -9999      0.1405064 
624        0.3372745  -9999      0.1278837 
624.1      0.3476838  -9999      0.1015081 
624.2      0.3560766  -9999      0.07843404
624.3      0.3529801  -9999      0.08807722
624.4      0.3487545  -9999      0.09829516
624.5      0.3587397  -9999      0.08268619
624.6      0.3658515  -9999      0.06842282
624.7      0.3737885  -9999      0.05781985
624.8      0.3776997  -9999      0.04796051
624.9      0.3702959  -9999      0.05418055
625        0.3632445  -9999      0.06069517
625.1      0.3546442  -9999      0.07790604
625.2      0.3459826  -9999      0.09717575
625.3      0.3226869  -9999      0.1536533 
625.4      0.2907775  -9999      0.2278237 
625.5      0.2602981  -9999      0.3240435 
625.6      0.2140152  -9999      0.4500318 
625.7      0.2040036  -9999      0.4769081 
625.8      0.1889082  -9999      0.505136  
625.9      0.2012581  -9999      0.4671183 
626        0.2141963  -9999      0.4315625 
626.1      0.2124752  -9999      0.4435787 
626.2      0.2142321  -9999      0.455874  
626.3      0.2266694  -9999      0.4388978 
626.4      0.2329839  -9999      0.4224582 
626.5      0.2178175  -9999      0.42534   
