~Version
 VERS              .         3.0                           : CWLS LOG ASCII STANDARD - VERSION 3.0
 WRAP              .         NO                            : ONE LINE PER DEPTH STEP
 DLM               .         SPACE                         : DELIMITING CHARACTER(SPACE TAB OR COMMA)
~Well Information
#_______________________________________________________________________________
#
#PARAMETER_NAME    .UNIT     VALUE                         : DESCRIPTION
#_______________________________________________________________________________
STRT               .m        0.8                           : First reference value
STOP               .m        927                           : Last reference value
STEP               .m        0.1                           : Step increment
NULL               .         -9999                         : Missing value
COMP               .         ICPetroleum                   : Company
WELL               .         312                           : Well name
FLD                .         Karatobe                      : Field
LOC                .                                       : Location
SRVC               .         KF GIS "Kazpromgeophysika"    : Service Company
CTRY               .         KZ                            : Country
DATE               .         13/12/04                      : Service Date
LATI               .         0                             : Latitude
LONG               .         0                             : Longitude
GDAT               .         WGS 84                        : Geodetic Datum
CNTY               .         Kyzyl-Orda                    : 
COORDIN            .                                       : Grid System
COUNTRY            .         Kazakhstan                    : 
COUNTRY            .         Kazakhstan                    : 
EREF               .m        137.6                         : 
KB                 .         136.4                         : KB Elevation
ORIGINALWELLNAME   .         312                           : 
PROV               .                                       : Province
RWS                .         -999                          : Def_Rw
UWI                .         _                             : 
WST                .         -999                          : Def_Rwt
X                  .km       467139.84                     : 
XCOORD             .                                       : X or East-West Coordinate
Y                  .km       5308307.31                    : 
YCOORD             .                                       : Y or North-South Coordinate
~Parameter Information Block
#_______________________________________________________________________________
#
#PARAMETER_NAME    .UNIT     VALUE                         : DESCRIPTION
#_______________________________________________________________________________
SET                .         Las                           : 
TLFamily_DEPT      .         Measured Depth                : 
TLFamily_PHI_FINAL .         Porosity                      : 
TLFamily_SW_AR     .         Water Saturation              : 
TLFamily_VSH_FINAL .         Shale Volume                  : 
~Curve Information
#_______________________________________________________________________________
#
#LOGNAME           .UNIT     LOG_ID                        : DESCRIPTION
#_______________________________________________________________________________
DEPT               .m                                      :  {F}
PHI_FINAL          .m3/m3                                  : Porosity {F}
SW_AR              .m3/m3                                  :  {F}
VSH_FINAL          .unitless                               : Vshale {F}
~Ascii
# ...
180.3      -9999      -9999      0.6219334 
180.4      -9999      -9999      0.5752488 
180.5      -9999      -9999      0.5316629 
180.6      -9999      -9999      0.49097   
180.7      -9999      -9999      0.6242476 
180.8      -9999      -9999      0.7884405 
180.9      -9999      -9999      0.7406058 
181        -9999      -9999      0.6954049 
181.1      -9999      -9999      0.6468046 
181.2      -9999      -9999      0.6012461 
181.3      -9999      -9999      0.5332814 
181.4      -9999      -9999      0.4720776 
181.5      -9999      -9999      0.5017299 
181.6      -9999      -9999      0.5329607 
181.7      -9999      -9999      0.6006216 
181.8      -9999      -9999      0.6757011 
181.9      -9999      -9999      0.7590113 
182        -9999      -9999      0.8514524 
182.1      -9999      -9999      1         
182.2      -9999      -9999      1         
182.3      -9999      -9999      1         
182.4      -9999      -9999      1         
182.5      -9999      -9999      1         
182.6      -9999      -9999      1         
182.7      -9999      -9999      0.9950583 
182.8      -9999      -9999      0.8204265 
182.9      -9999      -9999      0.7472748 
183        -9999      -9999      0.6800576 
183.1      -9999      -9999      0.7843756 
183.2      -9999      -9999      0.9029331 
183.3      -9999      -9999      0.8716049 
183.4      -9999      -9999      0.8412775 
183.5      -9999      -9999      0.8560226 
183.6      -9999      -9999      0.8710005 
183.7      -9999      -9999      0.8746302 
183.8      -9999      -9999      0.878273  
183.9      -9999      -9999      0.8004972 
184        -9999      -9999      0.7290259 
184.1      -9999      -9999      0.6663439 
184.2      -9999      -9999      0.6085101 
184.3      -9999      -9999      0.5475246 
184.4      -9999      -9999      0.491927  
184.5      -9999      -9999      0.5011151 
184.6      -9999      -9999      0.5104483 
184.7      -9999      -9999      0.4668739 
184.8      -9999      -9999      0.426506  
184.9      -9999      -9999      0.4937518 
185        -9999      -9999      0.5698589 
185.1      -9999      -9999      0.6355712 
185.2      -9999      -9999      0.7078846 
185.3      -9999      -9999      0.6295761 
185.4      -9999      -9999      0.5590329 
185.5      -9999      -9999      0.582462  
185.6      -9999      -9999      0.6067418 
185.7      -9999      -9999      0.6976885 
185.8      -9999      -9999      0.8006078 
185.9      -9999      -9999      0.9051428 
186        -9999      -9999      1         
186.1      -9999      -9999      0.912654  
186.2      -9999      -9999      0.8141257 
186.3      -9999      -9999      0.8808904 
186.4      -9999      -9999      0.9526108 
186.5      -9999      -9999      0.8766376 
186.6      -9999      -9999      0.8062502 
186.7      -9999      -9999      0.8167961 
186.8      -9999      -9999      0.8274649 
186.9      -9999      -9999      0.9310153 
187        -9999      -9999      1         
187.1      -9999      -9999      0.9676984 
187.2      -9999      -9999      0.8945611 
187.3      -9999      -9999      0.8673947 
187.4      -9999      -9999      0.8409883 
187.5      -9999      -9999      0.8900434 
187.6      -9999      -9999      0.9416938 
187.7      -9999      -9999      0.9917741 
187.8      -9999      -9999      1         
187.9      -9999      -9999      0.9451262 
188        -9999      -9999      0.8546982 
188.1      -9999      -9999      0.9163533 
188.2      -9999      -9999      0.9820511 
188.3      -9999      -9999      0.8845251 
188.4      -9999      -9999      0.7959439 
188.5      -9999      -9999      0.7186794 
188.6      -9999      -9999      0.6482188 
188.7      -9999      -9999      0.5278981 
188.8      -9999      -9999      0.4273917 
188.9      -9999      -9999      0.3014098 
189        -9999      -9999      0.2065387 
189.1      -9999      -9999      0.1550996 
189.2      -9999      -9999      0.1128058 
189.3      -9999      -9999      0.1522247 
189.4      -9999      -9999      0.1995704 
189.5      -9999      -9999      0.2605207 
189.6      -9999      -9999      0.3346038 
189.7      -9999      -9999      0.3198265 
189.8      -9999      -9999      0.3055747 
189.9      -9999      -9999      0.2469331 
190        -9999      -9999      0.1971494 
190.1      -9999      -9999      0.1606422 
190.2      -9999      -9999      0.1288976 
190.3      -9999      -9999      0.1850486 
190.4      -9999      -9999      0.2560656 
190.5      -9999      -9999      0.3833142 
190.6      0.2230732  0.7140656  0.5582828 
190.7      0.180903   0.8388496  0.7057671 
190.8      0.1217047  1          0.8871353 
190.9      0.1178415  1          0.894689  
191        0.1078898  1          0.9023    
191.1      0.08042568 1          0.9669084 
191.2      0.0672311  1          1         
191.3      0.06717265 1          1         
191.4      0.06080981 1          1         
191.5      0.09240793 1          0.8934479 
191.6      0.1587514  0.8687138  0.7106907 
191.7      0.1876338  0.748868   0.6411101 
191.8      0.2167685  0.6596656  0.5776397 
191.9      0.2036263  0.7107695  0.6181566 
192        0.1882748  0.7774765  0.6611509 
192.1      0.1851645  0.7769848  0.6789888 
192.2      0.1812342  0.780116   0.697251  
192.3      0.1692195  0.8357896  0.7320008 
192.4      0.1531266  0.9223853  0.7682918 
192.5      0.1529764  0.9516523  0.761377  
192.6      0.1599415  0.9408774  0.7545199 
192.7      0.1739667  0.8475531  0.718509  
192.8      0.1861731  0.7755253  0.6840523 
192.9      0.1541869  0.8987747  0.7742335 
193        0.1196641  1          0.8749989 
193.1      0.1338622  1          0.8411305 
193.2      0.1453996  0.9379553  0.8084649 
193.3      0.159309   0.8637515  0.7701494 
193.4      0.1699784  0.815641   0.733487  
193.5      0.1818772  0.7620108  0.6922188 
193.6      0.1936716  0.7151701  0.6530429 
193.7      0.1827352  0.7568154  0.6888486 
193.8      0.1687571  0.8173048  0.7263895 
193.9      0.1516106  0.9073761  0.772521  
194        0.1327602  1          0.8212727 
194.1      0.149645   0.9215869  0.775583  
194.2      0.1682335  0.8249639  0.7322092 
194.3      0.2002165  0.7163509  0.6520808 
194.4      0.2274103  0.6502835  0.57984   
194.5      0.204609   0.716859   0.6373599 
194.6      0.1781343  0.8152392  0.6998601 
194.7      0.1759363  0.8392684  0.7090886 
194.8      0.1765259  0.851337   0.7184246 
194.9      0.1710391  0.8786094  0.7375838 
195        0.159793   0.9385558  0.7571973 
195.1      0.153732   0.9833281  0.7503886 
195.2      0.1591382  0.9613316  0.7436368 
195.3      0.1546729  0.9842452  0.7803515 
195.4      0.1460581  1          0.8186901 
195.5      0.1804904  0.8519672  0.7205187 
195.6      0.2066269  0.7534699  0.6330502 
195.7      0.1789845  0.8726737  0.7044322 
195.8      0.1511067  1          0.7829156 
195.9      0.1733059  0.9081912  0.7295061 
196        0.1947163  0.8120664  0.6793995 
196.1      0.2315233  0.6835321  0.5752259 
196.2      0.2611543  0.6047756  0.4853006 
196.3      0.2601003  0.6127856  0.4920065 
196.4      0.2558462  0.6282824  0.4987904 
196.5      0.2174163  0.7223228  0.5959555 
196.6      0.17545    0.8721482  0.7093272 
196.7      0.1593611  0.9584461  0.7543767 
196.8      0.1435115  1          0.8019788 
196.9      0.1219228  1          0.8559925 
197        0.09636211 1          0.9132923 
197.1      0.1198481  1          0.840844  
197.2      0.1430466  1          0.7736753 
197.3      0.1277715  1          0.8295537 
197.4      0.1064895  1          0.8890661 
197.5      0.1287248  1          0.8291798 
197.6      0.1488987  1          0.7729927 
197.7      0.170481   0.9138163  0.7170997 
197.8      0.1905115  0.8178147  0.6648654 
197.9      0.2138693  0.7598121  0.6216074 
198        0.2359246  0.7181923  0.580858  
198.1      0.2231551  0.7484289  0.6269494 
198.2      0.1979655  0.8287729  0.6762317 
198.3      0.1909658  0.8702988  0.6671277 
198.4      0.1824453  0.922392   0.6581345 
