~Version
 VERS              .         3.0                           : CWLS LOG ASCII STANDARD - VERSION 3.0
 WRAP              .         NO                            : ONE LINE PER DEPTH STEP
 DLM               .         SPACE                         : DELIMITING CHARACTER(SPACE TAB OR COMMA)
~Well Information
#_______________________________________________________________________________
#
#PARAMETER_NAME    .UNIT     VALUE                         : DESCRIPTION
#_______________________________________________________________________________
STRT               .m        0.8                           : First reference value
STOP               .m        927                           : Last reference value
STEP               .m        0.1                           : Step increment
NULL               .         -9999                         : Missing value
COMP               .         ICPetroleum                   : Company
WELL               .         312                           : Well name
FLD                .         Karatobe                      : Field
LOC                .                                       : Location
SRVC               .         KF GIS "Kazpromgeophysika"    : Service Company
CTRY               .         KZ                            : Country
DATE               .         13/12/04                      : Service Date
LATI               .         0                             : Latitude
LONG               .         0                             : Longitude
GDAT               .         WGS 84                        : Geodetic Datum
CNTY               .         Kyzyl-Orda                    : 
COORDIN            .                                       : Grid System
COUNTRY            .         Kazakhstan                    : 
COUNTRY            .         Kazakhstan                    : 
EREF               .m        137.6                         : 
KB                 .         136.4                         : KB Elevation
ORIGINALWELLNAME   .         312                           : 
PROV               .                                       : Province
RWS                .         -999                          : Def_Rw
UWI                .         _                             : 
WST                .         -999                          : Def_Rwt
X                  .km       467139.84                     : 
XCOORD             .                                       : X or East-West Coordinate
Y                  .km       5308307.31                    : 
YCOORD             .                                       : Y or North-South Coordinate
~Parameter Information Block
#_______________________________________________________________________________
#
#PARAMETER_NAME    .UNIT     VALUE                         : DESCRIPTION
#_______________________________________________________________________________
SET                .         Las                           : 
TLFamily_DEPT      .         Measured Depth                : 
TLFamily_PHI_FINAL .         Porosity                      : 
TLFamily_SW_AR     .         Water Saturation              : 
TLFamily_VSH_FINAL .         Shale Volume                  : 
~Curve Information
#_______________________________________________________________________________
#
#LOGNAME           .UNIT     LOG_ID                        : DESCRIPTION
#_______________________________________________________________________________
DEPT               .m                                      :  {F}
PHI_FINAL          .m3/m3                                  : Porosity {F}
SW_AR              .m3/m3                                  :  {F}
VSH_FINAL          .unitless                               : Vshale {F}
~Ascii
# ...
754        0.1449938  1          0.3529616 
754.1      0.1577648  1          0.3722492 
754.2      0.168835   1          0.3920815 
754.3      0.179461   1          0.3850772 
754.4      0.1897656  1          0.378141  
754.5      0.1875328  1          0.3920814 
754.6      0.1851687  1          0.4062964 
754.7      0.1687965  1          0.4419944 
754.8      0.1516983  1          0.4794231 
754.9      0.1568401  1          0.4366381 
755        0.1607074  1          0.3961146 
755.1      0.1682262  1          0.3539133 
755.2      0.174581   1          0.3141646 
755.3      0.1787407  1          0.3079162 
755.4      0.182861   1          0.3017284 
755.5      0.1826363  1          0.3114793 
755.6      0.1823107  1          0.3213806 
755.7      0.1881112  1          0.3105866 
755.8      0.1938265  1          0.2999715 
755.9      0.1916416  1          0.2878092 
756        0.1891788  1          0.2758818 
756.1      0.1841531  1          0.2843776 
756.2      0.1790646  1          0.2929926 
756.3      0.1833308  1          0.2818165 
756.4      0.1875206  1          0.2708408 
756.5      0.1886785  1          0.2725165 
756.6      0.1898214  1          0.2741968 
756.7      0.1819918  1          0.29473   
756.8      0.173896   1          0.3159611 
756.9      0.1690747  1          0.3332795 
757        0.1640705  1          0.3510622 
757.1      0.1753964  1          0.3259316 
757.2      0.1863455  1          0.3017284 
757.3      0.1914438  1          0.2973453 
757.4      0.1964754  1          0.2929926 
757.5      0.1846654  1          0.3241074 
757.6      0.1722654  1          0.3567762 
757.7      0.176671   1          0.3407097 
757.8      0.1809281  1          0.3250189 
757.9      0.1860534  1          0.3070285 
758        0.1909856  1          0.2895322 
758.1      0.1903282  1          0.29126   
758.2      0.1896691  1          0.2929926 
758.3      0.1913902  1          0.2929926 
758.4      0.1930984  1          0.2929926 
758.5      0.1867525  1          0.3141646 
758.6      0.18013    1          0.3360561 
758.7      0.171189   1          0.3369842 
758.8      0.1619166  1          0.3379136 
758.9      0.1574346  1          0.3204742 
759        0.1522875  1          0.3034901 
759.1      0.1442077  1          0.3088051 
759.2      0.1359599  1          0.3141646 
759.3      0.1424467  1          0.3186651 
759.4      0.1486716  1          0.3231972 
759.5      0.1548331  1          0.3222883 
759.6      0.160859   1          0.3213806 
759.7      0.1590994  1          0.3061421 
759.8      0.1569845  1          0.29126   
759.9      0.1383229  1          0.3241074 
760        0.1188151  1          0.3586915 
760.1      0.1120514  1          0.3870715 
760.2      0.1047925  1          0.4166209 
760.3      0.1054759  1          0.4409201 
760.4      0.1055311  1          0.4660102 
760.5      0.1151292  1          0.4409201 
760.6      0.1244248  1          0.4166209 
760.7      0.1068239  1          0.4166209 
760.8      0.08796882 1          0.4166209 
760.9      0.0799593  1          0.4145445 
761        0.07167039 1          0.4124739 
761.1      0.08093829 1          0.4292017 
761.2      0.08926262 1          0.4463063 
761.3      0.09070959 1          0.479423  
761.4      0.09098104 1          0.5139524 
761.5      0.0785947  1          0.5610523 
761.6      0.06514731 1          0.6107807 
761.7      0.06287759 1          0.5874934 
761.8      0.05995577 1          0.5647823 
761.9      0.08213186 1          0.5069307 
762        0.1028742  1          0.4528194 
762.1      0.1107515  1          0.4473881 
762.2      0.1184795  1          0.4419944 
762.3      0.1230641  1          0.4726886 
762.4      0.1262797  1          0.5046031 
762.5      0.11302    1          0.5697802 
762.6      0.09753466 1          0.6400471 
762.7      0.09497127 1          0.6550201 
762.8      0.09229594 1          0.6702241 
762.9      0.1108057  1          0.5964801 
763        0.1271037  1          0.5281734 
763.1      0.1331529  1          0.4907731 
763.2      0.1383822  1          0.4550026 
763.3      0.1407346  1          0.4398474 
763.4      0.14294    1          0.4249847 
763.5      0.1474456  1          0.4176613 
763.6      0.1519084  1          0.4104089 
763.7      0.1713976  1          0.3635032 
763.8      0.1897268  1          0.3195691 
763.9      0.1797778  1          0.3369842 
764        0.1695858  1          0.3548663 
764.1      0.168724   1          0.3388444 
764.2      0.1675344  1          0.3231972 
764.3      0.1632757  1          0.3150622 
764.4      0.1587596  1          0.3070285 
764.5      0.1562914  1          0.2982195 
764.6      0.1536455  1          0.2895322 
764.7      0.1595993  1          0.2792659 
764.8      0.1654684  1          0.2691698 
764.9      0.170699   1          0.2758818 
765        0.1756682  0.9765775  0.282669  
765.1      0.1805403  1          0.2843776 
765.2      0.185286   1          0.286091  
765.3      0.1851302  1          0.2818165 
765.4      0.1849513  1          0.2775715 
765.5      0.1530865  1          0.3268456 
765.6      0.118825   1          0.3801159 
765.7      0.1164346  1          0.3702961 
765.8      0.1138546  1          0.3606122 
765.9      0.1250237  1          0.3586915 
766        0.1357874  1          0.3567762 
766.1      0.1274726  1          0.4281452 
766.2      0.1152722  1          0.5069307 
766.3      0.1388071  1          0.4671193 
766.4      0.1612419  1          0.4292016 
766.5      0.1684546  1          0.3930877 
766.6      0.1748949  1          0.3586915 
766.7      0.1688594  1          0.3567762 
766.8      0.1626216  1          0.3548663 
766.9      0.1683461  1          0.3305145 
767        0.1737065  1          0.3070285 
767.1      0.1834994  1          0.2860911 
767.2      0.1930072  1          0.2658418 
767.3      0.1839809  1          0.2801149 
767.4      0.1747562  1          0.29473   
767.5      0.1610549  1          0.3159611 
767.6      0.1469206  1          0.3379136 
767.7      0.1420196  1          0.3250189 
767.8      0.1366496  1          0.3123731 
767.9      0.1247348  1          0.3268456 
768        0.1125281  1          0.3416443 
768.1      0.1216382  1          0.3567762 
768.2      0.1298505  1          0.3722492 
768.3      0.1329046  1          0.4187031 
768.4      0.1333675  1          0.4682301 
768.5      0.1543963  1          0.4302596 
768.6      0.1744864  1          0.3940953 
768.7      0.1706765  1          0.3742077 
768.8      0.1661292  1          0.3548663 
768.9      0.1546165  1          0.3425801 
769        0.1419086  1          0.3305144 
769.1      0.1383515  1          0.3397763 
769.2      0.1347446  1          0.3491681 
769.3      0.1229485  1          0.3850772 
769.4      0.1104216  1          0.422885  
769.5      0.1233958  1          0.3890713 
769.6      0.1357874  1          0.3567762 
769.7      0.1397929  1          0.3463368 
769.8      0.1437377  1          0.3360561 
769.9      0.1435964  1          0.3615746 
770        0.1427699  1          0.3880707 
770.1      0.1543934  1          0.3811054 
770.2      0.1656491  1          0.3742077 
770.3      0.1563958  1          0.3940952 
770.4      0.1469074  1          0.4145445 
770.5      0.1455768  1          0.4270903 
770.6      0.1441277  1          0.4398474 
770.7      0.1560249  1          0.4302596 
770.8      0.1675653  1          0.4207911 
770.9      0.1822485  1          0.3981397 
771        0.1964626  1          0.3761716 
771.1      0.190097   1          0.3732277 
771.2      0.183465   1          0.3702961 
771.3      0.1575101  1          0.3820963 
771.4      0.129242   1          0.3940953 
771.5      0.1159981  1          0.4083498 
771.6      0.1023845  1          0.422885  
771.7      0.1119919  1          0.4441473 
771.8      0.1202883  1          0.4660102 
771.9      0.1412695  1          0.4473881 
772        0.1612419  1          0.4292016 
772.1      0.16107    1          0.4463063 
