~Version
 VERS              .         3.0                           : CWLS LOG ASCII STANDARD - VERSION 3.0
 WRAP              .         NO                            : ONE LINE PER DEPTH STEP
 DLM               .         SPACE                         : DELIMITING CHARACTER(SPACE TAB OR COMMA)
~Well Information
#_______________________________________________________________________________
#
#PARAMETER_NAME    .UNIT     VALUE                         : DESCRIPTION
#_______________________________________________________________________________
STRT               .m        0.8                           : First reference value
STOP               .m        927                           : Last reference value
STEP               .m        0.1                           : Step increment
NULL               .         -9999                         : Missing value
COMP               .         ICPetroleum                   : Company
WELL               .         312                           : Well name
FLD                .         Karatobe                      : Field
LOC                .                                       : Location
SRVC               .         KF GIS "Kazpromgeophysika"    : Service Company
CTRY               .         KZ                            : Country
DATE               .         13/12/04                      : Service Date
LATI               .         0                             : Latitude
LONG               .         0                             : Longitude
GDAT               .         WGS 84                        : Geodetic Datum
CNTY               .         Kyzyl-Orda                    : 
COORDIN            .                                       : Grid System
COUNTRY            .         Kazakhstan                    : 
COUNTRY            .         Kazakhstan                    : 
EREF               .m        137.6                         : 
KB                 .         136.4                         : KB Elevation
ORIGINALWELLNAME   .         312                           : 
PROV               .                                       : Province
RWS                .         -999                          : Def_Rw
UWI                .         _                             : 
WST                .         -999                          : Def_Rwt
X                  .km       467139.84                     : 
XCOORD             .                                       : X or East-West Coordinate
Y                  .km       5308307.31                    : 
YCOORD             .                                       : Y or North-South Coordinate
~Parameter Information Block
#_______________________________________________________________________________
#
#PARAMETER_NAME    .UNIT     VALUE                         : DESCRIPTION
#_______________________________________________________________________________
SET                .         Las                           : 
TLFamily_DEPT      .         Measured Depth                : 
TLFamily_PHI_FINAL .         Porosity                      : 
TLFamily_SW_AR     .         Water Saturation              : 
TLFamily_VSH_FINAL .         Shale Volume                  : 
~Curve Information
#_______________________________________________________________________________
#
#LOGNAME           .UNIT     LOG_ID                        : DESCRIPTION
#_______________________________________________________________________________
DEPT               .m                                      :  {F}
PHI_FINAL          .m3/m3                                  : Porosity {F}
SW_AR              .m3/m3                                  :  {F}
VSH_FINAL          .unitless                               : Vshale {F}
~Ascii
# ...
663        0.2463804  1          0.3479617 
663.1      0.2256599  1          0.4023908 
663.2      0.2021284  1          0.4636864 
663.3      0.1677975  1          0.5362126 
663.4      0.123988   1          0.6183504 
663.5      0.1098223  1          0.6323068 
663.6      0.1037628  1          0.6465393 
663.7      0.1298618  1          0.6062592 
663.8      0.1543474  1          0.5682079 
663.9      0.1616283  1          0.5535358 
664        0.1712449  1          0.539196  
664.1      0.1507739  1          0.627705  
664.2      0.1269415  1          0.7287916 
664.3      0.1266932  1          0.7150027 
664.4      0.1208391  1          0.7014493 
664.5      0.07667772 1          0.7954118 
664.6      0.03279459 1          0.9006156 
664.7      0.06045416 1          0.8255087 
664.8      0.08555333 1          0.7561449 
664.9      0.1092685  1          0.6942819 
665        0.1300107  1          0.6369866 
665.1      0.1033347  1          0.6984817 
665.2      0.07442557 1          0.765221  
665.3      0.07619481 1          0.7699151 
665.4      0.0761888  1          0.7746349 
665.5      0.09654754 1          0.7296214 
665.6      0.1113498  1          0.6869754 
665.7      0.1336661  1          0.6342902 
665.8      0.1528734  1          0.5852156 
665.9      0.1637994  1          0.5412678 
666        0.1751648  1          0.5002151 
666.1      0.1606812  1          0.5034544 
666.2      0.1464061  1          0.5067116 
666.3      0.1582557  1          0.4480487 
666.4      0.1654085  1          0.3952276 
666.5      0.1736277  1          0.3831582 
666.6      0.1818787  0.850112   0.3713949 
666.7      0.1834836  0.9297188  0.4143818 
666.8      0.1821014  1          0.4614294 
666.9      0.1690709  1          0.5231172 
667        0.1529012  1          0.5917857 
667.1      0.1383009  1          0.614983  
667.2      0.1258653  1          0.6389748 
667.3      0.1505003  1          0.5616974 
667.4      0.1814835  1          0.4926993 
667.5      0.2069717  1          0.4325482 
667.6      0.2306922  1          0.378688  
667.7      0.2420909  0.8761176  0.3459337 
667.8      0.2542202  0.7630637  0.3155067 
667.9      0.2520257  0.7202337  0.3257329 
668        0.247097   0.6886624  0.3362202 
668.1      0.2417267  0.6988236  0.3469753 
668.2      0.233459   0.7178067  0.358005  
668.3      0.2458197  0.6800471  0.3175735 
668.4      0.261316   0.6384948  0.280853  
668.5      0.2496212  0.663282   0.3174966 
668.6      0.2313805  0.7089394  0.3578256 
668.7      0.2179563  0.7560351  0.3665824 
668.8      0.2049062  0.8077919  0.3755121 
668.9      0.19739    0.8911861  0.3899305 
669        0.186848   1          0.4048006 
669.1      0.155065   1          0.5283721 
669.2      0.1054571  1          0.683226  
669.3      0.123918   1          0.6809621 
669.4      0.1436995  1          0.6787053 
669.5      0.1632473  1          0.6615946 
669.6      0.1813026  1          0.6448701 
669.7      0.1841781  1          0.6165736 
669.8      0.1903502  1          0.5893807 
669.9      0.196305   1          0.5577988 
670        0.1956326  1          0.5277039 
670.1      0.1817035  1          0.5433379 
670.2      0.1638937  1          0.55937   
670.3      0.1709355  1          0.524046  
670.4      0.1812207  1          0.4906682 
670.5      0.1657665  1          0.5395072 
670.6      0.1531351  1          0.5924973 
670.7      0.167011   1          0.5699292 
670.8      0.186228   1          0.5481176 
670.9      0.1957283  1          0.5462622 
671        0.1988787  1          0.5444126 
671.1      0.2031239  1          0.5099281 
671.2      0.2094261  1          0.4773431 
671.3      0.2013494  1          0.4884479 
671.4      0.1943563  1          0.4997718 
671.5      0.1974261  1          0.4947943 
671.6      0.1922483  1          0.4898599 
671.7      0.1841824  1          0.5095032 
671.8      0.1722833  1          0.5298175 
671.9      0.215542   1          0.437319  
672        0.2492163  1          0.3587909 
672.1      0.2370765  1          0.4086885 
672.2      0.2156704  1          0.4642145 
672.3      0.1998409  1          0.5007938 
672.4      0.1738831  1          0.5398138 
672.5      0.1792808  1          0.5207301 
672.6      0.1899917  1          0.5022331 
672.7      0.194166   1          0.5005172 
672.8      0.1911733  1          0.4988067 
672.9      0.1978945  1          0.4699724 
673        0.2112149  1          0.4425704 
673.1      0.2203442  1          0.4250442 
673.2      0.2240492  1          0.4081045 
673.3      0.2051727  1          0.4453619 
673.4      0.1876822  1          0.4854408 
673.5      0.1783607  1          0.4966905 
673.6      0.1685801  1          0.5081614 
673.7      0.1653892  1          0.5097578 
673.8      0.1645816  1          0.5113583 
673.9      0.1617492  1          0.5231164 
674        0.156914   1          0.5351056 
674.1      0.1841213  1          0.4801994 
674.2      0.209362   1          0.4301763 
674.3      0.2346886  1          0.4033972 
674.4      0.2381173  1          0.3780183 
674.5      0.2224618  1          0.3992038 
674.6      0.207489   1          0.4213604 
674.7      0.2016604  1          0.4386269 
674.8      0.204479   1          0.4564822 
674.9      0.2107787  1          0.4656055 
675        0.2083573  1          0.4748819 
675.1      0.2052258  1          0.4562985 
675.2      0.20841    1          0.4383362 
675.3      0.2143825  1          0.4266773 
675.4      0.2216036  1          0.4152806 
675.5      0.2097068  1          0.4323309 
675.6      0.2034058  1          0.4499623 
675.7      0.1925177  1          0.4728654 
675.8      0.1837858  1          0.4967497 
675.9      0.1678196  1          0.5216571 
676        0.1536142  1          0.5476313 
676.1      0.1606829  1          0.5283489 
676.2      0.1698852  1          0.5096586 
676.3      0.1718974  1          0.5247739 
676.4      0.1648793  1          0.5402727 
676.5      0.168396   1          0.5332282 
676.6      0.1754808  1          0.5262641 
676.7      0.1734995  1          0.5417981 
676.8      0.1650065  1          0.5577262 
676.9      0.1761268  1          0.5108312 
677        0.1906878  1          0.4673736 
677.1      0.2095428  1          0.4285366 
677.2      0.2239143  1          0.3924442 
677.3      0.2314104  1          0.3753423 
677.4      0.239179   1          0.3588575 
677.5      0.2363465  1          0.3791259 
677.6      0.2350836  1          0.4003216 
677.7      0.2107114  1          0.4547117 
677.8      0.1789378  1          0.5152148 
677.9      0.1980884  1          0.4515785 
678        0.2212857  1          0.3947182 
678.1      0.2314804  1          0.3840553 
678.2      0.2422164  1          0.3736315 
678.3      0.258537   1          0.3426302 
678.4      0.27346    1          0.313737  
678.5      0.2449127  1          0.3734902 
678.6      0.2146837  1          0.4422339 
678.7      0.2208937  1          0.4162957 
678.8      0.2247729  1          0.3916413 
678.9      0.2340201  1          0.363169  
679        0.2395928  1          0.3364078 
679.1      0.2298706  1          0.3618279 
679.2      0.2188959  1          0.3887853 
679.3      0.2118461  1          0.4216034 
679.4      0.2032866  1          0.4566998 
679.5      0.195291   1          0.4642634 
679.6      0.1962037  1          0.4719321 
679.7      0.2005534  1          0.4749908 
679.8      0.2153863  1          0.4780658 
679.9      0.2292562  1          0.4312736 
680        0.238517   1          0.3883889 
680.1      0.2345583  1          0.3830804 
680.2      0.231722   1          0.3778323 
680.3      0.2288622  1          0.384292  
680.4      0.2309974  1          0.3908414 
680.5      0.2268829  1          0.4195317 
680.6      0.216444   1          0.4499556 
680.7      0.2147502  1          0.439538  
680.8      0.2144765  1          0.4293251 
680.9      0.2318532  1          0.3839992 
681        0.2501455  1          0.3426881 
681.1      0.2303498  1          0.4080662 
