~Version
 VERS              .         3.0                           : CWLS LOG ASCII STANDARD - VERSION 3.0
 WRAP              .         NO                            : ONE LINE PER DEPTH STEP
 DLM               .         SPACE                         : DELIMITING CHARACTER(SPACE TAB OR COMMA)
~Well Information
#_______________________________________________________________________________
#
#PARAMETER_NAME    .UNIT     VALUE                         : DESCRIPTION
#_______________________________________________________________________________
STRT               .m        0.8                           : First reference value
STOP               .m        927                           : Last reference value
STEP               .m        0.1                           : Step increment
NULL               .         -9999                         : Missing value
COMP               .         ICPetroleum                   : Company
WELL               .         312                           : Well name
FLD                .         Karatobe                      : Field
LOC                .                                       : Location
SRVC               .         KF GIS "Kazpromgeophysika"    : Service Company
CTRY               .         KZ                            : Country
DATE               .         13/12/04                      : Service Date
LATI               .         0                             : Latitude
LONG               .         0                             : Longitude
GDAT               .         WGS 84                        : Geodetic Datum
CNTY               .         Kyzyl-Orda                    : 
COORDIN            .                                       : Grid System
COUNTRY            .         Kazakhstan                    : 
COUNTRY            .         Kazakhstan                    : 
EREF               .m        137.6                         : 
KB                 .         136.4                         : KB Elevation
ORIGINALWELLNAME   .         312                           : 
PROV               .                                       : Province
RWS                .         -999                          : Def_Rw
UWI                .         _                             : 
WST                .         -999                          : Def_Rwt
X                  .km       467139.84                     : 
XCOORD             .                                       : X or East-West Coordinate
Y                  .km       5308307.31                    : 
YCOORD             .                                       : Y or North-South Coordinate
~Parameter Information Block
#_______________________________________________________________________________
#
#PARAMETER_NAME    .UNIT     VALUE                         : DESCRIPTION
#_______________________________________________________________________________
SET                .         Las                           : 
TLFamily_DEPT      .         Measured Depth                : 
TLFamily_PHI_FINAL .         Porosity                      : 
TLFamily_SW_AR     .         Water Saturation              : 
TLFamily_VSH_FINAL .         Shale Volume                  : 
~Curve Information
#_______________________________________________________________________________
#
#LOGNAME           .UNIT     LOG_ID                        : DESCRIPTION
#_______________________________________________________________________________
DEPT               .m                                      :  {F}
PHI_FINAL          .m3/m3                                  : Porosity {F}
SW_AR              .m3/m3                                  :  {F}
VSH_FINAL          .unitless                               : Vshale {F}
~Ascii
# ...
899.6      0.12687    0.1461889  0         
899.7      0.12687    0.1461889  0         
899.8      0.12687    0.1461889  0         
899.9      0.12687    0.1461889  0         
900        0.12687    0.1461889  0         
900.1      0.12687    0.1461889  0         
900.2      0.12687    0.1461889  0         
900.3      0.12687    0.1461889  0         
900.4      0.12687    0.1461889  0         
900.5      0.12687    0.1461889  0         
900.6      0.12687    0.1461889  0         
900.7      0.12687    0.1461889  0         
900.8      0.12687    0.1461889  0         
900.9      0.12687    0.1461889  0         
901        0.12687    0.1461889  0         
901.1      0.1301446  0.1425106  0         
901.2      0.1333859  0.1390475  0         
901.3      0.1333859  0.1390475  0         
901.4      0.1333859  0.1390475  0         
901.5      0.1365959  0.13578    0         
901.6      0.1397736  0.1326931  0         
901.7      0.1365959  0.13578    0         
901.8      0.1333859  0.1390475  0         
901.9      0.1333859  0.1390475  0         
902        0.1333859  0.1390475  0         
902.1      0.1331512  0.1392926  0.0006148959
902.2      0.1319146  0.1405984  0.003853287
902.3      0.1363609  0.1360139  0.0006148959
902.4      0.1397736  0.1326931  0         
902.5      0.1429183  0.1297733  0         
902.6      0.1459722  0.1270583  0.0001548433
902.7      0.1429183  0.1297733  0         
902.8      0.1397736  0.1326931  0         
902.9      0.1397736  0.1326931  0         
903        0.1397736  0.1326931  0         
903.1      0.1397736  0.1326931  0         
903.2      0.1397736  0.1326931  0         
903.3      0.1429183  0.1297733  0         
903.4      0.1460317  0.1270066  0         
903.5      0.1429183  0.1297733  0         
903.6      0.1397736  0.1326931  0         
903.7      0.1365959  0.13578    0         
903.8      0.1333859  0.1390475  0         
903.9      0.1301446  0.1425106  0         
904        0.12687    0.1461889  0         
904.1      0.12687    0.1461889  0         
904.2      0.12687    0.1461889  0         
904.3      0.12687    0.1461889  0         
904.4      0.12687    0.1461889  0         
904.5      0.12687    0.1461889  0         
904.6      0.12687    0.1461889  0         
904.7      0.1235622  0.1501023  0         
904.8      0.1201619  0.15435    0.0001548433
904.9      0.1202207  0.1542744  0         
905        0.1202207  0.1542744  0         
905.1      0.1202207  0.1542744  0         
905.2      0.1202207  0.1542744  0         
905.3      0.1235622  0.1501023  0         
905.4      0.12687    0.1461889  0         
905.5      0.12687    0.1461889  0         
905.6      0.12687    0.1461889  0         
905.7      0.12687    0.1461889  0         
905.8      0.12687    0.1461889  0         
905.9      0.12687    0.1461889  0         
906        0.12687    0.1461889  0         
906.1      0.12687    0.1461889  0         
906.2      0.12687    0.1461889  0         
906.3      0.12687    0.1461889  0         
906.4      0.12687    0.1461889  0         
906.5      0.12687    0.1461889  0         
906.6      0.12687    0.1461889  0         
906.7      0.12687    0.1461889  0         
906.8      0.12687    0.1461889  0         
906.9      0.1301446  0.1425106  0         
907        0.1333859  0.1390475  0         
907.1      0.1333859  0.1390475  0         
907.2      0.1333859  0.1390475  0         
907.3      0.1365959  0.13578    0         
907.4      0.1397736  0.1326931  0         
907.5      0.1365959  0.13578    0         
907.6      0.1333859  0.1390475  0         
907.7      0.1365959  0.13578    0         
907.8      0.1397736  0.1326931  0         
907.9      0.1365959  0.13578    0         
908        0.1333859  0.1390475  0         
908.1      0.1333859  0.1390475  0         
908.2      0.1333859  0.1390475  0         
908.3      0.1301446  0.1425106  0         
908.4      0.12687    0.1461889  0         
908.5      0.1235622  0.1501023  0         
908.6      0.1202207  0.1542744  0         
908.7      0.1202207  0.1542744  0         
908.8      0.1202207  0.1542744  0         
908.9      0.1202207  0.1542744  0         
909        0.1202207  0.1542744  0         
909.1      0.1235622  0.1501023  0         
909.2      0.12687    0.1461889  0         
909.3      0.1301444  0.1425108  0         
909.4      0.1333859  0.1390475  0         
909.5      0.1333859  0.1390475  0         
909.6      0.1333859  0.1390475  0         
909.7      0.1333859  0.1390475  0         
909.8      0.1333859  0.1390475  0         
909.9      0.1301446  0.1425106  0         
910        0.12687    0.1461889  0         
910.1      0.12687    0.1461889  0         
910.2      0.12687    0.1461889  0         
910.3      0.12687    0.1461889  0         
910.4      0.12687    0.1461889  0         
910.5      0.12687    0.1461889  0         
910.6      0.12687    0.1461889  0         
910.7      0.12687    0.1461889  0         
910.8      0.12687    0.1461889  0         
910.9      0.12687    0.1461889  0         
911        0.12687    0.1461889  0         
911.1      0.12687    0.1461889  0         
911.2      0.12687    0.1461889  0         
911.3      0.12687    0.1461889  0         
911.4      0.12687    0.1461889  0         
911.5      0.12687    0.1461889  0         
911.6      0.12687    0.1461889  0         
911.7      0.1235622  0.1501023  0         
911.8      0.1202207  0.1542744  0         
911.9      0.1134342  0.1635043  0         
912        0.1065089  0.1741356  0         
912.1      0.1065089  0.1741356  0         
912.2      0.1065089  0.1741356  0         
912.3      0.1202198  0.1542757  0         
912.4      0.1333859  0.1390475  0         
912.5      0.1397726  0.132694   0         
912.6      0.1460317  0.1270066  0         
912.7      0.1429183  0.1297733  0         
912.8      0.1397736  0.1326931  0         
912.9      0.1301455  0.1425095  0         
913        0.1202207  0.1542744  0         
913.1      0.1199873  0.1545746  0.0006148959
913.2      0.1194617  0.1552546  0.001998911
913.3      0.1202207  0.1542744  0         
913.4      0.1202207  0.1542744  0         
913.5      0.1202207  0.1542744  0         
913.6      0.1202207  0.1542744  0         
913.7      0.1202207  0.1542744  0         
913.8      0.1202207  0.1542744  0         
913.9      0.1235622  0.1501023  0         
914        0.12687    0.1461889  0         
914.1      0.12687    0.1461889  0         
914.2      0.12687    0.1461889  0         
914.3      0.1365959  0.13578    0         
914.4      0.1460317  0.1270066  0         
914.5      0.1551869  0.1195138  0         
914.6      0.1618014  0.1146281  0         
914.7      0.1625     0.1141353  0         
914.8      0.1632634  0.1136016  0         
914.9      0.1570647  0.118085   0         
915        0.1508192  0.122975   0         
915.1      0.1429173  0.1297742  0         
915.2      0.1333859  0.1390475  0         
915.3      0.1333859  0.1390475  0         
915.4      0.1333269  0.1391091  0.0001548433
915.5      0.1365959  0.13578    0         
915.6      0.1397736  0.1326931  0         
915.7      0.1429183  0.1297733  0         
915.8      0.1460317  0.1270066  0         
915.9      0.1478828  0.1254167  0         
916        0.1496257  0.1239558  0         
916.1      0.149471   0.1240841  0         
916.2      0.1493183  0.124211   0         
916.3      0.1508985  0.1229103  0         
916.4      0.1524719  0.121642   0         
916.5      0.1505285  0.1232124  0         
916.6      0.1485752  0.1248323  0         
916.7      0.1485244  0.124875   0         
916.8      0.1484099  0.1249713  0.0001548433
916.9      0.1466965  0.126431   0         
917        0.1449037  0.1279953  0         
917.1      0.1429183  0.1297733  0         
917.2      0.1397736  0.1326931  0         
917.3      0.1397736  0.1326931  0         
917.4      0.1397736  0.1326931  0         
917.5      0.1365959  0.13578    0         
917.6      0.1294052  0.1433249  0.01042554
917.7      0.1245798  0.1488763  0.03143176
