~Version
 VERS              .         3.0                           : CWLS LOG ASCII STANDARD - VERSION 3.0
 WRAP              .         NO                            : ONE LINE PER DEPTH STEP
 DLM               .         SPACE                         : DELIMITING CHARACTER(SPACE TAB OR COMMA)
~Well Information
#_______________________________________________________________________________
#
#PARAMETER_NAME    .UNIT     VALUE                         : DESCRIPTION
#_______________________________________________________________________________
STRT               .m        0.8                           : First reference value
STOP               .m        927                           : Last reference value
STEP               .m        0.1                           : Step increment
NULL               .         -9999                         : Missing value
COMP               .         ICPetroleum                   : Company
WELL               .         312                           : Well name
FLD                .         Karatobe                      : Field
LOC                .                                       : Location
SRVC               .         KF GIS "Kazpromgeophysika"    : Service Company
CTRY               .         KZ                            : Country
DATE               .         13/12/04                      : Service Date
LATI               .         0                             : Latitude
LONG               .         0                             : Longitude
GDAT               .         WGS 84                        : Geodetic Datum
CNTY               .         Kyzyl-Orda                    : 
COORDIN            .                                       : Grid System
COUNTRY            .         Kazakhstan                    : 
COUNTRY            .         Kazakhstan                    : 
EREF               .m        137.6                         : 
KB                 .         136.4                         : KB Elevation
ORIGINALWELLNAME   .         312                           : 
PROV               .                                       : Province
RWS                .         -999                          : Def_Rw
UWI                .         _                             : 
WST                .         -999                          : Def_Rwt
X                  .km       467139.84                     : 
XCOORD             .                                       : X or East-West Coordinate
Y                  .km       5308307.31                    : 
YCOORD             .                                       : Y or North-South Coordinate
~Parameter Information Block
#_______________________________________________________________________________
#
#PARAMETER_NAME    .UNIT     VALUE                         : DESCRIPTION
#_______________________________________________________________________________
SET                .         Las                           : 
TLFamily_DEPT      .         Measured Depth                : 
TLFamily_PHI_FINAL .         Porosity                      : 
TLFamily_SW_AR     .         Water Saturation              : 
TLFamily_VSH_FINAL .         Shale Volume                  : 
~Curve Information
#_______________________________________________________________________________
#
#LOGNAME           .UNIT     LOG_ID                        : DESCRIPTION
#_______________________________________________________________________________
DEPT               .m                                      :  {F}
PHI_FINAL          .m3/m3                                  : Porosity {F}
SW_AR              .m3/m3                                  :  {F}
VSH_FINAL          .unitless                               : Vshale {F}
~Ascii
# ...
808.6      0.1354338  0.4413653  0.05911501
808.7      0.1456438  0.4197442  0.07010405
808.8      0.1550448  0.4042927  0.08140341
808.9      0.1581409  0.4507413  0.08717223
809        0.1611059  0.5060099  0.09302191
809.1      0.1481407  0.5957152  0.1061816 
809.2      0.1348035  0.7113904  0.1197506 
809.3      0.1347567  0.6339653  0.1055746 
809.4      0.1344249  0.5690995  0.09184545
809.5      0.1335162  0.5320311  0.09420166
809.6      0.1326024  0.4982025  0.09657101
809.7      0.1330598  0.4917187  0.09538469
809.8      0.1335162  0.4853406  0.09420166
809.9      0.1364757  0.4561259  0.0791183 
810        0.1391948  0.4299423  0.06457125
810.1      0.131633   0.2915131  0.06899131
810.2      0.1239438  0.2029758  0.07346088
810.3      0.1211319  0.2005552  0.07289946
810.4      0.1182903  0.198369   0.0723388 
810.5      0.09867897 0.2478917  0.07402308
810.6      0.07795957 0.3310792  0.07571439
810.7      0.05028331 0.9560564  0.09302191
810.8      0.02138307 1          0.1110677 
810.9      0.006386168 1          0.15218   
811        0          1          0.1971244 
811.1      0.02257031 1          0.2486703 
811.2      0.04646876 1          0.3052568 
811.3      0.08307644 1          0.29473   
811.4      0.1165478  1          0.2843776 
811.5      0.1301076  0.992974   0.2903955 
811.6      0.1427721  0.8986946  0.2964723 
811.7      0.1400699  0.9449186  0.3034901 
811.8      0.1373376  0.9947134  0.3105866 
811.9      0.1456532  0.9720558  0.3259316 
812        0.1531072  0.9619619  0.3416443 
812.1      0.1558095  0.9702322  0.3539133 
812.2      0.1582261  0.981791   0.3664064 
812.3      0.1669393  0.9174834  0.3342037 
812.4      0.1750573  0.8638308  0.3034901 
812.5      0.1730422  0.887242   0.2895322 
812.6      0.170699   0.9136985  0.2758818 
812.7      0.1701779  0.8951198  0.2921257 
812.8      0.1693774  0.8791008  0.3088051 
812.9      0.1759449  0.7908403  0.3105866 
813        0.1822957  0.715448   0.3123731 
813.1      0.2000699  0.6708202  0.2835227 
813.2      0.2171005  0.6389216  0.2559681 
813.3      0.2007175  0.7702154  0.2818165 
813.4      0.1836532  0.9474431  0.3088051 
813.5      0.1777225  0.9550465  0.3105866 
813.6      0.1716663  0.9657462  0.3123731 
813.7      0.1725645  0.916607   0.2809651 
813.8      0.172411   0.8779579  0.2510928 
813.9      0.154388   0.9757293  0.2608843 
814        0.1354439  1          0.2708408 
814.1      0.1233451  1          0.2422598 
814.2      0.1086926  1          0.2150383 
814.3      0.09607365 1          0.1912849 
814.4      0.08138773 1          0.1685666 
814.5      0.082812   1          0.1324521 
814.6      0.08264587 1          0.09895362
814.7      0.09347367 0.8440936  0.0791183 
814.8      0.1039434  0.6475536  0.06020018
814.9      0.1016495  0.6853852  0.06622303
815        0.09932034 0.7263504  0.0723388 
815.1      0.1014393  0.7152881  0.06677513
815.2      0.1035289  0.7050346  0.06128838
815.3      0.1053847  0.6372077  0.05641523
815.4      0.1072176  0.5771131  0.05160274
815.5      0.1049744  0.6154446  0.05749286
815.6      0.1026965  0.6571757  0.06347392
815.7      0.1012706  0.7188942  0.07571439
815.8      0.09965626 0.7895313  0.08833566
815.9      0.1038343  0.7367071  0.06899131
816        0.1076217  0.6919086  0.05054147
816.1      0.1096258  0.6437814  0.04527921
816.2      0.1116022  0.5998012  0.04008972
816.3      0.103533   0.6430849  0.05266698
816.4      0.09528378 0.6963284  0.06567167
816.5      0.09278052 0.6916888  0.06347392
816.6      0.09023763 0.6882802  0.06128838
816.7      0.08724578 0.6808023  0.06020018
816.8      0.08421867 0.6750474  0.05911501
816.9      0.08662876 0.6367661  0.06183362
817        0.0889951  0.6016401  0.06457125
817.1      0.09047798 0.608495   0.0695473 
817.2      0.09189881 0.6162375  0.07458606
817.3      0.09605191 0.5859005  0.0723388 
817.4      0.1001714  0.5585625  0.07010403
817.5      0.1037362  0.5181112  0.06074389
817.6      0.1072176  0.4818234  0.05160274
817.7      0.1008747  0.538394   0.05965722
817.8      0.09444459 0.6053425  0.06788167
817.9      0.09257256 0.5875705  0.06402221
818        0.09064942 0.5712646  0.06020018
818.1      0.08968861 0.562503   0.05373419
818.2      0.08864525 0.5546466  0.04737533
818.3      0.09987631 0.4774181  0.04475702
818.4      0.1108149  0.4187319  0.04215685
818.5      0.1184847  0.4141069  0.04737532
818.6      0.1258343  0.4132285  0.05266698
818.7      0.1334968  0.4056658  0.05641523
818.8      0.1408789  0.4010359  0.06020018
818.9      0.1339665  0.4267772  0.0629264 
819        0.1269361  0.4561709  0.06567167
819.1      0.1234826  0.4721526  0.06677513
819.2      0.1199996  0.4893096  0.06788167
819.3      0.1116579  0.523356   0.07346086
819.4      0.1031758  0.5645987  0.0791183 
819.5      0.1033931  0.5647529  0.078549  
819.6      0.1036103  0.5649124  0.0779805 
819.7      0.1025578  0.5450194  0.0723388 
819.8      0.1014393  0.5265238  0.06677513
819.9      0.10415    0.5243825  0.0596572 
820        0.1068123  0.5230425  0.05266698
820.1      0.1076217  0.5044946  0.05054147
820.2      0.1084267  0.4867212  0.04842778
820.3      0.1078072  0.4988421  0.05857353
820.4      0.1070426  0.5121588  0.06899131
820.5      0.1057644  0.5245327  0.0723388 
820.6      0.1044755  0.5373762  0.07571439
820.7      0.1080996  0.5183709  0.06622301
820.8      0.111639   0.5011925  0.05695368
820.9      0.1043566  0.5313079  0.05911501
821        0.09694827 0.5675598  0.06128838
821.1      0.09167513 0.6009068  0.05749286
821.2      0.08624754 0.6402067  0.05373417
821.3      0.08477009 0.618331   0.04842778
821.4      0.0832231  0.598304   0.04319474
821.5      0.0826364  0.6034998  0.04475702
821.6      0.08204737 0.6087995  0.04632582
821.7      0.08437301 0.6103328  0.04948315
821.8      0.08665005 0.6129753  0.05266698
821.9      0.08982915 0.5625951  0.04423552
822        0.09293834 0.5177479  0.03598985
822.1      0.09274612 0.5233723  0.03649984
822.2      0.09255342 0.5290687  0.03701054
822.3      0.09216753 0.5640876  0.03803408
822.4      0.09178053 0.6017584  0.03906047
822.5      0.0864489  0.6277461  0.0532002 
822.6      0.08091307 0.6600404  0.06788167
822.7      0.0836044  0.6245283  0.06074389
822.8      0.08624754 0.5921002  0.05373417
822.9      0.085844   0.6230532  0.05480435
823        0.08543944 0.6558552  0.05587751
823.1      0.07931412 0.7142573  0.06292638
823.2      0.07311852 0.7844926  0.07010403
823.3      0.07021456 0.526224   0.06843611
823.4      0.06727182 0.3594394  0.06677513
823.5      0.06289157 0.3935942  0.05911501
823.6      0.05828874 0.4355891  0.05160274
823.7      0.05296164 0.7542605  0.05587753
823.8      0.04759214 1          0.06020018
823.9      0.03526651 1          0.06237964
824        0.02264616 1          0.06457125
824.1      0.03164762 1          0.0723388 
824.2      0.04022305 1          0.08025927
824.3      0.05400381 1          0.1210049 
824.4      0.06372758 1          0.1657973 
824.5      0.07717434 1          0.2180827 
824.6      0.08516295 1          0.2758818 
824.7      0.09523853 1          0.2895322 
824.8      0.104447   1          0.3034901 
824.9      0.1009583  1          0.2938607 
825        0.09723311 1          0.2843776 
825.1      0.09706175 1          0.2382893 
825.2      0.09438594 1          0.1956584 
825.3      0.08441086 1          0.1685666 
825.4      0.07245886 1          0.1428711 
825.5      0.07990024 0.9582796  0.1061816 
825.6      0.08605544 0.6286047  0.0723388 
825.7      0.09257256 0.3635307  0.06402221
825.8      0.0990028  0.2149819  0.05587751
825.9      0.1029239  0.3206378  0.05426889
826        0.1068123  0.4867796  0.05266698
826.1      0.1098247  0.2954008  0.04475702
826.2      0.1127748  0.1823918  0.03701054
826.3      0.1057452  0.1992563  0.04685021
826.4      0.09859414 0.2191919  0.05695368
826.5      0.09566031 0.3483135  0.05587753
826.6      0.09269166 0.5621478  0.05480435
826.7      0.08826869 0.5967647  0.05749288
