~Version
 VERS              .         3.0                           : CWLS LOG ASCII STANDARD - VERSION 3.0
 WRAP              .         NO                            : ONE LINE PER DEPTH STEP
 DLM               .         SPACE                         : DELIMITING CHARACTER(SPACE TAB OR COMMA)
~Well Information
#_______________________________________________________________________________
#
#PARAMETER_NAME    .UNIT     VALUE                         : DESCRIPTION
#_______________________________________________________________________________
STRT               .m        0.8                           : First reference value
STOP               .m        927                           : Last reference value
STEP               .m        0.1                           : Step increment
NULL               .         -9999                         : Missing value
COMP               .         ICPetroleum                   : Company
WELL               .         312                           : Well name
FLD                .         Karatobe                      : Field
LOC                .                                       : Location
SRVC               .         KF GIS "Kazpromgeophysika"    : Service Company
CTRY               .         KZ                            : Country
DATE               .         13/12/04                      : Service Date
LATI               .         0                             : Latitude
LONG               .         0                             : Longitude
GDAT               .         WGS 84                        : Geodetic Datum
CNTY               .         Kyzyl-Orda                    : 
COORDIN            .                                       : Grid System
COUNTRY            .         Kazakhstan                    : 
COUNTRY            .         Kazakhstan                    : 
EREF               .m        137.6                         : 
KB                 .         136.4                         : KB Elevation
ORIGINALWELLNAME   .         312                           : 
PROV               .                                       : Province
RWS                .         -999                          : Def_Rw
UWI                .         _                             : 
WST                .         -999                          : Def_Rwt
X                  .km       467139.84                     : 
XCOORD             .                                       : X or East-West Coordinate
Y                  .km       5308307.31                    : 
YCOORD             .                                       : Y or North-South Coordinate
~Parameter Information Block
#_______________________________________________________________________________
#
#PARAMETER_NAME    .UNIT     VALUE                         : DESCRIPTION
#_______________________________________________________________________________
SET                .         Las                           : 
TLFamily_DEPT      .         Measured Depth                : 
TLFamily_PHI_FINAL .         Porosity                      : 
TLFamily_SW_AR     .         Water Saturation              : 
TLFamily_VSH_FINAL .         Shale Volume                  : 
~Curve Information
#_______________________________________________________________________________
#
#LOGNAME           .UNIT     LOG_ID                        : DESCRIPTION
#_______________________________________________________________________________
DEPT               .m                                      :  {F}
PHI_FINAL          .m3/m3                                  : Porosity {F}
SW_AR              .m3/m3                                  :  {F}
VSH_FINAL          .unitless                               : Vshale {F}
~Ascii
# ...
520.1      0.243766   1          0.3852831 
520.1999999999999 0.2466743  1          0.365309  
520.3      0.2609551  1          0.3515534 
520.4      0.2823077  1          0.3382215 
520.5      0.299665   1          0.3394854 
520.6      0.3138506  1          0.340753  
520.6999999999999 0.3028148  1          0.3982163 
520.8      0.2800425  1          0.4634627 
520.9      0.2803011  1          0.4401592 
521        0.2767624  1          0.4178526 
521.1      0.2784867  1          0.3935326 
521.1999999999999 0.2754381  0.9845839  0.3703966 
521.3      0.2422128  1          0.4223543 
521.4      0.2069841  1          0.4802579 
521.5      0.1942412  1          0.5106881 
521.6      0.1895615  1          0.5427579 
521.6999999999999 0.187114   1          0.5868655 
521.8      0.1789092  1          0.6340755 
521.9      0.1816773  1          0.6273313 
522        0.1839834  1          0.6206516 
522.1      0.1799096  1          0.60331   
522.1999999999999 0.1858801  1          0.586398  
522.3      0.1572392  1          0.6607254 
522.4      0.1278585  1          0.7432943 
522.5      0.1210123  1          0.7612942 
522.6      0.1111669  1          0.7796837 
522.6999999999999 0.09259035 1          0.8375713 
522.8      0.06426694 1          0.8993345 
522.9      0.06988689 1          0.8810742 
523        0.07537416 1          0.8631561 
523.1      0.08056477 1          0.8807585 
523.1999999999999 0.08624457 1          0.8986861 
523.3      0.1860376  1          0.6688993 
523.4      0.2575458  1          0.4929201 
523.5      0.3070599  0.9350753  0.374855  
523.6      0.340992   0.9085776  0.2810048 
523.6999999999999 0.3419476  0.8224511  0.2580432 
523.8      0.3404128  0.7556963  0.2365327 
523.9      0.3297803  0.7138239  0.246556  
524        0.3254263  0.6662982  0.2568922 
524.1      0.2983557  0.898495   0.3391415 
524.1999999999999 0.2578882  1          0.4412788 
524.3      0.2284376  1          0.4994202 
524.4      0.190072   1          0.5640003 
524.5      0.1743993  1          0.5967686 
524.6      0.162744   1          0.6311916 
524.6999999999999 0.1840718  1          0.5779035 
524.8      0.2053494  1          0.5285977 
524.9      0.1796722  1          0.5984934 
525        0.1491095  1          0.6763662 
525.1      0.1407413  1          0.6833368 
525.1999999999999 0.1294505  1          0.6903707 
525.3      0.1241303  1          0.6998871 
525.4      0.1207668  1          0.7095195 
525.5      0.1438918  1          0.6664714 
525.6      0.1554869  1          0.6257671 
525.6999999999999 0.1432511  1          0.6501989 
525.8      0.1329876  1          0.6754698 
525.9      0.1433143  1          0.6753578 
526        0.1511213  1          0.675246  
526.1      0.1525563  1          0.6611938 
526.1999999999999 0.1539267  1          0.6474043 
526.3      0.175757   1          0.5887933 
526.4      0.1970787  1          0.5348923 
526.5      0.1707712  1          0.6033019 
526.6      0.1434618  1          0.6792748 
526.6999999999999 0.1334074  1          0.715342  
526.8      0.1181278  1          0.7531108 
526.9      0.1065878  1          0.7660046 
527        0.09767082 1          0.7790953 
527.1      0.09879343 1          0.7789609 
527.1999999999999 0.1038242  1          0.7788265 
527.3      0.1012868  1          0.7840348 
527.4      0.09806125 1          0.789274  
527.5      0.08815252 1          0.8192933 
527.6      0.08060133 1          0.8503411 
527.6999999999999 0.08045202 1          0.8444418 
527.8      0.07888096 1          0.8385804 
527.9      0.1142357  1          0.7414457 
528        0.1469684  1          0.6545603 
528.1      0.1598369  1          0.6145687 
528.1999999999999 0.1673334  1          0.5767501 
528.3      0.1697765  1          0.5665503 
528.4      0.1739227  1          0.5565094 
528.5      0.1619841  1          0.6013741 
528.6      0.1463902  1          0.6493798 
528.6999999999999 0.1422293  1          0.6792656 
528.8      0.1402937  1          0.7103667 
528.9      0.1300653  1          0.7452856 
529        0.1092637  1          0.7817362 
529.1      0.1226752  1          0.7298368 
529.1999999999999 0.1445244  1          0.6810583 
529.3      0.1162344  1          0.7733655 
529.4      0.09117758 1          0.87681   
529.5      0.06254847 1          0.9568288 
529.6      0.04378263 1          1         
529.6999999999999 0.06052228 1          0.9374111 
529.8      0.0930146  1          0.84132   
529.9      0.08257924 1          0.8671935 
530        0.06485231 1          0.8937874 
530.1      0.05418314 1          0.9180294 
530.1999999999999 0.04274439 1          0.9428697 
530.3      0.07977019 1          0.8578313 
530.4      0.1207084  1          0.7798517 
530.5      0.1114224  1          0.8122439 
530.6      0.09453492 1          0.8458472 
530.6999999999999 0.09766346 1          0.8147251 
530.8      0.1040712  1          0.7846491 
530.9      0.04915421 1          0.9291104 
531        0.0233181  1          1         
531.1      0.0227745  1          1         
531.1999999999999 0.02318486 1          1         
531.3      0.06684852 1          0.8887094 
531.4      0.136694   1          0.7220295 
531.5      0.09546682 1          0.8445067 
531.6      0.04292533 1          0.9855976 
531.6999999999999 0.08185831 1          0.873227  
531.8      0.1186482  1          0.7726856 
531.9      0.1345209  1          0.7339108 
532        0.1544498  1          0.6968984 
532.1      0.1372479  1          0.7361827 
532.1999999999999 0.1164175  1          0.7774402 
532.3      0.1199959  1          0.7234172 
532.4      0.1246247  1          0.6727924 
532.5      0.1559191  1          0.5728568 
532.6      0.1942039  1          0.4861458 
532.6999999999999 0.2056704  1          0.4808399 
532.8      0.2130744  1          0.4755839 
532.9      0.1665941  1          0.5806202 
533        0.1181733  1          0.7053894 
533.1      0.1237376  1          0.6813729 
533.1999999999999 0.1343794  1          0.6580907 
533.3      0.1281822  1          0.7001994 
533.4      0.1242184  1          0.7446947 
533.5      0.121075   1          0.7522454 
533.6      0.1226686  1          0.7598642 
533.6999999999999 0.1806306  1          0.6112064 
533.8      0.2344847  1          0.4887824 
533.9      0.2788715  0.9754949  0.3544329 
534        0.3140345  0.7725557  0.2516629 
534.1      0.2918293  0.8959206  0.2931339 
534.1999999999999 0.2745052  1          0.3397375 
534.3      0.2293331  1          0.4745255 
534.4      0.1621196  1          0.6522632 
534.5      0.1520293  1          0.6476482 
534.6      0.141938   1          0.6430628 
534.6999999999999 0.1508036  1          0.6123648 
534.8      0.1619529  1          0.5829683 
534.9      0.1460408  1          0.6338776 
535        0.1282978  1          0.6886714 
535.1      0.1219349  1          0.7200215 
535.1999999999999 0.1162462  1          0.7526405 
535.3      0.1437264  1          0.697873  
535.4      0.1706525  1          0.6467012 
535.5      0.1591585  1          0.651095  
535.6      0.1461245  1          0.6555149 
535.6999999999999 0.1158595  1          0.6902465 
535.8      0.0877331  1          0.7266067 
535.9      0.08274443 1          0.7240008 
536        0.08377314 1          0.7214035 
536.1      0.1384404  1          0.6392775 
536.1999999999999 0.1903023  1          0.5655452 
536.3      0.1913207  1          0.6108    
536.4      0.186444   1          0.6592063 
536.5      0.1817732  1          0.672903  
536.6      0.1764218  1          0.6868506 
536.6999999999999 0.1755665  1          0.6703645 
536.8      0.1794078  1          0.6542335 
536.9      0.156922   1          0.6912509 
537        0.1253296  1          0.7301215 
537.1      0.09686159 1          0.7788407 
537.1999999999999 0.07326548 1          0.8304719 
537.3      0.08604415 1          0.8164139 
537.4      0.09667686 1          0.8025738 
537.5      0.1342927  1          0.7220595 
537.6      0.1630525  1          0.6488746 
537.6999999999999 0.1830816  1          0.5742326 
