~Version
 VERS              .         3.0                           : CWLS LOG ASCII STANDARD - VERSION 3.0
 WRAP              .         NO                            : ONE LINE PER DEPTH STEP
 DLM               .         SPACE                         : DELIMITING CHARACTER(SPACE TAB OR COMMA)
~Well Information
#_______________________________________________________________________________
#
#PARAMETER_NAME    .UNIT     VALUE                         : DESCRIPTION
#_______________________________________________________________________________
STRT               .m        0.8                           : First reference value
STOP               .m        927                           : Last reference value
STEP               .m        0.1                           : Step increment
NULL               .         -9999                         : Missing value
COMP               .         ICPetroleum                   : Company
WELL               .         312                           : Well name
FLD                .         Karatobe                      : Field
LOC                .                                       : Location
SRVC               .         KF GIS "Kazpromgeophysika"    : Service Company
CTRY               .         KZ                            : Country
DATE               .         13/12/04                      : Service Date
LATI               .         0                             : Latitude
LONG               .         0                             : Longitude
GDAT               .         WGS 84                        : Geodetic Datum
CNTY               .         Kyzyl-Orda                    : 
COORDIN            .                                       : Grid System
COUNTRY            .         Kazakhstan                    : 
COUNTRY            .         Kazakhstan                    : 
EREF               .m        137.6                         : 
KB                 .         136.4                         : KB Elevation
ORIGINALWELLNAME   .         312                           : 
PROV               .                                       : Province
RWS                .         -999                          : Def_Rw
UWI                .         _                             : 
WST                .         -999                          : Def_Rwt
X                  .km       467139.84                     : 
XCOORD             .                                       : X or East-West Coordinate
Y                  .km       5308307.31                    : 
YCOORD             .                                       : Y or North-South Coordinate
~Parameter Information Block
#_______________________________________________________________________________
#
#PARAMETER_NAME    .UNIT     VALUE                         : DESCRIPTION
#_______________________________________________________________________________
SET                .         Las                           : 
TLFamily_DEPT      .         Measured Depth                : 
TLFamily_PHI_FINAL .         Porosity                      : 
TLFamily_SW_AR     .         Water Saturation              : 
TLFamily_VSH_FINAL .         Shale Volume                  : 
~Curve Information
#_______________________________________________________________________________
#
#LOGNAME           .UNIT     LOG_ID                        : DESCRIPTION
#_______________________________________________________________________________
DEPT               .m                                      :  {F}
PHI_FINAL          .m3/m3                                  : Porosity {F}
SW_AR              .m3/m3                                  :  {F}
VSH_FINAL          .unitless                               : Vshale {F}
~Ascii
# ...
413.9      0.04375708 1          1         
414.0000000000001 0.04427197 1          1         
414.1      0.04967856 1          1         
414.2      0.04413724 1          1         
414.3      0.04141046 1          1         
414.4      0.03758737 1          1         
414.5000000000001 0.03584846 1          1         
414.6      0.07502331 1          0.898155  
414.7      0.04459197 1          0.9834439 
414.8      0.03865721 1          1         
414.9      0.04078525 1          1         
415.0000000000001 0.04141046 1          1         
415.1      0.04684168 1          1         
415.2      0.04997697 1          1         
415.3      0.05400307 1          1         
415.4      0.06244484 1          1         
415.5000000000001 0.06625363 1          1         
415.6      0.06750679 1          1         
415.7      0.06406    1          1         
415.8      0.05992885 1          1         
415.9      0.05777958 1          1         
416.0000000000001 0.05604923 1          1         
416.1      0.05385172 1          1         
416.2      0.05756558 1          1         
416.3      0.06015861 1          1         
416.4      0.05799742 1          1         
416.5000000000001 0.04960954 1          1         
416.6      0.04319912 1          1         
416.7      0.04430914 1          1         
416.8      0.04416306 1          1         
416.9      0.04792672 1          1         
417.0000000000001 0.05621186 1          1         
417.1      0.0774029  1          0.9787552 
417.2      0.09013708 1          0.9540634 
417.3      0.07700539 1          1         
417.4      0.07464294 1          1         
417.5000000000001 0.06622389 1          1         
417.6      0.05816762 1          1         
417.7      0.05855177 1          1         
417.8      0.069544   1          1         
417.9      0.07075822 1          1         
418.0000000000001 0.06367657 1          1         
418.1      0.05299161 1          1         
418.2      0.04370662 1          1         
418.3      0.03439834 1          1         
418.4      0.02300346 1          1         
418.5000000000001 0.02165039 1          1         
418.6      0.02199085 1          1         
418.7      0.03017542 1          1         
418.8      0.03327195 1          1         
418.9      0.04214111 1          1         
419.0000000000001 0.0454711  1          1         
419.1      0.0429562  1          1         
419.2      0.04573835 1          1         
419.3      0.0451585  1          1         
419.4      0.04793796 1          1         
419.5000000000001 0.04394798 1          1         
419.6      0.04379654 1          1         
419.7      0.0485043  1          1         
419.8      0.05124208 1          1         
419.9      0.04758837 1          1         
420.0000000000001 0.0416532  1          1         
420.1      0.04232345 1          1         
420.2      0.04663901 1          1         
420.3      0.05050464 1          1         
420.4      0.05105523 1          1         
420.5000000000001 0.04666622 1          1         
420.6      0.04624919 1          1         
420.7      0.04848919 1          1         
420.8      0.05051885 1          1         
420.9      0.04419495 1          1         
421.0000000000001 0.03278398 1          1         
421.1      0.03030269 1          1         
421.2      0.03625342 1          1         
421.3      0.03171877 1          1         
421.4      0.02231064 1          1         
421.5000000000001 0.01336604 1          1         
421.6      0.008641347 1          1         
421.7      0.02049568 1          0.9320621 
421.8      0.05520656 1          0.8055171 
421.9      0.09028503 1          0.7291088 
422.0000000000001 0.1214191  1          0.6592808 
422.1      0.1225802  1          0.6591642 
422.2      0.1209421  1          0.6590478 
422.3      0.09698766 1          0.7312799 
422.4      0.07814039 1          0.810531  
422.5000000000001 0.06369421 1          0.8781289 
422.6      0.04761623 1          0.95083   
422.7      0.03020146 1          0.9891155 
422.8      0.01919684 1          1         
422.9      0.01822501 1          1         
423.0000000000001 0.0274258  1          1         
423.1      0.04576987 1          1         
423.2      0.05303664 1          1         
423.3      0.07216648 1          0.9392892 
423.4      0.09688669 1          0.8702617 
423.5000000000001 0.05899649 1          0.9734221 
423.6      0.0521067  1          1         
423.7      0.04818761 1          1         
423.8      0.0450526  1          1         
423.9      0.05538871 1          0.9691548 
424.0000000000001 0.09776177 1          0.8567043 
424.1      0.05913381 1          0.9652874 
424.2      0.04787692 1          1         
424.3      0.05084477 1          1         
424.4      0.054171   1          1         
424.5000000000001 0.056264   1          1         
424.6      0.05967163 1          1         
424.7      0.05471636 1          1         
424.8      0.08262053 1          0.9065512 
424.9      0.1621093  1          0.6808366 
425.0000000000001 0.2224037  0.599179   0.5066289 
425.1      0.2722563  0.2506039  0.3529621 
425.2      0.3121088  0.1185985  0.2393574 
425.3      0.3276593  0.09505646 0.2127008 
425.4      0.3458152  0.07587974 0.188252  
425.5000000000001 0.3369948  0.07520406 0.2097211 
425.6      0.3255715  0.07514846 0.232886  
425.7      0.3230711  0.07189365 0.2328558 
425.8      0.3218715  0.06852411 0.2328257 
425.9      0.3310627  0.0531748  0.2076823 
426.0000000000001 0.3350501  0.04192449 0.1845438 
426.1      0.3235641  0.0427929  0.1935358 
426.2      0.3106925  0.04391596 0.2028287 
426.3      0.299991   0.04745556 0.225437  
426.4      0.2929899  0.0507294  0.2498299 
426.5000000000001 0.2093485  0.08172522 0.5034454 
426.6      0.04507684 0.4095902  0.9502311 
426.7      0.02796762 1          1         
426.8      0.02044345 1          1         
426.9      0.01740858 1          1         
427.0000000000001 0.02178436 1          1         
427.1      0.02881622 1          1         
427.2      0.0810477  1          0.8829738 
427.3      0.07750061 1          0.9021845 
427.4      0.06717464 1          0.9217744 
427.5000000000001 0.07925093 1          0.8921032 
427.6      0.09386545 1          0.8633122 
427.7      0.1370138  1          0.765236  
427.8      0.1676039  0.8650516  0.6773363 
427.9      0.1776214  0.8613775  0.6380047 
428.0000000000001 0.1897388  0.8523747  0.6007128 
428.1      0.2033102  0.7709557  0.5696599 
428.2      0.2140455  0.7094604  0.5400216 
428.3      0.2127645  0.6965487  0.5419968 
428.4      0.2183768  0.6636287  0.5439779 
428.5000000000001 0.2138311  0.6819696  0.5585749 
428.6      0.2038639  0.7187594  0.5735096 
428.7      0.1959328  0.7592607  0.5734128 
428.8      0.2015129  0.7523497  0.573316  
428.9      0.2067579  0.7947392  0.5775746 
429.0000000000001 0.2100727  0.8502306  0.5818601 
429.1      0.1852517  1          0.6510949 
429.2      0.1532061  1          0.7275277 
429.3      0.1502409  1          0.714108  
429.4      0.1538431  1          0.700913  
429.5000000000001 0.1670972  1          0.6653368 
429.6      0.1843041  1          0.6313797 
429.7      0.1967572  0.959622   0.6080452 
429.8      0.2125181  0.8870951  0.5854763 
429.9      0.227769   0.849063   0.5615137 
430.0000000000001 0.2336046  0.847465   0.5384131 
430.1      0.2411486  0.801402   0.5005119 
430.2      0.2451638  0.7691901  0.4649271 
430.3      0.2605138  0.6459536  0.4034126 
430.4      0.2717071  0.5559341  0.3488117 
430.5000000000001 0.2741411  0.5219147  0.3211549 
430.6      0.2819376  0.4817888  0.295273  
430.7      0.2806149  0.586122   0.3170794 
430.8      0.2790323  0.7289119  0.3401395 
430.9      0.2658226  0.858615   0.3998455 
431.0000000000001 0.2441841  1          0.4679655 
431.1      0.2228787  1          0.5415456 
431.2      0.1953386  1          0.6249397 
431.3      0.1675939  1          0.7115455 
431.4      0.1360464  1          0.8087313 
431.5000000000001 0.1218343  1          0.8385062 
