~Version
 VERS              .         3.0                           : CWLS LOG ASCII STANDARD - VERSION 3.0
 WRAP              .         NO                            : ONE LINE PER DEPTH STEP
 DLM               .         SPACE                         : DELIMITING CHARACTER(SPACE TAB OR COMMA)
~Well Information
#_______________________________________________________________________________
#
#PARAMETER_NAME    .UNIT     VALUE                         : DESCRIPTION
#_______________________________________________________________________________
STRT               .M        51                            : First reference value
STOP               .M        906.1                         : Last reference value
STEP               .M        0.1                           : Step increment
NULL               .         -9999                         : Missing value
COMP               .         ICPetroleum                   : Company
WELL               .         317                           : Well name
FLD                .         Karatobe                      : Field
LOC                .                                       : Location
SRVC               .                                       : Service Company
CTRY               .         KZ                            : Country
DATE               .         09/11/2004                    : Service Date
LATI               .         0                             : Latitude
LONG               .         0                             : Longitude
GDAT               .         WGS 84                        : Geodetic Datum
CNTY               .                                       : 
COORDIN            .                                       : Grid System
COUNTRY            .         Kazakhstan                    : 
COUNTRY            .         Kazakhstan                    : 
EREF               .m        145.4                         : 
KB                 .         144.9                         : KB Elevation
ORIGINALWELLNAME   .         317                           : 
PROV               .                                       : Province
RWS                .         -999                          : Def_Rw
STAT               .                                       : 
UWI                .                                       : 
WST                .         -999                          : Def_Rwt
X                  .km       466008.8                      : 
XCOORD             .                                       : X or East-West Coordinate
Y                  .km       5307445.74                    : 
YCOORD             .                                       : Y or North-South Coordinate
~Parameter Information Block
#_______________________________________________________________________________
#
#PARAMETER_NAME    .UNIT     VALUE                         : DESCRIPTION
#_______________________________________________________________________________
SET                .         Las                           : 
TLFamily_DEPT      .         Measured Depth                : 
TLFamily_PHI_FINAL .         Porosity                      : 
TLFamily_SW_AR     .         Water Saturation              : 
TLFamily_VSH_FINAL .         Shale Volume                  : 
~Curve Information
#_______________________________________________________________________________
#
#LOGNAME           .UNIT     LOG_ID                        : DESCRIPTION
#_______________________________________________________________________________
DEPT               .M                                      : Depth curve {F}
PHI_FINAL          .m3/m3                                  : Porosity {F}
SW_AR              .m3/m3                                  :  {F}
VSH_FINAL          .unitless                               : Vshale {F}
~Ascii
# ...
303.5      0.01464537 1          1         
303.6      0.02146457 1          1         
303.7      0.02791653 1          1         
303.8      0.0352375  1          1         
303.9      0.05122934 1          1         
304        0.03932505 1          1         
304.1      0.02464513 1          1         
304.2      0.03229656 1          1         
304.3      0.02497929 1          1         
304.4      0.03015004 1          1         
304.5      0.02665343 1          1         
304.6      0.019187   1          1         
304.7      0.02393807 1          0.9891347 
304.8      0.05649711 1          0.8923838 
304.9      0.02779209 1          0.9820201 
305        0.03176157 1          1         
305.1      0.06442047 1          0.9411746 
305.2      0.09112925 1          0.8843034 
305.3      0.1489309  1          0.7505378 
305.4      0.1343159  1          0.7719185 
305.5      0.1127983  1          0.8155899 
305.6      0.1546908  1          0.7323922 
305.7      0.1319544  1          0.6695039 
305.8      0.05593468 1          0.8219947 
305.9      0.04635726 1          0.7990741 
306        0.05296555 1          0.7676806 
306.1      0.06039564 1          0.7689478 
306.2      0.08834147 1          0.7438148 
306.3      0.1206971  1          0.6608769 
306.4      0.1033051  1          0.6468667 
306.5      0.1214014  1          0.5771545 
306.6      0.1279015  1          0.5202634 
306.7      0.1570583  1          0.4258759 
306.8      0.180736   1          0.3633507 
306.9      0.1933443  0.9511519  0.3293802 
307        0.2065728  0.8420013  0.3173746 
307.1      0.2158543  0.7712056  0.3306514 
307.2      0.211018   0.8445739  0.3723766 
307.3      0.2542795  0.7934777  0.3973731 
307.4      0.2449228  0.8655972  0.4349158 
307.5      0.2379941  0.9061778  0.4794622 
307.6      0.2350933  0.9265435  0.4975174 
307.7      0.1980887  1          0.5931948 
307.8      0.1853172  1          0.6146581 
307.9      0.1580663  1          0.6449325 
308        0.1208611  1          0.7033318 
308.1      0.09348713 1          0.7519369 
308.2      0.06138851 1          0.8129617 
308.3      0.04411338 1          0.8655017 
308.4      0.06302872 1          0.7841259 
308.5      0.09230353 1          0.6726657 
308.6      0.0998814  1          0.6388801 
308.7      0.1356689  1          0.5670212 
308.8      0.1365789  1          0.5556487 
308.9      0.1394757  1          0.5953361 
309        0.1389795  1          0.6078931 
309.1      0.1399908  1          0.5884489 
309.2      0.1250738  1          0.553174  
309.3      0.1150984  1          0.5478535 
309.4      0.0833708  1          0.5523599 
309.5      0.09943697 1          0.5087453 
309.6      0.1407206  1          0.4921035 
309.7      0.1444076  1          0.5647859 
309.8      0.167353   1          0.5340192 
309.9      0.1459133  1          0.6226141 
310        0.1582431  1          0.6361395 
310.1      0.1415747  1          0.6891447 
310.2      0.129188   1          0.7297981 
310.3      0.1323267  1          0.7296662 
310.4      0.1258535  1          0.7381573 
310.5      0.1049595  1          0.819548  
310.6      0.1448684  1          0.6928709 
310.7      0.1595648  1          0.6299382 
310.8      0.1101961  1          0.7202181 
310.9      0.1234471  1          0.690203  
311        0.1571413  1          0.5620664 
311.1      0.2060855  1          0.4785633 
311.2      0.1897751  1          0.5315719 
311.3      0.1972817  1          0.5485306 
311.4      0.1761483  1          0.6136187 
311.5      0.1743547  1          0.6089368 
311.6      0.1599324  1          0.6424606 
311.7      0.1720648  1          0.6718597 
311.8      0.168943   1          0.6913939 
311.9      0.1376969  1          0.7588683 
312        0.1466517  1          0.7438847 
312.1      0.1204372  1          0.8308496 
312.2      0.1057721  1          0.889077  
312.3      0.1188897  1          0.853083  
312.4      0.1160781  1          0.8606613 
312.5      0.1293286  1          0.8329385 
312.6      0.1439857  1          0.8089672 
312.7      0.1514865  1          0.7522412 
312.8      0.1239363  1          0.7840526 
312.9      0.115841   1          0.7281188 
313        0.1296085  1          0.6740535 
313.1      0.1269565  1          0.6576634 
313.2      0.1129098  1          0.7344255 
313.3      0.1325869  1          0.6923577 
313.4      0.1447465  1          0.7014764 
313.5      0.1186267  1          0.793366  
313.6      0.08087669 1          0.8599507 
313.7      0.09473483 1          0.8076087 
313.8      0.04640942 1          0.9397837 
313.9      0.06843755 1          0.8425592 
314        0.08219202 1          0.8466737 
314.1      0.07177505 1          0.8367793 
314.2      0.05630843 1          0.8949762 
314.3      0.05084944 1          0.9045032 
314.4      0.03950086 1          0.898501  
314.5      0.04647114 1          0.8741015 
314.6      0.04326411 1          0.8777199 
314.7      0.03411123 1          0.9428586 
314.8      0.03937632 1          0.9342779 
314.9      0.03360884 1          0.9377829 
315        0.02685086 1          0.9582784 
315.1      0.03100922 1          0.9148588 
315.2      0.03558262 1          0.8719988 
315.3      0.04832246 1          0.8255929 
315.4      0.05933946 1          0.7914513 
315.5      0.05834627 1          0.7976506 
315.6      0.05175801 1          0.8335268 
315.7      0.04820009 1          0.8439723 
315.8      0.05041205 1          0.8820438 
315.9      0.02785593 1          0.9627678 
316        0.04827865 1          0.9139331 
316.1      0.02353094 1          1         
316.2      0.02363421 1          1         
316.3      0.02257123 1          1         
316.4      0.02311542 1          1         
316.5      0.02357923 1          1         
316.6      0.02566219 1          1         
316.7      0.02995668 1          1         
316.8      0.04228636 1          0.9634837 
316.9      0.03753047 1          0.9774776 
317        0.03486293 1          1         
317.1      0.03052112 1          1         
317.2      0.04014952 1          1         
317.3      0.08739504 1          0.8801659 
317.4      0.1288288  1          0.798902  
317.5      0.135179   1          0.788397  
317.6      0.1739469  1          0.6678864 
317.7      0.2294763  0.9722942  0.5170127 
317.8      0.2330942  0.9494455  0.5161417 
317.9      0.2381176  0.9316331  0.486725  
318        0.2368556  0.9379174  0.4885193 
318.1      0.2193971  0.9953761  0.545276  
318.2      0.2026104  1          0.6056236 
318.3      0.2089931  1          0.5815543 
318.4      0.1959416  1          0.584296  
318.5      0.1755953  1          0.610072  
318.6      0.1781428  1          0.6186585 
318.7      0.1805759  1          0.615568  
318.8      0.1991903  1          0.5830286 
318.9      0.2178147  1          0.5418879 
319        0.2137834  1          0.5575635 
319.1      0.1845032  1          0.6044718 
319.2      0.1852366  1          0.6021195 
319.3      0.1910894  1          0.5704326 
319.4      0.1688291  1          0.6130046 
319.5      0.1774677  1          0.5606778 
319.6      0.1629536  1          0.5584788 
319.7      0.1398474  1          0.5222404 
319.8      0.1473277  1          0.5307429 
319.9      0.1443726  1          0.5426351 
320        0.1868969  1          0.5267618 
320.1      0.1841773  1          0.5613848 
320.2      0.1548383  1          0.6585129 
320.3      0.1308798  1          0.7083387 
320.4      0.1177386  1          0.6956151 
320.5      0.1410215  1          0.663529  
320.6      0.0932331  1          0.7612281 
320.7      0.04031856 1          0.8919178 
320.8      0.03609471 1          0.9133706 
320.9      0.04077962 1          0.8909407 
321        0.03872035 1          0.9143264 
321.1      0.04727142 1          0.8638819 
321.2      0.05341295 1          0.7930434 
321.3      0.0622969  1          0.7917516 
321.4      0.08128005 1          0.745623  
321.5      0.08097398 1          0.697322  
321.6      0.1010192  1          0.6441872 
