~Version
 VERS              .         3.0                           : CWLS LOG ASCII STANDARD - VERSION 3.0
 WRAP              .         NO                            : ONE LINE PER DEPTH STEP
 DLM               .         SPACE                         : DELIMITING CHARACTER(SPACE TAB OR COMMA)
~Well Information
#_______________________________________________________________________________
#
#PARAMETER_NAME    .UNIT     VALUE                         : DESCRIPTION
#_______________________________________________________________________________
STRT               .M        51                            : First reference value
STOP               .M        906.1                         : Last reference value
STEP               .M        0.1                           : Step increment
NULL               .         -9999                         : Missing value
COMP               .         ICPetroleum                   : Company
WELL               .         317                           : Well name
FLD                .         Karatobe                      : Field
LOC                .                                       : Location
SRVC               .                                       : Service Company
CTRY               .         KZ                            : Country
DATE               .         09/11/2004                    : Service Date
LATI               .         0                             : Latitude
LONG               .         0                             : Longitude
GDAT               .         WGS 84                        : Geodetic Datum
CNTY               .                                       : 
COORDIN            .                                       : Grid System
COUNTRY            .         Kazakhstan                    : 
COUNTRY            .         Kazakhstan                    : 
EREF               .m        145.4                         : 
KB                 .         144.9                         : KB Elevation
ORIGINALWELLNAME   .         317                           : 
PROV               .                                       : Province
RWS                .         -999                          : Def_Rw
STAT               .                                       : 
UWI                .                                       : 
WST                .         -999                          : Def_Rwt
X                  .km       466008.8                      : 
XCOORD             .                                       : X or East-West Coordinate
Y                  .km       5307445.74                    : 
YCOORD             .                                       : Y or North-South Coordinate
~Parameter Information Block
#_______________________________________________________________________________
#
#PARAMETER_NAME    .UNIT     VALUE                         : DESCRIPTION
#_______________________________________________________________________________
SET                .         Las                           : 
TLFamily_DEPT      .         Measured Depth                : 
TLFamily_PHI_FINAL .         Porosity                      : 
TLFamily_SW_AR     .         Water Saturation              : 
TLFamily_VSH_FINAL .         Shale Volume                  : 
~Curve Information
#_______________________________________________________________________________
#
#LOGNAME           .UNIT     LOG_ID                        : DESCRIPTION
#_______________________________________________________________________________
DEPT               .M                                      : Depth curve {F}
PHI_FINAL          .m3/m3                                  : Porosity {F}
SW_AR              .m3/m3                                  :  {F}
VSH_FINAL          .unitless                               : Vshale {F}
~Ascii
# ...
885.9      0.01360284 1          0.4376355 
886        0.04292785 1          0.4153056 
886.1      0.04211082 1          0.4300835 
886.2      0.005931294 1          0.4487247 
886.3      0          1          0.4660474 
886.4      0          1          0.4888707 
886.5      0.02111978 1          0.4604142 
886.6      0.02174824 1          0.4473162 
886.7      0.01038692 1          0.4819446 
886.8      0.003483693 1          0.4834157 
886.9      0.02532516 1          0.4451545 
887        0.01838782 1          0.4407416 
887.1      0.02540369 1          0.4368876 
887.2      0.03380328 1          0.434329  
887.3      0.02847422 1          0.416448  
887.4      0.02678844 1          0.4241795 
887.5      0.01913927 1          0.4221868 
887.6      0.01418374 1          0.4210355 
887.7      0.02437753 1          0.3983767 
887.8      0.006381725 1          0.4075624 
887.9      0.0007884741 1          0.3985796 
888        0          1          0.4072544 
888.1      0.0104535  1          0.3837181 
888.2      0.002525583 1          0.3726734 
888.3      0          1          0.3664391 
888.4      0          1          0.3519483 
888.5      0          1          0.3447694 
888.6      0          1          0.3657606 
888.7      0          1          0.3946336 
888.8      0.0000407  1          0.3931216 
888.9      0.02443719 1          0.3981739 
889        0.01527936 1          0.4093105 
889.1      0          1          0.4200949 
889.2      0          1          0.440527  
889.3      0.0009088964 1          0.4381701 
889.4      0          1          0.4408489 
889.5      0.014765   1          0.3970594 
889.6      0.0007368652 1          0.4347548 
889.7      0          1          0.4235496 
889.8      0          1          0.418113  
889.9      0.002574043 1          0.3905083 
890        0.005047084 1          0.4108562 
890.1      0.01510459 1          0.4179046 
890.2      0.01338573 1          0.434329  
890.3      0.01995833 1          0.4614054 
890.4      0.02831352 1          0.4369944 
890.5      0.04046974 1          0.4216633 
890.6      0.03166878 1          0.4555862 
890.7      0.0483587  1          0.4328404 
890.8      0.0630938  1          0.4067412 
890.9      0.0705268  1          0.3984781 
891        0.06133278 1          0.3778785 
891.1      0.0841866  1          0.3750257 
891.2      0.08125711 1          0.3649859 
891.3      0.05114757 1          0.3793586 
891.4      0.03657367 1          0.3909097 
891.5      0.04428111 1          0.3887046 
891.6      0.04122126 1          0.3591076 
891.7      0          1          0.3186957 
891.8      0          1          0.3051099 
891.9      0          1          0.2577118 
892        0.01020644 1          0.238237  
892.1      0.09099595 1          0.271874  
892.2      0.07607374 1          0.3068811 
892.3      0.08506312 1          0.3120456 
892.4      0.09428706 1          0.2906839 
892.5      0.09785048 1          0.2805686 
892.6      0.1228519  1          0.2455634 
892.7      0.1310219  1          0.2237856 
892.8      0.118398   1          0.2227071 
892.9      0.1072381  1          0.2086507 
893        0.1179467  1          0.2002413 
893.1      0.1164971  1          0.2131699 
893.2      0.1312232  1          0.2191016 
893.3      0.1300825  1          0.1976634 
893.4      0.1193805  1          0.1789012 
893.5      0.1664567  0.8880708  0.1645107 
893.6      0.1672047  0.8028719  0.1629981 
893.7      0.1946251  0.6502014  0.1455348 
893.8      0.208989   0.5951752  0.1386978 
893.9      0.2069221  0.6039668  0.1497248 
894        0.2046259  0.6108926  0.1515318 
894.1      0.2041909  0.6072493  0.1610113 
894.2      0.2103307  0.5846914  0.1521357 
894.3      0.2029812  0.6136166  0.149124  
894.4      0.1946938  0.6476608  0.1553015 
894.5      0.1839862  0.7030547  0.1557071 
894.6      0.1718007  0.7934412  0.1451376 
894.7      0.143623   1          0.152942  
894.8      0.1151004  1          0.1599185 
894.9      0.08998833 1          0.1753    
895        0.0819552  1          0.1866123 
895.1      0.06514578 1          0.1877646 
895.2      0.07091389 1          0.2101529 
895.3      0.07807415 1          0.2058079 
895.4      0.0913223  1          0.2047644 
895.5      0.1074987  1          0.1877646 
895.6      0.09860487 1          0.1720037 
895.7      0.07460225 1          0.1396124 
895.8      0.02621726 1          0.1248737 
895.9      0.03864047 1          0.0997512 
896        0.04169588 1          0.09357248
896.1      0.02418045 1          0.08858857
896.2      0.02916362 1          0.07851149
896.3      0.03039754 1          0.07601623
896.4      0          1          0.07573365
896.5      0.02458359 1          0.08777333
896.6      0.02763889 1          0.08159485
896.7      0.0263595  1          0.08418206
896.8      0.04510944 1          0.0866695 
896.9      0.04172505 1          0.09351349
897        0.04502336 1          0.08684358
897.1      0.0384036  1          0.1002302 
897.2      0.03496926 1          0.1071752 
897.3      0.057374   1          0.1022719 
897.4      0.0607991  1          0.09534562
897.5      0.06668997 1          0.08343296
897.6      0.04733527 1          0.08216838
897.7      0.04990169 1          0.0769785 
897.8      0.047987   1          0.08085043
897.9      0.08814498 0.9093171  0.08045015
898        0.07352883 1          0.07726196
898.1      0.07314909 1          0.08655347
898.2      0.08279034 1          0.09127843
898.3      0.07628863 1          0.09587902
898.4      0.05588051 1          0.1052921 
898.5      0.05564059 1          0.1057773 
898.6      0.05749303 1          0.1020312 
898.7      0.07669813 0.9721783  0.1035982 
898.8      0.05161244 1          0.1139231 
898.9      0.02255438 1          0.1322808 
899        0.02280891 1          0.1317661 
899.1      0.04080902 1          0.13577   
899.2      0.02552711 1          0.1262693 
899.3      0.01986478 1          0.1377198 
899.4      0.04151352 1          0.1343453 
899.5      0.037678   1          0.1391549 
899.6      0.02618594 1          0.124937  
899.7      0.02407724 1          0.1292013 
899.8      0.0289568  1          0.1193337 
899.9      0.05139836 1          0.114356  
900        0.05115344 1          0.1148513 
900.1      0.002828908 1          0.1317661 
900.2      0          1          0.1304178 
900.3      0          1          0.1269051 
900.4      0          1          0.1285623 
900.5      0          1          0.1190835 
900.6      0          1          0.1201479 
900.7      0          1          0.1285623 
900.8      0          1          0.127988  
900.9      0          1          0.1326028 
901        0          1          0.124747  
901.1      0          1          0.1251905 
901.2      0          -9999      0.1076015 
901.3      0          -9999      0.1017907 
901.4      0          -9999      0.1167135 
901.5      0          -9999      0.1261422 
901.6      0          -9999      0.1187085 
901.7      0          -9999      0.124747  
901.8      0          -9999      0.1269687 
901.9      0          -9999      0.1220952 
902        0          -9999      0.1185835 
902.1      0          -9999      0.1210263 
902.2      0          -9999      0.1193963 
902.3      0.5139375  -9999      0.1213404 
902.4      0.5154235  -9999      0.1202733 
902.5      0.5169912  -9999      0.1156573 
902.6      0.5202915  -9999      0.1140467 
902.7      -9999      -9999      -9999     
902.8      -9999      -9999      -9999     
902.9      -9999      -9999      -9999     
903        -9999      -9999      -9999     
903.1      -9999      -9999      -9999     
903.2      -9999      -9999      -9999     
903.3      -9999      -9999      -9999     
903.4      -9999      -9999      -9999     
903.5      -9999      -9999      -9999     
903.6      -9999      -9999      -9999     
903.7      -9999      -9999      -9999     
903.8      -9999      -9999      -9999     
903.9      -9999      -9999      -9999     
904        -9999      -9999      -9999     
