~Version
 VERS              .         3.0                           : CWLS LOG ASCII STANDARD - VERSION 3.0
 WRAP              .         NO                            : ONE LINE PER DEPTH STEP
 DLM               .         SPACE                         : DELIMITING CHARACTER(SPACE TAB OR COMMA)
~Well Information
#_______________________________________________________________________________
#
#PARAMETER_NAME    .UNIT     VALUE                         : DESCRIPTION
#_______________________________________________________________________________
STRT               .M        51                            : First reference value
STOP               .M        906.1                         : Last reference value
STEP               .M        0.1                           : Step increment
NULL               .         -9999                         : Missing value
COMP               .         ICPetroleum                   : Company
WELL               .         317                           : Well name
FLD                .         Karatobe                      : Field
LOC                .                                       : Location
SRVC               .                                       : Service Company
CTRY               .         KZ                            : Country
DATE               .         09/11/2004                    : Service Date
LATI               .         0                             : Latitude
LONG               .         0                             : Longitude
GDAT               .         WGS 84                        : Geodetic Datum
CNTY               .                                       : 
COORDIN            .                                       : Grid System
COUNTRY            .         Kazakhstan                    : 
COUNTRY            .         Kazakhstan                    : 
EREF               .m        145.4                         : 
KB                 .         144.9                         : KB Elevation
ORIGINALWELLNAME   .         317                           : 
PROV               .                                       : Province
RWS                .         -999                          : Def_Rw
STAT               .                                       : 
UWI                .                                       : 
WST                .         -999                          : Def_Rwt
X                  .km       466008.8                      : 
XCOORD             .                                       : X or East-West Coordinate
Y                  .km       5307445.74                    : 
YCOORD             .                                       : Y or North-South Coordinate
~Parameter Information Block
#_______________________________________________________________________________
#
#PARAMETER_NAME    .UNIT     VALUE                         : DESCRIPTION
#_______________________________________________________________________________
SET                .         Las                           : 
TLFamily_DEPT      .         Measured Depth                : 
TLFamily_PHI_FINAL .         Porosity                      : 
TLFamily_SW_AR     .         Water Saturation              : 
TLFamily_VSH_FINAL .         Shale Volume                  : 
~Curve Information
#_______________________________________________________________________________
#
#LOGNAME           .UNIT     LOG_ID                        : DESCRIPTION
#_______________________________________________________________________________
DEPT               .M                                      : Depth curve {F}
PHI_FINAL          .m3/m3                                  : Porosity {F}
SW_AR              .m3/m3                                  :  {F}
VSH_FINAL          .unitless                               : Vshale {F}
~Ascii
# ...
540.1      0.2241713  1          0.5123672 
540.2      0.1740834  1          0.5883439 
540.3      0.2032745  1          0.5243273 
540.4      0.1877524  1          0.534847  
540.5      0.1596114  1          0.5825922 
540.6      0.179913   1          0.5229024 
540.7      0.1695171  1          0.5543613 
540.8      0.15315    1          0.5876393 
540.9      0.1627603  1          0.5649473 
541        0.1797178  1          0.5303811 
541.1      0.1898713  1          0.4960195 
541.2      0.195362   1          0.4562022 
541.3      0.1976055  1          0.4487066 
541.4      0.1928891  1          0.4647007 
541.5      0.1971631  1          0.4581598 
541.6      0.1804144  1          0.5047635 
541.7      0.1747019  1          0.5329899 
541.8      0.1891157  1          0.5024629 
541.9      0.1845735  1          0.4985917 
542        0.177415   1          0.5147206 
542.1      0.1917179  1          0.4791836 
542.2      0.1800063  1          0.5140693 
542.3      0.1732314  1          0.5500386 
542.4      0.153023   1          0.5914086 
542.5      0.1511794  1          0.6173989 
542.6      0.1338973  1          0.6904796 
542.7      0.1626761  1          0.6142496 
542.8      0.1517628  1          0.6173239 
542.9      0.1606655  1          0.5986527 
543        0.1667773  1          0.591464  
543.1      0.1627907  1          0.599829  
543.2      0.136896   1          0.6657335 
543.3      0.1403093  1          0.6677547 
543.4      0.1583664  1          0.6197541 
543.5      0.1723657  1          0.578936  
543.6      0.168478   1          0.6009366 
543.7      0.1597186  1          0.6147256 
543.8      0.1585881  1          0.6089345 
543.9      0.1647925  1          0.5709712 
544        0.1434627  1          0.6257911 
544.1      0.1495892  1          0.6100368 
544.2      0.1498325  1          0.6044806 
544.3      0.1298734  1          0.6587324 
544.4      0.1245523  1          0.6592627 
544.5      0.128323   1          0.6774349 
544.6      0.1204262  1          0.678408  
544.7      0.1027996  1          0.7382405 
544.8      0.102895   1          0.7337268 
544.9      0.1224037  1          0.6830651 
545        0.1396117  1          0.6823119 
545.1      0.1286597  1          0.6817757 
545.2      0.126983   1          0.689712  
545.3      0.1539193  1          0.6428195 
545.4      0.1389724  1          0.7020488 
545.5      0.1135619  1          0.75822   
545.6      0.1095157  1          0.7569135 
545.7      0.1152298  1          0.7023917 
545.8      0.1186566  1          0.7033944 
545.9      0.1170382  1          0.7290273 
546        0.09870547 1          0.7543083 
546.1      0.1323392  1          0.6900771 
546.2      0.1600022  1          0.6448304 
546.3      0.1558255  1          0.6519651 
546.4      0.1626928  1          0.6239719 
546.5      0.1845318  1          0.5600595 
546.6      0.1784834  1          0.5647185 
546.7      0.1476072  1          0.6264953 
546.8      0.1513021  1          0.5990947 
546.9      0.1569646  1          0.5802047 
547        0.1742603  1          0.529711  
547.1      0.1764169  1          0.5146016 
547.2      0.1776659  1          0.5086541 
547.3      0.16796    1          0.5277604 
547.4      0.1661131  1          0.5060132 
547.5      0.1289255  1          0.4491836 
547.6      0.1408836  1          0.3857814 
547.7      0.06884772 1          0.3789026 
547.8      0.06763028 1          0.3320017 
547.9      0.06107753 1          0.2889219 
548        0.06702973 1          0.2969501 
548.1      0.09853588 0.9101683  0.2993888 
548.2      0.1043474  1          0.3272991 
548.3      0.1889514  0.8633929  0.3582377 
548.4      0.163972   1          0.4593994 
548.5      0.2663635  0.9817426  0.4992973 
548.6      0.2999524  0.9801234  0.5025229 
548.7      0.2873096  1          0.5521794 
548.8      0.2905334  1          0.5925692 
548.9      0.3009025  0.9737481  0.5493413 
549        0.3103782  0.9024265  0.4854883 
549.1      0.2955355  0.9265836  0.5038275 
549.2      0.2521483  1          0.497504  
549.3      0.2016903  1          0.5075055 
549.4      0.1713814  1          0.5408075 
549.5      0.1548526  1          0.5627408 
549.6      0.1392276  1          0.6010755 
549.7      0.1465699  1          0.5778638 
549.8      0.1399627  1          0.5764778 
549.9      0.146819   1          0.5679    
550        0.1448372  1          0.5892594 
550.1      0.1456816  1          0.5803287 
550.2      0.1079447  1          0.6527241 
550.3      0.1265227  1          0.5996925 
550.4      0.1459556  1          0.6212934 
550.5      0.1568999  1          0.609982  
550.6      0.1703257  1          0.5687976 
550.7      0.1741127  1          0.5594187 
550.8      0.1628819  1          0.5598823 
550.9      0.1767983  1          0.5218553 
551        0.1840542  1          0.5406395 
551.1      0.1752556  1          0.5768848 
551.2      0.1518701  1          0.5672087 
551.3      0.1385525  1          0.5414645 
551.4      0.140304   1          0.5085236 
551.5      0.1561141  1          0.4998554 
551.6      0.1654857  1          0.4530301 
551.7      0.1605407  1          0.4664154 
551.8      0.1636372  1          0.4533615 
551.9      0.1543174  1          0.4528482 
552        0.1702966  1          0.4093958 
552.1      0.1765996  1          0.3394367 
552.2      0.1462495  1          0.3193186 
552.3      0.1426528  1          0.2923686 
552.4      0.09328728 1          0.2485235 
552.5      0.07394983 1          0.2739626 
552.6      0.05295345 1          0.2642218 
552.7      0.05093511 1          0.2792621 
552.8      0.07405283 0.8901326  0.2764882 
552.9      0.07143806 1          0.3134326 
553        0.1229256  1          0.3235605 
553.1      0.133307   1          0.3745078 
553.2      0.2168435  0.9671814  0.4125075 
553.3      0.2473145  0.9237143  0.4818481 
553.4      0.262198   0.9915887  0.5034759 
553.5      0.267784   1          0.5677196 
553.6      0.257627   1          0.626113  
553.7      0.217124   1          0.7228053 
553.8      0.1630846  1          0.8472021 
553.9      0.1678352  1          0.7952155 
554        0.1515216  1          0.8308585 
554.1      0.1845414  1          0.7169454 
554.2      0.1880081  1          0.6818691 
554.3      0.2217958  1          0.6101018 
554.4      0.2310885  1          0.5723099 
554.5      0.2308568  1          0.549961  
554.6      0.2288138  1          0.5358114 
554.7      0.1975897  1          0.5631044 
554.8      0.1815916  1          0.5690433 
554.9      0.1566223  1          0.5817269 
555        0.1096053  1          0.6306155 
555.1      0.09704928 1          0.6279208 
555.2      0.08585    1          0.5906874 
555.3      0.08504609 1          0.6227615 
555.4      0.09248936 1          0.5937406 
555.5      0.100954   1          0.6115654 
555.6      0.07306775 1          0.7070463 
555.7      0.04358958 1          0.8179139 
555.8      0.01533908 1          0.935989  
555.9      0.01954099 1          0.894628  
556        0.03007491 1          0.8666124 
556.1      0.07471127 1          0.7324202 
556.2      0.1071885  1          0.6603611 
556.3      0.1278183  1          0.6180975 
556.4      0.1290301  1          0.6094    
556.5      0.1209869  1          0.6254339 
556.6      0.1262086  1          0.621376  
556.7      0.1336704  1          0.6230664 
556.8      0.1317878  1          0.6436843 
556.9      0.1484208  1          0.6058553 
557        0.1366772  1          0.6390213 
557.1      0.1320297  1          0.6464623 
557.2      0.1272223  1          0.6858796 
557.3      0.08185013 1          0.7912098 
557.4      0.09395658 1          0.7607223 
557.5      0.1064636  1          0.7226651 
557.6      0.07524766 1          0.7972344 
557.7      0.07097479 1          0.8052943 
557.8      0.09289435 1          0.7602487 
557.9      0.07605535 1          0.8055385 
558        0.06415907 1          0.8454087 
558.1      0.07047329 1          0.8148016 
558.2      0.08095544 1          0.7700014 
