~Version
 VERS              .         3.0                           : CWLS LOG ASCII STANDARD - VERSION 3.0
 WRAP              .         NO                            : ONE LINE PER DEPTH STEP
 DLM               .         SPACE                         : DELIMITING CHARACTER(SPACE TAB OR COMMA)
~Well Information
#_______________________________________________________________________________
#
#PARAMETER_NAME    .UNIT     VALUE                         : DESCRIPTION
#_______________________________________________________________________________
STRT               .M        51                            : First reference value
STOP               .M        906.1                         : Last reference value
STEP               .M        0.1                           : Step increment
NULL               .         -9999                         : Missing value
COMP               .         ICPetroleum                   : Company
WELL               .         317                           : Well name
FLD                .         Karatobe                      : Field
LOC                .                                       : Location
SRVC               .                                       : Service Company
CTRY               .         KZ                            : Country
DATE               .         09/11/2004                    : Service Date
LATI               .         0                             : Latitude
LONG               .         0                             : Longitude
GDAT               .         WGS 84                        : Geodetic Datum
CNTY               .                                       : 
COORDIN            .                                       : Grid System
COUNTRY            .         Kazakhstan                    : 
COUNTRY            .         Kazakhstan                    : 
EREF               .m        145.4                         : 
KB                 .         144.9                         : KB Elevation
ORIGINALWELLNAME   .         317                           : 
PROV               .                                       : Province
RWS                .         -999                          : Def_Rw
STAT               .                                       : 
UWI                .                                       : 
WST                .         -999                          : Def_Rwt
X                  .km       466008.8                      : 
XCOORD             .                                       : X or East-West Coordinate
Y                  .km       5307445.74                    : 
YCOORD             .                                       : Y or North-South Coordinate
~Parameter Information Block
#_______________________________________________________________________________
#
#PARAMETER_NAME    .UNIT     VALUE                         : DESCRIPTION
#_______________________________________________________________________________
SET                .         Las                           : 
TLFamily_DEPT      .         Measured Depth                : 
TLFamily_PHI_FINAL .         Porosity                      : 
TLFamily_SW_AR     .         Water Saturation              : 
TLFamily_VSH_FINAL .         Shale Volume                  : 
~Curve Information
#_______________________________________________________________________________
#
#LOGNAME           .UNIT     LOG_ID                        : DESCRIPTION
#_______________________________________________________________________________
DEPT               .M                                      : Depth curve {F}
PHI_FINAL          .m3/m3                                  : Porosity {F}
SW_AR              .m3/m3                                  :  {F}
VSH_FINAL          .unitless                               : Vshale {F}
~Ascii
# ...
157.9      -9999      -9999      0.3203174 
158        -9999      -9999      0.3376395 
158.1      -9999      -9999      0.3821103 
158.2      -9999      -9999      0.4707659 
158.3      -9999      -9999      0.5448841 
158.4      -9999      -9999      0.6119972 
158.5      -9999      -9999      0.6713392 
158.6      -9999      -9999      0.6449006 
158.7      -9999      -9999      0.6418205 
158.8      -9999      -9999      0.6387538 
158.9      -9999      -9999      0.5891794 
159        -9999      -9999      0.5476632 
159.1      -9999      -9999      0.4531046 
159.2      -9999      -9999      0.3967626 
159.3      -9999      -9999      0.3424004 
159.4      -9999      -9999      0.310001  
159.5      -9999      -9999      0.3227911 
159.6      -9999      -9999      0.3792706 
159.7      -9999      -9999      0.4812712 
159.8      -9999      -9999      0.5128933 
159.9      -9999      -9999      0.5263785 
160        -9999      -9999      0.5369523 
160.1      -9999      -9999      0.5540292 
160.2      -9999      -9999      0.6027551 
160.3      -9999      -9999      0.7153183 
160.4      -9999      -9999      0.7668877 
160.5      -9999      -9999      0.7499551 
160.6      -9999      -9999      0.7020293 
160.7      -9999      -9999      0.6776408 
160.8      -9999      -9999      0.6510266 
160.9      -9999      -9999      0.6987175 
161        -9999      -9999      0.6089483 
161.1      -9999      -9999      0.598693  
161.2      -9999      -9999      0.5359916 
161.3      -9999      -9999      0.5471852 
161.4      -9999      -9999      0.5640473 
161.5      -9999      -9999      0.5847982 
161.6      -9999      -9999      0.6260706 
161.7      -9999      -9999      0.6165968 
161.8      -9999      -9999      0.6894445 
161.9      -9999      -9999      0.7749117 
162        -9999      -9999      0.8761664 
162.1      0.2039444  0.8619198  0.8608928 
162.2      0.1529576  1          0.9176955 
162.3      0.1638031  1          0.903213  
162.4      0.1143484  1          1         
162.5      0.1334242  1          1         
162.6      0.1304549  1          1         
162.7      0.1209897  1          1         
162.8      0.1211197  1          1         
162.9      0.1226936  1          1         
163        0.1397958  1          1         
163.1      0.13355    1          1         
163.2      0.1270209  1          0.9748059 
163.3      0.126991   1          1         
163.4      0.1273433  1          1         
163.5      0.1109091  1          1         
163.6      0.1094093  1          1         
163.7      0.1252504  1          1         
163.8      0.126407   1          1         
163.9      0.1210979  1          1         
164        0.1225345  1          1         
164.1      0.1049493  1          1         
164.2      0.1038694  1          1         
164.3      0.1075978  1          1         
164.4      0.08912277 1          1         
164.5      0.09142479 1          1         
164.6      0.105276   1          1         
164.7      0.1063739  1          1         
164.8      0.1099832  1          1         
164.9      0.09908195 1          1         
165        0.11618    1          1         
165.1      0.09944613 1          1         
165.2      0.09932457 1          1         
165.3      0.1111421  1          1         
165.4      0.1098681  1          1         
165.5      0.1107928  1          1         
165.6      0.09276834 1          1         
165.7      0.09087108 1          1         
165.8      0.08890674 1          1         
165.9      0.08635625 1          1         
166        0.08698669 1          1         
166.1      0.08901468 1          1         
166.2      0.1050581  1          1         
166.3      0.106043   1          1         
166.4      0.08847628 1          1         
166.5      0.08367813 1          1         
166.6      0.09032089 1          1         
166.7      0.1083858  1          1         
166.8      0.1098681  1          1         
166.9      0.1138661  1          1         
167        0.1139864  1          1         
167.1      0.1098681  1          1         
167.2      0.1086122  1          1         
167.3      0.1116099  1          1         
167.4      0.1479158  1          1         
167.5      0.1492945  1          1         
167.6      0.1450976  1          1         
167.7      0.1099832  1          1         
167.8      0.1124346  1          1         
167.9      0.1204716  1          1         
168        0.127313   1          0.9891378 
168.1      0.2103919  1          0.8408604 
168.2      0.2715307  0.754167   0.7618756 
168.3      0.2938765  0.7007256  0.7241434 
168.4      0.3277731  0.6448788  0.7148706 
168.5      0.3318953  0.6463431  0.7849702 
168.6      0.3235251  0.6641046  0.8060787 
168.7      0.2615691  0.8045784  0.9247368 
168.8      0.2273442  0.9100584  1         
168.9      0.2091048  0.9778209  1         
169        0.1916344  1          1         
169.1      0.1946599  1          1         
169.2      0.1910683  1          1         
169.3      0.1945138  1          1         
169.4      0.1971767  1          1         
169.5      0.1982311  1          1         
169.6      0.1974768  1          1         
169.7      0.1833694  1          1         
169.8      0.1819328  1          0.9958675 
169.9      0.1786045  1          1         
170        0.1791881  1          1         
170.1      0.1743319  1          1         
170.2      0.1592682  1          1         
170.3      0.1563702  1          1         
170.4      0.1212499  1          1         
170.5      0.07547413 1          1         
170.6      0.06683611 1          1         
170.7      0.06518022 1          1         
170.8      0.0803536  1          1         
170.9      0.08012031 1          1         
171        0.09728277 1          1         
171.1      0.09563556 1          1         
171.2      0.04139164 1          1         
171.3      0.03584321 1          1         
171.4      0.0218216  1          1         
171.5      0.02380569 1          1         
171.6      0          1          1         
171.7      0          1          1         
171.8      0          1          0.9255911 
171.9      0          1          0.9496648 
172        0          1          0.9130934 
172.1      0.03938171 1          0.7915951 
172.2      0.1314186  1          0.8633355 
172.3      0.1208237  1          0.8905393 
172.4      0.08603007 1          0.9292016 
172.5      0.08174685 1          0.9382982 
172.6      0.1527923  1          0.9291729 
172.7      0.1617386  1          0.8507455 
172.8      0.09771247 1          0.9699153 
172.9      0.08746257 1          0.9958119 
173        0.134229   1          0.9944117 
173.1      0.1293657  1          1         
173.2      0.1670747  1          0.9305668 
173.3      0.1683182  1          0.9400434 
173.4      0.1435898  1          0.9503625 
173.5      0.1179231  1          1         
173.6      0.1166747  1          1         
173.7      0.08392849 1          1         
173.8      0.08320197 1          1         
173.9      0.07965557 1          1         
174        0.1235274  1          0.949509  
174.1      0.1020371  1          1         
174.2      0.1500572  1          0.9832023 
174.3      0.1371432  1          1         
174.4      0.138859   1          1         
174.5      0.1246982  1          1         
174.6      0.1261954  1          1         
174.7      0.1077131  1          1         
174.8      0.1026649  1          1         
174.9      0.1143484  1          1         
175        0.1097532  1          1         
175.1      0.1104449  1          1         
175.2      0.183696   0.9335542  0.8714035 
175.3      0.1542127  1          0.9252802 
175.4      0.1293848  1          0.9721308 
175.5      0.1636557  1          0.9322665 
175.6      0.1774824  0.9634968  0.9010693 
175.7      0.1282894  1          1         
175.8      0.1255958  1          1         
175.9      0.1454604  1          1         
176        0.1310657  1          1         
