~Version
 VERS              .         3.0                           : CWLS LOG ASCII STANDARD - VERSION 3.0
 WRAP              .         NO                            : ONE LINE PER DEPTH STEP
 DLM               .         SPACE                         : DELIMITING CHARACTER(SPACE TAB OR COMMA)
~Well Information
#_______________________________________________________________________________
#
#PARAMETER_NAME    .UNIT     VALUE                         : DESCRIPTION
#_______________________________________________________________________________
STRT               .M        51                            : First reference value
STOP               .M        906.1                         : Last reference value
STEP               .M        0.1                           : Step increment
NULL               .         -9999                         : Missing value
COMP               .         ICPetroleum                   : Company
WELL               .         317                           : Well name
FLD                .         Karatobe                      : Field
LOC                .                                       : Location
SRVC               .                                       : Service Company
CTRY               .         KZ                            : Country
DATE               .         09/11/2004                    : Service Date
LATI               .         0                             : Latitude
LONG               .         0                             : Longitude
GDAT               .         WGS 84                        : Geodetic Datum
CNTY               .                                       : 
COORDIN            .                                       : Grid System
COUNTRY            .         Kazakhstan                    : 
COUNTRY            .         Kazakhstan                    : 
EREF               .m        145.4                         : 
KB                 .         144.9                         : KB Elevation
ORIGINALWELLNAME   .         317                           : 
PROV               .                                       : Province
RWS                .         -999                          : Def_Rw
STAT               .                                       : 
UWI                .                                       : 
WST                .         -999                          : Def_Rwt
X                  .km       466008.8                      : 
XCOORD             .                                       : X or East-West Coordinate
Y                  .km       5307445.74                    : 
YCOORD             .                                       : Y or North-South Coordinate
~Parameter Information Block
#_______________________________________________________________________________
#
#PARAMETER_NAME    .UNIT     VALUE                         : DESCRIPTION
#_______________________________________________________________________________
SET                .         Las                           : 
TLFamily_DEPT      .         Measured Depth                : 
TLFamily_PHI_FINAL .         Porosity                      : 
TLFamily_SW_AR     .         Water Saturation              : 
TLFamily_VSH_FINAL .         Shale Volume                  : 
~Curve Information
#_______________________________________________________________________________
#
#LOGNAME           .UNIT     LOG_ID                        : DESCRIPTION
#_______________________________________________________________________________
DEPT               .M                                      : Depth curve {F}
PHI_FINAL          .m3/m3                                  : Porosity {F}
SW_AR              .m3/m3                                  :  {F}
VSH_FINAL          .unitless                               : Vshale {F}
~Ascii
# ...
831.3      0.03692542 1          0.4357138 
831.4      0.04570544 1          0.4258617 
831.5      0.05029978 1          0.4022411 
831.6      0.04793847 1          0.4041809 
831.7      0.05011881 1          0.4108562 
831.8      0.0477088  1          0.44905   
831.9      0.05018873 1          0.4626186 
832        0.04666032 1          0.4446149 
832.1      0.02548737 1          0.4286032 
832.2      0.03530152 1          0.4232349 
832.3      0.04226509 1          0.4215586 
832.4      0.03344615 1          0.4135434 
832.5      0.06667082 1          0.3985796 
832.6      0.05305976 1          0.3968568 
832.7      0.07024495 1          0.3824273 
832.8      0.07372412 1          0.3765982 
832.9      0.04706542 1          0.3812378 
833        0.0545851  1          0.3503359 
833.1      0.0216929  1          0.3115988 
833.2      0          1          0.2678646 
833.3      0          1          0.2450828 
833.4      0.04065816 1          0.2213235 
833.5      0.09584697 1          0.2264912 
833.6      0.09502561 1          0.2521731 
833.7      0.1003517  1          0.2840645 
833.8      0.09825036 1          0.3132089 
833.9      0.07784545 1          0.2765857 
834        0.070383   1          0.2719578 
834.1      0.06263974 1          0.2662849 
834.2      0.05117899 1          0.2412518 
834.3      0.03186889 1          0.202906  
834.4      0.03674576 1          0.1863246 
834.5      0.03014702 1          0.1587602 
834.6      0.02661738 1          0.1547611 
834.7      0.02259025 1          0.1521357 
834.8      0.03269012 1          0.1526731 
834.9      0.0580791  1          0.14125   
835        0.08652604 1          0.1450715 
835.1      0.0526674  1          0.1481908 
835.2      0.05204004 1          0.148324  
835.3      0.0742936  1          0.1466618 
835.4      0.1000589  1          0.1470602 
835.5      0.1024313  1          0.1469938 
835.6      0.1023694  1          0.1632041 
835.7      0.08147071 1          0.1502595 
835.8      0.103077   1          0.1347982 
835.9      0.08346881 1          0.1214661 
836        0.0694409  1          0.1151611 
836.1      0.06107154 1          0.109617  
836.2      0.07369604 1          0.1026935 
836.3      0.07996766 1          0.10137   
836.4      0.06739796 1          0.110107  
836.5      0.07590302 1          0.1011898 
836.6      0.07979731 1          0.1119494 
836.7      0.1052612  1          0.1093722 
836.8      0.08575024 1          0.1197093 
836.9      0.08675095 1          0.128307  
837        0.09261423 1          0.1383716 
837.1      0.09538855 1          0.1449392 
837.2      0.08824819 1          0.1612164 
837.3      0.07396412 1          0.1597821 
837.4      0.07002784 1          0.1711656 
837.5      0.05973713 1          0.154154  
837.6      0.02420368 1          0.1289456 
837.7      0.04226563 1          0.1118263 
837.8      0.07275121 1          0.1099232 
837.9      0.07358637 1          0.1090664 
838        0.08227129 1          0.1035378 
838.1      0.08677537 1          0.09022383
838.2      0.1059957  0.9796746  0.08487472
838.3      0.1209555  0.8113751  0.07001161
838.4      0.1094884  0.8348362  0.07499984
838.5      0.09507033 0.9468184  0.06602117
838.6      0.09075867 0.9283578  0.07068057
838.7      0.09994147 0.7353379  0.05659504
838.8      0.09500196 0.6962199  0.04425332
838.9      0.0977129  0.632517   0.04103614
839        0.08370446 0.7470762  0.04902588
839.1      0.08947176 0.684834   0.05627218
839.2      0.09793446 0.642724   0.06065365
839.3      0.1154057  0.5675544  0.06299977
839.4      0.1539917  0.4664803  0.06168858
839.5      0.1518657  0.5241944  0.05891679
839.6      0.1640255  0.4826945  0.05557357
839.7      0.1615249  0.4409212  0.05327178
839.8      0.1517166  0.4352961  0.05444771
839.9      0.1413601  0.4200652  0.05364554
840        0.1329338  0.4196218  0.05209943
840.1      0.1484264  0.3573705  0.05460835
840.2      0.1581895  0.3529373  0.06141596
840.3      0.1753638  0.3394592  0.06569045
840.4      0.1748455  0.4041479  0.06673872
840.5      0.2049877  0.3680049  0.07230188
840.6      0.1987219  0.4449105  0.08360573
840.7      0.203521   0.4506142  0.08928862
840.8      0.2136038  0.4157518  0.09700726
840.9      0.2163006  0.398394   0.105838  
841        0.205443   0.4414696  0.1027538 
841.1      0.1892797  0.5742975  0.1197093 
841.2      0.1600309  0.91435    0.1391549 
841.3      0.1245907  1          0.1756519 
841.4      0.1014548  1          0.1823141 
841.5      0.09012055 1          0.1768503 
841.6      0.100245   1          0.176427  
841.7      0.1120196  1          0.1503933 
841.8      0.07234392 1          0.1528075 
841.9      0.08691431 1          0.14125   
842        0.107449   1          0.1222212 
842.1      0.1050883  1          0.1199599 
842.2      0.09545638 1          0.1187085 
842.3      0.1083057  1          0.119021  
842.4      0.07549129 1          0.1005898 
842.5      0.06593659 1          0.08707583
842.6      0.07499477 1          0.07680851
842.7      0.03045345 1          0.07590318
842.8      0.05421205 1          0.08062167
842.9      0.07636899 1          0.08360573
843        0.08047145 1          0.087657  
843.1      0.09791765 1          0.09433993
843.2      0.09298409 1          0.1071143 
843.3      0.08708626 1          0.1231667 
843.4      0.0940016  1          0.1376547 
843.5      0.08774603 1          0.1489239 
843.6      0.08160122 1          0.1438162 
843.7      0.08012684 1          0.1548286 
843.8      0.07806925 1          0.1738245 
843.9      0.09766357 1          0.1632041 
844        0.1014982  1          0.1661661 
844.1      0.09461863 1          0.1775566 
844.2      0.105019   1          0.1961959 
844.3      0.1083862  1          0.180747  
844.4      0.1115459  1          0.1760041 
844.5      0.1245187  1          0.1678964 
844.6      0.1219442  1          0.16665   
844.7      0.08248332 1          0.1708168 
844.8      0.06208288 1          0.1801784 
844.9      0.06914271 1          0.162175  
845        0.0713158  1          0.1647862 
845.1      0.08018436 1          0.1726333 
845.2      0.07001664 1          0.1672035 
845.3      0.07766743 1          0.1491907 
845.4      0.07269306 1          0.1421039 
845.5      0.06058722 1          0.1512637 
845.6      0.07384372 1          0.1601915 
845.7      0.07780366 1          0.1507279 
845.8      0.07133298 1          0.1467282 
845.9      0.08345162 1          0.1495244 
846        0.07766484 1          0.1651998 
846.1      0.07099122 1          0.1658898 
846.2      0.05871791 1          0.1676191 
846.3      0.07890059 1          0.1629981 
846.4      0.05665768 1          0.1586241 
846.5      0.06834916 1          0.1448731 
846.6      0.1016848  1          0.1515318 
846.7      0.09650891 1          0.1511297 
846.8      0.07858573 1          0.1520685 
846.9      0.05772483 1          0.1669959 
847        0.08110882 1          0.1614901 
847.1      0.100541   1          0.1434205 
847.2      0.09997223 1          0.1433546 
847.3      0.1011233  1          0.133441  
847.4      0.1092221  1          0.1299052 
847.5      0.1066871  1          0.1485239 
847.6      0.1000129  1          0.1612164 
847.7      0.1065246  1          0.1690764 
847.8      0.1055425  1          0.1964157 
847.9      0.1132378  1          0.1982515 
848        0.1226018  1          0.2264137 
848.1      0.1244071  1          0.2282763 
848.2      0.1337302  1          0.2365778 
848.3      0.1388531  1          0.2351594 
848.4      0.136302   1          0.2298333 
848.5      0.1368857  1          0.2518489 
848.6      0.1269732  1          0.2635511 
848.7      0.1194054  1          0.2692815 
848.8      0.1099755  1          0.2553432 
848.9      0.09058587 1          0.2371303 
849        0.07442075 1          0.2142298 
849.1      0.06634621 1          0.1956832 
849.2      0.07458196 1          0.1796813 
849.3      0.08326962 1          0.1721436 
849.4      0.09434471 1          0.158488  
