~Version
 VERS              .         3.0                           : CWLS LOG ASCII STANDARD - VERSION 3.0
 WRAP              .         NO                            : ONE LINE PER DEPTH STEP
 DLM               .         SPACE                         : DELIMITING CHARACTER(SPACE TAB OR COMMA)
~Well Information
#_______________________________________________________________________________
#
#PARAMETER_NAME    .UNIT     VALUE                         : DESCRIPTION
#_______________________________________________________________________________
STRT               .M        51                            : First reference value
STOP               .M        906.1                         : Last reference value
STEP               .M        0.1                           : Step increment
NULL               .         -9999                         : Missing value
COMP               .         ICPetroleum                   : Company
WELL               .         317                           : Well name
FLD                .         Karatobe                      : Field
LOC                .                                       : Location
SRVC               .                                       : Service Company
CTRY               .         KZ                            : Country
DATE               .         09/11/2004                    : Service Date
LATI               .         0                             : Latitude
LONG               .         0                             : Longitude
GDAT               .         WGS 84                        : Geodetic Datum
CNTY               .                                       : 
COORDIN            .                                       : Grid System
COUNTRY            .         Kazakhstan                    : 
COUNTRY            .         Kazakhstan                    : 
EREF               .m        145.4                         : 
KB                 .         144.9                         : KB Elevation
ORIGINALWELLNAME   .         317                           : 
PROV               .                                       : Province
RWS                .         -999                          : Def_Rw
STAT               .                                       : 
UWI                .                                       : 
WST                .         -999                          : Def_Rwt
X                  .km       466008.8                      : 
XCOORD             .                                       : X or East-West Coordinate
Y                  .km       5307445.74                    : 
YCOORD             .                                       : Y or North-South Coordinate
~Parameter Information Block
#_______________________________________________________________________________
#
#PARAMETER_NAME    .UNIT     VALUE                         : DESCRIPTION
#_______________________________________________________________________________
SET                .         Las                           : 
TLFamily_DEPT      .         Measured Depth                : 
TLFamily_PHI_FINAL .         Porosity                      : 
TLFamily_SW_AR     .         Water Saturation              : 
TLFamily_VSH_FINAL .         Shale Volume                  : 
~Curve Information
#_______________________________________________________________________________
#
#LOGNAME           .UNIT     LOG_ID                        : DESCRIPTION
#_______________________________________________________________________________
DEPT               .M                                      : Depth curve {F}
PHI_FINAL          .m3/m3                                  : Porosity {F}
SW_AR              .m3/m3                                  :  {F}
VSH_FINAL          .unitless                               : Vshale {F}
~Ascii
# ...
740.3      0.08883974 1          0.3892052 
740.4      0.07289932 1          0.3714026 
740.5      0.0780049  1          0.3520433 
740.6      0.07723081 1          0.3446755 
740.7      0.09105    1          0.3196901 
740.8      0.08660613 1          0.3427991 
740.9      0.1016521  1          0.3436428 
741        0.09424654 1          0.3488218 
741.1      0.1039434  1          0.3798526 
741.2      0.1133914  1          0.363729  
741.3      0.09365388 1          0.360837  
741.4      0.1003174  1          0.340181  
741.5      0.1082577  1          0.3531839 
741.6      0.07462079 1          0.3695493 
741.7      0.05538036 1          0.372967  
741.8      0.07623069 1          0.3780756 
741.9      0.0731862  1          0.3824273 
742        0.06235297 1          0.3792598 
742.1      0.05790661 1          0.3623779 
742.2      0.04319371 1          0.3764015 
742.3      0.0440444  1          0.3855093 
742.4      0.05321121 1          0.3663422 
742.5      0.06427532 1          0.3587239 
742.6      0.06619805 1          0.3681869 
742.7      0.0894639  1          0.3650828 
742.8      0.09311558 1          0.3626672 
742.9      0.08825294 1          0.3492    
743        0.09344973 1          0.3355311 
743.1      0.09562436 1          0.3221373 
743.2      0.1007306  1          0.3247761 
743.3      0.1070006  1          0.3094581 
743.4      0.08870292 1          0.3016701 
743.5      0.07818823 1          0.3114201 
743.6      0.08137885 1          0.2961529 
743.7      0.1082446  1          0.254366  
743.8      0.1082765  1          0.2511202 
743.9      0.1063083  1          0.2478119 
744        0.1032202  1          0.2503115 
744.1      0.1231816  1          0.2444425 
744.2      0.1219538  1          0.2666171 
744.3      0.09409223 1          0.2773464 
744.4      0.1051443  1          0.2777694 
744.5      0.1128988  1          0.2754043 
744.6      0.1012193  1          0.2691146 
744.7      0.1144449  1          0.2621477 
744.8      0.1197409  1          0.2741412 
744.9      0.1199169  1          0.2935427 
745        0.1017176  1          0.3114201 
745.1      0.0984337  1          0.2945855 
745.2      0.1071968  1          0.3007912 
745.3      0.1070267  1          0.2933691 
745.4      0.1180174  1          0.3000011 
745.5      0.1105054  1          0.3155418 
745.6      0.1051706  1          0.3336802 
745.7      0.1097128  1          0.3262365 
745.8      0.1035976  1          0.3470282 
745.9      0.08897613 1          0.3407412 
746        0.08489665 1          0.3426118 
746.1      0.08268165 1          0.3341425 
746.2      0.06490118 1          0.3385964 
746.3      0.07179007 1          0.343174  
746.4      0.0781531  1          0.3430802 
746.5      0.07950252 1          0.3057292 
746.6      0.04420875 1          0.2905112 
746.7      0.05038404 1          0.2780234 
746.8      0.06733117 1          0.2666171 
746.9      0.07879925 1          0.2493426 
747        0.09030293 1          0.2622302 
747.1      0.1081799  1          0.2694484 
747.2      0.1101806  1          0.2746461 
747.3      0.09838255 1          0.2947594 
747.4      0.1104539  1          0.2957171 
747.5      0.1147874  1          0.274983  
747.6      0.1050159  1          0.2862059 
747.7      0.1205504  1          0.2893889 
747.8      0.1180216  1          0.2979867 
747.9      0.1062079  1          0.2961529 
748        0.1103533  1          0.2800587 
748.1      0.1145459  1          0.279804  
748.2      0.1086893  1          0.2937163 
748.3      0.1055475  1          0.2803986 
748.4      0.11071    1          0.2948465 
748.5      0.07837481 1          0.318786  
748.6      0.08385937 1          0.3241382 
748.7      0.08272567 1          0.3099926 
748.8      0.09216277 1          0.2899066 
748.9      0.09259418 1          0.3004399 
749        0.09490944 1          0.3085683 
749.1      0.0932662  1          0.292155  
749.2      0.09459653 1          0.3156317 
749.3      0.1032822  1          0.2821009 
749.4      0.1015028  1          0.2941508 
749.5      0.08347825 1          0.2854341 
749.6      0.07051181 1          0.2855198 
749.7      0.05225818 1          0.3015822 
749.8      0.06713796 1          0.3029909 
749.9      0.07435959 1          0.3064378 
750        0.06323246 1          0.3302696 
750.1      0.05761351 1          0.3533742 
750.2      0.08698554 1          0.3115094 
750.3      0.08611651 1          0.3144641 
750.4      0.07294349 1          0.317252  
750.5      0.08015694 1          0.3027265 
750.6      0.08004417 1          0.3051099 
750.7      0.06744236 1          0.3119562 
750.8      0.06784149 1          0.2985991 
750.9      0.06656376 1          0.2909433 
751        0.05953404 1          0.3048446 
751.1      0.0699424  1          0.2934558 
751.2      0.07204091 1          0.284321  
751.3      0.07285641 1          0.2575482 
751.4      0.0672642  1          0.2745619 
751.5      0.1054344  1          0.2667832 
751.6      0.097388   1          0.2741412 
751.7      0.115778   1          0.2676148 
751.8      0.1208027  1          0.2685309 
751.9      0.1201193  1          0.2548545 
752        0.1181697  1          0.2454833 
752.1      0.1140458  1          0.2395044 
752.2      0.1060241  1          0.2487782 
752.3      0.09298135 1          0.2651236 
752.4      0.08577157 1          0.2736366 
752.5      0.09416734 1          0.2850914 
752.6      0.1010945  1          0.2715388 
752.7      0.107746   1          0.2769237 
752.8      0.1145561  1          0.2777694 
752.9      0.10478    1          0.2770082 
753        0.1264731  1          0.2412518 
753.1      0.1263926  1          0.2375253 
753.2      0.1361779  1          0.2322551 
753.3      0.1333352  1          0.2379206 
753.4      0.1326702  1          0.2261813 
753.5      0.1416879  1          0.2295215 
753.6      0.1445237  1          0.2178796 
753.7      0.1368931  1          0.2158236 
753.8      0.117163   1          0.202906  
753.9      0.1225847  1          0.1984722 
754        0.1428412  1          0.1915999 
754.1      0.1420487  1          0.1942942 
754.2      0.1522576  1          0.2055842 
754.3      0.1437731  1          0.2284318 
754.4      0.1365619  1          0.2389496 
754.5      0.1412678  1          0.2389496 
754.6      0.1404557  1          0.2357106 
754.7      0.1159766  1          0.2489394 
754.8      0.1175672  1          0.2675317 
754.9      0.1204816  1          0.2716226 
755        0.1288892  1          0.2990369 
755.1      0.114067   1          0.3174323 
755.2      0.1120272  1          0.3403677 
755.3      0.1176393  1          0.3572868 
755.4      0.1229721  1          0.3391553 
755.5      0.1441248  1          0.3072359 
755.6      0.1552913  1          0.3083016 
755.7      0.1490444  1          0.3126717 
755.8      0.1321597  1          0.3393416 
755.9      0.1696008  1          0.3566172 
756        0.1685338  1          0.3662452 
756.1      0.182708   1          0.3580529 
756.2      0.1916422  1          0.3550892 
756.3      0.1613936  1          0.3363657 
756.4      0.1712043  1          0.3405544 
756.5      0.2056811  1          0.351189  
756.6      0.2238763  1          0.3733587 
756.7      0.2245541  1          0.3549938 
756.8      0.1942047  1          0.3629566 
756.9      0.1875413  1          0.3712073 
757        0.158105   1          0.38342   
757.1      0.162186   1          0.3674096 
757.2      0.1448803  1          0.3774843 
757.3      0.1634676  1          0.3725756 
757.4      0.1632023  1          0.3501464 
757.5      0.1235831  1          0.3320189 
757.6      0.1061554  1          0.3066151 
757.7      0.001764347 1          0.2777694 
757.8      0.06248486 1          0.2535528 
757.9      0.08950733 1          0.2213235 
758        0.1047724  1          0.2270339 
758.1      0.09507055 1          0.2320203 
758.2      0.1029407  1          0.249262  
758.3      0.1215815  1          0.2438828 
758.4      0.1074475  1          0.2779387 
