~Version
 VERS              .         3.0                           : CWLS LOG ASCII STANDARD - VERSION 3.0
 WRAP              .         NO                            : ONE LINE PER DEPTH STEP
 DLM               .         SPACE                         : DELIMITING CHARACTER(SPACE TAB OR COMMA)
~Well Information
#_______________________________________________________________________________
#
#PARAMETER_NAME    .UNIT     VALUE                         : DESCRIPTION
#_______________________________________________________________________________
STRT               .M        51                            : First reference value
STOP               .M        906.1                         : Last reference value
STEP               .M        0.1                           : Step increment
NULL               .         -9999                         : Missing value
COMP               .         ICPetroleum                   : Company
WELL               .         317                           : Well name
FLD                .         Karatobe                      : Field
LOC                .                                       : Location
SRVC               .                                       : Service Company
CTRY               .         KZ                            : Country
DATE               .         09/11/2004                    : Service Date
LATI               .         0                             : Latitude
LONG               .         0                             : Longitude
GDAT               .         WGS 84                        : Geodetic Datum
CNTY               .                                       : 
COORDIN            .                                       : Grid System
COUNTRY            .         Kazakhstan                    : 
COUNTRY            .         Kazakhstan                    : 
EREF               .m        145.4                         : 
KB                 .         144.9                         : KB Elevation
ORIGINALWELLNAME   .         317                           : 
PROV               .                                       : Province
RWS                .         -999                          : Def_Rw
STAT               .                                       : 
UWI                .                                       : 
WST                .         -999                          : Def_Rwt
X                  .km       466008.8                      : 
XCOORD             .                                       : X or East-West Coordinate
Y                  .km       5307445.74                    : 
YCOORD             .                                       : Y or North-South Coordinate
~Parameter Information Block
#_______________________________________________________________________________
#
#PARAMETER_NAME    .UNIT     VALUE                         : DESCRIPTION
#_______________________________________________________________________________
SET                .         Las                           : 
TLFamily_DEPT      .         Measured Depth                : 
TLFamily_PHI_FINAL .         Porosity                      : 
TLFamily_SW_AR     .         Water Saturation              : 
TLFamily_VSH_FINAL .         Shale Volume                  : 
~Curve Information
#_______________________________________________________________________________
#
#LOGNAME           .UNIT     LOG_ID                        : DESCRIPTION
#_______________________________________________________________________________
DEPT               .M                                      : Depth curve {F}
PHI_FINAL          .m3/m3                                  : Porosity {F}
SW_AR              .m3/m3                                  :  {F}
VSH_FINAL          .unitless                               : Vshale {F}
~Ascii
# ...
594.7      0.1500942  1          0.6850441 
594.8      0.1336865  1          0.7247098 
594.9      0.1123547  1          0.7647892 
595        0.1329269  1          0.7209554 
595.1      0.1374595  1          0.7136034 
595.2      0.1259751  1          0.7320637 
595.3      0.1468751  1          0.6653131 
595.4      0.175141   1          0.6160114 
595.5      0.1624155  1          0.6638882 
595.6      0.1468776  1          0.6862423 
595.7      0.1711812  1          0.6436945 
595.8      0.1689948  1          0.6428045 
595.9      0.1274924  1          0.7468468 
596        0.1346674  1          0.7141738 
596.1      0.1327128  1          0.7123206 
596.2      0.1147254  1          0.7667647 
596.3      0.1169885  1          0.7532448 
596.4      0.156092   1          0.6488372 
596.5      0.1773522  1          0.5948676 
596.6      0.1362242  1          0.6883955 
596.7      0.1256524  1          0.712992  
596.8      0.1522988  1          0.6528845 
596.9      0.167726   1          0.6293765 
597        0.1533792  1          0.6671486 
597.1      0.1443888  1          0.6910627 
597.2      0.1303156  1          0.7229912 
597.3      0.1137558  1          0.7500479 
597.4      0.1245909  1          0.7298704 
597.5      0.0962676  1          0.7907199 
597.6      0.1297769  1          0.7170608 
597.7      0.1188639  1          0.7302096 
597.8      0.1097618  1          0.7577302 
597.9      0.1067638  1          0.7583061 
598        0.1218901  1          0.7124829 
598.1      0.1500402  1          0.654273  
598.2      0.1585131  1          0.6185306 
598.3      0.1386826  1          0.6573191 
598.4      0.1533774  1          0.6270491 
598.5      0.1622869  1          0.6178818 
598.6      0.1683001  1          0.5979351 
598.7      0.1595951  1          0.6115937 
598.8      0.1597573  1          0.5992584 
598.9      0.1859862  1          0.5429904 
599        0.1761989  1          0.5671878 
599.1      0.1806123  1          0.5554709 
599.2      0.1662724  1          0.5903885 
599.3      0.1534822  1          0.619864  
599.4      0.1715308  1          0.5825292 
599.5      0.1640863  1          0.5995988 
599.6      0.1631675  1          0.5993271 
599.7      0.1658181  1          0.5883178 
599.8      0.18403    1          0.5493728 
599.9      0.1839768  1          0.5534619 
600        0.1746694  1          0.5911977 
600.1      0.1782923  1          0.5749018 
600.2      0.1611757  1          0.6129497 
600.3      0.1480395  1          0.6372604 
600.4      0.1802938  1          0.5503026 
600.5      0.1862726  1          0.5378811 
600.6      0.1821855  1          0.5501512 
600.7      0.1802682  1          0.5633689 
600.8      0.1717198  1          0.592376  
600.9      0.1685726  1          0.599718  
601        0.1737329  1          0.5741795 
601.1      0.1736872  1          0.5864288 
601.2      0.1909794  1          0.5476245 
601.3      0.1902292  1          0.5367838 
601.4      0.2037067  1          0.5173704 
601.5      0.1929203  1          0.5506803 
601.6      0.1721154  1          0.6053049 
601.7      0.1726902  1          0.5892335 
601.8      0.190302   1          0.5501068 
601.9      0.1977203  1          0.5216289 
602        0.190372   1          0.5511668 
602.1      0.1918606  1          0.5516108 
602.2      0.1983896  1          0.5187807 
602.3      0.1754711  1          0.5880032 
602.4      0.1830725  1          0.5782772 
602.5      0.2054069  1          0.5151292 
602.6      0.1958236  1          0.5271036 
602.7      0.184602   1          0.5489076 
602.8      0.1923413  1          0.5257956 
602.9      0.1986191  1          0.5106215 
603        0.1987421  1          0.5144553 
603.1      0.2023794  1          0.5217713 
603.2      0.2085636  1          0.4968019 
603.3      0.2125467  1          0.4863831 
603.4      0.2229583  1          0.4563615 
603.5      0.2306265  1          0.421826  
603.6      0.2238204  1          0.4493686 
603.7      0.234731   1          0.4242045 
603.8      0.2416079  1          0.4148251 
603.9      0.217223   1          0.4852202 
604        0.2038421  1          0.5242764 
604.1      0.211283   1          0.5245367 
604.2      0.1971629  1          0.557839  
604.3      0.1998737  1          0.5516717 
604.4      0.191533   1          0.553851  
604.5      0.1951313  1          0.551174  
604.6      0.1899206  1          0.5679242 
604.7      0.1909491  1          0.5529276 
604.8      0.1823803  1          0.5605289 
604.9      0.1938871  1          0.5458767 
605        0.1817847  1          0.5727754 
605.1      0.1772308  1          0.5976583 
605.2      0.1549445  1          0.6473827 
605.3      0.183354   1          0.5822607 
605.4      0.2186847  1          0.4925144 
605.5      0.2015738  1          0.5369184 
605.6      0.2023822  1          0.5417655 
605.7      0.2264783  1          0.4742564 
605.8      0.2177485  1          0.4861689 
605.9      0.2110876  1          0.5032681 
606        0.2048088  1          0.5404487 
606.1      0.1909209  1          0.5699393 
606.2      0.1771821  1          0.6068113 
606.3      0.1716784  1          0.6039116 
606.4      0.1652274  1          0.6301479 
606.5      0.1594566  1          0.6357154 
606.6      0.1736803  1          0.610992  
606.7      0.162884   1          0.6285195 
606.8      0.1669884  1          0.6303706 
606.9      0.1960868  1          0.5585557 
607        0.1721843  1          0.6010749 
607.1      0.1806053  1          0.5714625 
607.2      0.2062321  1          0.4982629 
607.3      0.2333028  1          0.4423359 
607.4      0.2411857  1          0.4281656 
607.5      0.2195767  1          0.4716235 
607.6      0.2116906  1          0.4937411 
607.7      0.1980325  1          0.5306141 
607.8      0.1874589  1          0.5594355 
607.9      0.1929639  1          0.5443208 
608        0.1951302  1          0.5433929 
608.1      0.1920023  1          0.5546741 
608.2      0.1711679  1          0.605099  
608.3      0.1641354  1          0.6224616 
608.4      0.157874   1          0.6214136 
608.5      0.1400495  1          0.650676  
608.6      0.1281202  1          0.6828158 
608.7      0.1370289  1          0.6621584 
608.8      0.1496301  1          0.6272182 
608.9      0.1536575  1          0.6261631 
609        0.1641292  1          0.6034815 
609.1      0.1537692  1          0.6333529 
609.2      0.1367197  1          0.6832588 
609.3      0.1423318  1          0.6756923 
609.4      0.1599206  1          0.6134849 
609.5      0.1601329  1          0.6094311 
609.6      0.1531368  1          0.6270824 
609.7      0.1766179  1          0.557798  
609.8      0.1791514  1          0.5554602 
609.9      0.1427462  1          0.6291347 
610        0.1376609  1          0.622108  
610.1      0.1259372  1          0.6499746 
610.2      0.1150708  1          0.6711068 
610.3      0.1424465  1          0.6155467 
610.4      0.1487052  1          0.6158397 
610.5      0.1628976  1          0.578414  
610.6      0.1884363  1          0.5273686 
610.7      0.1670715  1          0.5764579 
610.8      0.1763691  1          0.5555643 
610.9      0.1694664  1          0.5705885 
611        0.1762197  1          0.5618641 
611.1      0.1752862  1          0.5660059 
611.2      0.1760722  1          0.557344  
611.3      0.1642505  1          0.5720499 
611.4      0.1693892  1          0.5535479 
611.5      0.1447473  1          0.590661  
611.6      0.1269287  1          0.6330387 
611.7      0.1522365  1          0.5824928 
611.8      0.1629446  1          0.5705876 
611.9      0.1517559  1          0.597132  
612        0.1488415  1          0.6061602 
612.1      0.1644742  1          0.5648729 
612.2      0.1506923  1          0.6002128 
612.3      0.1599261  1          0.5839959 
612.4      0.1626904  1          0.5686967 
612.5      0.1593756  1          0.5640336 
612.6      0.1539814  1          0.579781  
612.7      0.1573586  1          0.567224  
612.8      0.1499544  1          0.5776438 
