~Version
 VERS              .         3.0                           : CWLS LOG ASCII STANDARD - VERSION 3.0
 WRAP              .         NO                            : ONE LINE PER DEPTH STEP
 DLM               .         SPACE                         : DELIMITING CHARACTER(SPACE TAB OR COMMA)
~Well Information
#_______________________________________________________________________________
#
#PARAMETER_NAME    .UNIT     VALUE                         : DESCRIPTION
#_______________________________________________________________________________
STRT               .M        51                            : First reference value
STOP               .M        906.1                         : Last reference value
STEP               .M        0.1                           : Step increment
NULL               .         -9999                         : Missing value
COMP               .         ICPetroleum                   : Company
WELL               .         317                           : Well name
FLD                .         Karatobe                      : Field
LOC                .                                       : Location
SRVC               .                                       : Service Company
CTRY               .         KZ                            : Country
DATE               .         09/11/2004                    : Service Date
LATI               .         0                             : Latitude
LONG               .         0                             : Longitude
GDAT               .         WGS 84                        : Geodetic Datum
CNTY               .                                       : 
COORDIN            .                                       : Grid System
COUNTRY            .         Kazakhstan                    : 
COUNTRY            .         Kazakhstan                    : 
EREF               .m        145.4                         : 
KB                 .         144.9                         : KB Elevation
ORIGINALWELLNAME   .         317                           : 
PROV               .                                       : Province
RWS                .         -999                          : Def_Rw
STAT               .                                       : 
UWI                .                                       : 
WST                .         -999                          : Def_Rwt
X                  .km       466008.8                      : 
XCOORD             .                                       : X or East-West Coordinate
Y                  .km       5307445.74                    : 
YCOORD             .                                       : Y or North-South Coordinate
~Parameter Information Block
#_______________________________________________________________________________
#
#PARAMETER_NAME    .UNIT     VALUE                         : DESCRIPTION
#_______________________________________________________________________________
SET                .         Las                           : 
TLFamily_DEPT      .         Measured Depth                : 
TLFamily_PHI_FINAL .         Porosity                      : 
TLFamily_SW_AR     .         Water Saturation              : 
TLFamily_VSH_FINAL .         Shale Volume                  : 
~Curve Information
#_______________________________________________________________________________
#
#LOGNAME           .UNIT     LOG_ID                        : DESCRIPTION
#_______________________________________________________________________________
DEPT               .M                                      : Depth curve {F}
PHI_FINAL          .m3/m3                                  : Porosity {F}
SW_AR              .m3/m3                                  :  {F}
VSH_FINAL          .unitless                               : Vshale {F}
~Ascii
# ...
649.3      0.09108505 1          0.7334881 
649.4      0.0574043  1          0.7656853 
649.5      0.06086335 1          0.7548149 
649.6      0.06687684 1          0.7412323 
649.7      0.05108102 1          0.800552  
649.8      0.08034265 1          0.7504859 
649.9      0.06521761 1          0.7902768 
650        0.05928493 1          0.8020719 
650.1      0.07328297 1          0.7612975 
650.2      0.08451075 1          0.7232621 
650.3      0.078579   1          0.7503782 
650.4      0.08435868 1          0.7533728 
650.5      0.05228033 1          0.8677438 
650.6      0.0631431  1          0.8387672 
650.7      0.05449467 1          0.8604354 
650.8      0.05564078 1          0.8307148 
650.9      0.04725882 1          0.8748139 
651        0.0226006  1          0.9466879 
651.1      0.01713331 1          0.9641858 
651.2      0.01819848 1          0.9629223 
651.3      0.04395537 1          0.8712324 
651.4      0.04404926 1          0.8856479 
651.5      0.03912509 1          0.909458  
651.6      0.02703928 1          0.9308859 
651.7      0.04104173 1          0.8947956 
651.8      0.05740898 1          0.8389559 
651.9      0.05442372 1          0.8538761 
652        0.04706931 1          0.8695406 
652.1      0.05393128 1          0.8334534 
652.2      0.06270423 1          0.793139  
652.3      0.08530854 1          0.7277048 
652.4      0.08065744 1          0.7377721 
652.5      0.09619691 1          0.6890798 
652.6      0.1118367  1          0.6639968 
652.7      0.1084467  1          0.6702708 
652.8      0.1251944  1          0.6272877 
652.9      0.09669487 1          0.6530948 
653        0.08820818 1          0.6580968 
653.1      0.06664643 1          0.652131  
653.2      0.08367713 1          0.572466  
653.3      0.07733167 1          0.544993  
653.4      0.08761793 1          0.5221953 
653.5      0.1099797  1          0.522769  
653.6      0.1293087  1          0.5649004 
653.7      0.1197327  1          0.6276335 
653.8      0.0959486  1          0.7064154 
653.9      0.08538379 1          0.7552748 
654        0.06285879 1          0.8274386 
654.1      0.07458455 1          0.7775667 
654.2      0.07041033 1          0.7979923 
654.3      0.06393033 1          0.8058476 
654.4      0.07144906 1          0.7804193 
654.5      0.08365149 1          0.731191  
654.6      0.07920474 1          0.7261382 
654.7      0.08739462 1          0.709272  
654.8      0.0955222  1          0.7235731 
654.9      0.09559461 1          0.7283981 
655        0.08457059 1          0.7494132 
655.1      0.07948027 1          0.7633121 
655.2      0.09454612 1          0.7210215 
655.3      0.07827442 1          0.7615205 
655.4      0.06510183 1          0.8137411 
655.5      0.08253315 1          0.766681  
655.6      0.08287493 1          0.7817788 
655.7      0.09153614 1          0.7736856 
655.8      0.08561628 1          0.783152  
655.9      0.07171389 1          0.7901749 
656        0.05675811 1          0.8208744 
656.1      0.0695968  1          0.806271  
656.2      0.06212396 1          0.822544  
656.3      0.06747837 1          0.8043845 
656.4      0.07471655 1          0.7847509 
656.5      0.07104295 1          0.8126394 
656.6      0.06832983 1          0.8292661 
656.7      0.07905559 1          0.7971224 
656.8      0.05889659 1          0.8177418 
656.9      0.0497825  1          0.8390853 
657        0.06547712 1          0.8080142 
657.1      0.07067424 1          0.7968811 
657.2      0.07064482 1          0.7826755 
657.3      0.08656138 1          0.746899  
657.4      0.07312106 1          0.7753748 
657.5      0.07737046 1          0.7791292 
657.6      0.06583504 1          0.8335802 
657.7      0.1013944  1          0.7233135 
657.8      0.1298625  1          0.6891852 
657.9      0.1314109  1          0.6919519 
658        0.1687037  1          0.5985644 
658.1      0.2163906  1          0.5406992 
658.2      0.2477806  1          0.4845914 
658.3      0.2852068  1          0.4055033 
658.4      0.3001404  1          0.3523778 
658.5      0.2947393  1          0.3619968 
658.6      0.2887579  1          0.3744804 
658.7      0.2720284  1          0.3996583 
658.8      0.2464434  1          0.4537267 
658.9      0.2267399  1          0.4932241 
659        0.1892948  1          0.6113785 
659.1      0.1629101  1          0.6325348 
659.2      0.1579933  1          0.6463857 
659.3      0.1302753  1          0.7054338 
659.4      0.1390859  1          0.6689067 
659.5      0.1484073  1          0.6548376 
659.6      0.09375351 1          0.7158245 
659.7      0.07419575 1          0.7499944 
659.8      0.08355589 1          0.7598472 
659.9      0.07837045 1          0.7734283 
660        0.09510406 1          0.7594019 
660.1      0.06744775 1          0.8382063 
660.2      0.03956154 1          0.8594939 
660.3      0.04122541 1          0.8403896 
660.4      0.04829097 1          0.8083912 
660.5      0.06331342 1          0.8092129 
660.6      0.0782406  1          0.7773912 
660.7      0.06265718 1          0.8040388 
660.8      0.06141903 1          0.7881345 
660.9      0.08374818 1          0.7577363 
661        0.09906348 1          0.722425  
661.1      0.08905952 1          0.7412514 
661.2      0.09382252 1          0.7505538 
661.3      0.1106901  1          0.6972122 
661.4      0.1025696  1          0.7710471 
661.5      0.0984636  1          0.7893891 
661.6      0.1182313  1          0.7543046 
661.7      0.1209746  1          0.743219  
661.8      0.1630889  1          0.6390724 
661.9      0.1952094  1          0.6140812 
662        0.2036634  1          0.5956645 
662.1      0.2054296  1          0.5988142 
662.2      0.1791313  1          0.6513957 
662.3      0.1067271  1          0.803063  
662.4      0.1041528  1          0.7748807 
662.5      0.08276269 1          0.7928318 
662.6      0.06194859 1          0.8024711 
662.7      0.04694353 1          0.8086803 
662.8      0.05487598 1          0.7994356 
662.9      0.09069303 1          0.6894864 
663        0.1373552  1          0.6422032 
663.1      0.1562043  1          0.5771317 
663.2      0.1633111  1          0.5747949 
663.3      0.1636244  1          0.587855  
663.4      0.1577099  1          0.5352885 
663.5      0.1361804  1          0.5384865 
663.6      0.1667297  1          0.5004656 
663.7      0.2195043  1          0.4339066 
663.8      0.201183   1          0.438369  
663.9      0.2174897  1          0.4173112 
664        0.1990799  1          0.4743556 
664.1      0.2018168  1          0.4908413 
664.2      0.175977   1          0.4941149 
664.3      0.1641028  1          0.5154252 
664.4      0.1665718  1          0.5306894 
664.5      0.156307   1          0.5694774 
664.6      0.1640637  1          0.5678556 
664.7      0.1675572  1          0.574848  
664.8      0.1819254  1          0.5289576 
664.9      0.154463   1          0.5631854 
665        0.1402885  1          0.5903948 
665.1      0.1392194  1          0.5510641 
665.2      0.1317288  1          0.5471613 
665.3      0.1244398  1          0.5656121 
665.4      0.1392732  1          0.5151597 
665.5      0.1336616  1          0.4923794 
665.6      0.1338669  1          0.43698   
665.7      0.07933906 1          0.3742244 
665.8      0.03422352 1          0.3701051 
665.9      0.03131076 1          0.2988916 
666        0.03578896 1          0.2818548 
666.1      0.04098646 1          0.2539397 
666.2      0.04165111 1          0.2425772 
666.3      0.04272219 1          0.2382102 
666.4      0.0616258  1          0.2300057 
666.5      0.06332307 1          0.2465533 
666.6      0.07850935 1          0.231859  
666.7      0.08369623 1          0.2547554 
666.8      0.0842428  1          0.2878031 
666.9      0.09822408 1          0.3246159 
667        0.08067653 1          0.390288  
667.1      0.1140101  1          0.4133258 
667.2      0.1580862  1          0.4624393 
667.3      0.1538346  1          0.4480792 
667.4      0.1678116  1          0.4829317 
