~Version
 VERS              .         3.0                           : CWLS LOG ASCII STANDARD - VERSION 3.0
 WRAP              .         NO                            : ONE LINE PER DEPTH STEP
 DLM               .         SPACE                         : DELIMITING CHARACTER(SPACE TAB OR COMMA)
~Well Information
#_______________________________________________________________________________
#
#PARAMETER_NAME    .UNIT     VALUE                         : DESCRIPTION
#_______________________________________________________________________________
STRT               .M        51                            : First reference value
STOP               .M        906.1                         : Last reference value
STEP               .M        0.1                           : Step increment
NULL               .         -9999                         : Missing value
COMP               .         ICPetroleum                   : Company
WELL               .         317                           : Well name
FLD                .         Karatobe                      : Field
LOC                .                                       : Location
SRVC               .                                       : Service Company
CTRY               .         KZ                            : Country
DATE               .         09/11/2004                    : Service Date
LATI               .         0                             : Latitude
LONG               .         0                             : Longitude
GDAT               .         WGS 84                        : Geodetic Datum
CNTY               .                                       : 
COORDIN            .                                       : Grid System
COUNTRY            .         Kazakhstan                    : 
COUNTRY            .         Kazakhstan                    : 
EREF               .m        145.4                         : 
KB                 .         144.9                         : KB Elevation
ORIGINALWELLNAME   .         317                           : 
PROV               .                                       : Province
RWS                .         -999                          : Def_Rw
STAT               .                                       : 
UWI                .                                       : 
WST                .         -999                          : Def_Rwt
X                  .km       466008.8                      : 
XCOORD             .                                       : X or East-West Coordinate
Y                  .km       5307445.74                    : 
YCOORD             .                                       : Y or North-South Coordinate
~Parameter Information Block
#_______________________________________________________________________________
#
#PARAMETER_NAME    .UNIT     VALUE                         : DESCRIPTION
#_______________________________________________________________________________
SET                .         Las                           : 
TLFamily_DEPT      .         Measured Depth                : 
TLFamily_PHI_FINAL .         Porosity                      : 
TLFamily_SW_AR     .         Water Saturation              : 
TLFamily_VSH_FINAL .         Shale Volume                  : 
~Curve Information
#_______________________________________________________________________________
#
#LOGNAME           .UNIT     LOG_ID                        : DESCRIPTION
#_______________________________________________________________________________
DEPT               .M                                      : Depth curve {F}
PHI_FINAL          .m3/m3                                  : Porosity {F}
SW_AR              .m3/m3                                  :  {F}
VSH_FINAL          .unitless                               : Vshale {F}
~Ascii
# ...
794.9      0.1198389  1          0.3338651 
795        0.1225329  1          0.3341425 
795.1      0.1395563  1          0.3343275 
795.2      0.1405948  1          0.3192379 
795.3      0.1345814  1          0.3216834 
795.4      0.1254595  1          0.3346976 
795.5      0.141124   1          0.3354384 
795.6      0.1361454  1          0.3363657 
795.7      0.1439874  1          0.3177029 
795.8      0.1429705  1          0.2988617 
795.9      0.1404554  1          0.2978992 
796        0.1601633  1          0.2923283 
796.1      0.1465821  1          0.3068811 
796.2      0.1326512  1          0.319871  
796.3      0.1140185  1          0.3255972 
796.4      0.1009499  1          0.3436428 
796.5      0.1090137  1          0.3526134 
796.6      0.09716526 1          0.3548984 
796.7      0.09988183 1          0.3556618 
796.8      0.1075707  1          0.3835194 
796.9      0.09239864 1          0.4091046 
797        0.08710002 1          0.4011203 
797.1      0.08980145 1          0.4019352 
797.2      0.1016441  1          0.4036699 
797.3      0.08151499 1          0.3955423 
797.4      0.05633313 1          0.3872051 
797.5      0          1          0.4036699 
797.6      0.004634312 1          0.3975657 
797.7      0.009592596 1          0.4009167 
797.8      0.07922518 1          0.3610294 
797.9      0.09313678 1          0.3531839 
798        0.118682   1          0.3686731 
798.1      0.1048961  1          0.3526134 
798.2      0.0952294  1          0.3374802 
798.3      0.08810931 1          0.3476885 
798.4      0.08881572 1          0.3572868 
798.5      0.09473844 1          0.3631496 
798.6      0.101657   1          0.3296263 
798.7      0.09072504 1          0.3107951 
798.8      0.09249892 1          0.2967636 
798.9      0.07809956 1          0.3157217 
799        0.07681547 1          0.3360874 
799.1      0.06568077 1          0.3539454 
799.2      0.06131408 1          0.3647924 
799.3      0.06056568 1          0.3813369 
799.4      0.04678114 1          0.3882044 
799.5      0.0466622  1          0.3906087 
799.6      0.05245285 1          0.3929203 
799.7      0.05840798 1          0.3686731 
799.8      0.07242798 1          0.389005  
799.9      0.08876718 1          0.3694519 
800        0.07180431 1          0.3611257 
800.1      0.07736889 1          0.3674096 
800.2      0.05957769 1          0.3806438 
800.3      0.06620482 1          0.360164  
800.4      0.07433083 1          0.3508097 
800.5      0.07248738 1          0.3548031 
800.6      0.06826746 1          0.327151  
800.7      0.07240225 1          0.3150926 
800.8      0.08802906 1          0.3039612 
800.9      0.08540965 1          0.3248673 
801        0.0777204  1          0.3490109 
801.1      0.0530575  1          0.3788649 
801.2      0.06634098 1          0.367701  
801.3      0.07189727 1          0.3908094 
801.4      0.1015673  1          0.3819314 
801.5      0.07912192 1          0.3896059 
801.6      0.06624632 1          0.4075624 
801.7      0.0476989  1          0.412819  
801.8      0.04463749 1          0.4108562 
801.9      0.0854307  1          0.4087959 
802        0.09683279 1          0.3940285 
802.1      0.08647807 1          0.4232349 
802.2      0.1016961  1          0.4414932 
802.3      0.09687775 1          0.4518757 
802.4      0.09446376 1          0.4300835 
802.5      0.08551464 1          0.4090016 
802.6      0.04279771 1          0.3995948 
802.7      0.03501715 1          0.3899066 
802.8      0.07760455 1          0.3675067 
802.9      0.09421705 1          0.3509994 
803        0.09548078 1          0.3484438 
803.1      0.1063786  1          0.3375731 
803.2      0.09930481 1          0.3356238 
803.3      0.06187968 1          0.3728691 
803.4      0.05373976 1          0.3805449 
803.5      0.06141795 1          0.3664391 
803.6      0.07179666 1          0.3824273 
803.7      0.04819117 1          0.4036699 
803.8      0.0832152  1          0.3958455 
803.9      0.08912113 1          0.3802481 
804        0.100954   1          0.3777799 
804.1      0.109475   1          0.3605485 
804.2      0.1031141  1          0.34205   
804.3      0.09562088 1          0.3481605 
804.4      0.09845738 1          0.3424245 
804.5      0.08074413 1          0.3667301 
804.6      0.07813571 1          0.3835194 
804.7      0.08351085 1          0.393323  
804.8      0.06935751 1          0.4234447 
804.9      0.06244664 1          0.4489416 
805        0.0507525  1          0.4807017 
805.1      0.06776443 1          0.4348612 
805.2      0.07867759 1          0.4257564 
805.3      0.08879068 1          0.4333717 
805.4      0.1015855  1          0.3978697 
805.5      0.1118984  1          0.3868057 
805.6      0.102048   1          0.3851109 
805.7      0.1137748  1          0.3518533 
805.8      0.1178813  1          0.343549  
805.9      0.1483701  1          0.3168015 
806        0.1546111  1          0.3415823 
806.1      0.1569059  1          0.3257799 
806.2      0.1563195  1          0.3237739 
806.3      0.1405696  1          0.317252  
806.4      0.1379811  1          0.3029028 
806.5      0.1694209  1          0.2698659 
806.6      0.1851853  1          0.2576299 
806.7      0.1945909  1          0.247651  
806.8      0.189117   1          0.2362623 
806.9      0.1806376  1          0.2410927 
807        0.1523263  1          0.2593508 
807.1      0.1245589  1          0.2817601 
807.2      0.09146297 1          0.3022861 
807.3      0.07577607 1          0.3396213 
807.4      0.07273702 1          0.3659544 
807.5      0.04164863 1          0.4236546 
807.6      0.01972869 1          0.4481827 
807.7      0.01635364 1          0.451658  
807.8      0.01981891 1          0.4518757 
807.9      0.04768482 1          0.4291315 
808        0.07351072 1          0.4013239 
808.1      0.06542672 1          0.3908094 
808.2      0.08838803 1          0.3607408 
808.3      0.09762315 1          0.3393416 
808.4      0.07368074 1          0.3467455 
808.5      0.08357821 1          0.3510942 
808.6      0.103213   1          0.3503359 
808.7      0.1090801  1          0.3323877 
808.8      0.1036738  1          0.3447694 
808.9      0.08499084 1          0.3614144 
809        0.08936157 1          0.3204142 
809.1      0.1178548  1          0.3145538 
809.2      0.1135884  1          0.3270595 
809.3      0.1140797  1          0.3493892 
809.4      0.102795   1          0.3557573 
809.5      0.0968435  1          0.3679925 
809.6      0.07680415 1          0.3383172 
809.7      0.0634606  1          0.3323877 
809.8      0.1048494  1          0.3074135 
809.9      0.1161215  1          0.3067037 
810        0.1343407  1          0.2965018 
810.1      0.1540544  1          0.2894751 
810.2      0.1690859  1          0.2663679 
810.3      0.1498901  1          0.2636337 
810.4      0.1557725  1          0.2636337 
810.5      0.1479211  1          0.2923283 
810.6      0.1409307  1          0.2969381 
810.7      0.1539944  1          0.2995627 
810.8      0.1603473  1          0.2760791 
810.9      0.1483756  1          0.2667832 
811        0.1427003  1          0.2760791 
811.1      0.1314989  1          0.2761635 
811.2      0.1220654  1          0.2942377 
811.3      0.115671   1          0.2959785 
811.4      0.1094002  1          0.2992997 
811.5      0.07500794 1          0.3202332 
811.6      0.06062958 1          0.3131194 
811.7      0.06690244 1          0.3277919 
811.8      0.07439493 1          0.3383172 
811.9      0.09489178 1          0.358628  
812        0.09294531 1          0.3632462 
812.1      0.1001481  1          0.3327567 
812.2      0.1159461  1          0.3070585 
812.3      0.1178267  1          0.3032554 
812.4      0.1437773  1          0.2792099 
812.5      0.1475926  1          0.2834662 
812.6      0.1454948  1          0.2845777 
812.7      0.1270083  1          0.3034317 
812.8      0.1101209  1          0.332849  
812.9      0.082802   1          0.3817332 
813        0.07172008 1          0.3914118 
