~Version
 VERS              .         3.0                           : CWLS LOG ASCII STANDARD - VERSION 3.0
 WRAP              .         NO                            : ONE LINE PER DEPTH STEP
 DLM               .         SPACE                         : DELIMITING CHARACTER(SPACE TAB OR COMMA)
~Well Information
#_______________________________________________________________________________
#
#PARAMETER_NAME    .UNIT     VALUE                         : DESCRIPTION
#_______________________________________________________________________________
STRT               .M        51                            : First reference value
STOP               .M        906.1                         : Last reference value
STEP               .M        0.1                           : Step increment
NULL               .         -9999                         : Missing value
COMP               .         ICPetroleum                   : Company
WELL               .         317                           : Well name
FLD                .         Karatobe                      : Field
LOC                .                                       : Location
SRVC               .                                       : Service Company
CTRY               .         KZ                            : Country
DATE               .         09/11/2004                    : Service Date
LATI               .         0                             : Latitude
LONG               .         0                             : Longitude
GDAT               .         WGS 84                        : Geodetic Datum
CNTY               .                                       : 
COORDIN            .                                       : Grid System
COUNTRY            .         Kazakhstan                    : 
COUNTRY            .         Kazakhstan                    : 
EREF               .m        145.4                         : 
KB                 .         144.9                         : KB Elevation
ORIGINALWELLNAME   .         317                           : 
PROV               .                                       : Province
RWS                .         -999                          : Def_Rw
STAT               .                                       : 
UWI                .                                       : 
WST                .         -999                          : Def_Rwt
X                  .km       466008.8                      : 
XCOORD             .                                       : X or East-West Coordinate
Y                  .km       5307445.74                    : 
YCOORD             .                                       : Y or North-South Coordinate
~Parameter Information Block
#_______________________________________________________________________________
#
#PARAMETER_NAME    .UNIT     VALUE                         : DESCRIPTION
#_______________________________________________________________________________
SET                .         Las                           : 
TLFamily_DEPT      .         Measured Depth                : 
TLFamily_PHI_FINAL .         Porosity                      : 
TLFamily_SW_AR     .         Water Saturation              : 
TLFamily_VSH_FINAL .         Shale Volume                  : 
~Curve Information
#_______________________________________________________________________________
#
#LOGNAME           .UNIT     LOG_ID                        : DESCRIPTION
#_______________________________________________________________________________
DEPT               .M                                      : Depth curve {F}
PHI_FINAL          .m3/m3                                  : Porosity {F}
SW_AR              .m3/m3                                  :  {F}
VSH_FINAL          .unitless                               : Vshale {F}
~Ascii
# ...
685.7      0.1667686  1          0.5500247 
685.8      0.1636636  1          0.5324019 
685.9      0.1597339  1          0.5405577 
686        0.160469   1          0.5572656 
686.1      0.1486552  1          0.5825124 
686.2      0.1346879  1          0.6159923 
686.3      0.1489707  1          0.5903715 
686.4      0.1366226  1          0.6247954 
686.5      0.1332874  1          0.6260008 
686.6      0.0868549  1          0.7470211 
686.7      0.08632906 1          0.7652557 
686.8      0.09311703 1          0.7526574 
686.9      0.1310274  1          0.6515695 
687        0.1184876  1          0.6992152 
687.1      0.137454   1          0.6462488 
687.2      0.1623859  1          0.5683062 
687.3      0.1683325  1          0.5482145 
687.4      0.1709014  1          0.5555744 
687.5      0.1619256  1          0.5757468 
687.6      0.1807801  1          0.536131  
687.7      0.1792457  1          0.5396136 
687.8      0.1814549  1          0.5262485 
687.9      0.1509201  1          0.5837115 
688        0.137024   1          0.6150357 
688.1      0.08982705 1          0.682052  
688.2      0.03837042 1          0.7227904 
688.3      0.03305545 1          0.7098037 
688.4      0.05737505 1          0.666998  
688.5      0.07910426 1          0.6352305 
688.6      0.08679252 1          0.6921833 
688.7      0.1234161  1          0.6363648 
688.8      0.1215258  1          0.6631288 
688.9      0.1059297  1          0.711264  
689        0.1120318  1          0.7109571 
689.1      0.09257207 1          0.7523428 
689.2      0.06110827 1          0.8446949 
689.3      0.08951481 1          0.7799233 
689.4      0.08807084 1          0.7915475 
689.5      0.07527018 1          0.7955313 
689.6      0.05319609 1          0.8463633 
689.7      0.09090132 1          0.740708  
689.8      0.1127632  1          0.6964683 
689.9      0.1556675  1          0.5861437 
690        0.16732    1          0.5604972 
690.1      0.1753044  1          0.5390596 
690.2      0.1841408  1          0.5284183 
690.3      0.1828074  1          0.512986  
690.4      0.1519391  1          0.5819428 
690.5      0.1192909  1          0.6561767 
690.6      0.1180086  1          0.6638029 
690.7      0.1495288  1          0.5848243 
690.8      0.1422803  1          0.5783625 
690.9      0.1721078  1          0.5274643 
691        0.1678574  1          0.5503185 
691.1      0.1782023  1          0.5158706 
691.2      0.1852209  1          0.4920399 
691.3      0.1905725  1          0.4792848 
691.4      0.163652   1          0.5309363 
691.5      0.1740741  1          0.4761086 
691.6      0.1529828  1          0.4355176 
691.7      0.1403214  1          0.4002544 
691.8      0.09642495 1          0.3835722 
691.9      0.08045805 1          0.3651356 
692        0.08827978 1          0.3406705 
692.1      0.1231879  1          0.3398632 
692.2      0.1401352  1          0.3586614 
692.3      0.2112286  1          0.3159176 
692.4      0.2395774  1          0.2997649 
692.5      0.2501721  0.9694062  0.3080618 
692.6      0.2026414  1          0.3327121 
692.7      0.1738801  1          0.3557156 
692.8      0.1272408  1          0.4040067 
692.9      0.104635   1          0.4576072 
693        0.1563283  1          0.4716078 
693.1      0.1921469  1          0.4515006 
693.2      0.2310759  1          0.4120884 
693.3      0.2394663  1          0.3968736 
693.4      0.2504796  1          0.3626499 
693.5      0.2491991  1          0.3503046 
693.6      0.2584697  1          0.3269892 
693.7      0.2731286  0.9571455  0.3000345 
693.8      0.2705616  0.9822207  0.3057025 
693.9      0.273035   1          0.2840309 
694        0.2728465  1          0.281158  
694.1      0.2668248  1          0.2549391 
694.2      0.2505738  1          0.2817589 
694.3      0.2583655  1          0.2820124 
694.4      0.2596324  1          0.2694353 
694.5      0.2623967  1          0.2619089 
694.6      0.2874539  0.9159273  0.2414252 
694.7      0.3044645  0.8827549  0.2202685 
694.8      0.3103103  0.9304541  0.2044874 
694.9      0.3070887  0.9850647  0.2234623 
695        0.2999519  0.9608211  0.232624  
695.1      0.2907478  0.879628   0.2506748 
695.2      0.2888535  0.8114412  0.2603803 
695.3      0.2975687  0.7915931  0.2348501 
695.4      0.3232669  0.756587   0.1864914 
695.5      0.3379987  0.7223894  0.1736021 
695.6      0.3461182  0.6638958  0.1520831 
695.7      0.332198   0.6536012  0.1511583 
695.8      0.3302446  0.6595261  0.1527873 
695.9      0.3473135  0.65533    0.1302949 
696        0.3558757  0.6769179  0.1256954 
696.1      0.3665713  0.6990967  0.139522  
696.2      0.3635383  0.7384003  0.1402598 
696.3      0.3540071  0.7462906  0.1461016 
696.4      0.3528027  0.6981564  0.1411615 
696.5      0.3552529  0.6272698  0.1430132 
696.6      0.3574174  0.5659758  0.1476689 
696.7      0.3583529  0.5481197  0.127464  
696.8      0.3734659  0.5588038  0.1039318 
696.9      0.3695347  0.6205036  0.1017116 
697        0.3621844  0.6956639  0.09834116
697.1      0.3567026  0.7902453  0.1008369 
697.2      0.3572979  0.9084959  0.1033186 
697.3      0.3586815  0.9941761  0.1086387 
697.4      0.3473233  1          0.1295759 
697.5      0.3417166  1          0.1403306 
697.6      0.3314678  1          0.1564719 
697.7      0.3238507  1          0.1486599 
697.8      0.3227889  1          0.138167  
697.9      0.3290801  1          0.1346373 
698        0.3330308  1          0.1339512 
698.1      0.3240944  1          0.1339396 
698.2      0.3257382  1          0.1161855 
698.3      0.3274917  1          0.1000279 
698.4      0.3373279  1          0.08561812
698.5      0.3443999  1          0.07567252
698.6      0.3504276  1          0.05864417
698.7      0.3474686  1          0.05860334
698.8      0.3472275  1          0.06062659
698.9      0.3386995  1          0.06159064
699        0.3299965  1          0.06376992
699.1      0.3192792  1          0.06956655
699.2      0.3146789  1          0.06940375
699.3      0.301873   1          0.07018826
699.4      0.2920282  1          0.07411164
699.5      0.2773653  1          0.07073292
699.6      0.2704693  1          0.07152408
699.7      0.2551232  1          0.06827964
699.8      0.247458   1          0.07279602
699.9      0.2807427  1          0.06752887
700        0.31354    1          0.06717437
700.1      0.32936    1          0.06251097
700.2      0.3502546  1          0.05824802
700.3      0.3585529  1          0.05350974
700.4      0.3639437  1          0.05805738
700.5      0.3716026  1          0.05577696
700.6      0.3690444  1          0.05888929
700.7      0.3705006  1          0.05800849
700.8      0.3684831  1          0.05778606
700.9      0.3695567  1          0.06183748
701        0.3698465  1          0.06363895
701.1      0.3631793  1          0.06190331
701.2      0.361997   1          0.06423654
701.3      0.3652068  1          0.06465048
701.4      0.3690615  1          0.05674758
701.5      0.363141   1          0.06380505
701.6      0.3719268  1          0.06009711
701.7      0.3732617  1          0.06421307
701.8      0.3744685  1          0.05994083
701.9      0.3730083  1          0.06883312
702        0.3688954  1          0.07392622
702.1      0.3681101  1          0.06703164
702.2      0.3678628  1          0.05878501
702.3      0.3700064  1          0.06904791
702.4      0.3753978  1          0.07010548
702.5      0.3732218  1          0.07908177
702.6      0.3788211  1          0.07072818
702.7      0.3781735  1          0.06439406
702.8      0.382426   1          0.05394414
702.9      0.3830931  1          0.05557457
703        0.383686   1          0.05176448
703.1      0.3836595  1          0.05834552
703.2      0.3917782  1          0.05378773
703.3      0.3907203  1          0.0592145 
703.4      0.3858646  1          0.05946713
703.5      0.3773182  1          0.06127395
703.6      0.3734181  1          0.05712742
703.7      0.3721739  1          0.05250537
703.8      0.3695684  1          0.05621921
