~Version
 VERS              .         3.0                           : CWLS LOG ASCII STANDARD - VERSION 3.0
 WRAP              .         NO                            : ONE LINE PER DEPTH STEP
 DLM               .         SPACE                         : DELIMITING CHARACTER(SPACE TAB OR COMMA)
~Well Information
#_______________________________________________________________________________
#
#PARAMETER_NAME    .UNIT     VALUE                         : DESCRIPTION
#_______________________________________________________________________________
STRT               .M        51                            : First reference value
STOP               .M        906.1                         : Last reference value
STEP               .M        0.1                           : Step increment
NULL               .         -9999                         : Missing value
COMP               .         ICPetroleum                   : Company
WELL               .         317                           : Well name
FLD                .         Karatobe                      : Field
LOC                .                                       : Location
SRVC               .                                       : Service Company
CTRY               .         KZ                            : Country
DATE               .         09/11/2004                    : Service Date
LATI               .         0                             : Latitude
LONG               .         0                             : Longitude
GDAT               .         WGS 84                        : Geodetic Datum
CNTY               .                                       : 
COORDIN            .                                       : Grid System
COUNTRY            .         Kazakhstan                    : 
COUNTRY            .         Kazakhstan                    : 
EREF               .m        145.4                         : 
KB                 .         144.9                         : KB Elevation
ORIGINALWELLNAME   .         317                           : 
PROV               .                                       : Province
RWS                .         -999                          : Def_Rw
STAT               .                                       : 
UWI                .                                       : 
WST                .         -999                          : Def_Rwt
X                  .km       466008.8                      : 
XCOORD             .                                       : X or East-West Coordinate
Y                  .km       5307445.74                    : 
YCOORD             .                                       : Y or North-South Coordinate
~Parameter Information Block
#_______________________________________________________________________________
#
#PARAMETER_NAME    .UNIT     VALUE                         : DESCRIPTION
#_______________________________________________________________________________
SET                .         Las                           : 
TLFamily_DEPT      .         Measured Depth                : 
TLFamily_PHI_FINAL .         Porosity                      : 
TLFamily_SW_AR     .         Water Saturation              : 
TLFamily_VSH_FINAL .         Shale Volume                  : 
~Curve Information
#_______________________________________________________________________________
#
#LOGNAME           .UNIT     LOG_ID                        : DESCRIPTION
#_______________________________________________________________________________
DEPT               .M                                      : Depth curve {F}
PHI_FINAL          .m3/m3                                  : Porosity {F}
SW_AR              .m3/m3                                  :  {F}
VSH_FINAL          .unitless                               : Vshale {F}
~Ascii
# ...
358.1      0.1442903  1          0.6639931 
358.2      0.102839   1          0.7042503 
358.3      0.0525506  1          0.7453489 
358.4      0.05198548 1          0.7133507 
358.5      0.06588674 1          0.6823485 
358.6      0.05649918 1          0.7184533 
358.7      0.07943616 1          0.6926798 
358.8      0.1080516  1          0.6354156 
358.9      0.1383939  1          0.5708177 
359        0.1521219  1          0.5272153 
359.1      0.1565306  1          0.5310348 
359.2      0.1577955  1          0.5297771 
359.3      0.159073   1          0.5279375 
359.4      0.1488     1          0.536087  
359.5      0.1477128  1          0.5367913 
359.6      0.1572487  1          0.5083399 
359.7      0.1617435  1          0.5194834 
359.8      0.1491074  1          0.5639767 
359.9      0.1671617  1          0.5788991 
360        0.1624716  1          0.6011038 
360.1      0.1728992  1          0.5270731 
360.2      0.1553791  1          0.5116386 
360.3      0.1416686  1          0.5313915 
360.4      0.1548312  1          0.5441597 
360.5      0.1680599  1          0.5492874 
360.6      0.170299   1          0.5675843 
360.7      0.1745917  1          0.569152  
360.8      0.1620319  1          0.6186147 
360.9      0.1722194  1          0.5887786 
361        0.1649203  1          0.5972921 
361.1      0.1936398  1          0.5497656 
361.2      0.1717536  1          0.5795699 
361.3      0.1721119  1          0.6172085 
361.4      0.1887349  1          0.5808587 
361.5      0.1570214  1          0.6873918 
361.6      0.1044745  1          0.8343511 
361.7      0.08906611 1          0.8635603 
361.8      0.07848985 1          0.8946282 
361.9      0.05754865 1          0.9613521 
362        0.04703945 1          0.9846901 
362.1      0.04033619 1          1         
362.2      0.0519543  1          1         
362.3      0.05030204 1          1         
362.4      0.04677187 1          0.9856405 
362.5      0.09174672 1          0.8237153 
362.6      0.0784483  1          0.8313859 
362.7      0.06706835 1          0.861982  
362.8      0.1315923  1          0.6634555 
362.9      0.1698038  1          0.5630056 
363        0.2101239  0.974773   0.5026525 
363.1      0.2349883  0.7325443  0.4435736 
363.2      0.2181112  0.6781503  0.4816537 
363.3      0.222257   0.6551529  0.4806829 
363.4      0.2197017  0.7505701  0.4842038 
363.5      0.2107486  0.9251444  0.5343654 
363.6      0.2010711  1          0.5731258 
363.7      0.1942612  1          0.6000556 
363.8      0.1378458  1          0.7668748 
363.9      0.1212916  1          0.8167641 
364        0.09782212 1          0.8832939 
364.1      0.06451346 1          0.9511123 
364.2      0.05799459 1          1         
364.3      0.07998743 1          0.9419252 
364.4      0.08317768 1          0.9236792 
364.5      0.06883481 1          0.977333  
364.6      0.05462937 1          1         
364.7      0.0664781  1          0.9994175 
364.8      0.06045646 1          1         
364.9      0.0518963  1          1         
365        0.05019821 1          1         
365.1      0.04164599 1          0.9990003 
365.2      0.04273322 1          0.9593594 
365.3      0.04900043 1          0.9356259 
365.4      0.06992757 1          0.9162349 
365.5      0.04394656 1          1         
365.6      0.04866654 1          1         
365.7      0.05095495 1          1         
365.8      0.04336639 1          1         
365.9      0.0449384  1          1         
366        0.0439405  1          1         
366.1      0.04445454 1          0.9446105 
366.2      0.03502019 1          0.9575567 
366.3      0.01962316 1          0.9895523 
366.4      0.02869489 1          0.9466903 
366.5      0.03378449 1          0.8949417 
366.6      0.0493976  1          0.8502302 
366.7      0.05685736 1          0.7789438 
366.8      0.08251341 1          0.7038237 
366.9      0.07715686 1          0.6525483 
367        0.08967119 1          0.5963843 
367.1      0.08734492 1          0.624874  
367.2      0.09925655 1          0.6597171 
367.3      0.08204198 1          0.7208633 
367.4      0.07917515 1          0.7622923 
367.5      0.07835983 1          0.8092381 
367.6      0.08112907 1          0.8051429 
367.7      0.1088425  1          0.7394307 
367.8      0.08086219 1          0.8247737 
367.9      0.04709095 1          0.8938748 
368        0.02279505 1          1         
368.1      0.01619985 1          0.9926395 
368.2      0.03331327 1          0.9203535 
368.3      0.05099015 1          0.8669761 
368.4      0.06755632 1          0.8319649 
368.5      0.1130675  1          0.7761953 
368.6      0.152796   1          0.6812899 
368.7      0.1638494  1          0.6429502 
368.8      0.1308647  1          0.6873762 
368.9      0.1396121  1          0.6734787 
369        0.09788267 1          0.7820601 
369.1      0.09873784 1          0.7824695 
369.2      0.05983626 1          0.8939027 
369.3      0.04958004 1          1         
369.4      0.04217982 1          1         
369.5      0.03781557 1          1         
369.6      0.04136162 1          1         
369.7      0.04943921 1          1         
369.8      0.0466996  1          1         
369.9      0.03820417 1          1         
370        0.03210489 1          1         
370.1      0.02573433 1          1         
370.2      0.02597123 1          1         
370.3      0.03353835 1          1         
370.4      0.03104514 1          1         
370.5      0.04357519 1          1         
370.6      0.04970369 1          1         
370.7      0.08141675 1          0.9116846 
370.8      0.07075737 1          0.9331383 
370.9      0.07160572 1          0.9445987 
371        0.06174608 1          1         
371.1      0.07547396 1          0.9445711 
371.2      0.0937989  1          0.9011485 
371.3      0.07274949 1          0.9438937 
371.4      0.08330005 1          0.9183907 
371.5      0.07871495 1          0.9569345 
371.6      0.08232901 1          0.9847355 
371.7      0.09818755 1          0.9608571 
371.8      0.11036    1          0.8710707 
371.9      0.08307888 1          0.9454356 
372        0.04602427 1          1         
372.1      0.07642411 1          0.9283265 
372.2      0.06209521 1          0.9160849 
372.3      0.07456669 1          0.8820974 
372.4      0.08768565 1          0.8880532 
372.5      0.0964161  1          0.8559147 
372.6      0.07401679 1          0.9284239 
372.7      0.06100898 1          0.9437019 
372.8      0.05743895 1          1         
372.9      0.06072967 1          1         
373        0.03719297 1          1         
373.1      0.0242974  1          1         
373.2      0.01700395 1          1         
373.3      0.01424811 1          0.9748819 
373.4      0.03002525 1          0.873054  
373.5      0.0637822  1          0.7261216 
373.6      0.06026397 1          0.7277859 
373.7      0.05101315 1          0.7794017 
373.8      0.07029811 1          0.6902959 
373.9      0.07556909 1          0.677832  
374        0.1004714  1          0.6098691 
374.1      0.1011061  1          0.609332  
374.2      0.067102   1          0.6832696 
374.3      0.0605368  1          0.678574  
374.4      0.04657653 1          0.6823131 
374.5      0.05344103 1          0.6546988 
374.6      0.0759448  1          0.6328112 
374.7      0.08158877 1          0.6865651 
374.8      0.1008234  1          0.6634973 
374.9      0.1007393  1          0.6839093 
375        0.08733249 1          0.7487978 
375.1      0.07565503 1          0.7986338 
375.2      0.07720478 1          0.7885416 
375.3      0.09133282 1          0.7452669 
375.4      0.0938791  1          0.7503762 
375.5      0.09434222 1          0.7528769 
375.6      0.0817527  1          0.7703178 
375.7      0.1229374  1          0.6691047 
375.8      0.1217595  1          0.7049059 
375.9      0.1181359  1          0.7175517 
376        0.1438462  1          0.6659288 
376.1      0.1570658  1          0.6330441 
376.2      0.1588729  1          0.5988085 
