~Version
 VERS              .         3.0                           : CWLS LOG ASCII STANDARD - VERSION 3.0
 WRAP              .         NO                            : ONE LINE PER DEPTH STEP
 DLM               .         SPACE                         : DELIMITING CHARACTER(SPACE TAB OR COMMA)
~Well Information
#_______________________________________________________________________________
#
#PARAMETER_NAME    .UNIT     VALUE                         : DESCRIPTION
#_______________________________________________________________________________
STRT               .M        51                            : First reference value
STOP               .M        906.1                         : Last reference value
STEP               .M        0.1                           : Step increment
NULL               .         -9999                         : Missing value
COMP               .         ICPetroleum                   : Company
WELL               .         317                           : Well name
FLD                .         Karatobe                      : Field
LOC                .                                       : Location
SRVC               .                                       : Service Company
CTRY               .         KZ                            : Country
DATE               .         09/11/2004                    : Service Date
LATI               .         0                             : Latitude
LONG               .         0                             : Longitude
GDAT               .         WGS 84                        : Geodetic Datum
CNTY               .                                       : 
COORDIN            .                                       : Grid System
COUNTRY            .         Kazakhstan                    : 
COUNTRY            .         Kazakhstan                    : 
EREF               .m        145.4                         : 
KB                 .         144.9                         : KB Elevation
ORIGINALWELLNAME   .         317                           : 
PROV               .                                       : Province
RWS                .         -999                          : Def_Rw
STAT               .                                       : 
UWI                .                                       : 
WST                .         -999                          : Def_Rwt
X                  .km       466008.8                      : 
XCOORD             .                                       : X or East-West Coordinate
Y                  .km       5307445.74                    : 
YCOORD             .                                       : Y or North-South Coordinate
~Parameter Information Block
#_______________________________________________________________________________
#
#PARAMETER_NAME    .UNIT     VALUE                         : DESCRIPTION
#_______________________________________________________________________________
SET                .         Las                           : 
TLFamily_DEPT      .         Measured Depth                : 
TLFamily_PHI_FINAL .         Porosity                      : 
TLFamily_SW_AR     .         Water Saturation              : 
TLFamily_VSH_FINAL .         Shale Volume                  : 
~Curve Information
#_______________________________________________________________________________
#
#LOGNAME           .UNIT     LOG_ID                        : DESCRIPTION
#_______________________________________________________________________________
DEPT               .M                                      : Depth curve {F}
PHI_FINAL          .m3/m3                                  : Porosity {F}
SW_AR              .m3/m3                                  :  {F}
VSH_FINAL          .unitless                               : Vshale {F}
~Ascii
# ...
449.1      0.08643006 1          0.9451598 
449.2      0.1376228  1          0.8134568 
449.3      0.185253   1          0.7522595 
449.4      0.2222953  1          0.6587487 
449.5      0.2342135  1          0.6408277 
449.6      0.2670141  0.995618   0.5839847 
449.7      0.2770769  0.9657019  0.5166696 
449.8      0.2935939  0.9361334  0.4917485 
449.9      0.3169088  0.8960522  0.4581979 
450        0.3088806  0.9290973  0.4916046 
450.1      0.3000961  0.9459297  0.4963802 
450.2      0.2685834  1          0.6056024 
450.3      0.2623605  1          0.6926029 
450.4      0.2983189  1          0.6315067 
450.5      0.3713279  0.8679794  0.4643328 
450.6      0.3998739  0.7621045  0.4061867 
450.7      0.438155   0.6738421  0.2834168 
450.8      0.4560119  0.6245415  0.23321   
450.9      0.4510237  0.612249   0.2281964 
451        0.4290645  0.6354101  0.26594   
451.1      0.3984919  0.6972945  0.3213769 
451.2      0.3355221  0.8418247  0.3992982 
451.3      0.3130932  0.9221789  0.4197668 
451.4      0.2950597  0.9917288  0.4450445 
451.5      0.3046161  0.9783806  0.4465668 
451.6      0.2886754  1          0.4472976 
451.7      0.2688925  1          0.5085415 
451.8      0.284999   1          0.4831405 
451.9      0.2869064  1          0.4807001 
452        0.2803941  1          0.4882832 
452.1      0.2871083  1          0.4918182 
452.2      0.2536572  1          0.5717697 
452.3      0.2360483  1          0.6469103 
452.4      0.2036187  1          0.7399798 
452.5      0.1263833  1          0.9385744 
452.6      0.1081871  1          0.9713657 
452.7      0.1560974  1          0.8797183 
452.8      0.2119495  1          0.7287228 
452.9      0.2398267  1          0.6853133 
453        0.2525182  1          0.6540985 
453.1      0.2463762  1          0.6673576 
453.2      0.2298022  1          0.6822273 
453.3      0.173438   1          0.7327538 
453.4      0.1592674  1          0.7360598 
453.5      0.2007696  1          0.6187038 
453.6      0.2247555  1          0.5583371 
453.7      0.2082345  1          0.5811116 
453.8      0.2205456  1          0.5324044 
453.9      0.2023333  1          0.5297514 
454        0.191941   1          0.5539823 
454.1      0.193311   1          0.5497186 
454.2      0.2346419  0.9461395  0.5068471 
454.3      0.2516336  0.9169067  0.4830816 
454.4      0.2605124  0.9448087  0.534324  
454.5      0.2617322  1          0.5581515 
454.6      0.2823525  1          0.5949575 
454.7      0.2333304  1          0.782564  
454.8      0.2420239  1          0.7925897 
454.9      0.2576559  1          0.7623459 
455        0.2779186  1          0.7121848 
455.1      0.2538664  1          0.7185159 
455.2      0.2559693  1          0.7133811 
455.3      0.2653174  1          0.6634536 
455.4      0.2518173  1          0.678225  
455.5      0.2207876  1          0.7347471 
455.6      0.1888732  1          0.8148432 
455.7      0.1706877  1          0.8553212 
455.8      0.1259769  1          0.9183572 
455.9      0.09517369 1          0.9393689 
456        0.1179957  1          0.8459526 
456.1      0.1456802  1          0.7293969 
456.2      0.1468031  1          0.7122214 
456.3      0.1177295  1          0.7416323 
456.4      0.09915383 1          0.7713608 
456.5      0.053637   1          0.9106788 
456.6      0.04288765 1          0.9542038 
456.7      0.06647217 1          0.8842931 
456.8      0.09481961 1          0.7980589 
456.9      0.07158303 1          0.8399533 
457        0.06047439 1          0.8795113 
457.1      0.03545216 1          0.9499611 
457.2      0.04011376 1          0.925105  
457.3      0.07195158 1          0.8257083 
457.4      0.06619876 1          0.8252971 
457.5      0.09308406 1          0.7638597 
457.6      0.1252662  1          0.6979087 
457.7      0.1149334  1          0.7140503 
457.8      0.1105788  1          0.7288247 
457.9      0.09101248 1          0.7934409 
458        0.1368774  1          0.7457255 
458.1      0.1370461  1          0.7458503 
458.2      0.1592274  1          0.7244824 
458.3      0.20066    1          0.6835023 
458.4      0.2359152  1          0.6420055 
458.5      0.2774073  1          0.5509912 
458.6      0.2703955  1          0.5552744 
458.7      0.268793   1          0.5936309 
458.8      0.2575205  1          0.5945498 
458.9      0.2153137  1          0.6715044 
459        0.200512   1          0.6910045 
459.1      0.1720662  1          0.75907   
459.2      0.09723686 1          0.920674  
459.3      0.09560403 1          0.8953886 
459.4      0.05691735 1          0.9887216 
459.5      0.05576129 1          1         
459.6      0.06738133 1          1         
459.7      0.08285231 1          1         
459.8      0.1068658  1          1         
459.9      0.1036872  1          0.9981071 
460        0.1230747  1          0.872976  
460.1      0.1391484  1          0.8447493 
460.2      0.2228584  1          0.6602998 
460.3      0.2494971  0.978983   0.5661205 
460.4      0.2732185  0.8949498  0.4925679 
460.5      0.2610909  0.9410896  0.4952475 
460.6      0.2064606  1          0.5904933 
460.7      0.1468024  1          0.701646  
460.8      0.125366   1          0.732037  
460.9      0.07272993 1          0.8628482 
461        0.04630217 1          1         
461.1      0.04519036 1          1         
461.2      0.04488238 1          1         
461.3      0.04780058 1          1         
461.4      0.04904602 1          0.9973666 
461.5      0.06428199 1          1         
461.6      0.06234774 1          1         
461.7      0.06271045 1          1         
461.8      0.07209287 1          0.9781659 
461.9      0.130897   1          0.8203843 
462        0.09762751 1          0.9002486 
462.1      0.1244069  1          0.8328348 
462.2      0.1441558  1          0.8031891 
462.3      0.1808567  1          0.7638509 
462.4      0.2421952  1          0.6575615 
462.5      0.2875405  0.8818321  0.556958  
462.6      0.3331145  0.7082397  0.5104553 
462.7      0.4091878  0.5750047  0.3498236 
462.8      0.4398377  0.5820521  0.2944037 
462.9      0.434454   0.6476137  0.3379191 
463        0.4095278  0.7188476  0.4168676 
463.1      0.3405106  0.8507457  0.5449525 
463.2      0.2865236  1          0.6301462 
463.3      0.2017932  1          0.7732232 
463.4      0.1676957  1          0.8419456 
463.5      0.1051241  1          1         
463.6      0.09341221 1          1         
463.7      0.07977483 1          1         
463.8      0.05282479 1          1         
463.9      0.07221609 1          0.9010895 
464        0.07090137 1          0.836428  
464.1      0.1146287  1          0.7147118 
464.2      0.1212286  1          0.7287127 
464.3      0.08259979 1          0.8221714 
464.4      0.08888219 1          0.8110675 
464.5      0.07280324 1          0.8824852 
464.6      0.05481935 1          0.9341862 
464.7      0.108853   1          0.795122  
464.8      0.09727669 1          0.8697733 
464.9      0.1327197  1          0.7711771 
465        0.1293454  1          0.7918594 
465.1      0.1275887  1          0.8077294 
465.2      0.1462939  1          0.7494981 
465.3      0.1444441  1          0.7032149 
465.4      0.1178811  1          0.7687659 
465.5      0.105442   1          0.7671221 
465.6      0.1205952  1          0.7318825 
465.7      0.1210368  1          0.7187971 
465.8      0.153575   1          0.6735617 
465.9      0.1701693  1          0.6166092 
466        0.1643607  1          0.6194286 
466.1      0.154135   1          0.6530758 
466.2      0.1262639  1          0.7172639 
466.3      0.122631   1          0.7461754 
466.4      0.1548873  1          0.6432166 
466.5      0.1619002  1          0.6127235 
466.6      0.175043   1          0.5908771 
466.7      0.174042   1          0.5625887 
466.8      0.1845421  1          0.5417652 
466.9      0.1887163  1          0.5435416 
467        0.1803744  1          0.5566132 
467.1      0.1874262  1          0.5441236 
467.2      0.1793648  1          0.5667771 
