~Version
 VERS              .         3.0                           : CWLS LOG ASCII STANDARD - VERSION 3.0
 WRAP              .         NO                            : ONE LINE PER DEPTH STEP
 DLM               .         SPACE                         : DELIMITING CHARACTER(SPACE TAB OR COMMA)
~Well Information
#_______________________________________________________________________________
#
#PARAMETER_NAME    .UNIT     VALUE                         : DESCRIPTION
#_______________________________________________________________________________
STRT               .M        51                            : First reference value
STOP               .M        906.1                         : Last reference value
STEP               .M        0.1                           : Step increment
NULL               .         -9999                         : Missing value
COMP               .         ICPetroleum                   : Company
WELL               .         317                           : Well name
FLD                .         Karatobe                      : Field
LOC                .                                       : Location
SRVC               .                                       : Service Company
CTRY               .         KZ                            : Country
DATE               .         09/11/2004                    : Service Date
LATI               .         0                             : Latitude
LONG               .         0                             : Longitude
GDAT               .         WGS 84                        : Geodetic Datum
CNTY               .                                       : 
COORDIN            .                                       : Grid System
COUNTRY            .         Kazakhstan                    : 
COUNTRY            .         Kazakhstan                    : 
EREF               .m        145.4                         : 
KB                 .         144.9                         : KB Elevation
ORIGINALWELLNAME   .         317                           : 
PROV               .                                       : Province
RWS                .         -999                          : Def_Rw
STAT               .                                       : 
UWI                .                                       : 
WST                .         -999                          : Def_Rwt
X                  .km       466008.8                      : 
XCOORD             .                                       : X or East-West Coordinate
Y                  .km       5307445.74                    : 
YCOORD             .                                       : Y or North-South Coordinate
~Parameter Information Block
#_______________________________________________________________________________
#
#PARAMETER_NAME    .UNIT     VALUE                         : DESCRIPTION
#_______________________________________________________________________________
SET                .         Las                           : 
TLFamily_DEPT      .         Measured Depth                : 
TLFamily_PHI_FINAL .         Porosity                      : 
TLFamily_SW_AR     .         Water Saturation              : 
TLFamily_VSH_FINAL .         Shale Volume                  : 
~Curve Information
#_______________________________________________________________________________
#
#LOGNAME           .UNIT     LOG_ID                        : DESCRIPTION
#_______________________________________________________________________________
DEPT               .M                                      : Depth curve {F}
PHI_FINAL          .m3/m3                                  : Porosity {F}
SW_AR              .m3/m3                                  :  {F}
VSH_FINAL          .unitless                               : Vshale {F}
~Ascii
# ...
503.7      0.2580698  1          0.3635986 
503.8      0.2492672  1          0.3674535 
503.9      0.2443828  1          0.3526335 
504        0.2591525  1          0.3145654 
504.1      0.2712393  1          0.278463  
504.2      0.2531374  1          0.2798999 
504.3      0.2358941  1          0.2765156 
504.4      0.1908182  1          0.2470185 
504.5      0.1755271  0.8653589  0.2437537 
504.6      0.1004109  1          0.2432525 
504.7      0.1011007  1          0.2375076 
504.8      0.1246811  1          0.2222504 
504.9      0.1262048  1          0.2404392 
505        0.2118123  1          0.2899702 
505.1      0.2426134  1          0.2497953 
505.2      0.3119063  0.9221296  0.2069799 
505.3      0.3331676  0.9124536  0.1725487 
505.4      0.3498788  0.9142094  0.1440434 
505.5      0.3481697  0.9285157  0.1306914 
505.6      0.3483211  0.9191486  0.1363863 
505.7      0.3455619  0.9239323  0.1394443 
505.8      0.3426757  0.9214192  0.1395595 
505.9      0.3442304  0.9056653  0.1302083 
506        0.3461483  0.9197792  0.138311  
506.1      0.3514776  0.9452736  0.1327918 
506.2      0.360653   0.9473668  0.1193444 
506.3      0.3581551  0.9823599  0.1235955 
506.4      0.3697766  0.9817527  0.1110039 
506.5      0.3694334  1          0.1168656 
506.6      0.366482   1          0.129689  
506.7      0.3615416  0.9959792  0.1359863 
506.8      0.3453475  0.9587431  0.1607266 
506.9      0.3275544  0.9267439  0.2094593 
507        0.2918793  0.9676604  0.2761482 
507.1      0.2531276  1          0.3788009 
507.2      0.2310741  1          0.4263461 
507.3      0.1714093  1          0.5679263 
507.4      0.155712   1          0.5973029 
507.5      0.1579368  1          0.6103278 
507.6      0.1279458  1          0.6810086 
507.7      0.1230762  1          0.675837  
507.8      0.1242743  1          0.6670036 
507.9      0.1084258  1          0.7208095 
508        0.1396491  1          0.6428971 
508.1      0.162952   1          0.6018089 
508.2      0.1453212  1          0.6201816 
508.3      0.127867   1          0.6504086 
508.4      0.1394145  1          0.6379041 
508.5      0.1308271  1          0.6557421 
508.6      0.1402521  1          0.6711794 
508.7      0.1838973  1          0.6172796 
508.8      0.2116901  1          0.5962518 
508.9      0.208722   1          0.6048565 
509        0.2172948  1          0.5792093 
509.1      0.2222887  1          0.617312  
509.2      0.2053055  1          0.6109734 
509.3      0.1774608  1          0.6066833 
509.4      0.1500004  1          0.6537719 
509.5      0.1639537  1          0.5810798 
509.6      0.1776011  1          0.5500794 
509.7      0.1542252  1          0.6041321 
509.8      0.1274199  1          0.6924554 
509.9      0.1356414  1          0.653484  
510        0.1176066  1          0.7048826 
510.1      0.1118753  1          0.6972983 
510.2      0.0879646  1          0.7071682 
510.3      0.0698835  1          0.7726158 
510.4      0.08051626 1          0.7270467 
510.5      0.06767368 1          0.7971753 
510.6      0.08903395 1          0.7030846 
510.7      0.1084197  1          0.6484472 
510.8      0.12954    1          0.679177  
510.9      0.1471703  1          0.6516352 
511        0.169835   1          0.6171637 
511.1      0.1984634  1          0.5521719 
511.2      0.2013191  1          0.5723917 
511.3      0.1931144  1          0.5569793 
511.4      0.2020297  1          0.5175288 
511.5      0.2006651  1          0.5371814 
511.6      0.2030772  1          0.5639763 
511.7      0.2003711  1          0.556285  
511.8      0.2040028  1          0.5167137 
511.9      0.1705659  1          0.5507971 
512        0.1758104  1          0.5169125 
512.1      0.1737784  1          0.5096142 
512.2      0.1739498  1          0.5110822 
512.3      0.1586364  1          0.5641444 
512.4      0.1585809  1          0.5710047 
512.5      0.1405153  1          0.6420524 
512.6      0.1495846  1          0.6066707 
512.7      0.1456227  1          0.6534462 
512.8      0.1434853  1          0.6610304 
512.9      0.1291925  1          0.6680418 
513        0.1516999  1          0.6080987 
513.1      0.1712187  1          0.5670353 
513.2      0.1809654  1          0.5647073 
513.3      0.189276   1          0.5288693 
513.4      0.1873468  1          0.5401852 
513.5      0.1905825  1          0.5428072 
513.6      0.1851022  1          0.5289942 
513.7      0.1637627  1          0.5820705 
513.8      0.1597204  1          0.5766398 
513.9      0.1804557  1          0.5479241 
514        0.1912426  1          0.5260521 
514.1      0.2169216  1          0.4581202 
514.2      0.2207217  1          0.441027  
514.3      0.2345652  1          0.408645  
514.4      0.2522084  1          0.3774711 
514.5      0.2544726  1          0.3560492 
514.6      0.2534559  1          0.3931531 
514.7      0.2450539  1          0.4292395 
514.8      0.2260742  1          0.4511784 
514.9      0.2093261  1          0.4863813 
515        0.1253956  1          0.7199411 
515.1      0.05902065 1          0.894326  
515.2      0.03109963 1          1         
515.3      0.02322721 1          1         
515.4      0.02041307 1          1         
515.5      0.0227804  1          1         
515.6      0.02315702 1          1         
515.7      0.01918568 1          1         
515.8      0.01384806 1          1         
515.9      0.06033741 1          0.8684436 
516        0.1398816  1          0.6529102 
516.1      0.2047684  1          0.4787346 
516.2      0.2550969  1          0.3279185 
516.3      0.3003367  0.9566248  0.2133116 
516.4      0.3022551  0.953196   0.2034799 
516.5      0.3022245  0.9482132  0.2011594 
516.6      0.2949319  0.9572809  0.2268399 
516.7      0.2831268  0.9850667  0.2614124 
516.8      0.2853008  0.9648851  0.249697  
516.9      0.2920564  0.9259557  0.2368139 
517        0.3100522  0.8712513  0.2017873 
517.1      0.3298439  0.8203017  0.1578751 
517.2      0.3308829  0.8235521  0.1559274 
517.3      0.3356513  0.8231235  0.1514201 
517.4      0.3415263  0.8192818  0.1426744 
517.5      0.3427384  0.8352019  0.13357   
517.6      0.3454387  0.8458695  0.1338063 
517.7      0.3488154  0.8713652  0.1353572 
517.8      0.3343728  0.96186    0.1546008 
517.9      0.3389698  0.9697788  0.1574712 
518        0.3394114  0.9367688  0.1449371 
518.1      0.3552895  0.8729168  0.1101463 
518.2      0.3632266  0.871779   0.1005567 
518.3      0.3626113  0.9132376  0.1050326 
518.4      0.364824   0.9352769  0.1027139 
518.5      0.3641632  0.9201527  0.09415605
518.6      0.3600581  0.8869016  0.09132008
518.7      0.3539199  0.8594722  0.0939868 
518.8      0.3465822  0.8583917  0.09845792
518.9      0.346552   0.8644361  0.09907573
519        0.3465418  0.8772377  0.09959063
519.1      0.3502598  0.8773196  0.0994769 
519.2      0.3500561  0.8821088  0.1001506 
519.3      0.3502531  0.8987136  0.1007739 
519.4      0.3579935  0.9218102  0.09545971
519.5      0.3582456  0.9625915  0.09663385
519.6      0.3666853  0.9511999  0.08890413
519.7      0.3746475  0.9339765  0.07250511
519.8      0.3771574  0.9303244  0.06306418
519.9      0.378265   0.9230037  0.05384343
520        0.390812   0.9023397  0.04450838
520.1      0.3957821  0.9142746  0.04193246
520.2      0.3950268  0.9382153  0.04021975
520.3      0.3983158  0.9504691  0.03735043
520.4      0.4008044  0.9620325  0.04031987
520.5      0.4072599  0.9530364  0.03024089
520.6      0.4055278  0.9518163  0.0252498 
520.7      0.4035384  0.9351594  0.0307903 
520.8      0.4024878  0.9018183  0.03039694
520.9      0.3941165  0.8875463  0.03213236
521        0.3905524  0.8903747  0.03733107
521.1      0.3926555  0.904915   0.03409304
521.2      0.3907486  0.9217494  0.03704971
521.3      0.3905414  0.9117846  0.04054052
521.4      0.3853684  0.9075193  0.04671086
521.5      0.3819379  0.9066175  0.04329311
521.6      0.3761306  0.9183175  0.04416213
521.7      0.3737593  0.9297374  0.04986256
521.8      0.3715538  0.9394059  0.04740512
