~Version
 VERS              .         3.0                           : CWLS LOG ASCII STANDARD - VERSION 3.0
 WRAP              .         NO                            : ONE LINE PER DEPTH STEP
 DLM               .         SPACE                         : DELIMITING CHARACTER(SPACE TAB OR COMMA)
~Well Information
#_______________________________________________________________________________
#
#PARAMETER_NAME    .UNIT     VALUE                         : DESCRIPTION
#_______________________________________________________________________________
STRT               .M        51                            : First reference value
STOP               .M        906.1                         : Last reference value
STEP               .M        0.1                           : Step increment
NULL               .         -9999                         : Missing value
COMP               .         ICPetroleum                   : Company
WELL               .         317                           : Well name
FLD                .         Karatobe                      : Field
LOC                .                                       : Location
SRVC               .                                       : Service Company
CTRY               .         KZ                            : Country
DATE               .         09/11/2004                    : Service Date
LATI               .         0                             : Latitude
LONG               .         0                             : Longitude
GDAT               .         WGS 84                        : Geodetic Datum
CNTY               .                                       : 
COORDIN            .                                       : Grid System
COUNTRY            .         Kazakhstan                    : 
COUNTRY            .         Kazakhstan                    : 
EREF               .m        145.4                         : 
KB                 .         144.9                         : KB Elevation
ORIGINALWELLNAME   .         317                           : 
PROV               .                                       : Province
RWS                .         -999                          : Def_Rw
STAT               .                                       : 
UWI                .                                       : 
WST                .         -999                          : Def_Rwt
X                  .km       466008.8                      : 
XCOORD             .                                       : X or East-West Coordinate
Y                  .km       5307445.74                    : 
YCOORD             .                                       : Y or North-South Coordinate
~Parameter Information Block
#_______________________________________________________________________________
#
#PARAMETER_NAME    .UNIT     VALUE                         : DESCRIPTION
#_______________________________________________________________________________
SET                .         Las                           : 
TLFamily_DEPT      .         Measured Depth                : 
TLFamily_PHI_FINAL .         Porosity                      : 
TLFamily_SW_AR     .         Water Saturation              : 
TLFamily_VSH_FINAL .         Shale Volume                  : 
~Curve Information
#_______________________________________________________________________________
#
#LOGNAME           .UNIT     LOG_ID                        : DESCRIPTION
#_______________________________________________________________________________
DEPT               .M                                      : Depth curve {F}
PHI_FINAL          .m3/m3                                  : Porosity {F}
SW_AR              .m3/m3                                  :  {F}
VSH_FINAL          .unitless                               : Vshale {F}
~Ascii
# ...
212.5      0.1350079  1          0.8924835 
212.6      0.1646333  1          0.827795  
212.7      0.1894909  1          0.7940428 
212.8      0.1669677  1          0.8529873 
212.9      0.1230479  1          0.9511918 
213        0.1048475  1          0.98678   
213.1      0.1416724  1          0.8869032 
213.2      0.1889067  1          0.7633439 
213.3      0.1806421  1          0.7847533 
213.4      0.1560504  1          0.7778609 
213.5      0.1524507  1          0.7637931 
213.6      0.117422   1          0.7520258 
213.7      0.1287732  1          0.6727743 
213.8      0.1670828  0.916905   0.5772486 
213.9      0.1867145  0.8266379  0.5201337 
214        0.1938305  0.8176169  0.4965899 
214.1      0.2329248  0.6930453  0.436436  
214.2      0.221818   0.7243395  0.4577582 
214.3      0.2266479  0.7205632  0.4498883 
214.4      0.2228431  0.7601262  0.4620239 
214.5      0.23044    0.7846138  0.4525737 
214.6      0.2644732  0.7121384  0.4351546 
214.7      0.2721881  0.7366604  0.4276176 
214.8      0.2875635  0.7279855  0.4216182 
214.9      0.2988848  0.7106972  0.397668  
215        0.3128453  0.6803769  0.368742  
215.1      0.3341421  0.6388411  0.3399113 
215.2      0.3457662  0.6191934  0.3154544 
215.3      0.3369939  0.6356668  0.3441668 
215.4      0.3279192  0.6534798  0.3675512 
215.5      0.3365444  0.6386988  0.3448162 
215.6      0.3507112  0.6138359  0.3137171 
215.7      0.3401354  0.6276662  0.3339543 
215.8      0.3545035  0.5952234  0.2967382 
215.9      0.3554249  0.5862154  0.3125946 
216        0.3535332  0.5829154  0.3152141 
216.1      0.3380913  0.6077558  0.3438912 
216.2      0.344306   0.598378   0.3384393 
216.3      0.3452733  0.5934214  0.3518572 
216.4      0.3362859  0.6050888  0.3680856 
216.5      0.3230727  0.6276777  0.3894044 
216.6      0.3347432  0.6070342  0.3703666 
216.7      0.3380997  0.6020176  0.3639444 
216.8      0.3431928  0.5939397  0.3515828 
216.9      0.3400332  0.5987032  0.3489254 
217        0.3276249  0.6228194  0.3826303 
217.1      0.3499399  0.5900249  0.3429073 
217.2      0.351641   0.5941399  0.327781  
217.3      0.3406403  0.6215581  0.3366782 
217.4      0.3428809  0.6231698  0.3289887 
217.5      0.3564864  0.6003988  0.3244524 
217.6      0.3704715  0.572705   0.28513   
217.7      0.3831753  0.5475632  0.2787731 
217.8      0.3908118  0.536443   0.2571745 
217.9      0.4044942  0.5209143  0.2460331 
218        0.4175019  0.5041452  0.243453  
218.1      0.4135025  0.5055604  0.264591  
218.2      0.4173163  0.497243   0.2382408 
218.3      0.4109905  0.5033154  0.2479917 
218.4      0.4108036  0.5044373  0.2442396 
218.5      0.4089639  0.5090087  0.2675188 
218.6      0.4073602  0.5121004  0.2762468 
218.7      0.3967044  0.5283449  0.2920096 
218.8      0.3967024  0.5358012  0.2990454 
218.9      0.3870866  0.5511456  0.2891559 
219        0.3923736  0.5301697  0.2556597 
219.1      0.3934538  0.5218432  0.2567004 
219.2      0.3820688  0.5349142  0.2382501 
219.3      0.3705036  0.5534245  0.2499847 
219.4      0.3708858  0.5566525  0.24436   
219.5      0.3760701  0.5523893  0.2306512 
219.6      0.3725557  0.556015   0.2608564 
219.7      0.3839867  0.5392269  0.2555257 
219.8      0.383396   0.5407117  0.2692488 
219.9      0.3914145  0.5281112  0.2880769 
220        0.3755905  0.5419307  0.3185238 
220.1      0.3767704  0.5361025  0.3273471 
220.2      0.3739797  0.541293   0.3247022 
220.3      0.3748391  0.542007   0.3083215 
220.4      0.3504023  0.5775529  0.3471867 
220.5      0.3342954  0.6052051  0.3806634 
220.6      0.3501768  0.5809609  0.3311646 
220.7      0.3451256  0.5892242  0.3411563 
220.8      0.3439666  0.5863058  0.328156  
220.9      0.3558109  0.564882   0.3081829 
221        0.3565299  0.5656889  0.3022564 
221.1      0.3706664  0.5486007  0.2972235 
221.2      0.3729088  0.5506788  0.286226  
221.3      0.3562258  0.5788962  0.3097931 
221.4      0.3407221  0.6059787  0.3521315 
221.5      0.358693   0.5780475  0.3145705 
221.6      0.3607464  0.5756858  0.3106231 
221.7      0.356293   0.5840954  0.31644   
221.8      0.3639819  0.5737752  0.2989278 
221.9      0.3705693  0.5647933  0.2801347 
222        0.3516649  0.593316   0.32886   
222.1      0.3538807  0.5887124  0.3192117 
222.2      0.3556952  0.5848702  0.3138206 
222.3      0.3437297  0.6055444  0.3329333 
222.4      0.3512359  0.5959736  0.3059846 
222.5      0.3564606  0.5902238  0.3111748 
222.6      0.3462099  0.6092782  0.3386739 
222.7      0.338729   0.626156   0.3352239 
222.8      0.3461438  0.6149762  0.32457   
222.9      0.3543337  0.5958951  0.3232327 
223        0.3409411  0.6028715  0.3623961 
223.1      0.3406391  0.5903282  0.3629662 
223.2      0.3475961  0.5736263  0.3449334 
223.3      0.3528242  0.5754581  0.3479002 
223.4      0.347982   0.5942448  0.3559515 
223.5      0.3510021  0.5964286  0.3305752 
223.6      0.3546588  0.593697   0.3099716 
223.7      0.3496838  0.6020885  0.3264244 
223.8      0.3489822  0.598659   0.3349542 
223.9      0.3473752  0.5959251  0.3127432 
224        0.3476876  0.5922585  0.3182989 
224.1      0.3387803  0.6044067  0.3278116 
224.2      0.3353543  0.6089985  0.3258894 
224.3      0.328513   0.6227398  0.3314817 
224.4      0.3265313  0.626636   0.3630114 
224.5      0.3390851  0.6042801  0.3260287 
224.6      0.3443319  0.5977168  0.3292973 
224.7      0.3421007  0.6021041  0.329537  
224.8      0.3473821  0.5935181  0.3160894 
224.9      0.3579149  0.5788589  0.3126922 
225        0.3461341  0.6041192  0.3147353 
225.1      0.3489713  0.607761   0.3096919 
225.2      0.3421063  0.6285192  0.3467296 
225.3      0.3627496  0.5972311  0.2988585 
225.4      0.3509408  0.6247464  0.305986  
225.5      0.3565403  0.6256871  0.2945052 
225.6      0.3617786  0.6126431  0.2901144 
225.7      0.3511362  0.6218986  0.3019113 
225.8      0.3478978  0.6278249  0.3171574 
225.9      0.3490758  0.617595   0.315848  
226        0.3391192  0.6254745  0.3482653 
226.1      0.3546305  0.5900267  0.3544606 
226.2      0.3571462  0.5813257  0.3508897 
226.3      0.3575925  0.5814002  0.3412019 
226.4      0.343032   0.6067095  0.3678492 
226.5      0.3361344  0.6158851  0.3876691 
226.6      0.3214706  0.6375211  0.4062932 
226.7      0.3437798  0.5934322  0.3371434 
226.8      0.3487134  0.5870557  0.3180862 
226.9      0.3485045  0.5970637  0.3096876 
227        0.3513323  0.602093   0.2991809 
227.1      0.3652286  0.582775   0.2877849 
227.2      0.3639341  0.5848955  0.2839921 
227.3      0.374678   0.5688624  0.2562348 
227.4      0.3739917  0.57157    0.2594247 
227.5      0.3727531  0.5765424  0.2486382 
227.6      0.3768914  0.5707901  0.2374057 
227.7      0.3903441  0.5500286  0.203081  
227.8      0.3833278  0.5554234  0.2107759 
227.9      0.374782   0.5643323  0.2327384 
228        0.3693923  0.5728903  0.22668   
228.1      0.3876992  0.548826   0.2146284 
228.2      0.4020246  0.5270973  0.2103552 
228.3      0.4097895  0.509826   0.2027203 
228.4      0.4127465  0.5043334  0.2032948 
228.5      0.4188418  0.4992013  0.1984949 
228.6      0.4212483  0.4927246  0.1849059 
228.7      0.4050095  0.5122494  0.2009181 
228.8      0.3941922  0.5387369  0.1990091 
228.9      0.3741965  0.5707254  0.2305479 
229        0.3595465  0.5848822  0.2451175 
229.1      0.3500257  0.5944526  0.2600014 
229.2      0.3548222  0.5886319  0.2561438 
229.3      0.3709398  0.568331   0.2271477 
229.4      0.3771614  0.5640097  0.2055415 
229.5      0.3937773  0.5471535  0.1655477 
229.6      0.393481   0.552466   0.1558898 
229.7      0.3938806  0.5517802  0.1600024 
229.8      0.4028438  0.5320388  0.1457089 
229.9      0.4108049  0.5137509  0.1369021 
230        0.4160157  0.4997428  0.1124287 
230.1      0.4209917  0.4899303  0.08482805
230.2      0.4088368  0.5015979  0.08260292
230.3      0.394721   0.5203243  0.08575207
230.4      0.4085709  0.5090101  0.08580209
230.5      0.3824636  0.5556286  0.09916649
230.6      0.3867947  0.5585096  0.09934689
