~Version
 VERS              .         3.0                           : CWLS LOG ASCII STANDARD - VERSION 3.0
 WRAP              .         NO                            : ONE LINE PER DEPTH STEP
 DLM               .         SPACE                         : DELIMITING CHARACTER(SPACE TAB OR COMMA)
~Well Information
#_______________________________________________________________________________
#
#PARAMETER_NAME    .UNIT     VALUE                         : DESCRIPTION
#_______________________________________________________________________________
STRT               .M        51                            : First reference value
STOP               .M        906.1                         : Last reference value
STEP               .M        0.1                           : Step increment
NULL               .         -9999                         : Missing value
COMP               .         ICPetroleum                   : Company
WELL               .         317                           : Well name
FLD                .         Karatobe                      : Field
LOC                .                                       : Location
SRVC               .                                       : Service Company
CTRY               .         KZ                            : Country
DATE               .         09/11/2004                    : Service Date
LATI               .         0                             : Latitude
LONG               .         0                             : Longitude
GDAT               .         WGS 84                        : Geodetic Datum
CNTY               .                                       : 
COORDIN            .                                       : Grid System
COUNTRY            .         Kazakhstan                    : 
COUNTRY            .         Kazakhstan                    : 
EREF               .m        145.4                         : 
KB                 .         144.9                         : KB Elevation
ORIGINALWELLNAME   .         317                           : 
PROV               .                                       : Province
RWS                .         -999                          : Def_Rw
STAT               .                                       : 
UWI                .                                       : 
WST                .         -999                          : Def_Rwt
X                  .km       466008.8                      : 
XCOORD             .                                       : X or East-West Coordinate
Y                  .km       5307445.74                    : 
YCOORD             .                                       : Y or North-South Coordinate
~Parameter Information Block
#_______________________________________________________________________________
#
#PARAMETER_NAME    .UNIT     VALUE                         : DESCRIPTION
#_______________________________________________________________________________
SET                .         Las                           : 
TLFamily_DEPT      .         Measured Depth                : 
TLFamily_PHI_FINAL .         Porosity                      : 
TLFamily_SW_AR     .         Water Saturation              : 
TLFamily_VSH_FINAL .         Shale Volume                  : 
~Curve Information
#_______________________________________________________________________________
#
#LOGNAME           .UNIT     LOG_ID                        : DESCRIPTION
#_______________________________________________________________________________
DEPT               .M                                      : Depth curve {F}
PHI_FINAL          .m3/m3                                  : Porosity {F}
SW_AR              .m3/m3                                  :  {F}
VSH_FINAL          .unitless                               : Vshale {F}
~Ascii
# ...
248.9      0.1692511  1          0.8592882 
249        0.1829597  1          0.8187364 
249.1      0.194073   1          0.7943414 
249.2      0.1984547  1          0.8076007 
249.3      0.1924756  1          0.8336161 
249.4      0.1633892  1          0.8968605 
249.5      0.1953005  1          0.8244849 
249.6      0.1933209  1          0.8072793 
249.7      0.1611544  1          0.8660731 
249.8      0.1739641  1          0.8372291 
249.9      0.1558243  1          0.8875619 
250        0.1541237  1          0.8694894 
250.1      0.1771192  1          0.8034344 
250.2      0.1506234  1          0.8394282 
250.3      0.1249347  1          0.855939  
250.4      0.1405879  1          0.7788768 
250.5      0.1754012  1          0.6557198 
250.6      0.1744725  1          0.6176736 
250.7      0.1516959  1          0.57885   
250.8      0.1886122  1          0.4570371 
250.9      0.1352241  1          0.4250243 
251        0.09676468 1          0.3324011 
251.1      0.0920875  1          0.318428  
251.2      0.1116653  1          0.3174146 
251.3      0.11587    1          0.3251635 
251.4      0.189481   0.8570653  0.3451236 
251.5      0.1845498  0.9496889  0.3738541 
251.6      0.1928855  0.9307723  0.3947054 
251.7      0.1799389  0.9823644  0.4034383 
251.8      0.1683999  1          0.4126706 
251.9      0.05628451 1          0.4697423 
252        0.05778704 1          0.4604222 
252.1      0.06970488 1          0.4610949 
252.2      0.08993419 1          0.4182383 
252.3      0.1334328  1          0.4409192 
252.4      0.109847   1          0.4766232 
252.5      0.08364208 1          0.5131115 
252.6      0.07207708 1          0.4776208 
252.7      0.08292868 1          0.4451556 
252.8      0.09394465 1          0.4498271 
252.9      0.1064746  1          0.4486554 
253        0.125159   1          0.5011122 
253.1      0.1313197  1          0.5123842 
253.2      0.1256816  1          0.5459681 
253.3      0.1527626  1          0.5714642 
253.4      0.1747871  1          0.530194  
253.5      0.1861247  1          0.498287  
253.6      0.1904828  1          0.5046321 
253.7      0.1818772  1          0.5324548 
253.8      0.1861286  1          0.4980355 
253.9      0.2187446  1          0.4296342 
254        0.221684   0.982848   0.4026419 
254.1      0.2196761  0.9702915  0.3969378 
254.2      0.188143   1          0.4126287 
254.3      0.2110122  0.9792178  0.3496699 
254.4      0.2078633  0.9879916  0.3534988 
254.5      0.2172459  0.9401008  0.3123306 
254.6      0.2296191  0.8833145  0.2841427 
254.7      0.2567344  0.7391077  0.2210109 
254.8      0.2612338  0.6146062  0.2063127 
254.9      0.2645831  0.475769   0.1555078 
255        0.2495202  0.4052617  0.150465  
255.1      0.2517956  0.3347659  0.1559624 
255.2      0.3090696  0.2925606  0.1701325 
255.3      0.294208   0.3830919  0.225143  
255.4      0.1950544  0.8039211  0.328388  
255.5      0.1402049  1          0.5008082 
255.6      0.1214956  1          0.6453872 
255.7      0.130672   1          0.8491184 
255.8      0.1120361  1          0.8998719 
255.9      0.07020085 1          0.9347006 
256        0.04153845 1          0.9886265 
256.1      0.05225482 1          0.9515728 
256.2      0.05146284 1          0.9696392 
256.3      0.06793637 1          0.9572361 
256.4      0.05801288 1          0.9985223 
256.5      0.05644726 1          1         
256.6      0.06518229 1          1         
256.7      0.1029415  1          0.9036562 
256.8      0.1280982  1          0.8784252 
256.9      0.1138251  1          0.8905258 
257        0.1304864  1          0.8520706 
257.1      0.1523722  1          0.8490225 
257.2      0.1938355  1          0.7280431 
257.3      0.1945834  1          0.7187842 
257.4      0.1988471  1          0.6911035 
257.5      0.1918142  1          0.6208676 
257.6      0.1881652  1          0.5522053 
257.7      0.1848877  1          0.5646391 
257.8      0.1932112  1          0.5222665 
257.9      0.1935652  1          0.5246714 
258        0.1713512  1          0.5583829 
258.1      0.1850509  1          0.4905119 
258.2      0.1781836  1          0.5003375 
258.3      0.1722904  1          0.475613  
258.4      0.1652068  1          0.4705819 
258.5      0.1218783  1          0.4939269 
258.6      0.1135169  1          0.491872  
258.7      0.09917293 1          0.4091888 
258.8      0.03659641 1          0.4030944 
258.9      0.04294144 1          0.3437294 
259        0.02900394 1          0.3133957 
259.1      0.03120233 1          0.2947999 
259.2      0.03664234 1          0.2902583 
259.3      0.03423771 1          0.3245392 
259.4      0.0496708  1          0.3899173 
259.5      0.137505   0.8716084  0.3681954 
259.6      0.1513505  1          0.4096179 
259.7      0.2219369  0.8719096  0.390869  
259.8      0.2318448  0.883065   0.4064642 
259.9      0.2117944  0.9790114  0.4975207 
260        0.209909   0.9908746  0.5238376 
260.1      0.1976267  1          0.5011389 
260.2      0.1772602  1          0.541773  
260.3      0.1736927  1          0.5410393 
260.4      0.1906326  1          0.52869   
260.5      0.172448   1          0.599105  
260.6      0.1603681  1          0.6222442 
260.7      0.1649906  1          0.6111276 
260.8      0.1842663  1          0.5785771 
260.9      0.1969692  1          0.5334871 
261        0.2051262  1          0.5035834 
261.1      0.2181733  1          0.4933617 
261.2      0.2009884  1          0.5542073 
261.3      0.1704013  1          0.6497098 
261.4      0.1475671  1          0.7135816 
261.5      0.106382   1          0.7955308 
261.6      0.1157789  1          0.7359468 
261.7      0.1447412  1          0.6532543 
261.8      0.1526974  1          0.6653091 
261.9      0.134158   1          0.714279  
262        0.0813949  1          0.8925    
262.1      0.0548084  1          0.9265627 
262.2      0.03687241 1          0.9500976 
262.3      0.02335831 1          0.9803341 
262.4      0.03013367 1          0.9750631 
262.5      0.03638707 1          0.9712582 
262.6      0.03772124 1          0.9782847 
262.7      0.05403284 1          0.9470267 
262.8      0.0643201  1          0.8765609 
262.9      0.09743279 1          0.7877308 
263        0.09611049 1          0.7763591 
263.1      0.09383299 1          0.8272379 
263.2      0.1009136  1          0.8657768 
263.3      0.1250997  1          0.8498738 
263.4      0.1197225  1          0.8628507 
263.5      0.1296613  1          0.8397279 
263.6      0.1266796  1          0.8326644 
263.7      0.1297383  1          0.82287   
263.8      0.1238022  1          0.8850195 
263.9      0.0986712  1          0.9454412 
264        0.07396933 1          1         
264.1      0.06999448 1          1         
264.2      0.07526814 1          1         
264.3      0.08229531 1          1         
264.4      0.0791678  1          1         
264.5      0.07459702 1          1         
264.6      0.06041519 1          1         
264.7      0.04670072 1          1         
264.8      0.03650773 1          1         
264.9      0.03784305 1          0.9740829 
265        0.03472193 1          0.9764104 
265.1      0.03207764 1          1         
265.2      0.03346664 1          1         
265.3      0.03026687 1          1         
265.4      0.02670898 1          1         
265.5      0.0146383  1          1         
265.6      0.008612745 1          1         
265.7      0.02487165 1          1         
265.8      0.03225702 1          1         
265.9      0.04321207 1          1         
266        0.03963448 1          1         
266.1      0.0550023  1          1         
266.2      0.06641915 1          0.9708008 
266.3      0.1025889  1          0.8783704 
266.4      0.1297416  1          0.8266065 
266.5      0.1170471  1          0.8608361 
266.6      0.1208918  1          0.8331239 
266.7      0.1691226  1          0.6864351 
266.8      0.1708205  1          0.6676814 
266.9      0.1662601  1          0.6594284 
267        0.1369188  1          0.5932064 
