~Version
 VERS              .         3.0                           : CWLS LOG ASCII STANDARD - VERSION 3.0
 WRAP              .         NO                            : ONE LINE PER DEPTH STEP
 DLM               .         SPACE                         : DELIMITING CHARACTER(SPACE TAB OR COMMA)
~Well Information
#_______________________________________________________________________________
#
#PARAMETER_NAME    .UNIT     VALUE                         : DESCRIPTION
#_______________________________________________________________________________
STRT               .M        51                            : First reference value
STOP               .M        906.1                         : Last reference value
STEP               .M        0.1                           : Step increment
NULL               .         -9999                         : Missing value
COMP               .         ICPetroleum                   : Company
WELL               .         317                           : Well name
FLD                .         Karatobe                      : Field
LOC                .                                       : Location
SRVC               .                                       : Service Company
CTRY               .         KZ                            : Country
DATE               .         09/11/2004                    : Service Date
LATI               .         0                             : Latitude
LONG               .         0                             : Longitude
GDAT               .         WGS 84                        : Geodetic Datum
CNTY               .                                       : 
COORDIN            .                                       : Grid System
COUNTRY            .         Kazakhstan                    : 
COUNTRY            .         Kazakhstan                    : 
EREF               .m        145.4                         : 
KB                 .         144.9                         : KB Elevation
ORIGINALWELLNAME   .         317                           : 
PROV               .                                       : Province
RWS                .         -999                          : Def_Rw
STAT               .                                       : 
UWI                .                                       : 
WST                .         -999                          : Def_Rwt
X                  .km       466008.8                      : 
XCOORD             .                                       : X or East-West Coordinate
Y                  .km       5307445.74                    : 
YCOORD             .                                       : Y or North-South Coordinate
~Parameter Information Block
#_______________________________________________________________________________
#
#PARAMETER_NAME    .UNIT     VALUE                         : DESCRIPTION
#_______________________________________________________________________________
SET                .         Las                           : 
TLFamily_DEPT      .         Measured Depth                : 
TLFamily_PHI_FINAL .         Porosity                      : 
TLFamily_SW_AR     .         Water Saturation              : 
TLFamily_VSH_FINAL .         Shale Volume                  : 
~Curve Information
#_______________________________________________________________________________
#
#LOGNAME           .UNIT     LOG_ID                        : DESCRIPTION
#_______________________________________________________________________________
DEPT               .M                                      : Depth curve {F}
PHI_FINAL          .m3/m3                                  : Porosity {F}
SW_AR              .m3/m3                                  :  {F}
VSH_FINAL          .unitless                               : Vshale {F}
~Ascii
# ...
394.5      0.1297009  1          0.7753932 
394.6      0.1077771  1          0.8233032 
394.7      0.09331828 1          0.8460028 
394.8      0.1042312  1          0.7927948 
394.9      0.1105681  1          0.7621368 
395        0.08566296 1          0.794427  
395.1      0.0766362  1          0.8442463 
395.2      0.1030521  1          0.79935   
395.3      0.1053486  1          0.7769893 
395.4      0.07368214 1          0.8306283 
395.5      0.1120927  1          0.7128921 
395.6      0.09401204 1          0.7456079 
395.7      0.08451154 1          0.7645053 
395.8      0.105152   1          0.7427801 
395.9      0.1217326  1          0.6926244 
396        0.1538433  1          0.6194925 
396.1      0.1429793  1          0.6681861 
396.2      0.1502287  1          0.6594844 
396.3      0.1350695  1          0.6933658 
396.4      0.1251267  1          0.7225034 
396.5      0.1183678  1          0.7561148 
396.6      0.1277584  1          0.7389486 
396.7      0.1482711  1          0.6745518 
396.8      0.1464489  1          0.6812972 
396.9      0.08762929 1          0.7804534 
397        0.07925602 1          0.8004001 
397.1      0.08718968 1          0.7480727 
397.2      0.07062649 1          0.7902972 
397.3      0.07259179 1          0.7753661 
397.4      0.1018934  1          0.6799044 
397.5      0.1466905  1          0.6201677 
397.6      0.139198   1          0.6827636 
397.7      0.1332837  1          0.7144457 
397.8      0.1434431  1          0.7614788 
397.9      0.1230843  1          0.8238645 
398        0.07013647 1          0.9398233 
398.1      0.04436421 1          0.9874135 
398.2      0.07004708 1          0.8972015 
398.3      0.1080678  1          0.8357498 
398.4      0.1077333  1          0.8450615 
398.5      0.1222916  1          0.7522231 
398.6      0.1319132  1          0.7323703 
398.7      0.09749275 1          0.8151458 
398.8      0.1027215  1          0.8248108 
398.9      0.09602161 1          0.7906702 
399        0.0530176  1          0.9164739 
399.1      0.05478628 1          0.9181699 
399.2      0.05212817 1          0.8892282 
399.3      0.04473218 1          0.918147  
399.4      0.04397737 1          0.8925334 
399.5      0.01815495 1          0.9583546 
399.6      0.04845141 1          0.8775008 
399.7      0.07001054 1          0.8602205 
399.8      0.08009434 1          0.8976529 
399.9      0.1155146  1          0.8215303 
400        0.07076411 1          0.9594125 
400.1      0.09374859 1          0.8654719 
400.2      0.08155734 1          0.8903428 
400.3      0.04796802 1          0.9524425 
400.4      0.06325747 1          0.900944  
400.5      0.1080652  1          0.7860455 
400.6      0.1041044  1          0.8154926 
400.7      0.1321224  1          0.7363371 
400.8      0.144539   1          0.6843488 
400.9      0.1808441  1          0.581053  
401        0.1663467  1          0.6099734 
401.1      0.1306772  1          0.7177679 
401.2      0.1407682  1          0.7109758 
401.3      0.1718253  1          0.6412853 
401.4      0.1736995  1          0.6247656 
401.5      0.1690353  1          0.6603969 
401.6      0.1405989  1          0.7316692 
401.7      0.1299501  1          0.7277688 
401.8      0.1304978  1          0.7174158 
401.9      0.08763333 1          0.8169757 
402        0.07879671 1          0.8210223 
402.1      0.03682091 1          0.9573302 
402.2      0.04974435 1          0.9825847 
402.3      0.06125265 1          0.926832  
402.4      0.09308707 1          0.8622241 
402.5      0.07373028 1          0.8975396 
402.6      0.07904482 1          0.8663155 
402.7      0.0567691  1          0.9224168 
402.8      0.07159184 1          0.8619029 
402.9      0.09789843 1          0.7835873 
403        0.1078922  1          0.7861376 
403.1      0.1221915  1          0.7333386 
403.2      0.09214654 1          0.8070931 
403.3      0.125655   1          0.7260494 
403.4      0.1289441  1          0.7441502 
403.5      0.1089672  1          0.7878787 
403.6      0.08954029 1          0.8571807 
403.7      0.07945804 1          0.8907719 
403.8      0.09072804 1          0.8662261 
403.9      0.08575722 1          0.9197916 
404        0.07926805 1          0.9488839 
404.1      0.05034588 1          1         
404.2      0.06070038 1          1         
404.3      0.06443235 1          1         
404.4      0.09071417 1          0.9140143 
404.5      0.1215262  1          0.8204998 
404.6      0.09138876 1          0.8694001 
404.7      0.0925961  1          0.8411136 
404.8      0.08517259 1          0.8461208 
404.9      0.06247269 1          0.8900586 
405        0.1173157  1          0.7834214 
405.1      0.140936   1          0.7514874 
405.2      0.1511893  1          0.7405992 
405.3      0.1289624  1          0.7965004 
405.4      0.1007556  1          0.8752428 
405.5      0.09002163 1          0.9014953 
405.6      0.08349508 1          0.9319068 
405.7      0.06236498 1          1         
405.8      0.06141699 1          1         
405.9      0.1042187  1          0.8586236 
406        0.1210439  1          0.8177912 
406.1      0.1282588  1          0.8022041 
406.2      0.1413946  1          0.7672334 
406.3      0.1120229  1          0.8464621 
406.4      0.1393888  1          0.7724999 
406.5      0.1298786  1          0.7948436 
406.6      0.1553648  1          0.7562773 
406.7      0.1461659  1          0.7626501 
406.8      0.1715018  1          0.69298   
406.9      0.1416148  1          0.7512412 
407        0.1147677  1          0.7917216 
407.1      0.07243754 1          0.8755488 
407.2      0.06165206 1          0.8748013 
407.3      0.05511761 1          0.8886374 
407.4      0.08026575 1          0.8152383 
407.5      0.05217442 1          0.8943327 
407.6      0.04071898 1          0.933538  
407.7      0.01199307 1          1         
407.8      0.009107031 1          1         
407.9      0.000123489 1          1         
408        0          1          1         
408.1      0          1          0.9510263 
408.2      0          1          0.8615201 
408.3      0          1          0.7808368 
408.4      0          1          0.620556  
408.5      0          1          0.533668  
408.6      0.007974343 1          0.4404614 
408.7      0.03863626 1          0.3897618 
408.8      0.05999485 1          0.4416255 
408.9      0.08677685 1          0.6027176 
409        0.1158215  1          0.6885431 
409.1      0.08463129 1          0.8692029 
409.2      0.05065807 1          1         
409.3      0.06030446 1          0.992129  
409.4      0.06538952 1          0.9538761 
409.5      0.07539654 1          0.9038256 
409.6      0.0999677  1          0.8268562 
409.7      0.08235223 1          0.8644747 
409.8      0.05900186 1          0.9291993 
409.9      0.0531394  1          0.9788584 
410        0.04726362 1          0.9842536 
410.1      0.05001947 1          0.9690588 
410.2      0.05750624 1          0.9815936 
410.3      0.06349891 1          0.9349221 
410.4      0.05391586 1          0.9575732 
410.5      0.03810379 1          0.9912596 
410.6      0.0743966  1          0.9216493 
410.7      0.07506023 1          0.9383249 
410.8      0.08627849 1          0.9041485 
410.9      0.06569511 1          0.9653789 
411        0.09721789 1          0.8636511 
411.1      0.1001206  1          0.8444619 
411.2      0.1188022  1          0.782262  
411.3      0.1161905  1          0.7914977 
411.4      0.09420101 1          0.7983859 
411.5      0.08759852 1          0.8061481 
411.6      0.09666017 1          0.796755  
411.7      0.1186299  1          0.7446238 
411.8      0.1379269  1          0.706444  
411.9      0.1150707  1          0.7853188 
412        0.1528552  1          0.7132809 
412.1      0.1522217  1          0.7355129 
412.2      0.1461998  1          0.7326242 
412.3      0.1285121  1          0.7813152 
412.4      0.130105   1          0.7514048 
412.5      0.1200112  1          0.7906665 
412.6      0.1242652  1          0.7622535 
