~Version information
  VERS.                            1.20: CWLS LAS  -  VERSION 1.20
  WRAP.                              NO: One line per depth step
~Well information
# MNEM.UNIT
# ====.================================:===================
  STRT.M                          51.00: First depth in file
  STOP.M                         906.10: Last depth in file
  STEP.M                           0.10: Depth increment
  NULL.                           -9999: Null values
  COMP.                         COMPANY: 
  WELL.                            WELL: 317
  FLD .                           FIELD: KARATUBE
  CNTY.                          COUNTY: 
  STAT.                           STATE: 
  DATE.                        LOG DATE: 09/11/2004
  SRVC.                 SERVICE COMPANY: 
  UWI.           Unique Well Identifier: 
~Parametr information block
# MNEM.UNIT
# ====.================================:===================
~Other information
# ------------------------- REMARKS  AREA ------------------
~Curve information
# MNEM.UNIT
# ====.================================:===================
  DEPT.M                               : Depth curve
NGLD  .UE                              : çÖâíêéççõâ ÉÄååÄ äÄêéíÄÜ / Ñêëí3-90
DTP   .US/M                            : àçíÖêÇÄãúçéÖ ÇêÖåü èêéÑ.Çéãçõ èé Ää
SP    .MV                              : ÖëíÖëíÇÖççÄü ëÄåéèéãüêàáÄñàü èé èë
LL3   .OHMM                            : äÄÜ.ëéèêéíàÇãÖçàÖ áéçÑÄ Åä-3 /ÄÅäí
CALI  .MM                              : ëìååÄêçõâ ÑàÄåÖíê äÄÇÖêçéåÖêÄ
GR    .UR/H                            : ÖëíÖëíÇÖççÄü ÉÄååÄ-ÄäíàÇçéëíú èé Éä
RHOB  .G/C3                            : éÅöÖåçÄü èãéíçéëíú èéêéÑõ èé ÉÉäè
CILR  .MMHO                            : áéçÑ àä 7à1.6,êÖÄä.ëàÉçÄã/àä-è/Äàä-5
GZ3B  .OHMM                            : äÄÜ.ëéèê.éÅêÄôÖççéÉé áéçÑÄ N0.5å2.0
CILA  .MMHO                            : áéçÑ àä 7à1.6,Ääí.ëàÉçÄã/àä-è/Äàä-5
MLL   .OHMM                            : äÄÜ.ëéèê/åàäêéÅéäéÇéâ äÄêéíÄÜ/åä-ìñ
GZ3   .OHMM                            : äÄÜ. ëéèêéíàÇãÖçàÖ áéçÑÄ A2.0M0.5N
T1    .MKS                             : T1, ¨™·
T2    .MKS                             : í2, ¨™·
C1    .MM                              : è‡Æ‰®´Ï1,¨¨
C2    .MM                              : è‡Æ‰®´Ï2,¨¨
~ASCII Log Data
# ...
   623.00     1.1900   420.0000    19.6160     2.1870   216.9850     8.0020     2.1510   310.6250     1.4930   176.9640     2.1990     1.0510  1004.0000  1172.0000   215.8440   218.1250
   623.10     1.2210   424.7220    20.4970     2.1950   216.6770     8.1440     2.1490   317.1510     1.4660   179.3190     1.9340     1.0360  1002.1110  1172.0000   215.9010   217.4530
   623.20     1.2280   430.0000    21.6550     2.1510   216.0570     7.9740     2.1690   318.4290     1.4490   185.5560     1.9100     1.0170  1000.0000  1172.0000   214.7080   217.4050
   623.30     1.2120   420.5080    21.0050     2.0810   215.3170     7.8480     2.1860   318.9790     1.4420   190.0970     2.1070     1.0030  1000.0000  1168.2030   212.9770   217.6570
   623.40     1.2260   414.7580    20.2320     2.1300   217.5180     7.9290     2.1680   318.9790     1.4260   197.8080     2.1770     0.9910   998.0970  1164.0000   217.2920   217.7430
   623.50     1.2070   420.0000    18.2630     2.1910   215.2900     7.5880     2.1700   316.6980     1.3770   202.9470     2.0980     0.9690   996.0000  1164.0000   211.9410   218.6400
   623.60     1.2270   429.5650    16.6750     2.1570   216.8830     7.3250     2.1750   316.3110     1.3160   214.7370     1.8820     0.9420   992.1740  1164.0000   214.6300   219.1370
   623.70     1.2010   440.0000    16.0390     2.0220   217.8100     7.1340     2.1440   313.9720     1.2200   228.3680     1.7410     0.8670   988.0000  1164.0000   216.5350   219.0840
   623.80     1.1910   440.0000    15.0620     1.8480   216.5280     6.6650     2.1320   307.3920     1.1380   237.2590     1.4570     0.7870   988.0000  1164.0000   213.7590   219.2970
   623.90     1.1830   440.0000    15.2710     1.7260   217.9950     6.2860     2.1230   302.1190     1.0800   244.6170     1.3570     0.6960   988.0000  1164.0000   216.7790   219.2100
   624.00     1.2030   435.1680    17.4080     1.6260   216.8330     6.1230     2.1440   294.7270     1.0700   247.7400     1.1560     0.6440   988.0000  1162.0670   214.5310   219.1340
   624.10     1.1690   430.0000    20.3350     1.5580   216.7830     6.0420     2.1280   294.7270     1.1070   247.9580     1.0840     0.6010   988.0000  1160.0000   214.4840   219.0820
   624.20     1.1470   430.0000    23.7940     1.5190   217.3880     5.9580     2.1460   296.1980     1.1810   247.7400     1.1710     0.5800   988.0000  1160.0000   216.3480   218.4280
   624.30     1.1500   430.0000    26.9670     1.5210   217.1270     6.0730     2.1430   296.7380     1.2600   242.6670     1.2790     0.5950   988.0000  1160.0000   216.2160   218.0390
   624.40     1.1070   434.8830    26.9640     1.5130   217.5140     6.3140     2.1700   296.1980     1.6070   226.0080     1.0090     0.6590   986.0470  1160.0000   215.8140   219.2130
   624.50     1.1140   440.0000    25.6940     1.4380   218.9480     6.5750     2.1920   292.8600     2.3050   214.2950     0.5820     0.8030   984.0000  1160.0000   218.9270   218.9700
   624.60     1.1540   440.0000    24.8320     1.3560   215.8870     6.8730     2.1950   288.5590     3.3100   192.1490     0.6170     1.1170   984.0000  1160.0000   213.4780   218.2960
   624.70     1.1420   390.8060    26.7150     1.4400   217.3500     7.0700     2.2900   279.9510     4.3530   175.5470     1.3600     1.5500   985.9680  1142.2900   216.5720   218.1290
   624.80     1.1440   340.0000    28.9790     1.8020   216.9060     7.2820     2.3500   271.5290     4.9620   161.0320     9.7530     1.9450   988.0000  1124.0000   216.1440   217.6670
   624.90     1.1480   330.1120    31.0110     2.4480   216.7900     7.7200     2.4910   261.3030     5.2190   150.9440     4.5110     2.3080   989.9780  1122.0220   215.3460   218.2350
   625.00     1.0960   320.0000    34.7620     3.0280   220.9750     8.0250     2.4450   250.5940     5.0430   150.9440     2.3100     2.4700   992.0000  1120.0000   219.2380   222.7110
   625.10     1.0930   359.7460    38.0560     3.1050   219.7040     8.2860     2.4180   239.9080     4.5230   156.5410     2.6090     2.3800   976.1020  1120.0000   217.4260   221.9830
   625.20     1.0810   400.0000    38.9030     2.9290   218.0340     8.7480     2.3710   215.6860     3.9070   160.9370     2.6670     2.0380   960.0000  1120.0000   215.2590   220.8090
   625.30     1.1000   404.9930    39.1580     2.8290   218.5030     9.3280     2.3200   200.2130     3.3480   168.1550     2.5020     1.8010   956.0060  1118.0031   215.4580   221.5490
   625.40     1.0410   410.0000    38.2490     2.7600   219.4720    10.1370     2.2770   186.7440     3.0420   170.0230     2.9480     1.5430   952.0000  1116.0000   216.5540   222.3910
   625.50     1.0790   410.0000    34.8680     2.6970   222.0160    10.2430     2.3100   175.8550     2.9500   170.4760     2.6150     1.4090   952.0000  1116.0000   220.2850   223.7470
   625.60     1.0930   415.0320    35.1340     2.6550   222.8660    10.3960     2.3210   171.6150     2.9170   173.8430     2.3340     1.3380   949.9870  1116.0000   220.1930   225.5390
   625.70     1.0960   420.0000    35.3010     2.6410   223.2210     9.9960     2.3070   171.2910     2.9190   173.8430     2.3220     1.2930   948.0000  1116.0000   219.5650   226.8760
   625.80     1.1340   435.1680    34.8950     2.6450   228.4070     9.8230     2.2980   171.2910     2.9370   173.1800     2.0380     1.2750   948.0000  1122.0670   227.6280   229.1860
   625.90     1.1400   450.0000    33.0430     2.5540   226.9640    10.3830     2.2650   174.0290     2.9640   171.9660     1.6330     1.2560   948.0000  1128.0000   225.0850   228.8440
   626.00     1.0850   460.1610    30.1080     2.3550   228.3150    10.3600     2.2360   174.8090     3.0140   170.7690     1.4610     1.2330   950.0320  1134.0970   228.0770   228.5520
   626.10     1.0890   470.0000    29.1430     2.2340   230.2510    10.3600     2.2350   175.5250     3.0850   170.5240     1.3720     1.2040   952.0000  1140.0000   230.6410   229.8590
   626.20     1.0490   480.2100    28.7930     2.1850   232.2790    10.3640     2.2360   175.6690     3.1550   168.9210     1.2180     1.1840   954.0420  1146.1260   231.6590   232.8990
   626.30     1.0460   484.8830    25.7700     2.1440   234.1240     9.9330     2.2480   175.6690     3.2140   167.4800     1.2500     1.1840   962.1410  1156.0940   233.0350   235.2140
   626.40     1.0500   480.0000    24.4250     2.1380   233.9920     9.6020     2.2580   174.7380     3.2330   166.7280     1.3040     1.1830   968.0000  1160.0000   235.4860   232.4990
   626.50     1.0020   454.2800    23.8320     2.1890   230.5110     9.2340     2.2690   174.7380     3.2110   166.1700     1.3600     1.1800   972.1150  1153.8270   232.6890   228.3330
   626.60     1.0110   430.0000    23.1170     2.2880   233.9500     9.0820     2.2890   174.7380     3.1670   165.8940     1.5840     1.1740   976.0000  1148.0000   236.5170   231.3820
   626.70     1.0410   393.8210    24.5730     2.4330   233.6400     8.9270     2.3100   173.9820     3.1090   164.1390     1.9590     1.1700   980.1350  1137.6630   236.9310   230.3500
   626.80     1.0470   360.0000    26.3350     2.6250   229.9140     9.0250     2.3260   173.7070     3.0620   163.8090     2.1930     1.1780   984.0000  1128.0000   231.4260   228.4010
   626.90     1.0850   349.6140    28.0060     2.8620   231.9200     9.1440     2.3430   173.1070     3.0180   163.8090     2.6780     1.2420   979.8460  1119.6910   234.7050   229.1350
   627.00     1.0700   340.0000    27.8310     3.0770   230.4510     9.0840     2.3640   173.1070     3.0090   163.5870     2.9150     1.4060   976.0000  1112.0000   231.4170   229.4840
   627.10     1.0700   345.2170    28.3970     3.2000   230.4370     8.9910     2.3730   172.5090     2.9890   164.1570     3.0370     1.5790   965.5650  1103.6520   230.7210   230.1520
   627.20     1.0300   350.0000    26.6670     3.2910   228.6380     8.9610     2.3680   171.6390     2.9640   164.1570     3.1660     1.7630   956.0000  1096.0000   228.2690   229.0070
   627.30     1.0500   360.4830    24.6980     3.3430   226.6150     8.9640     2.3710   171.6390     2.9220   164.7510     3.1140     2.2860   947.6130  1091.8070   225.9150   227.3160
