~Version information
  VERS.                            1.20: CWLS LAS  -  VERSION 1.20
  WRAP.                              NO: One line per depth step
~Well information
# MNEM.UNIT
# ====.================================:===================
  STRT.M                          51.00: First depth in file
  STOP.M                         906.10: Last depth in file
  STEP.M                           0.10: Depth increment
  NULL.                           -9999: Null values
  COMP.                         COMPANY: 
  WELL.                            WELL: 317
  FLD .                           FIELD: KARATUBE
  CNTY.                          COUNTY: 
  STAT.                           STATE: 
  DATE.                        LOG DATE: 09/11/2004
  SRVC.                 SERVICE COMPANY: 
  UWI.           Unique Well Identifier: 
~Parametr information block
# MNEM.UNIT
# ====.================================:===================
~Other information
# ------------------------- REMARKS  AREA ------------------
~Curve information
# MNEM.UNIT
# ====.================================:===================
  DEPT.M                               : Depth curve
NGLD  .UE                              : çÖâíêéççõâ ÉÄååÄ äÄêéíÄÜ / Ñêëí3-90
DTP   .US/M                            : àçíÖêÇÄãúçéÖ ÇêÖåü èêéÑ.Çéãçõ èé Ää
SP    .MV                              : ÖëíÖëíÇÖççÄü ëÄåéèéãüêàáÄñàü èé èë
LL3   .OHMM                            : äÄÜ.ëéèêéíàÇãÖçàÖ áéçÑÄ Åä-3 /ÄÅäí
CALI  .MM                              : ëìååÄêçõâ ÑàÄåÖíê äÄÇÖêçéåÖêÄ
GR    .UR/H                            : ÖëíÖëíÇÖççÄü ÉÄååÄ-ÄäíàÇçéëíú èé Éä
RHOB  .G/C3                            : éÅöÖåçÄü èãéíçéëíú èéêéÑõ èé ÉÉäè
CILR  .MMHO                            : áéçÑ àä 7à1.6,êÖÄä.ëàÉçÄã/àä-è/Äàä-5
GZ3B  .OHMM                            : äÄÜ.ëéèê.éÅêÄôÖççéÉé áéçÑÄ N0.5å2.0
CILA  .MMHO                            : áéçÑ àä 7à1.6,Ääí.ëàÉçÄã/àä-è/Äàä-5
MLL   .OHMM                            : äÄÜ.ëéèê/åàäêéÅéäéÇéâ äÄêéíÄÜ/åä-ìñ
GZ3   .OHMM                            : äÄÜ. ëéèêéíàÇãÖçàÖ áéçÑÄ A2.0M0.5N
T1    .MKS                             : T1, ¨™·
T2    .MKS                             : í2, ¨™·
C1    .MM                              : è‡Æ‰®´Ï1,¨¨
C2    .MM                              : è‡Æ‰®´Ï2,¨¨
~ASCII Log Data
# ...
   403.00     1.0410   430.0000    16.6840     3.4490   231.9500     9.0140     2.2550   134.3280     3.4440   138.6680     2.0850     3.8590  1066.0820  1238.0820   226.3180   237.5810
   403.10     1.0760   434.7900    15.5480     3.4420   230.7270     8.8120     2.2480   135.1580     3.4610   139.7100     2.0700     3.8580  1062.0840  1236.0000   223.4130   238.0410
   403.20     1.1020   440.0000    14.2280     3.4320   230.8680     9.0920     2.2440   135.2840     3.4710   140.1750     2.0760     3.8620  1060.0000  1236.0000   223.5550   238.1800
   403.30     1.0900   440.0000    15.3590     3.4150   232.8810     8.7840     2.2430   136.1700     3.4640   140.9600     2.0890     3.8730  1060.0000  1236.0000   227.7340   238.0290
   403.40     1.0510   440.0000    18.4440     3.3830   233.3140     8.8560     2.2420   137.3700     3.4500   141.1690     2.1090     3.8790  1060.0000  1236.0000   228.7130   237.9160
   403.50     1.0670   440.0000    20.6930     3.3100   233.0140     9.0230     2.2370   137.5520     3.4500   145.0300     2.1000     3.8940  1061.9080  1237.9080   227.6040   238.4230
   403.60     1.0520   449.5310    20.8090     3.2460   234.4520     9.2710     2.2480   139.1970     3.4700   145.9510     2.0480     3.9170  1062.0940  1241.9060   230.5540   238.3490
   403.70     1.0560   460.0000    20.1090     3.1700   233.2700     9.3850     2.2560   139.2830     3.5490   149.3930     2.0030     3.9680  1060.0000  1244.0000   230.4580   236.0830
   403.80     1.0750   464.7560    19.5250     3.0590   231.8830     9.3030     2.2360   140.8720     3.6330   151.4340     1.9460     4.0090  1060.0000  1245.9020   227.9000   235.8650
   403.90     1.0410   470.0000    19.8110     2.9520   231.1660     9.4810     2.2230   140.9340     3.7180   151.9660     1.8420     4.0620  1060.0000  1248.0000   229.8090   232.5220
   404.00     1.0300   470.0000    19.6500     2.8770   232.5420     9.5740     2.2190   143.2210     3.7980   152.6420     1.7710     4.1000  1060.0000  1248.0000   230.6680   234.4170
   404.10     1.0620   470.0000    18.5430     2.8500   228.2810     9.7470     2.2240   143.4180     3.8350   153.2300     1.7790     4.1110  1061.8960  1249.8960   226.2850   230.2770
   404.20     1.0250   470.0000    16.2460     2.8340   226.6130    10.1270     2.2300   145.0140     3.8610   152.6420     1.7850     4.0680  1064.0000  1252.0000   223.0680   230.1570
   404.30     1.0140   470.0000    15.4590     2.7930   228.0050    10.1150     2.2230   146.2160     3.8480   152.3770     1.7430     3.9950  1064.0000  1252.0000   225.2880   230.7220
   404.40     1.0410   470.0000    15.2520     2.7710   227.3810     9.4650     2.2100   146.4210     3.8140   151.5270     1.7070     3.8840  1064.0000  1252.0000   224.2300   230.5330
   404.50     1.0540   465.2730    13.6290     2.8370   226.6740     9.1470     2.2010   147.5840     3.7570   149.6680     1.7000     3.7300  1065.8910  1252.0000   223.4510   229.8980
   404.60     1.1010   460.0000    12.1490     2.9830   227.3950     9.3180     2.1840   148.0810     3.5740   149.6140     1.6960     3.6040  1068.0000  1252.0000   225.5250   229.2650
   404.70     1.1260   450.5660    11.1480     3.2140   227.2670     9.2210     2.1770   149.7620     3.3650   147.9540     1.8580     3.3880  1071.7729  1252.0000   225.8880   228.6470
   404.80     1.1240   440.0000     8.8830     3.3540   224.9230     9.2390     2.1660   150.2080     3.2370   147.9540     2.1260     3.2120  1076.0000  1252.0000   223.5120   226.3340
   404.90     1.1760   440.0000     7.8390     3.3360   221.6200     9.3890     2.1510   150.2080     3.1230   148.0660     2.1430     3.0280  1076.0000  1252.0000   220.9130   222.3260
   405.00     1.1390   449.4040     7.3240     3.2500   221.7740     9.0140     2.1290   149.4640     3.0540   148.3830     2.0740     2.8720  1074.1190  1253.8810   220.8790   222.6690
   405.10     1.1280   460.0000     7.4200     3.2020   220.8340     8.8930     2.1070   148.8870     3.0760   148.8630     2.0350     2.7940  1072.0000  1256.0000   219.6890   221.9790
   405.20     1.1040   460.0000     7.7920     3.2140   221.1040     8.8510     2.0920   148.7960     3.2050   149.3590     2.0590     2.7800  1072.0000  1256.0000   219.5800   222.6290
   405.30     1.1080   460.0000     8.4330     3.2520   223.3290     9.0640     2.0870   148.8870     3.3380   148.8630     2.1250     2.8430  1072.0000  1256.0000   222.3210   224.3370
   405.40     1.0800   455.3170     8.8140     3.2290   222.1170     9.3420     2.0890   149.5610     3.5800   149.3590     2.1980     2.9440  1075.7460  1257.8730   219.8540   224.3810
   405.50     1.0740   454.6780     9.9510     3.1150   219.8360     9.4300     2.1040   149.7750     3.8160   149.1530     2.1450     3.0820  1081.8710  1263.7419   216.5620   223.1110
   405.60     1.0530   460.0000     9.7930     2.9630   219.0550     9.5290     2.1430   149.7750     3.9610   150.4690     1.9560     3.1690  1084.0000  1268.0000   215.2340   222.8770
   405.70     1.0460   464.6680     8.7700     2.9260   220.9210     9.9210     2.1700   149.5530     4.0580   149.1530     1.8350     3.2080  1084.0000  1269.8669   217.1790   224.6640
   405.80     1.0510   470.0000     8.4380     3.0540   222.7510    10.0190     2.1800   149.0680     4.0820   149.5520     1.8600     3.1970  1084.0000  1272.0000   218.7060   226.7950
   405.90     1.0630   460.6840    11.1420     3.2450   222.2870     9.2880     2.1890   149.5530     4.0450   147.8050     2.0390     3.1410  1087.7271  1272.0000   218.5160   226.0580
   406.00     1.0420   450.0000    13.9130     3.3560   221.1920     9.1450     2.1800   149.5460     3.9980   149.3500     2.2650     3.0750  1093.8610  1273.8610   218.4150   223.9690
   406.10     1.0470   450.0000    17.4860     3.3450   219.2110     9.0890     2.1550   149.6650     3.9770   149.3500     2.2830     3.0390  1096.0000  1276.0000   216.4480   221.9740
   406.20     1.0640   454.6440    18.6220     3.1940   217.0490     8.9590     2.1420   149.5460     3.7970   150.1700     2.1870     3.0320  1096.0000  1277.8571   212.6590   221.4390
   406.30     1.0720   460.0000    19.2490     3.0420   219.4770     9.2480     2.1400   148.6840     3.6400   150.2620     1.9800     3.0330  1096.0000  1280.0000   215.9970   222.9570
   406.40     1.0840   464.6340    19.8760     3.0650   220.8550     8.9800     2.1550   147.9710     3.4220   151.9080     1.8600     3.0360  1092.2930  1278.1460   218.9860   222.7230
   406.50     1.0880   465.3710    20.3980     3.1920   220.4410     9.0640     2.1580   147.5920     3.1680   153.1120     2.0970     3.0320  1086.1479  1272.2970   217.9840   222.8980
   406.60     1.0320   460.0000    20.4950     3.2590   219.4610     8.9190     2.1610   147.5920     2.9890   153.8120     2.2420     3.0330  1084.0000  1268.0000   215.9060   223.0160
   406.70     1.0580   460.0000    19.6700     3.2440   220.0410     8.9440     2.1610   147.5920     2.8100   155.2610     2.4270     3.0530  1082.1520  1266.1520   217.5600   222.5230
   406.80     1.0600   460.0000    18.3280     3.0150   218.2280     8.6660     2.1700   146.3980     2.7380   157.0340     2.3200     3.1030  1080.0000  1264.0000   215.3310   221.1260
   406.90     1.0830   460.0000    16.6620     2.7450   217.3720     8.9010     2.1810   145.8760     2.7170   157.7230     1.8520     3.1500  1076.3130  1260.3130   213.5160   221.2290
   407.00     1.1130   460.0000    14.8050     2.6640   218.0410     9.0550     2.2060   143.7220     2.7060   157.0340     1.7400     3.1190  1072.0000  1256.0000   213.9300   222.1520
   407.10     1.1250   455.4000    13.0220     2.6990   220.0320     9.3520     2.2330   142.6760     2.7020   156.0390     1.8660     3.0610  1068.3199  1250.4800   216.3350   223.7280
   407.20     1.1550   450.0000    12.2920     2.7630   221.4710     9.3500     2.2470   140.5760     2.7090   154.1390     1.9270     2.9670  1064.0000  1244.0000   217.9820   224.9610
   407.30     1.1730   450.0000    12.5830     2.8690   220.0310     9.3970     2.2400   140.4890     2.7380   152.0860     1.9960     2.8980  1064.0000  1244.0000   217.3260   222.7360
