~Version information
  VERS.                            1.20: CWLS LAS  -  VERSION 1.20
  WRAP.                              NO: One line per depth step
~Well information
# MNEM.UNIT
# ====.================================:===================
  STRT.M                          51.00: First depth in file
  STOP.M                         906.10: Last depth in file
  STEP.M                           0.10: Depth increment
  NULL.                           -9999: Null values
  COMP.                         COMPANY: 
  WELL.                            WELL: 317
  FLD .                           FIELD: KARATUBE
  CNTY.                          COUNTY: 
  STAT.                           STATE: 
  DATE.                        LOG DATE: 09/11/2004
  SRVC.                 SERVICE COMPANY: 
  UWI.           Unique Well Identifier: 
~Parametr information block
# MNEM.UNIT
# ====.================================:===================
~Other information
# ------------------------- REMARKS  AREA ------------------
~Curve information
# MNEM.UNIT
# ====.================================:===================
  DEPT.M                               : Depth curve
NGLD  .UE                              : çÖâíêéççõâ ÉÄååÄ äÄêéíÄÜ / Ñêëí3-90
DTP   .US/M                            : àçíÖêÇÄãúçéÖ ÇêÖåü èêéÑ.Çéãçõ èé Ää
SP    .MV                              : ÖëíÖëíÇÖççÄü ëÄåéèéãüêàáÄñàü èé èë
LL3   .OHMM                            : äÄÜ.ëéèêéíàÇãÖçàÖ áéçÑÄ Åä-3 /ÄÅäí
CALI  .MM                              : ëìååÄêçõâ ÑàÄåÖíê äÄÇÖêçéåÖêÄ
GR    .UR/H                            : ÖëíÖëíÇÖççÄü ÉÄååÄ-ÄäíàÇçéëíú èé Éä
RHOB  .G/C3                            : éÅöÖåçÄü èãéíçéëíú èéêéÑõ èé ÉÉäè
CILR  .MMHO                            : áéçÑ àä 7à1.6,êÖÄä.ëàÉçÄã/àä-è/Äàä-5
GZ3B  .OHMM                            : äÄÜ.ëéèê.éÅêÄôÖççéÉé áéçÑÄ N0.5å2.0
CILA  .MMHO                            : áéçÑ àä 7à1.6,Ääí.ëàÉçÄã/àä-è/Äàä-5
MLL   .OHMM                            : äÄÜ.ëéèê/åàäêéÅéäéÇéâ äÄêéíÄÜ/åä-ìñ
GZ3   .OHMM                            : äÄÜ. ëéèêéíàÇãÖçàÖ áéçÑÄ A2.0M0.5N
T1    .MKS                             : T1, ¨™·
T2    .MKS                             : í2, ¨™·
C1    .MM                              : è‡Æ‰®´Ï1,¨¨
C2    .MM                              : è‡Æ‰®´Ï2,¨¨
~ASCII Log Data
    51.00  9999.0000      -9999  9999.0000  9999.0000  9999.0000  9999.0000      -9999      -9999  9999.0000  9999.0000  9999.0000  9999.0000      -9999      -9999  9999.0000  9999.0000
    51.10      -9999      -9999      -9999  9999.0000  9999.0000     5.6300      -9999      -9999  9999.0000  9999.0000      -9999      -9999      -9999      -9999  9999.0000  9999.0000
    51.20      -9999      -9999      -9999  9999.0000  9999.0000     5.8590      -9999      -9999  9999.0000  9999.0000      -9999      -9999      -9999      -9999  9999.0000  9999.0000
    51.30      -9999      -9999      -9999  9999.0000  9999.0000     6.0840      -9999      -9999  9999.0000  9999.0000      -9999      -9999      -9999      -9999  9999.0000  9999.0000
    51.40      -9999      -9999      -9999  9999.0000  9999.0000     6.2170      -9999      -9999  9999.0000  9999.0000      -9999      -9999      -9999      -9999  9999.0000  9999.0000
    51.50      -9999      -9999      -9999  9999.0000  9999.0000     5.9370      -9999      -9999  9999.0000  9999.0000      -9999      -9999      -9999      -9999  9999.0000  9999.0000
    51.60      -9999      -9999      -9999  9999.0000  9999.0000     6.0070      -9999  9999.0000  9999.0000  9999.0000      -9999      -9999      -9999      -9999  9999.0000  9999.0000
    51.70      -9999      -9999      -9999  9999.0000  9999.0000     6.0640      -9999  9999.0000  9999.0000  9999.0000      -9999      -9999      -9999      -9999  9999.0000  9999.0000
    51.80      -9999      -9999      -9999  9999.0000  9999.0000     6.1580      -9999  9999.0000  9999.0000  9999.0000      -9999      -9999      -9999      -9999  9999.0000  9999.0000
    51.90      -9999      -9999      -9999  9999.0000  9999.0000     6.2140      -9999  9999.0000  9999.0000  9999.0000      -9999      -9999      -9999      -9999  9999.0000  9999.0000
    52.00      -9999      -9999      -9999  9999.0000  9999.0000     6.0000      -9999  9999.0000  9999.0000  9999.0000      -9999      -9999      -9999      -9999  9999.0000  9999.0000
    52.10      -9999      -9999      -9999  9999.0000  9999.0000     5.9950      -9999  9999.0000  9999.0000  9999.0000      -9999      -9999      -9999      -9999  9999.0000  9999.0000
    52.20      -9999      -9999      -9999  9999.0000  9999.0000     6.3100      -9999  9999.0000  9999.0000  9999.0000      -9999      -9999      -9999      -9999  9999.0000  9999.0000
    52.30      -9999      -9999      -9999  9999.0000  9999.0000     6.0700      -9999  9999.0000  9999.0000  9999.0000      -9999      -9999      -9999      -9999  9999.0000  9999.0000
    52.40      -9999      -9999      -9999  9999.0000  9999.0000     6.0100      -9999  9999.0000  9999.0000  9999.0000      -9999      -9999      -9999      -9999  9999.0000  9999.0000
    52.50      -9999      -9999      -9999  9999.0000  9999.0000     6.0400      -9999  9999.0000  9999.0000  9999.0000      -9999      -9999      -9999      -9999  9999.0000  9999.0000
    52.60      -9999      -9999      -9999  9999.0000  9999.0000     5.8240      -9999  9999.0000  9999.0000  9999.0000      -9999      -9999      -9999      -9999  9999.0000  9999.0000
    52.70      -9999      -9999      -9999  9999.0000  9999.0000     5.8250      -9999  9999.0000  9999.0000  9999.0000      -9999      -9999      -9999      -9999  9999.0000  9999.0000
    52.80      -9999      -9999      -9999  9999.0000  9999.0000     5.8480      -9999  9999.0000  9999.0000  9999.0000      -9999      -9999      -9999      -9999  9999.0000  9999.0000
    52.90      -9999      -9999      -9999  9999.0000  9999.0000     6.0750      -9999  9999.0000  9999.0000  9999.0000      -9999      -9999      -9999      -9999  9999.0000  9999.0000
    53.00      -9999      -9999      -9999  9999.0000  9999.0000     6.1590      -9999  9999.0000  9999.0000  9999.0000      -9999      -9999      -9999      -9999  9999.0000  9999.0000
    53.10      -9999      -9999      -9999  9999.0000  9999.0000     6.0160      -9999  9999.0000  9999.0000  9999.0000      -9999      -9999      -9999      -9999  9999.0000  9999.0000
    53.20      -9999      -9999      -9999  9999.0000  9999.0000     6.0560      -9999  9999.0000  9999.0000  9999.0000      -9999      -9999      -9999      -9999  9999.0000  9999.0000
    53.30      -9999      -9999      -9999  9999.0000  9999.0000     6.2010      -9999  9999.0000  9999.0000  9999.0000      -9999      -9999      -9999      -9999  9999.0000  9999.0000
    53.40      -9999      -9999      -9999  9999.0000  9999.0000     6.2440      -9999  9999.0000  9999.0000  9999.0000      -9999      -9999      -9999      -9999  9999.0000  9999.0000
    53.50      -9999      -9999      -9999  9999.0000  9999.0000     6.6020      -9999  9999.0000  9999.0000  9999.0000      -9999      -9999      -9999      -9999  9999.0000  9999.0000
    53.60      -9999      -9999      -9999  9999.0000  9999.0000     6.4140      -9999  9999.0000  9999.0000  9999.0000      -9999      -9999      -9999      -9999  9999.0000  9999.0000
    53.70     0.9610      -9999      -9999  9999.0000  9999.0000     6.1650      -9999  9999.0000  9999.0000  9999.0000      -9999      -9999      -9999      -9999  9999.0000  9999.0000
    53.80     0.9180      -9999      -9999  9999.0000  9999.0000     6.0980      -9999  9999.0000  9999.0000  9999.0000      -9999      -9999      -9999      -9999  9999.0000  9999.0000
    53.90     0.9280      -9999      -9999  9999.0000  9999.0000     6.0450      -9999  9999.0000  9999.0000  9999.0000      -9999      -9999      -9999      -9999  9999.0000  9999.0000
    54.00     0.9230      -9999      -9999  9999.0000  9999.0000     6.1240      -9999  9999.0000  9999.0000  9999.0000      -9999      -9999      -9999      -9999  9999.0000  9999.0000
    54.10     0.9190      -9999      -9999  9999.0000  9999.0000     6.1130      -9999  9999.0000  9999.0000  9999.0000      -9999      -9999      -9999      -9999  9999.0000  9999.0000
    54.20     0.9460      -9999      -9999  9999.0000  9999.0000     5.9000      -9999  9999.0000  9999.0000  9999.0000      -9999      -9999      -9999      -9999  9999.0000  9999.0000
    54.30     0.9450      -9999      -9999  9999.0000  9999.0000     5.9460      -9999  9999.0000  9999.0000  9999.0000      -9999      -9999      -9999      -9999  9999.0000  9999.0000
    54.40     0.9440      -9999      -9999  9999.0000  9999.0000     5.9470      -9999  9999.0000  9999.0000  9999.0000      -9999      -9999      -9999      -9999  9999.0000  9999.0000
    54.50     0.9310      -9999      -9999  9999.0000  9999.0000     6.1000      -9999  9999.0000  9999.0000  9999.0000      -9999      -9999      -9999      -9999  9999.0000  9999.0000
    54.60     0.9250      -9999      -9999  9999.0000  9999.0000     6.2000      -9999  9999.0000  9999.0000  9999.0000      -9999      -9999      -9999      -9999  9999.0000  9999.0000
    54.70     0.9360      -9999      -9999  9999.0000  9999.0000     6.5030      -9999  9999.0000  9999.0000  9999.0000      -9999      -9999      -9999      -9999  9999.0000  9999.0000
    54.80     0.9430      -9999      -9999  9999.0000  9999.0000     6.4060      -9999  9999.0000  9999.0000  9999.0000      -9999      -9999      -9999      -9999  9999.0000  9999.0000
    54.90     0.9190      -9999      -9999  9999.0000  9999.0000     6.4560      -9999  9999.0000  9999.0000  9999.0000      -9999      -9999      -9999      -9999  9999.0000  9999.0000
    55.00     0.9090      -9999      -9999  9999.0000  9999.0000     6.6110      -9999  9999.0000  9999.0000  9999.0000      -9999      -9999      -9999      -9999  9999.0000  9999.0000
    55.10     0.9260      -9999      -9999  9999.0000  9999.0000     6.7430      -9999  9999.0000  9999.0000  9999.0000      -9999      -9999      -9999      -9999  9999.0000  9999.0000
    55.20     0.9090      -9999      -9999  9999.0000  9999.0000     6.7210      -9999  9999.0000  9999.0000  9999.0000      -9999      -9999      -9999      -9999  9999.0000  9999.0000
    55.30     0.8860      -9999      -9999  9999.0000  9999.0000     6.7080      -9999  9999.0000  9999.0000  9999.0000      -9999      -9999      -9999      -9999  9999.0000  9999.0000
