~Version information
  VERS.                            1.20: CWLS LAS  -  VERSION 1.20
  WRAP.                              NO: One line per depth step
~Well information
# MNEM.UNIT
# ====.================================:===================
  STRT.M                          51.00: First depth in file
  STOP.M                         906.10: Last depth in file
  STEP.M                           0.10: Depth increment
  NULL.                           -9999: Null values
  COMP.                         COMPANY: 
  WELL.                            WELL: 317
  FLD .                           FIELD: KARATUBE
  CNTY.                          COUNTY: 
  STAT.                           STATE: 
  DATE.                        LOG DATE: 09/11/2004
  SRVC.                 SERVICE COMPANY: 
  UWI.           Unique Well Identifier: 
~Parametr information block
# MNEM.UNIT
# ====.================================:===================
~Other information
# ------------------------- REMARKS  AREA ------------------
~Curve information
# MNEM.UNIT
# ====.================================:===================
  DEPT.M                               : Depth curve
NGLD  .UE                              : çÖâíêéççõâ ÉÄååÄ äÄêéíÄÜ / Ñêëí3-90
DTP   .US/M                            : àçíÖêÇÄãúçéÖ ÇêÖåü èêéÑ.Çéãçõ èé Ää
SP    .MV                              : ÖëíÖëíÇÖççÄü ëÄåéèéãüêàáÄñàü èé èë
LL3   .OHMM                            : äÄÜ.ëéèêéíàÇãÖçàÖ áéçÑÄ Åä-3 /ÄÅäí
CALI  .MM                              : ëìååÄêçõâ ÑàÄåÖíê äÄÇÖêçéåÖêÄ
GR    .UR/H                            : ÖëíÖëíÇÖççÄü ÉÄååÄ-ÄäíàÇçéëíú èé Éä
RHOB  .G/C3                            : éÅöÖåçÄü èãéíçéëíú èéêéÑõ èé ÉÉäè
CILR  .MMHO                            : áéçÑ àä 7à1.6,êÖÄä.ëàÉçÄã/àä-è/Äàä-5
GZ3B  .OHMM                            : äÄÜ.ëéèê.éÅêÄôÖççéÉé áéçÑÄ N0.5å2.0
CILA  .MMHO                            : áéçÑ àä 7à1.6,Ääí.ëàÉçÄã/àä-è/Äàä-5
MLL   .OHMM                            : äÄÜ.ëéèê/åàäêéÅéäéÇéâ äÄêéíÄÜ/åä-ìñ
GZ3   .OHMM                            : äÄÜ. ëéèêéíàÇãÖçàÖ áéçÑÄ A2.0M0.5N
T1    .MKS                             : T1, ¨™·
T2    .MKS                             : í2, ¨™·
C1    .MM                              : è‡Æ‰®´Ï1,¨¨
C2    .MM                              : è‡Æ‰®´Ï2,¨¨
~ASCII Log Data
# ...
   183.00     1.1750   520.0000    35.7920     6.4770   229.8120     8.5140     2.0970    79.8320     9.3140    84.8470     4.6790     9.4410  1184.0000  1392.0000   226.6040   233.0200
   183.10     1.1510   520.0000    36.0520     6.4390   229.8110     8.5380     2.1000    79.5950     9.4890    85.3910     4.8250     9.4480  1188.0000  1396.0000   226.7050   232.9180
   183.20     1.1310   520.0000    34.8460     6.3480   230.6780     8.3760     2.0990    79.5950     9.6400    85.2000     4.5830     9.5740  1188.0000  1396.0000   228.3860   232.9690
   183.30     1.1190   530.0000    33.5580     6.2980   231.8320     8.5170     2.1040    79.4240    10.0330    85.2000     4.9520     9.6240  1188.0000  1400.0000   229.5720   234.0930
   183.40     1.1160   530.0000    32.8000     6.3260   232.7660     8.6810     2.1140    79.4080    10.1550    85.1180     5.0420     9.5680  1188.0000  1400.0000   229.6090   235.9220
   183.50     1.1140   520.0000    32.0010     6.3340   232.9060     8.8470     2.1130    79.1580    10.2500    85.1180     4.9110     9.4130  1196.0000  1404.0000   229.9330   235.8780
   183.60     1.1310   520.0000    30.5230     6.3780   232.7890     8.8600     2.1120    79.0720    10.3250    84.9040     4.8840     9.2050  1200.0000  1408.0000   229.3670   236.2120
   183.70     1.1210   520.0000    28.1850     6.4180   232.1450     8.5530     2.1110    79.0720    10.4410    84.9040     5.1680     8.9950  1200.0000  1408.0000   228.5220   235.7670
   183.80     1.1680   530.0000    27.1020     6.3700   231.5550     8.8150     2.1100    79.0290    10.5870    84.8900     5.1260     8.8880  1200.0000  1412.0000   228.5390   234.5710
   183.90     1.1840   520.0000    28.3060     6.2470   231.7430     8.9360     2.0810    79.2210    10.7330    84.6190     4.9550     8.8540  1204.0000  1412.0000   228.6380   234.8480
   184.00     1.2040   520.0000    28.7310     6.2430   232.2540     8.6740     2.0820    78.9630    10.8740    84.8900     5.0230     8.8390  1204.0000  1412.0000   228.5170   235.9910
   184.10     1.1860   530.0000    28.3060     6.2480   232.3510     8.6690     2.0920    78.3400    10.9740    84.4750     4.6800     8.8350  1204.0000  1416.0000   228.6540   236.0490
   184.20     1.2160   530.0000    27.4960     6.2990   232.4090     8.5640     2.0900    78.3400    11.1260    84.0970     5.0080     8.8240  1204.0000  1416.0000   228.8030   236.0160
   184.30     1.2450   520.0000    26.0430     6.3860   232.2350     8.5550     2.0980    78.5300    11.2260    83.3550     5.0640     8.7940  1208.0000  1416.0000   227.3130   237.1570
   184.40     1.2370   520.0000    24.6810     6.4070   232.0140     8.7050     2.0950    78.5300    11.2910    83.4550     5.1260     8.7630  1208.0000  1416.0000   227.8450   236.1840
   184.50     1.2390   520.0000    24.0150     6.3800   233.3870     8.9520     2.0890    78.1560    11.3470    83.0530     5.0310     8.7480  1208.0000  1416.0000   230.3260   236.4490
   184.60     1.2150   530.0000    23.8010     6.3350   234.7180     9.3460     2.0860    77.9790    11.3810    81.9100     4.9380     8.7140  1204.0000  1416.0000   231.6430   237.7930
   184.70     1.1760   530.0000    24.1500     6.3210   235.7330     9.3900     2.1120    77.8210    11.3700    81.4640     4.9200     8.6380  1204.0000  1416.0000   231.9980   239.4690
   184.80     1.1720   520.0000    24.7410     6.3200   236.2020     8.9170     2.1280    77.8790    11.2950    80.0420     4.7440     8.5560  1204.0000  1412.0000   232.2980   240.1050
   184.90     1.1640   510.0000    26.7990     6.4190   234.7200     8.9350     2.1120    77.5520    11.2090    79.1840     4.8250     8.4990  1204.0000  1408.0000   232.0510   237.3890
   185.00     1.1530   510.0000    28.3870     6.6190   233.8510     8.6580     2.1280    77.6630    11.0350    78.8330     5.3710     8.4300  1204.0000  1408.0000   232.0650   235.6380
   185.10     1.1150   500.0000    30.4140     6.8840   232.6470     8.4630     2.1450    77.4800    10.8590    78.8330     6.1610     8.3390  1204.0000  1404.0000   229.9290   235.3650
   185.20     1.1300   500.0000    30.3610     6.9940   232.0490     8.5440     2.1410    77.0910    10.6460    79.3060     5.6710     8.2090  1204.0000  1404.0000   228.2420   235.8560
   185.30     1.1000   500.0000    29.8360     6.9920   231.5820     8.4170     2.1400    77.0030    10.5440    79.9740     4.9800     8.0330  1200.0000  1400.0000   227.2020   235.9630
   185.40     1.1050   510.0000    29.8560     6.7560   231.2600     8.4270     2.1180    76.6590    10.5420    79.5640     4.7920     7.9380  1196.0000  1400.0000   226.8280   235.6930
   185.50     1.1060   510.0000    30.2960     6.6780   230.8200     8.2100     2.1250    76.3950    10.6780    80.2750     4.6850     7.9080  1196.0000  1400.0000   226.3450   235.2940
   185.60     1.1280   510.0000    29.1370     6.6880   228.8620     8.2050     2.1330    76.3770    10.7880    79.5640     5.0340     7.9880  1192.0000  1396.0000   224.4470   233.2760
   185.70     1.1480   510.0000    28.0070     6.8140   229.6040     7.9920     2.1330    76.3120    10.9550    79.6680     5.6150     8.1250  1192.0000  1396.0000   226.2200   232.9880
   185.80     1.1280   510.0000    27.3140     6.9030   230.9290     8.2000     2.1420    76.3120    11.0410    79.3300     5.4740     8.3450  1188.0000  1392.0000   227.7590   234.0990
   185.90     1.1270   510.0000    27.0670     6.9130   231.6950     8.2520     2.1560    76.2420    11.0940    79.0030     5.4650     8.4680  1184.0000  1388.0000   228.9290   234.4620
   186.00     1.1580   510.0000    27.2410     6.9380   231.8740     7.8020     2.1640    76.1160    11.1090    78.7610     5.3740     8.5380  1184.0000  1388.0000   229.4170   234.3300
   186.10     1.1570   510.0000    26.7080     6.9550   231.5550     7.9300     2.1450    75.9630    11.0970    78.3870     5.4520     8.5950  1184.0000  1388.0000   228.5910   234.5190
   186.20     1.1480   510.0000    25.4850     6.8870   231.5210     8.2910     2.1180    75.9310    11.0300    78.0250     5.2300     8.6740  1184.0000  1388.0000   227.8890   235.1520
   186.30     1.1470   500.0000    25.5220     6.7790   232.2250     8.1080     2.1260    75.5850    10.8820    78.0220     4.9460     8.7730  1184.0000  1384.0000   227.6440   236.8060
   186.40     1.1390   500.0000    25.1780     6.9240   232.0310     8.2110     2.1210    75.2420    10.7510    77.7750     5.3870     8.8650  1180.0000  1380.0000   227.7810   236.2810
   186.50     1.1790   500.0000    25.6530     7.0630   230.5960     8.0540     2.1210    75.2250    10.6850    77.2550     5.7980     8.9960  1180.0000  1380.0000   226.7290   234.4620
   186.60     1.2090   510.0000    26.7710     7.0240   230.4700     7.9140     2.1240    74.9140    10.7100    77.3990     5.5950     9.1400  1176.0000  1380.0000   226.8590   234.0800
   186.70     1.1680   510.0000    27.5730     6.9180   230.3950     8.2790     2.1140    74.8480    10.8510    76.9050     5.3650     9.3660  1176.0000  1380.0000   227.1500   233.6400
   186.80     1.1600   520.0000    30.1420     6.8630   230.1100     8.4210     2.1110    74.6280    10.9790    76.1170     5.3820     9.5460  1172.0000  1380.0000   226.8550   233.3660
   186.90     1.1040   520.0000    32.6680     6.8990   230.4110     8.3970     2.1020    74.5700    11.0380    75.6000     5.2120     9.7210  1172.0000  1380.0000   227.1120   233.7110
   187.00     1.1300   520.0000    34.4830     6.7400   231.1850     8.2360     2.1030    74.5700    11.0150    74.6990     5.3350     9.8620  1172.0000  1380.0000   228.1110   234.2590
   187.10     1.1570   520.0000    33.0780     6.8120   231.8790     8.2780     2.1200    74.5000    10.9130    74.0620     5.9080     9.8820  1172.0000  1380.0000   229.0310   234.7270
   187.20     1.1410   520.0000    31.3090     6.8260   232.5270     8.2070     2.1220    74.2620    10.6720    73.6600     5.1930     9.8060  1172.0000  1380.0000   229.2650   235.7880
   187.30     1.1110   510.0000    32.6280     6.7980   232.8530     7.8940     2.1460    74.1940    10.4830    73.4670     5.2150     9.6510  1172.0000  1376.0000   230.0740   235.6320
