~Version information
  VERS.                            1.20: CWLS LAS  -  VERSION 1.20
  WRAP.                              NO: One line per depth step
~Well information
# MNEM.UNIT
# ====.================================:===================
  STRT.M                          51.00: First depth in file
  STOP.M                         906.10: Last depth in file
  STEP.M                           0.10: Depth increment
  NULL.                           -9999: Null values
  COMP.                         COMPANY: 
  WELL.                            WELL: 317
  FLD .                           FIELD: KARATUBE
  CNTY.                          COUNTY: 
  STAT.                           STATE: 
  DATE.                        LOG DATE: 09/11/2004
  SRVC.                 SERVICE COMPANY: 
  UWI.           Unique Well Identifier: 
~Parametr information block
# MNEM.UNIT
# ====.================================:===================
~Other information
# ------------------------- REMARKS  AREA ------------------
~Curve information
# MNEM.UNIT
# ====.================================:===================
  DEPT.M                               : Depth curve
NGLD  .UE                              : çÖâíêéççõâ ÉÄååÄ äÄêéíÄÜ / Ñêëí3-90
DTP   .US/M                            : àçíÖêÇÄãúçéÖ ÇêÖåü èêéÑ.Çéãçõ èé Ää
SP    .MV                              : ÖëíÖëíÇÖççÄü ëÄåéèéãüêàáÄñàü èé èë
LL3   .OHMM                            : äÄÜ.ëéèêéíàÇãÖçàÖ áéçÑÄ Åä-3 /ÄÅäí
CALI  .MM                              : ëìååÄêçõâ ÑàÄåÖíê äÄÇÖêçéåÖêÄ
GR    .UR/H                            : ÖëíÖëíÇÖççÄü ÉÄååÄ-ÄäíàÇçéëíú èé Éä
RHOB  .G/C3                            : éÅöÖåçÄü èãéíçéëíú èéêéÑõ èé ÉÉäè
CILR  .MMHO                            : áéçÑ àä 7à1.6,êÖÄä.ëàÉçÄã/àä-è/Äàä-5
GZ3B  .OHMM                            : äÄÜ.ëéèê.éÅêÄôÖççéÉé áéçÑÄ N0.5å2.0
CILA  .MMHO                            : áéçÑ àä 7à1.6,Ääí.ëàÉçÄã/àä-è/Äàä-5
MLL   .OHMM                            : äÄÜ.ëéèê/åàäêéÅéäéÇéâ äÄêéíÄÜ/åä-ìñ
GZ3   .OHMM                            : äÄÜ. ëéèêéíàÇãÖçàÖ áéçÑÄ A2.0M0.5N
T1    .MKS                             : T1, ¨™·
T2    .MKS                             : í2, ¨™·
C1    .MM                              : è‡Æ‰®´Ï1,¨¨
C2    .MM                              : è‡Æ‰®´Ï2,¨¨
~ASCII Log Data
# ...
   843.00     1.8900   257.3410   111.3890     5.0070   224.5630     2.4950     2.5840   128.5300     4.5120   132.6510     4.4710     7.8120   729.0630   832.0000   227.7290   221.3960
   843.10     1.8120   280.0000   113.0750     5.1390   220.7030     2.6090     2.5510   128.8200     4.5250   137.0370     3.4150     7.7730   720.0000   832.0000   222.5230   218.8830
   843.20     1.7300   288.6350   114.3010     4.6100   215.5600     2.8220     2.5530   129.2760     4.4660   137.7920     1.6420     7.5550   713.0920   828.5460   213.1420   217.9790
   843.30     1.6360   291.3820   114.3760     4.0210   217.9430     3.0810     2.5550   132.6310     4.4090   138.0170     2.4440     7.3440   695.3820   811.9350   216.7980   219.0870
   843.40     1.5940   280.0000   115.3520     4.2570   219.6910     3.3070     2.5360   135.7090     4.2250   138.4430     4.9720     6.9300   684.0000   796.0000   218.3320   221.0500
   843.50     1.5810   275.7090   118.3010     4.9070   217.0480     3.4780     2.5410   136.9310     3.9810   141.9590     2.9410     6.3720   682.2830   792.5670   214.4060   219.6890
   843.60     1.4890   270.0000   121.1540     4.2310   217.2670     3.4010     2.5540   141.2590     3.7040   145.9070     1.7580     5.6830   680.0000   788.0000   214.3500   220.1850
   843.70     1.4600   274.2740   122.1840     3.7510   217.9740     3.5660     2.5510   143.1370     3.4180   150.1750     3.3500     5.0970   673.1620   782.8720   215.2650   220.6830
   843.80     1.5150   280.0000   120.2790     3.7260   220.7980     3.8420     2.5450   143.1370     3.2120   156.4630     2.0050     4.8590   664.0000   776.0000   219.9910   221.6050
   843.90     1.4870   275.7440   117.0700     3.6290   225.3800     3.6890     2.5170   144.2340     3.0310   159.4150     2.2210     3.9380   660.5950   770.8930   227.9340   222.8250
   844.00     1.4160   286.9900   116.1820     3.3340   228.5720     3.7320     2.5090   146.1090     2.9920   162.2890     1.6200     3.5550   645.8060   760.6020   234.0540   223.0910
   844.10     1.4310   310.0000   116.5970     2.9220   224.8100     3.8950     2.5150   146.1090     2.9820   163.5520     1.3500     3.2220   632.0000   756.0000   227.5970   222.0240
   844.20     1.4120   310.0000   119.3840     2.7050   221.5800     4.1540     2.4880   146.1090     2.9730   165.7880     1.2360     2.9680   630.3080   754.3080   221.5380   221.6210
   844.30     1.3560   310.0000   123.1860     2.5920   219.9850     3.9400     2.4900   149.5030     2.9700   165.7880     1.1990     2.8460   628.0000   752.0000   217.4490   222.5210
   844.40     1.3760   305.7880   124.8640     2.6010   220.9850     3.8730     2.4870   151.5050     3.0160   164.4510     1.3040     2.8010   628.0000   750.3150   218.1460   223.8250
   844.50     1.3610   300.0000   123.1220     2.7240   223.2340     3.7570     2.4690   154.8440     3.0760   164.4510     1.7030     2.8330   628.0000   748.0000   221.8710   224.5980
   844.60     1.3940   300.0000   121.1930     2.9210   221.0180     3.7390     2.4740   155.6670     3.1700   164.4510     1.4740     2.8980   633.0330   753.0330   218.0450   223.9900
   844.70     1.4150   300.0000   118.6100     2.8070   220.5620     3.7990     2.5390   156.2830     3.2790   161.4380     1.1460     3.0300   638.3260   758.3260   216.9860   224.1390
   844.80     1.4080   300.0000   115.4730     2.6800   223.0260     3.9320     2.5690   157.1400     3.4290   160.7000     1.3490     3.1800   636.0000   756.0000   218.5710   227.4810
   844.90     1.4320   300.0000   112.7070     2.7180   224.9220     3.6740     2.5660   157.3780     3.5700   160.4620     1.5700     3.4140   636.0000   756.0000   219.3050   230.5390
   845.00     1.4510   300.0000   109.2210     2.7840   222.8400     3.7120     2.5610   157.3780     3.6110   157.1920     1.5350     3.5470   636.0000   756.0000   218.1750   227.5050
   845.10     1.4570   291.6990   105.2850     2.8380   222.8520     3.8250     2.5420   157.7920     3.5780   155.2110     1.3120     3.6420   636.0000   752.6800   217.4330   228.2710
   845.20     1.5000   280.0000   100.1670     2.9990   215.7610     3.7470     2.5620   157.7920     3.4850   154.1290     2.7150     3.7090   636.0000   748.0000   209.3400   222.1820
   845.30     1.5050   280.0000    96.0420     3.3290   217.8520     3.4820     2.5580   156.6770     3.2820   154.1290     2.4590     3.7190   642.6120   754.6120   214.0420   221.6630
   845.40     1.5300   280.0000    94.6900     3.3540   220.4550     3.3750     2.5700   156.4770     3.0950   157.0970     1.3430     3.6450   652.0000   764.0000   218.1650   222.7440
   845.50     1.5010   280.0000    93.5210     3.1370   222.3970     3.5130     2.5860   154.2390     2.9440   157.4490     1.8100     3.6250   655.2920   767.2920   220.8850   223.9080
   845.60     1.4730   280.0000    94.2220     3.0940   228.1910     3.6450     2.5590   154.0410     2.8400   158.4070     1.8040     3.6350   663.2850   775.2850   229.1920   227.1900
   845.70     1.4440   280.0000    95.0640     3.0630   229.9540     3.5050     2.5570   153.0710     2.7790   158.4070     1.5370     3.6280   668.0000   780.0000   232.9530   226.9560
   845.80     1.4310   288.1760    96.9650     2.9240   231.1850     3.4450     2.5700   152.4090     2.7460   158.6560     1.3400     3.6070   666.3650   781.6350   237.1110   225.2600
   845.90     1.4030   300.0000   101.5260     2.8480   233.6480     3.4870     2.5480   152.2040     2.7230   158.6560     1.4330     3.5630   664.0000   784.0000   242.9220   224.3750
   846.00     1.3890   300.0000   107.4570     2.9180   233.6570     3.7180     2.5500   150.6370     2.7310   158.6560     1.6960     3.4820   665.6280   785.6280   243.5500   223.7640
   846.10     1.3640   300.0000   110.7680     2.9350   234.7490     3.7280     2.5610   152.2040     2.8120   155.4560     1.3280     3.3850   668.0000   788.0000   244.9280   224.5710
   846.20     1.3340   295.9470   111.4820     2.9050   242.0750     3.7530     2.5810   153.1470     2.9060   155.4410     1.8090     3.3330   669.6210   788.0000   251.7760   232.3750
   846.30     1.3680   290.0000   113.2010     2.8740   229.7070     3.6860     2.5490   153.1470     2.9460   154.8350     1.6220     3.3110   675.2350   791.2350   232.7130   226.7020
   846.40     1.3800   290.0000   117.1230     2.7980   241.0610     3.6220     2.5890   153.1470     2.9490   151.5840     1.3200     3.2810   680.0000   796.0000   253.6840   228.4370
   846.50     1.3660   285.9740   119.3710     2.8420   247.0380     3.4170     2.5760   153.3500     2.9370   149.8500     1.8530     3.2640   681.6110   796.0000   265.7620   228.3150
   846.60     1.3610   280.0000   120.4890     3.0540   240.3130     3.5170     2.5160   154.0980     2.9400   149.8500     1.9590     3.2350   684.0000   796.0000   254.3020   226.3230
   846.70     1.3490   280.0000   118.3380     3.1570   238.5980     3.5110     2.5250   153.9280     2.9500   150.0690     1.4550     3.1940   687.2070   799.2070   251.8940   225.3020
   846.80     1.3570   280.0000   116.5900     3.0410   241.1030     3.5250     2.5550   154.8650     3.0000   150.0690     1.2240     3.1780   692.0000   804.0000   257.2730   224.9320
   846.90     1.3860   291.9730   114.6730     2.7760   243.8400     3.7440     2.5830   156.5940     3.0820   148.8520     1.6490     3.2340   685.6140   802.4040   259.7870   227.8920
   847.00     1.3950   298.0520   112.1640     2.8170   245.9220     3.6640     2.5460   156.9050     3.1400   147.4970     1.6760     3.3650   677.5930   796.8140   255.8400   236.0030
   847.10     1.4410   280.0000   110.4860     2.9280   242.3050     3.3950     2.5220   157.6190     3.2470   146.8610     1.5470     3.5470   680.0000   792.0000   248.1330   236.4770
   847.20     1.4960   272.0700   108.5910     3.0490   236.5590     3.3940     2.5230   159.7900     3.3410   144.1180     1.9260     3.7330   681.5860   790.4140   244.1930   228.9250
   847.30     1.5290   260.0000   106.8320     3.3440   232.3090     3.2420     2.5260   160.4930     3.4130   144.1180     2.2230     3.9570   684.0000   788.0000   237.9720   226.6450
