~Version information
  VERS.                            1.20: CWLS LAS  -  VERSION 1.20
  WRAP.                              NO: One line per depth step
~Well information
# MNEM.UNIT
# ====.================================:===================
  STRT.M                          51.00: First depth in file
  STOP.M                         906.10: Last depth in file
  STEP.M                           0.10: Depth increment
  NULL.                           -9999: Null values
  COMP.                         COMPANY: 
  WELL.                            WELL: 317
  FLD .                           FIELD: KARATUBE
  CNTY.                          COUNTY: 
  STAT.                           STATE: 
  DATE.                        LOG DATE: 09/11/2004
  SRVC.                 SERVICE COMPANY: 
  UWI.           Unique Well Identifier: 
~Parametr information block
# MNEM.UNIT
# ====.================================:===================
~Other information
# ------------------------- REMARKS  AREA ------------------
~Curve information
# MNEM.UNIT
# ====.================================:===================
  DEPT.M                               : Depth curve
NGLD  .UE                              : çÖâíêéççõâ ÉÄååÄ äÄêéíÄÜ / Ñêëí3-90
DTP   .US/M                            : àçíÖêÇÄãúçéÖ ÇêÖåü èêéÑ.Çéãçõ èé Ää
SP    .MV                              : ÖëíÖëíÇÖççÄü ëÄåéèéãüêàáÄñàü èé èë
LL3   .OHMM                            : äÄÜ.ëéèêéíàÇãÖçàÖ áéçÑÄ Åä-3 /ÄÅäí
CALI  .MM                              : ëìååÄêçõâ ÑàÄåÖíê äÄÇÖêçéåÖêÄ
GR    .UR/H                            : ÖëíÖëíÇÖççÄü ÉÄååÄ-ÄäíàÇçéëíú èé Éä
RHOB  .G/C3                            : éÅöÖåçÄü èãéíçéëíú èéêéÑõ èé ÉÉäè
CILR  .MMHO                            : áéçÑ àä 7à1.6,êÖÄä.ëàÉçÄã/àä-è/Äàä-5
GZ3B  .OHMM                            : äÄÜ.ëéèê.éÅêÄôÖççéÉé áéçÑÄ N0.5å2.0
CILA  .MMHO                            : áéçÑ àä 7à1.6,Ääí.ëàÉçÄã/àä-è/Äàä-5
MLL   .OHMM                            : äÄÜ.ëéèê/åàäêéÅéäéÇéâ äÄêéíÄÜ/åä-ìñ
GZ3   .OHMM                            : äÄÜ. ëéèêéíàÇãÖçàÖ áéçÑÄ A2.0M0.5N
T1    .MKS                             : T1, ¨™·
T2    .MKS                             : í2, ¨™·
C1    .MM                              : è‡Æ‰®´Ï1,¨¨
C2    .MM                              : è‡Æ‰®´Ï2,¨¨
~ASCII Log Data
# ...
   785.80     1.2740   340.0000    30.7900     2.1380   213.6870     5.1860     2.3060   331.0920     0.9560   201.6430     1.9210     1.3570   740.2460   876.2460   215.0950   212.2790
   785.90     1.2470   340.0000    30.8460     2.0260   215.8290     5.0330     2.3120   333.0440     0.9640   201.5810     1.8990     1.3500   740.0000   876.0000   215.0190   216.6380
   786.00     1.2710   340.0000    29.8140     1.9700   213.2940     4.7830     2.2990   333.0440     0.9860   201.5810     2.0460     1.3430   743.7480   879.7480   212.4270   214.1610
   786.10     1.2650   340.0000    29.5530     2.0210   212.7720     4.8320     2.3240   333.0440     1.0260   199.9940     2.4210     1.4190   744.0000   880.0000   209.9410   215.6030
   786.20     1.2590   340.0000    30.1180     2.1070   213.0740     4.9820     2.3320   335.7950     1.0650   196.2020     3.1620     1.4430   744.0000   880.0000   210.7800   215.3680
   786.30     1.2550   340.0000    31.3910     2.1350   215.5210     5.2750     2.3480   338.6570     1.1200   194.9190     2.3090     1.4450   744.0000   880.0000   213.3110   217.7300
   786.40     1.2590   340.0000    32.9880     2.1640   214.8200     5.3120     2.3470   339.6410     1.2080   192.7880     2.2800     1.4390   744.0000   880.0000   213.0190   216.6200
   786.50     1.2620   321.3500    35.1570     2.2700   213.0970     5.4630     2.3410   341.0520     1.2900   184.5010     2.8400     1.4670   758.9200   887.4600   210.9950   215.1990
   786.60     1.2640   320.0000    35.8260     2.4330   213.1930     5.5500     2.3540   341.0520     1.4790   176.8090     2.9730     1.5950   760.0000   888.0000   211.1270   215.2590
   786.70     1.2850   329.3070    36.2010     2.5190   214.1720     5.6440     2.3280   341.1230     1.6520   171.4250     2.9080     1.7590   767.4450   899.1680   212.8730   215.4710
   786.80     1.2900   330.0000    36.1670     2.4100   213.9070     5.6170     2.3240   340.7910     1.7760   171.4250     2.5140     1.9820   768.0000   900.0000   212.4540   215.3600
   786.90     1.3240   330.0000    35.2220     2.2070   215.6750     5.6170     2.3570   339.0020     1.8220   171.4250     1.7010     2.1380   768.0000   900.0000   215.1270   216.2230
   787.00     1.3300   330.0000    34.2120     2.2920   218.7770     5.7650     2.3800   337.5950     1.7810   171.4860     6.1280     2.1730   768.0000   900.0000   219.9120   217.6420
   787.10     1.3560   292.9150    33.6010     2.3960   218.7550     5.9730     2.3860   337.5030     1.5790   175.1610     4.1650     2.0860   771.7080   888.8750   219.4710   218.0380
   787.20     1.3540   299.2630    32.9060     2.4190   217.9240     5.9230     2.3540   334.2150     1.3610   180.0040     2.3070     1.8730   772.0000   891.7050   216.2410   219.6060
   787.30     1.3530   300.0000    34.2920     2.3270   217.6650     5.5160     2.3380   330.8320     1.1270   182.7550     2.2320     1.5390   772.0000   892.0000   215.7470   219.5830
   787.40     1.3260   336.9820    35.7570     2.2390   215.9740     5.3730     2.3440   328.5690     0.9990   183.3270     2.4810     1.3010   760.9050   895.6980   214.0510   217.8980
   787.50     1.3190   340.0000    36.7560     2.2300   215.0340     5.2700     2.3290   328.5690     0.9570   184.1890     2.5390     1.1970   760.0000   896.0000   213.1730   216.8960
   787.60     1.3100   340.0000    38.8930     2.1870   214.2900     5.3320     2.3130   328.6010     0.9530   184.1890     2.6050     1.1220   760.0000   896.0000   211.5450   217.0340
   787.70     1.3410   321.5630    42.1260     2.1610   214.4250     5.1690     2.3070   333.8720     0.9480   189.3730     2.8240     1.0910   763.6880   892.3130   212.6420   216.2090
   787.80     1.3780   320.0000    45.4890     2.1830   214.6110     5.1390     2.3070   340.2300     0.9390   196.5460     2.8320     1.0560   764.0000   892.0000   213.4090   215.8130
   787.90     1.3630   320.0000    47.6670     2.1830   214.9010     5.1580     2.3180   346.1020     0.9130   196.9350     2.3150     1.0120   760.3200   888.3200   213.9250   215.8770
   788.00     1.3450   320.0000    47.6360     2.0420   214.8520     4.8770     2.2960   348.1550     0.8980   197.6940     1.8280     0.9510   760.0000   888.0000   213.6870   216.0170
   788.10     1.3600   329.1830    47.4080     1.8470   214.2180     4.5360     2.2690   348.6550     0.8990   198.0220     1.6390     0.8620   760.0000   891.6730   212.5860   215.8510
   788.20     1.3770   330.0000    45.9610     1.6670   213.6670     4.3980     2.2800   349.3030     0.9160   198.4030     1.5790     0.8250   760.0000   892.0000   212.8830   214.4510
   788.30     1.4080   348.3300    44.9620     1.6490   213.8180     4.3450     2.2880   350.1640     0.9550   198.4030     1.7070     0.8040   756.3340   895.6660   213.3980   214.2390
   788.40     1.4170   350.0000    43.4410     1.7790   217.0160     4.4420     2.3150   354.6490     1.0380   197.0090     2.2650     0.8210   756.0000   896.0000   218.1640   215.8680
   788.50     1.4120   331.7040    42.2430     1.9030   216.7450     4.7160     2.3240   358.9490     1.1440   190.2960     2.8470     0.8670   756.0000   888.6820   218.0580   215.4320
   788.60     1.4230   330.0000    42.3130     1.9600   215.8140     4.6750     2.3130   360.0440     1.3090   188.4890     2.3180     0.9470   756.0000   888.0000   216.0910   215.5360
   788.70     1.4420   330.0000    44.9360     1.7410   216.9990     4.8060     2.3170   360.1870     1.4010   188.4890     1.4700     1.0300   756.0000   888.0000   216.5580   217.4410
   788.80     1.4260   320.8790    44.9760     1.6930   216.0360     4.8950     2.3320   360.0440     1.4800   188.4890     2.1380     1.0950   752.3520   880.7030   215.5700   216.5020
   788.90     1.3500   320.0000    45.7170     1.8850   213.0940     4.9490     2.3430   356.4450     1.5780   187.5720     2.8280     1.1410   752.0000   880.0000   210.5270   215.6610
   789.00     1.3410   320.0000    46.6510     2.1470   212.0080     5.1010     2.3430   356.3870     1.7110   179.0680     2.9290     1.1960   748.3580   876.3580   208.5020   215.5130
   789.10     1.3570   320.0000    46.0640     2.0690   211.5210     5.1070     2.3590   356.0440     2.0080   179.0680     2.1590     1.3070   748.0000   876.0000   208.3580   214.6840
   789.20     1.2720   320.0000    45.6180     1.6680   211.8890     4.7760     2.3670   349.8920     2.2010   179.0680     0.9680     1.4580   748.0000   876.0000   210.1030   213.6740
   789.30     1.2890   310.9230    43.4230     1.4460   213.3590     4.8250     2.3650   348.6150     2.2710   180.1350     0.7120     1.6110   748.0000   872.3690   211.2870   215.4320
   789.40     1.3200   310.0000    38.7160     1.5690   212.6100     4.7860     2.4010   348.6150     2.2610   181.5730     1.2120     1.7190   748.0000   872.0000   211.5410   213.6790
   789.50     1.3170   291.8800    33.8800     2.0370   210.8670     4.5940     2.4130   351.5330     2.1310   183.6770     3.8650     1.7160   751.6240   868.3760   210.4950   211.2380
   789.60     1.3130   290.0000    32.7470     2.3010   209.9610     4.6860     2.4040   358.2270     1.8620   185.9120     2.2930     1.5560   752.0000   868.0000   208.8760   211.0460
   789.70     1.3170   308.0830    33.9680     2.2320   209.5650     4.7510     2.3800   358.2270     1.6650   189.3660     2.3770     1.3330   762.8500   886.0830   208.3350   210.7950
   789.80     1.3290   310.0000    35.1450     2.0690   211.4710     4.8320     2.3560   353.4770     1.4950   196.6000     1.9970     1.1420   764.0000   888.0000   209.7360   213.2060
   789.90     1.2730   337.0740    35.7760     1.9290   211.4000     4.8280     2.3350   346.5720     1.4030   199.6650     1.8450     0.9740   753.1700   888.0000   210.0230   212.7770
   790.00     1.2320   330.9850    38.3380     2.0620   211.0900     5.0410     2.3420   345.0780     1.3580   205.7120     2.2430     0.9080   755.6060   888.0000   209.4590   212.7210
   790.10     1.2200   330.0000    42.0950     2.2330   210.9690     4.9790     2.3080   345.0780     1.3240   213.5690     2.6780     0.8550   756.0000   888.0000   209.0610   212.8780
