~Version information
  VERS.                            1.20: CWLS LAS  -  VERSION 1.20
  WRAP.                              NO: One line per depth step
~Well information
# MNEM.UNIT
# ====.================================:===================
  STRT.M                          51.00: First depth in file
  STOP.M                         906.10: Last depth in file
  STEP.M                           0.10: Depth increment
  NULL.                           -9999: Null values
  COMP.                         COMPANY: 
  WELL.                            WELL: 317
  FLD .                           FIELD: KARATUBE
  CNTY.                          COUNTY: 
  STAT.                           STATE: 
  DATE.                        LOG DATE: 09/11/2004
  SRVC.                 SERVICE COMPANY: 
  UWI.           Unique Well Identifier: 
~Parametr information block
# MNEM.UNIT
# ====.================================:===================
~Other information
# ------------------------- REMARKS  AREA ------------------
~Curve information
# MNEM.UNIT
# ====.================================:===================
  DEPT.M                               : Depth curve
NGLD  .UE                              : çÖâíêéççõâ ÉÄååÄ äÄêéíÄÜ / Ñêëí3-90
DTP   .US/M                            : àçíÖêÇÄãúçéÖ ÇêÖåü èêéÑ.Çéãçõ èé Ää
SP    .MV                              : ÖëíÖëíÇÖççÄü ëÄåéèéãüêàáÄñàü èé èë
LL3   .OHMM                            : äÄÜ.ëéèêéíàÇãÖçàÖ áéçÑÄ Åä-3 /ÄÅäí
CALI  .MM                              : ëìååÄêçõâ ÑàÄåÖíê äÄÇÖêçéåÖêÄ
GR    .UR/H                            : ÖëíÖëíÇÖççÄü ÉÄååÄ-ÄäíàÇçéëíú èé Éä
RHOB  .G/C3                            : éÅöÖåçÄü èãéíçéëíú èéêéÑõ èé ÉÉäè
CILR  .MMHO                            : áéçÑ àä 7à1.6,êÖÄä.ëàÉçÄã/àä-è/Äàä-5
GZ3B  .OHMM                            : äÄÜ.ëéèê.éÅêÄôÖççéÉé áéçÑÄ N0.5å2.0
CILA  .MMHO                            : áéçÑ àä 7à1.6,Ääí.ëàÉçÄã/àä-è/Äàä-5
MLL   .OHMM                            : äÄÜ.ëéèê/åàäêéÅéäéÇéâ äÄêéíÄÜ/åä-ìñ
GZ3   .OHMM                            : äÄÜ. ëéèêéíàÇãÖçàÖ áéçÑÄ A2.0M0.5N
T1    .MKS                             : T1, ¨™·
T2    .MKS                             : í2, ¨™·
C1    .MM                              : è‡Æ‰®´Ï1,¨¨
C2    .MM                              : è‡Æ‰®´Ï2,¨¨
~ASCII Log Data
# ...
   895.80     1.7320   220.0000    49.8810     9.3990   221.6510     3.1080     2.5680    85.0380      -9999    62.6730     7.4530     5.2030   732.0000   820.0000   221.3110   221.9910
   895.90     1.8680   220.0000    52.5920    10.3000   216.0960     2.7000     2.5810    81.8870      -9999    58.8070    10.8960     5.4610   728.0000   816.0000   214.9510   217.2420
   896.00     1.9160   220.0000    55.4400    11.1150   218.9710     2.5960     2.5990    81.1550      -9999    58.5230    17.5770     5.8840   728.0000   816.0000   217.4760   220.4650
   896.10     1.9470   210.0000    62.2140    12.2740   218.0520     2.5110     2.6040    79.3430      -9999    57.3240    21.8450     6.1690   720.0000   804.0000   215.4580   220.6460
   896.20     1.9620   210.0000    65.3380    14.8160   219.1150     2.3360     2.6140    77.6070      -9999    54.6790    12.2300     6.5850   704.0000   788.0000   215.7980   222.4310
   896.30     1.9970   210.0000    65.7010    17.5030   219.6810     2.2920     2.6110    76.4310      -9999    51.7080    16.3430     7.0480   704.0000   788.0000   218.4190   220.9420
   896.40     2.0500   190.0000    66.3900    18.1280   217.5830     2.2870     2.5950    74.9850      -9999    50.0760    24.8500      -9999   688.0000   764.0000   215.9880   219.1780
   896.50     2.0030   210.0000    67.7130    16.6690   220.5850     2.4970     2.5690    73.7420      -9999    50.0760    27.1090      -9999   664.0000   748.0000   219.3140   221.8550
   896.60     1.9970   210.0000    70.7330    15.6150   216.7260     2.3900     2.5700    72.8970      -9999    48.7830    28.4740      -9999   644.0000   728.0000   212.7990   220.6540
   896.70     1.9940   210.0000    70.3370    14.9210   218.5590     2.4350     2.5520    72.1180      -9999    46.8390    14.6760      -9999   644.0000   728.0000   215.2400   221.8770
   896.80     1.9560   220.0000    69.4260    14.8720   218.0820     2.4780     2.5490    70.9380      -9999    46.8180    11.5310      -9999   624.0000   712.0000   216.3060   219.8590
   896.90     1.8960   220.0000    68.3400    14.6860   217.8520     2.5950     2.5380    69.4710      -9999    46.2380    10.8120      -9999   604.0000   692.0000   214.6770   221.0270
   897.00     1.8690   220.0000    69.3490    14.4280   221.2180     2.4810     2.5560    69.4140      -9999    45.5640    11.2230      -9999   604.0000   692.0000   220.3280   222.1080
   897.10     1.8420   220.0000    72.0740    13.4090   218.7470     2.7080     2.5570    69.4140      -9999    45.7650    11.7060      -9999   588.0000   676.0000   216.7400   220.7540
   897.20     1.8350   220.0000    74.8020    12.0150   216.2060     2.8230     2.5610    69.1780      -9999    45.2460    11.8570      -9999   572.0000   660.0000   214.4420   217.9700
   897.30     1.8290   230.0000    77.7820    13.2330   218.7990     2.7420     2.5730    68.6390      -9999    45.6810    10.9510      -9999   556.0000   648.0000   216.3730   221.2250
   897.40     1.7800   230.0000    82.6440    16.0050   217.3380     2.6260     2.5740    68.4910      -9999    45.2460     9.4140      -9999   556.0000   648.0000   213.0310   221.6450
   897.50     1.7950   230.0000    83.7700    16.4180   217.0940     2.4220     2.5550    67.6420      -9999    45.5100    10.8530      -9999   536.0000   628.0000   214.2810   219.9070
   897.60     1.8110   220.0000    82.5120    15.2920   216.9390     2.4000     2.5920    67.4690      -9999    44.8040    12.6100      -9999   532.0000   620.0000   213.2900   220.5870
   897.70     1.8290   220.0000    82.3920    14.1790   214.7140     2.3090     2.5630    67.0520      -9999    45.5100    11.3870      -9999   532.0000   620.0000   210.3830   219.0460
   897.80     1.8400   220.0000      -9999    13.6290   216.5820     2.3770     2.5510    66.7980      -9999    46.2050     8.7940      -9999   532.0000   620.0000   216.4690   216.6940
   897.90     1.8800   240.0000      -9999    13.0610   215.2120     2.3700     2.5460    66.1460      -9999    46.2220     6.5510      -9999   520.0000   616.0000   212.2080   218.2170
   898.00     1.9970   250.0000      -9999    11.2220   214.9340     2.3140     2.6010    66.0790      -9999    46.9140     6.2770      -9999   508.0000   608.0000   209.9690   219.9000
   898.10     1.9550   250.0000      -9999    10.2310   215.0940     2.4760     2.5970    65.9260      -9999    46.9140     6.8260      -9999   508.0000   608.0000   214.0200   216.1670
   898.20     1.9470   240.0000      -9999    10.5490   216.6640     2.5570     2.5680    65.8570      -9999    46.4610     7.2920      -9999   504.0000   600.0000   213.6230   219.7050
   898.30     1.9440   240.0000      -9999    11.9380   217.2340     2.6350     2.5870    65.3250      -9999    46.4610     6.8270      -9999   500.0000   596.0000   214.6070   219.8620
   898.40     1.9510   230.0000      -9999    12.9170   216.3230     2.7920     2.5600    65.3180      -9999    46.4610     8.0860      -9999   496.0000   588.0000   211.9030   220.7430
   898.50     1.9520   230.0000      -9999    13.4130   216.7250     2.8000     2.5800    65.3180      -9999    46.6680     8.8670      -9999   496.0000   588.0000   214.7800   218.6710
   898.60     1.9900   230.0000      -9999    14.3210   214.4680     2.7380     2.5660    65.4930      -9999    46.6680     7.9750      -9999   500.0000   592.0000   207.8330   221.1040
   898.70     2.0480   240.0000      -9999    15.5940   216.4320     2.7640     2.5670    65.7010      -9999    46.6680     7.4350      -9999   500.0000   596.0000   211.6220   221.2410
   898.80     2.0270   230.0000      -9999    16.2910   218.5980     2.9330     2.5550    65.7010      -9999    46.6830     9.3920      -9999   504.0000   596.0000   217.5150   219.6820
   898.90     2.0350   220.0000      -9999    16.3500   217.4770     3.2240     2.5480    65.5500      -9999    46.3200     9.5350      -9999   508.0000   596.0000   215.4620   219.4910
   899.00     2.1420   220.0000      -9999    16.1830   214.9630     3.2160     2.5710    65.5370      -9999    46.6240     9.9170      -9999   508.0000   596.0000   206.7460   223.1800
   899.10     2.1510   230.0000      -9999    15.3020   215.1390     3.2780     2.5720    65.5470      -9999    46.6240     9.4320      -9999   512.0000   604.0000   209.6110   220.6680
   899.20     2.1670   220.0000      -9999    14.0290   215.6660     3.1300     2.5740    65.5440      -9999    46.6240     8.3750      -9999   516.0000   604.0000   209.7850   221.5470
   899.30     2.1770   220.0000      -9999    13.3010   220.7410     3.3080     2.5950    65.5440      -9999    46.6790     6.9960      -9999   520.0000   608.0000   219.6280   221.8530
   899.40     2.2000   230.0000      -9999    12.9010   219.6410     3.2560     2.6220    65.3280      -9999    46.6790     9.5170      -9999   520.0000   612.0000   218.2060   221.0750
   899.50     2.2800   240.0000      -9999    12.8450   212.7000     3.3300     2.6310    65.3280      -9999    46.6790     6.6080      -9999   516.0000   612.0000   204.4830   220.9180
   899.60     2.3000   220.0000      -9999    12.8440   214.7810     3.1090     2.6470    65.3670      -9999    46.4600     4.3250      -9999   520.0000   608.0000   209.8320   219.7310
   899.70     2.2320   220.0000      -9999    12.8400   215.5930     3.1760     2.6120    65.3960      -9999    46.2830     6.0190      -9999   520.0000   608.0000   208.7170   222.4700
   899.80     2.2560   220.0000      -9999    12.9810   218.7320     3.0200     2.5850    65.3960      -9999    46.2830     6.0800      -9999   520.0000   608.0000   214.0220   223.4420
   899.90     2.2670   230.0000      -9999    13.2560   219.2470     2.9400     2.5790    65.3960      -9999    46.2830     6.1860      -9999   520.0000   612.0000   214.6690   223.8250
   900.00     2.2490   230.0000      -9999    13.5200   217.5050     2.9480     2.5810    65.4690      -9999    46.4550     6.5860      -9999   516.0000   608.0000   208.3020   226.7070
   900.10     2.2740   210.0000      -9999    13.4540   217.0290     3.2160     2.5560    65.3470      -9999    46.8360    11.0310      -9999   516.0000   600.0000   210.2620   223.7960
