~Version information
  VERS.                            1.20: CWLS LAS  -  VERSION 1.20
  WRAP.                              NO: One line per depth step
~Well information
# MNEM.UNIT
# ====.================================:===================
  STRT.M                          51.00: First depth in file
  STOP.M                         906.10: Last depth in file
  STEP.M                           0.10: Depth increment
  NULL.                           -9999: Null values
  COMP.                         COMPANY: 
  WELL.                            WELL: 317
  FLD .                           FIELD: KARATUBE
  CNTY.                          COUNTY: 
  STAT.                           STATE: 
  DATE.                        LOG DATE: 09/11/2004
  SRVC.                 SERVICE COMPANY: 
  UWI.           Unique Well Identifier: 
~Parametr information block
# MNEM.UNIT
# ====.================================:===================
~Other information
# ------------------------- REMARKS  AREA ------------------
~Curve information
# MNEM.UNIT
# ====.================================:===================
  DEPT.M                               : Depth curve
NGLD  .UE                              : çÖâíêéççõâ ÉÄååÄ äÄêéíÄÜ / Ñêëí3-90
DTP   .US/M                            : àçíÖêÇÄãúçéÖ ÇêÖåü èêéÑ.Çéãçõ èé Ää
SP    .MV                              : ÖëíÖëíÇÖççÄü ëÄåéèéãüêàáÄñàü èé èë
LL3   .OHMM                            : äÄÜ.ëéèêéíàÇãÖçàÖ áéçÑÄ Åä-3 /ÄÅäí
CALI  .MM                              : ëìååÄêçõâ ÑàÄåÖíê äÄÇÖêçéåÖêÄ
GR    .UR/H                            : ÖëíÖëíÇÖççÄü ÉÄååÄ-ÄäíàÇçéëíú èé Éä
RHOB  .G/C3                            : éÅöÖåçÄü èãéíçéëíú èéêéÑõ èé ÉÉäè
CILR  .MMHO                            : áéçÑ àä 7à1.6,êÖÄä.ëàÉçÄã/àä-è/Äàä-5
GZ3B  .OHMM                            : äÄÜ.ëéèê.éÅêÄôÖççéÉé áéçÑÄ N0.5å2.0
CILA  .MMHO                            : áéçÑ àä 7à1.6,Ääí.ëàÉçÄã/àä-è/Äàä-5
MLL   .OHMM                            : äÄÜ.ëéèê/åàäêéÅéäéÇéâ äÄêéíÄÜ/åä-ìñ
GZ3   .OHMM                            : äÄÜ. ëéèêéíàÇãÖçàÖ áéçÑÄ A2.0M0.5N
T1    .MKS                             : T1, ¨™·
T2    .MKS                             : í2, ¨™·
C1    .MM                              : è‡Æ‰®´Ï1,¨¨
C2    .MM                              : è‡Æ‰®´Ï2,¨¨
~ASCII Log Data
# ...
   293.00     1.4180   379.7850     6.9830     9.6870   219.3740     5.6830     2.3730    82.8170    10.0380    87.5760     4.5600    10.3750   948.0860  1100.0000   216.1260   222.6220
   293.10     1.3770   380.0000     9.0720     6.7850   217.9460     5.7900     2.2970    82.2480     8.7610    89.6310     2.6890     9.3730   948.0000  1100.0000   212.3960   223.4960
   293.20     1.3520   479.7070    12.9200     5.8100   215.3780     5.9550     2.2000    81.3880     8.0290    91.6350     2.5950     8.4690   908.1170  1100.0000   209.8650   220.8910
   293.30     1.3020   480.0000    15.7120     5.4710   215.8890     5.8780     2.1460    82.2480     7.5930    92.3670     2.5880     7.4010   908.0000  1100.0000   212.5850   219.1920
   293.40     1.2870   480.0000    15.9100     5.3330   215.7280     5.9460     2.1030    82.9810     7.4260    91.6350     2.5530     6.6870   904.0160  1096.0160   211.4840   219.9730
   293.50     1.2860   470.0440    13.3980     5.2980   216.7180     6.0890     2.0960    83.6840     7.4420    91.2640     2.6330     6.3640   900.0180  1088.0350   212.0390   221.3970
   293.60     1.2680   470.0000    12.2250     5.3470   218.3060     6.2370     2.1090    85.9570     7.5310    90.9260     2.8220     6.1440   900.0000  1088.0000   213.6350   222.9770
   293.70     1.2880   470.0000    12.1220     5.5370   218.6040     6.4340     2.1120    86.4340     7.5480    90.9260     2.9910     6.0380   896.0210  1084.0210   212.8160   224.3910
   293.80     1.2570   470.0000    13.0270     5.8440   219.2320     6.4850     2.1220    87.8440     7.4800    93.2740     7.7590     5.9270   896.0000  1084.0000   214.6020   223.8610
   293.90     1.2020   460.0630    13.4540     5.8350   220.4350     6.5980     2.1300    88.3430     7.3910    93.3840    14.2190     5.8020   896.0000  1080.0250   217.7750   223.0940
   294.00     1.1990   469.9320    12.7010     5.3590   221.2280     6.4240     2.1140    88.4320     7.2370    95.5960    10.5440     5.6660   896.0000  1083.9730   219.1210   223.3350
   294.10     1.1790   470.0000    11.5260     4.9260   221.4860     6.4620     2.1090    88.9350     6.8720    95.6760     2.8290     5.5120   896.0000  1084.0000   219.7000   223.2720
   294.20     1.1710   470.0000    10.9610     4.7720   217.2610     6.7180     2.1200    89.3700     6.5560    95.6760     2.5920     5.4080   899.9710  1087.9709   212.7840   221.7390
   294.30     1.1480   470.0000    10.9590     4.7590   219.5030     6.8040     2.1090    89.3940     6.2720    95.8490     2.5860     5.4310   900.0000  1088.0000   215.9410   223.0650
   294.40     1.1570   470.0000    12.2510     4.7880   220.1760     7.0090     2.0980    89.3700     6.0760    95.6070     2.5580     5.6870   900.0000  1088.0000   217.0440   223.3080
   294.50     1.1240   470.0000     9.8700     4.8810   218.6370     6.8820     2.0900    89.3940     5.9650    95.8030     2.4370     6.0310   900.0000  1088.0000   216.0050   221.2680
   294.60     1.1790   460.0930     8.6210     5.0000   217.3900     6.9200     2.0970    89.5690     5.8870    95.8030     2.5940     6.5110   900.0000  1084.0370   214.5680   220.2120
   294.70     1.2260   460.0000     9.9460     5.0900   217.7680     6.9790     2.1010    89.6510     5.8440    97.6850     2.6490     7.0800   903.9610  1087.9611   214.4150   221.1220
   294.80     1.2230   469.8970    11.3030     5.1010   218.0420     7.1240     2.0940    89.6510     5.8060    98.0860     2.6700     7.4900   904.0000  1091.9590   214.2610   221.8220
   294.90     1.2090   470.0000    12.5760     5.0700   217.4760     6.9880     2.0810    89.8280     5.7930    98.5290     2.6400     7.6880   943.5700  1131.5699   213.2370   221.7150
   295.00     1.2400   470.0000    11.0450     5.0200   217.8700     6.5090     2.0910    88.6100     5.8240    99.7680     2.5450     7.8370   944.0000  1132.0000   214.3920   221.3480
   295.10     1.2360   470.0000     9.9110     4.9560   218.5020     6.2630     2.0910    89.7190     5.9390    98.5290     2.5040     7.9200   983.5310  1171.5310   215.9560   221.0480
   295.20     1.2370   470.0000     7.3230     4.8780   215.3310     6.4150     2.0970    88.5740     6.1020    97.7570     2.4640     7.8740   984.0000  1172.0000   210.9490   219.7120
   295.30     1.1790   460.1270     4.8780     4.8600   215.9060     6.4200     2.1240    89.2470     6.3650    97.4960     2.4700     7.7520  1039.2889  1223.3400   212.4000   219.4130
   295.40     1.1940   430.3960     3.7400     4.9050   216.7650     6.3450     2.1450    88.8400     6.7750    93.4240     2.4480     7.6050  1107.1040  1279.2620   214.9180   218.6120
   295.50     1.1980   430.0000     2.8520     5.0080   217.0010     6.3500     2.1630    89.2470     7.0630    93.2360     2.4410     7.5550  1108.0000  1280.0000   215.1820   218.8200
   295.60     1.2050   321.5580     2.6670     5.1610   218.0190     6.2400     2.1990    89.2270     7.3340    91.5240     2.4450     7.6000  1123.7729  1252.3960   214.6930   221.3450
   295.70     1.2030   320.0000     2.3920     5.5040   220.3340     6.3580     2.2890    89.3470     7.4500    90.4680     2.5640     7.7030  1124.0000  1252.0000   215.1420   225.5270
   295.80     1.1790   290.4540     1.8770     6.0060   221.3020     6.0450     2.3520    89.2970     7.7710    88.8280     2.5790     7.8500  1112.1820  1228.3630   216.3690   226.2340
   295.90     1.2040   408.1250     2.6190     6.0780   222.1670     6.0350     2.3600    89.8560     8.1420    88.7260     2.4770     8.1120  1068.6880  1231.9380   218.2230   226.1110
   296.00     1.1990   410.0000     3.3970     5.6840   219.3270     6.1930     2.3320    89.2970     8.7900    86.1700     2.5100     8.4370  1068.0000  1232.0000   215.6760   222.9790
   296.10     1.2350   449.3360     4.2630     5.4400   217.9930     5.8870     2.3040    88.8400     9.4970    85.8340     2.6850     9.1580  1028.6639  1208.3979   214.5020   221.4840
   296.20     1.2010   440.1710     3.6900     5.5310   216.1650     6.0510     2.2630    88.8400     9.9350    86.1700     2.8160     9.8530  1028.0000  1204.0680   212.1110   220.2200
   296.30     1.2180   351.5820     4.2390     6.8110   215.9840     6.4470     2.2510    88.9440    10.0190    86.2080     7.8580    10.4330  1024.0699  1164.7030   211.6410   220.3270
   296.40     1.2570   350.0000     5.8890     8.5620   217.5320     6.5070     2.2560    89.5700     9.5880    88.5960    30.5920    10.7360  1024.0000  1164.0000   213.3540   221.7110
   296.50     1.2660   359.8140     7.8090     7.9040   219.8990     6.2390     2.2520    89.1290     8.9820    94.8440    56.2740    10.4680  1016.1480  1160.0740   215.1200   224.6780
   296.60     1.2320   369.8100     9.8790     6.1630   219.9140     6.5290     2.2190    89.1290     7.9310    98.2790     4.6800     9.5670  1012.0760  1160.0000   214.5740   225.2530
   296.70     1.2340   477.8520    11.7180     5.0580   216.7830     6.3080     2.1630    87.9710     7.2380   100.8230     3.2240     8.7030   968.8590  1160.0000   211.8940   221.6730
   296.80     1.2190   499.6000    12.6130     4.6850   217.2800     6.2900     2.1310    87.9710     6.6950   100.8230     2.6930     7.5270   960.1600  1160.0000   212.7830   221.7770
   296.90     1.1830   500.0000    12.9570     4.6190   219.8530     6.4110     2.1130    88.4720     6.4630   100.6150     2.6070     7.0010   960.0000  1160.0000   216.9040   222.8010
   297.00     1.1910   490.2050    12.6860     4.6250   219.1520     6.3990     2.0990    88.7810     6.4540   100.4090     2.4940     6.3550   967.8360  1163.9180   216.8550   221.4500
   297.10     1.1770   490.0000    12.4720     4.6830   217.6070     6.5320     2.0900    89.9810     6.5420    99.6940     2.4770     5.9000   968.0000  1164.0000   214.7400   220.4740
   297.20     1.1580   490.0000    13.0160     4.7530   218.7570     6.6210     2.1150    90.8940     6.6390    97.6070     2.5190     5.7660   971.9140  1167.9139   216.1370   221.3760
   297.30     1.1410   490.0000    13.1510     4.7940   217.8590     6.6190     2.1270    89.9810     6.7560    96.5900     2.3710     5.6650   975.9120  1171.9120   214.4030   221.3140
