~Version information
  VERS.                            1.20: CWLS LAS  -  VERSION 1.20
  WRAP.                              NO: One line per depth step
~Well information
# MNEM.UNIT
# ====.================================:===================
  STRT.M                          51.00: First depth in file
  STOP.M                         906.10: Last depth in file
  STEP.M                           0.10: Depth increment
  NULL.                           -9999: Null values
  COMP.                         COMPANY: 
  WELL.                            WELL: 317
  FLD .                           FIELD: KARATUBE
  CNTY.                          COUNTY: 
  STAT.                           STATE: 
  DATE.                        LOG DATE: 09/11/2004
  SRVC.                 SERVICE COMPANY: 
  UWI.           Unique Well Identifier: 
~Parametr information block
# MNEM.UNIT
# ====.================================:===================
~Other information
# ------------------------- REMARKS  AREA ------------------
~Curve information
# MNEM.UNIT
# ====.================================:===================
  DEPT.M                               : Depth curve
NGLD  .UE                              : çÖâíêéççõâ ÉÄååÄ äÄêéíÄÜ / Ñêëí3-90
DTP   .US/M                            : àçíÖêÇÄãúçéÖ ÇêÖåü èêéÑ.Çéãçõ èé Ää
SP    .MV                              : ÖëíÖëíÇÖççÄü ëÄåéèéãüêàáÄñàü èé èë
LL3   .OHMM                            : äÄÜ.ëéèêéíàÇãÖçàÖ áéçÑÄ Åä-3 /ÄÅäí
CALI  .MM                              : ëìååÄêçõâ ÑàÄåÖíê äÄÇÖêçéåÖêÄ
GR    .UR/H                            : ÖëíÖëíÇÖççÄü ÉÄååÄ-ÄäíàÇçéëíú èé Éä
RHOB  .G/C3                            : éÅöÖåçÄü èãéíçéëíú èéêéÑõ èé ÉÉäè
CILR  .MMHO                            : áéçÑ àä 7à1.6,êÖÄä.ëàÉçÄã/àä-è/Äàä-5
GZ3B  .OHMM                            : äÄÜ.ëéèê.éÅêÄôÖççéÉé áéçÑÄ N0.5å2.0
CILA  .MMHO                            : áéçÑ àä 7à1.6,Ääí.ëàÉçÄã/àä-è/Äàä-5
MLL   .OHMM                            : äÄÜ.ëéèê/åàäêéÅéäéÇéâ äÄêéíÄÜ/åä-ìñ
GZ3   .OHMM                            : äÄÜ. ëéèêéíàÇãÖçàÖ áéçÑÄ A2.0M0.5N
T1    .MKS                             : T1, ¨™·
T2    .MKS                             : í2, ¨™·
C1    .MM                              : è‡Æ‰®´Ï1,¨¨
C2    .MM                              : è‡Æ‰®´Ï2,¨¨
~ASCII Log Data
# ...
   675.80     1.1070   440.0000    10.5570     6.7350   218.9840     4.9060     2.1560   124.2110     7.3270   128.0970     7.2630     9.4090   968.0000  1144.0000   217.9970   219.9710
   675.90     1.0870   430.9110    10.3580     4.9940   217.2670     5.2610     2.1610   126.4610     6.4860   142.8260     4.2670     8.9600   971.6360  1144.0000   214.6890   219.8450
   676.00     1.0960   420.9180     9.8320     4.2620   215.1470     5.4830     2.1820   128.7840     5.7500   150.7310     4.1240     7.8430   979.2660  1147.6331   210.4650   219.8290
   676.10     1.1000   420.0000     8.1440     4.0740   214.6660     5.9320     2.2240   134.6510     4.9870   157.1300     3.4970     6.7920   980.0000  1148.0000   209.6360   219.6960
   676.20     1.0820   420.0000     6.9940     4.1140   214.5750     6.5490     2.2240   139.9910     4.1290   162.4110     4.2130     5.5350   980.0000  1148.0000   209.7610   219.3890
   676.30     1.0960   420.0000     5.1510     4.0820   215.1770     6.9840     2.2260   148.2770     3.7580   165.3670     4.2960     4.4070   980.0000  1148.0000   211.1860   219.1680
   676.40     1.0800   420.0000     5.0920     3.9060   217.0240     7.1560     2.2330   155.6360     3.3580   171.9760     4.0030     3.7760   980.0000  1148.0000   213.5940   220.4540
   676.50     1.1250   420.0000     5.3150     3.7490   217.3660     7.0850     2.2580   165.7410     2.8520   174.4060     3.8090     3.1840   980.0000  1148.0000   213.5130   221.2200
   676.60     1.1480   410.9720     5.6530     3.6330   216.8020     7.0340     2.2760   175.1430     2.5790   179.5490     3.6790     2.8550   983.6110  1148.0000   213.4510   220.1520
   676.70     1.0900   410.0000     5.9080     3.5270   216.6050     6.7730     2.2850   180.9120     2.3290   186.4530     3.7240     2.5940   984.0000  1148.0000   212.8160   220.3940
   676.80     1.0900   410.0000     7.8570     3.4640   217.2800     6.8130     2.2900   184.2290     2.2160   187.3180     3.4270     2.4790   984.0000  1148.0000   212.7570   221.8030
   676.90     1.0710   410.0000     9.2780     3.4290   217.9200     6.8200     2.2850   191.2610     2.1570   193.5130     3.3240     2.4520   984.0000  1148.0000   213.4940   222.3460
   677.00     1.0920   410.0000    11.9000     3.3840   218.9760     6.9680     2.2920   195.9280     2.1440   194.8490     3.5950     2.4620   984.0000  1148.0000   215.5940   222.3570
   677.10     1.1150   410.0000    14.7830     3.3020   220.2520     7.2390     2.2980   200.1700     2.1680   196.9210     3.3480     2.4700   984.0000  1148.0000   218.8160   221.6890
   677.20     1.1390   410.0000    16.6080     3.2230   220.0100     7.4670     2.2890   204.0110     2.2120   200.6950     2.9730     2.4810   984.0000  1148.0000   218.3040   221.7160
   677.30     1.1340   410.0000    17.4650     3.2040   218.6400     7.3360     2.2830   207.5290     2.2950   200.6950     2.9550     2.4940   980.4130  1144.4130   215.3460   221.9330
   677.40     1.1310   410.0000    16.6690     3.1840   218.3070     7.8520     2.2750   210.4350     2.3960   199.1490     2.9800     2.4970   980.0000  1144.0000   214.2250   222.3890
   677.50     1.1870   410.0000    15.0910     3.1490   219.2660     7.8630     2.2720   212.3840     2.5580   198.3100     2.9660     2.5010   976.4200  1140.4200   215.8010   222.7310
   677.60     1.1710   410.0000    13.3020     3.1030   219.6920     7.9480     2.2770   212.9260     2.7350   192.7800     2.9570     2.5580   972.4240  1136.4240   216.7600   222.6250
   677.70     1.1520   410.0000    12.7530     3.0300   219.6170     8.2200     2.2890   212.9260     2.9100   188.3340     2.9080     2.6640   972.0000  1136.0000   216.6710   222.5620
   677.80     1.1680   401.0770    12.8580     2.9760   219.9690     8.6140     2.3130   212.7510     3.0570   185.4300     2.6450     2.8490   972.0000  1132.4310   217.3310   222.6060
   677.90     1.1330   400.0000    14.4200     2.9850   222.2250     8.9810     2.3210   211.2880     3.1280   180.0490     2.2970     2.9900   972.0000  1132.0000   221.4540   222.9950
   678.00     1.1110   400.0000    15.6050     2.9920   221.4730     8.8750     2.3160   208.8200     3.1940   177.2360     2.6880     3.1540   964.8750  1124.8750   220.1330   222.8130
   678.10     1.0890   400.0000    15.2880     2.9780   221.3160     9.0890     2.3400   206.0820     3.2150   176.9900     2.5270     3.2340   964.0000  1124.0000   219.6480   222.9830
   678.20     1.1400   400.0000    14.3290     2.9340   221.2130     9.1870     2.3380   201.1200     3.1700   172.2770     2.5450     3.2460   956.8910  1116.8910   218.9140   223.5110
   678.30     1.1430   408.8790     8.7900     2.8260   221.4890     9.2260     2.3330   196.4290     3.0920   172.0140     2.7080     3.1750   945.3450  1108.8960   221.4630   221.5150
   678.40     1.1480   410.0000     5.5280     2.6820   222.0670     9.6340     2.3440   190.3570     3.0370   169.5430     2.2230     3.0880   944.0000  1108.0000   223.2760   220.8580
   678.50     1.1280   392.2800     2.1350     2.6460   222.3220     9.8310     2.3420   183.5650     2.9770   166.7770     1.9200     2.9890   940.4560  1097.3680   223.6860   220.9580
   678.60     1.1040   390.0000    -1.1850     2.8650   222.8380     9.6560     2.3320   180.4770     2.9360   166.1770     1.7390     2.9300   940.0000  1096.0000   223.4020   222.2750
   678.70     1.1460   372.3140    -3.3470     3.3400   222.8280     9.8780     2.3180   176.2840     2.9030   163.2070     1.9770     2.8730   943.5370  1092.4630   221.6670   223.9900
   678.80     1.1470   370.0000    -4.5520     3.6580   222.7220     9.9010     2.2990   169.6040     2.8900   159.7070     3.5160     2.8430   944.0000  1092.0000   220.8000   224.6440
   678.90     1.1570   387.6510    -4.8380     3.6840   223.2320     9.7230     2.2940   167.8870     2.8890   158.8350     3.4800     2.8410   933.4090  1088.4700   222.5050   223.9580
   679.00     1.1450   390.0000    -5.0360     3.5870   221.8560     9.4800     2.2730   165.0410     2.8860   158.8350     3.0620     2.8230   932.0000  1088.0000   221.1170   222.5960
   679.10     1.1640   390.0000    -5.3360     3.5230   220.6540     9.8000     2.2690   163.6270     2.8920   158.3510     3.1080     2.7790   924.9530  1080.9530   218.8900   222.4180
   679.20     1.2080   390.0000    -5.2010     3.4060   220.9390     9.8370     2.2800   158.3210     2.9360   155.4910     2.6290     2.7060   924.0000  1080.0000   219.5000   222.3790
   679.30     1.1940   390.0000    -4.7730     3.3580   218.0870     9.4770     2.3130   151.8450     3.0270   153.4480     2.3440     2.6700   924.0000  1080.0000   215.8580   220.3160
   679.40     1.1670   398.7820    -2.9500     3.4240   218.2740     9.5730     2.3170   149.5290     3.1420   148.5800     3.1490     2.6580   916.9750  1076.4871   215.6110   220.9370
   679.50     1.1590   400.0000    -0.8350     3.5520   217.9340     9.2660     2.3110   147.2370     3.3610   144.2830     3.6280     2.6990   916.0000  1076.0000   214.8370   221.0320
   679.60     1.1470   391.2350     1.3440     3.5990   218.6610     8.7470     2.3100   144.7940     3.5640   137.9850     3.5020     2.7860   916.0000  1072.4940   216.4230   220.8980
   679.70     1.1300   390.0000     3.1720     3.8890   219.3560     8.5610     2.3010   144.7720     3.8530   130.7670     3.6900     2.9990   916.0000  1072.0000   217.9270   220.7840
   679.80     1.1290   398.7450     4.2920     4.2760   218.5800     8.5500     2.2610   144.3290     4.1210   128.0060     4.1700     3.2080   912.5020  1072.0000   217.1950   219.9640
   679.90     1.1030   400.0000     4.7130     4.8150   218.0690     8.4960     2.2240   143.8650     4.3240   122.6140     4.5200     3.4960   912.0000  1072.0000   216.2540   219.8840
   680.00     1.1000   400.0000     5.8190     5.1570   217.6400     8.3400     2.2160   143.2830     4.4030   122.3730     5.4610     3.7990   912.0000  1072.0000   215.2810   219.9990
   680.10     1.0760   400.0000     4.9130     5.1860   216.8600     7.9910     2.2090   143.0400     4.3610   122.6140     5.5360     3.9990   912.0000  1072.0000   214.1100   219.6110
