~Version information
  VERS.                            1.20: CWLS LAS  -  VERSION 1.20
  WRAP.                              NO: One line per depth step
~Well information
# MNEM.UNIT
# ====.================================:===================
  STRT.M                          51.00: First depth in file
  STOP.M                         906.10: Last depth in file
  STEP.M                           0.10: Depth increment
  NULL.                           -9999: Null values
  COMP.                         COMPANY: 
  WELL.                            WELL: 317
  FLD .                           FIELD: KARATUBE
  CNTY.                          COUNTY: 
  STAT.                           STATE: 
  DATE.                        LOG DATE: 09/11/2004
  SRVC.                 SERVICE COMPANY: 
  UWI.           Unique Well Identifier: 
~Parametr information block
# MNEM.UNIT
# ====.================================:===================
~Other information
# ------------------------- REMARKS  AREA ------------------
~Curve information
# MNEM.UNIT
# ====.================================:===================
  DEPT.M                               : Depth curve
NGLD  .UE                              : çÖâíêéççõâ ÉÄååÄ äÄêéíÄÜ / Ñêëí3-90
DTP   .US/M                            : àçíÖêÇÄãúçéÖ ÇêÖåü èêéÑ.Çéãçõ èé Ää
SP    .MV                              : ÖëíÖëíÇÖççÄü ëÄåéèéãüêàáÄñàü èé èë
LL3   .OHMM                            : äÄÜ.ëéèêéíàÇãÖçàÖ áéçÑÄ Åä-3 /ÄÅäí
CALI  .MM                              : ëìååÄêçõâ ÑàÄåÖíê äÄÇÖêçéåÖêÄ
GR    .UR/H                            : ÖëíÖëíÇÖççÄü ÉÄååÄ-ÄäíàÇçéëíú èé Éä
RHOB  .G/C3                            : éÅöÖåçÄü èãéíçéëíú èéêéÑõ èé ÉÉäè
CILR  .MMHO                            : áéçÑ àä 7à1.6,êÖÄä.ëàÉçÄã/àä-è/Äàä-5
GZ3B  .OHMM                            : äÄÜ.ëéèê.éÅêÄôÖççéÉé áéçÑÄ N0.5å2.0
CILA  .MMHO                            : áéçÑ àä 7à1.6,Ääí.ëàÉçÄã/àä-è/Äàä-5
MLL   .OHMM                            : äÄÜ.ëéèê/åàäêéÅéäéÇéâ äÄêéíÄÜ/åä-ìñ
GZ3   .OHMM                            : äÄÜ. ëéèêéíàÇãÖçàÖ áéçÑÄ A2.0M0.5N
T1    .MKS                             : T1, ¨™·
T2    .MKS                             : í2, ¨™·
C1    .MM                              : è‡Æ‰®´Ï1,¨¨
C2    .MM                              : è‡Æ‰®´Ï2,¨¨
~ASCII Log Data
# ...
   565.80     1.1370   400.0000    62.6690     3.1010   215.2420     9.5260     2.2230   201.9650     2.6050   162.4510     3.0040     2.2040   960.0000  1120.0000   210.8750   219.6100
   565.90     1.0970   400.0000    61.8360     3.1270   215.5990     9.7580     2.2480   196.9460     2.6740   160.8770     3.1290     2.2750   960.0000  1120.0000   211.3520   219.8470
   566.00     1.0860   404.9800    61.0680     3.0890   215.3040     9.9630     2.2640   190.7540     2.7180   160.8770     3.1320     2.3230   960.0000  1121.9919   208.9930   221.6150
   566.10     1.0600   410.0000    59.7040     2.9940   217.0160    10.3030     2.2620   185.1900     2.7620   161.5780     3.0060     2.3570   960.0000  1124.0000   211.1700   222.8630
   566.20     1.0490   410.0000    58.4040     2.9430   217.6520    10.5390     2.2650   181.5940     2.7840   161.8300     2.8610     2.3830   960.0000  1124.0000   210.8910   224.4140
   566.30     1.0590   404.9070    57.1910     2.9710   221.6250    10.5270     2.2500   179.0150     2.8020   161.8300     2.8180     2.4050   960.0000  1121.9630   217.2920   225.9580
   566.40     1.0960   400.0000    56.4690     3.0650   222.5360    10.9960     2.2230   177.4920     2.8110   162.5560     2.9010     2.4230   960.0000  1120.0000   218.7010   226.3710
   566.50     1.1090   405.1680    55.3180     3.1410   223.2470    10.9910     2.2040   176.1990     2.8060   163.4460     3.0700     2.4260   957.9330  1120.0000   220.5330   225.9620
   566.60     1.0770   410.0000    53.3890     3.1590   220.7280    11.0290     2.1910   176.0530     2.7830   163.8250     3.1310     2.4140   956.0000  1120.0000   217.9650   223.4910
   566.70     1.1200   410.0000    49.8890     3.1710   220.5430    11.0010     2.1780   176.0530     2.7560   163.8250     3.1250     2.3910   956.0000  1120.0000   217.3810   223.7060
   566.80     1.1280   410.0000    46.8560     3.1810   221.1940    10.5160     2.1580   176.8940     2.7330   162.1580     3.1660     2.3710   956.0000  1120.0000   217.7570   224.6310
   566.90     1.0650   410.0000    45.3320     3.1680   219.4430    10.6130     2.1190   177.0320     2.7060   161.6840     3.1250     2.3520   956.0000  1120.0000   214.9050   223.9810
   567.00     1.0470   410.0000    42.8250     3.1250   217.6930    10.3720     2.0930   180.5720     2.6590   161.5760     3.0390     2.3390   956.0000  1120.0000   212.4630   222.9230
   567.10     1.0040   426.1720    39.1290     3.1130   217.8710    10.1880     2.0580   181.4900     2.5700   161.4560     2.9340     2.3200   953.8440  1124.3130   212.6970   223.0450
   567.20     0.9950   440.0000    36.2930     3.1430   218.6170     9.7520     2.0120   182.8440     2.4640   161.4560     2.8690     2.2900   952.0000  1128.0000   213.8720   223.3610
   567.30     1.0010   450.9280    35.1160     3.0850   219.5790     9.5260     1.9860   185.8980     2.3420   166.1890     3.0780     2.2410   952.0000  1132.3710   214.8270   224.3320
   567.40     1.0140   437.9880    34.1590     2.8940   219.9360     9.8180     1.9930   185.8980     2.1710   172.5180     3.1530     2.1910   956.4020  1131.5980   213.8170   226.0550
   567.50     1.0050   420.0000    34.2900     2.7460   222.6230     9.1280     2.0340   186.3490     2.0640   174.7900     2.5720     2.1130   960.0000  1128.0000   217.9970   227.2480
   567.60     1.0280   403.2710    34.8900     2.7790   221.8990     8.9280     2.1290   187.6280     1.9370   175.2620     2.3860     2.0330   964.4610  1125.7700   217.1930   226.6040
   567.70     1.0410   390.0000    35.0270     3.0640   219.7980     8.8450     2.2010   189.0920     1.8570   179.5170     2.7520     1.9520   968.0000  1124.0000   215.8220   223.7730
   567.80     1.0380   395.6490    35.2270     3.0820   215.2970     8.9690     2.2090   189.2240     1.8140   179.5170     2.9060     1.9000   963.4800  1121.7400   210.5460   220.0480
   567.90     1.0440   400.0000    36.6330     3.0570   214.1300     8.8140     2.1850   194.2790     1.8070   179.6850     2.9320     1.8890   960.0000  1120.0000   211.0970   217.1630
   568.00     1.0740   400.0000    39.5860     3.0160   212.5730     8.6230     2.1630   196.1230     1.8210   179.6850     2.9060     1.9040   957.7100  1117.7100   207.8470   217.3000
   568.10     1.0910   400.0000    42.4680     2.9670   214.0230     8.8120     2.1610   200.4360     1.8480   179.6850     2.9040     1.9360   956.0000  1116.0000   210.6150   217.4310
   568.20     1.1120   405.7980    45.8460     2.8970   213.5870     8.6980     2.1600   205.4250     1.8670   180.5270     2.8720     1.9750   956.0000  1118.3190   209.9690   217.2060
   568.30     1.0960   410.0000    47.7660     2.8840   215.1790     8.9920     2.1600   207.3790     1.8950   180.0740     2.7680     2.0050   956.0000  1120.0000   213.0280   217.3290
   568.40     1.1110   410.0000    49.0770     2.9210   214.5390     8.8580     2.1680   210.1270     1.9410   180.0740     2.8110     2.0310   956.0000  1120.0000   211.6920   217.3850
   568.50     1.1130   410.0000    49.0140     2.9560   214.4180     8.6550     2.1660   213.3960     1.9870   177.7770     2.9400     2.0680   956.0000  1120.0000   211.4070   217.4290
   568.60     1.1080   410.0000    48.9120     2.9420   214.1660     8.3710     2.1640   214.2500     2.0490   176.8080     2.9010     2.1300   956.0000  1120.0000   211.1560   217.1760
   568.70     1.0970   410.0000    49.6820     2.9180   213.6030     8.6350     2.1620   215.8150     2.1210   174.1190     2.7990     2.1950   956.0000  1120.0000   210.0910   217.1150
   568.80     1.1380   410.0000    49.5680     2.9150   213.7460     8.6030     2.1540   218.6370     2.1740   174.1020     2.7860     2.2770   956.0000  1120.0000   210.2650   217.2260
   568.90     1.0960   416.0600    48.8130     2.9370   214.6720     8.8650     2.1580   220.4980     2.2110   172.8370     2.8600     2.3790   956.0000  1122.4240   211.9770   217.3670
   569.00     1.1120   420.0000    48.1080     3.0110   215.7950     9.0430     2.1730   222.1250     2.2160   173.7890     2.9980     2.4290   956.0000  1124.0000   214.1430   217.4470
   569.10     1.1190   420.0000    47.8200     3.0180   216.1580     9.0830     2.1830   223.9340     2.2100   173.7890     3.0770     2.4690   956.0000  1124.0000   214.9440   217.3720
   569.20     1.1250   413.8280    47.9630     2.9830   215.4950     8.8450     2.1750   224.5200     2.2000   176.4220     3.0320     2.4790   958.4690  1124.0000   213.6950   217.2940
   569.30     1.1670   410.0000    47.2850     2.9250   215.8580     8.9260     2.1730   224.7750     2.1780   177.6500     2.9440     2.4730   960.0000  1124.0000   214.4790   217.2370
   569.40     1.1920   410.0000    47.1140     2.8790   215.1950     8.9350     2.1730   225.9590     2.1400   179.1250     2.8740     2.4350   960.0000  1124.0000   213.0100   217.3800
   569.50     1.1930   410.0000    46.9210     2.8420   216.3980     8.7620     2.1780   226.4340     2.1000   185.1170     2.8290     2.3780   960.0000  1124.0000   215.4160   217.3790
   569.60     1.1620   416.3210    45.6960     2.8050   215.2970     8.5230     2.1900   229.8010     2.0380   185.2720     2.7730     2.2960   957.4720  1124.0000   213.2160   217.3780
   569.70     1.1840   420.0000    44.7290     2.7530   215.8850     8.2800     2.1850   232.0190     1.9670   186.4130     2.7230     2.1880   956.0000  1124.0000   214.4070   217.3630
   569.80     1.2160   420.0000    43.7560     2.7260   214.9540     8.0820     2.1630   232.9540     1.8820   189.1860     2.7090     2.0470   950.8850  1118.8850   212.6450   217.2620
   569.90     1.2340   420.0000    42.4540     2.7010   215.7460     8.1210     2.1460   237.0110     1.8050   189.8910     2.6710     1.9460   948.0000  1116.0000   214.3760   217.1160
   570.00     1.2870   413.5330    41.8540     2.6630   214.0090     7.9590     2.1410   240.4580     1.7680   189.8910     2.6060     1.8550   948.0000  1113.4130   212.6800   215.3390
   570.10     1.2550   410.0000    41.4540     2.6460   213.2240     7.9800     2.1350   243.4320     1.7000   189.8910     2.5400     1.7650   948.0000  1112.0000   210.7090   215.7390
