~Version information
  VERS.                            1.20: CWLS LAS  -  VERSION 1.20
  WRAP.                              NO: One line per depth step
~Well information
# MNEM.UNIT
# ====.================================:===================
  STRT.M                          51.00: First depth in file
  STOP.M                         906.10: Last depth in file
  STEP.M                           0.10: Depth increment
  NULL.                           -9999: Null values
  COMP.                         COMPANY: 
  WELL.                            WELL: 317
  FLD .                           FIELD: KARATUBE
  CNTY.                          COUNTY: 
  STAT.                           STATE: 
  DATE.                        LOG DATE: 09/11/2004
  SRVC.                 SERVICE COMPANY: 
  UWI.           Unique Well Identifier: 
~Parametr information block
# MNEM.UNIT
# ====.================================:===================
~Other information
# ------------------------- REMARKS  AREA ------------------
~Curve information
# MNEM.UNIT
# ====.================================:===================
  DEPT.M                               : Depth curve
NGLD  .UE                              : çÖâíêéççõâ ÉÄååÄ äÄêéíÄÜ / Ñêëí3-90
DTP   .US/M                            : àçíÖêÇÄãúçéÖ ÇêÖåü èêéÑ.Çéãçõ èé Ää
SP    .MV                              : ÖëíÖëíÇÖççÄü ëÄåéèéãüêàáÄñàü èé èë
LL3   .OHMM                            : äÄÜ.ëéèêéíàÇãÖçàÖ áéçÑÄ Åä-3 /ÄÅäí
CALI  .MM                              : ëìååÄêçõâ ÑàÄåÖíê äÄÇÖêçéåÖêÄ
GR    .UR/H                            : ÖëíÖëíÇÖççÄü ÉÄååÄ-ÄäíàÇçéëíú èé Éä
RHOB  .G/C3                            : éÅöÖåçÄü èãéíçéëíú èéêéÑõ èé ÉÉäè
CILR  .MMHO                            : áéçÑ àä 7à1.6,êÖÄä.ëàÉçÄã/àä-è/Äàä-5
GZ3B  .OHMM                            : äÄÜ.ëéèê.éÅêÄôÖççéÉé áéçÑÄ N0.5å2.0
CILA  .MMHO                            : áéçÑ àä 7à1.6,Ääí.ëàÉçÄã/àä-è/Äàä-5
MLL   .OHMM                            : äÄÜ.ëéèê/åàäêéÅéäéÇéâ äÄêéíÄÜ/åä-ìñ
GZ3   .OHMM                            : äÄÜ. ëéèêéíàÇãÖçàÖ áéçÑÄ A2.0M0.5N
T1    .MKS                             : T1, ¨™·
T2    .MKS                             : í2, ¨™·
C1    .MM                              : è‡Æ‰®´Ï1,¨¨
C2    .MM                              : è‡Æ‰®´Ï2,¨¨
~ASCII Log Data
# ...
   513.00     1.0510   411.9260    50.1970     3.7510   214.0950     8.7760     2.3020   149.9870     2.8260   151.2530     3.0710     3.8210   955.2290  1120.0000   210.4820   217.7070
   513.10     1.0570   420.0000    48.9030     3.7290   216.1690     8.5640     2.2970   152.3510     2.8190   152.5600     3.0380     3.8570   952.0000  1120.0000   214.7900   217.5480
   513.20     1.0290   420.0000    46.5610     3.7020   214.5150     8.5520     2.2960   153.9920     2.8030   153.1680     3.0750     3.8740   951.2110  1119.2111   211.2580   217.7730
   513.30     1.0520   420.0000    45.3540     3.6720   216.4280     8.3550     2.2880   154.9520     2.7730   155.3380     3.0550     3.8750   948.0000  1116.0000   214.8480   218.0090
   513.40     1.0690   420.0000    43.7900     3.6590   214.4450     8.4190     2.2570   157.0990     2.7260   158.4710     3.0210     3.8590   948.0000  1116.0000   211.6580   217.2330
   513.50     1.0630   420.0000    42.7430     3.6210   215.4860     8.4340     2.2450   157.6330     2.6520   159.4710     3.0870     3.7850   948.0000  1116.0000   213.9440   217.0280
   513.60     1.1060   417.9350    41.3580     3.5190   215.0280     8.3570     2.2440   160.8050     2.5800   162.5730     3.0580     3.6660   948.8260  1116.0000   213.0230   217.0320
   513.70     1.1120   410.0000    39.0840     3.3890   214.9020     8.6460     2.2230   161.6400     2.5450   164.6620     3.0700     3.5630   952.0000  1116.0000   213.2320   216.5720
   513.80     1.1680   412.1120    38.9010     3.2660   213.6700     8.6180     2.2090   163.0530     2.5140   166.9090     2.8600     3.4600   952.0000  1116.8450   212.2010   215.1380
   513.90     1.1590   420.0000    40.2450     3.2040   213.4940     8.4640     2.1870   165.4970     2.5130   166.9090     2.6840     3.3500   952.0000  1120.0000   212.3920   214.5960
   514.00     1.1500   420.0000    42.5180     3.1980   214.6000     8.3420     2.1810   166.6210     2.5440   167.8850     2.4840     3.2800   952.0000  1120.0000   213.6850   215.5150
   514.10     1.1430   422.1800    45.1120     3.2200   214.1590     7.9320     2.2010   171.6340     2.6100   166.7780     2.7010     3.2440   952.0000  1120.8719   212.0910   216.2270
   514.20     1.1580   430.0000    45.7810     3.2400   213.9550     7.8210     2.2220   175.2360     2.6740   164.5850     2.7100     3.2610   952.0000  1124.0000   212.0640   215.8460
   514.30     1.1400   427.7730    45.8230     3.2670   212.6480     7.6000     2.2230   177.2820     2.7400   164.0740     2.6960     3.3050   952.8910  1124.0000   209.2580   216.0380
   514.40     1.0980   420.0000    45.9580     3.2950   214.2470     7.3730     2.2130   180.9510     2.8600   164.0740     2.7760     3.3470   956.0000  1124.0000   212.7350   215.7590
   514.50     1.1190   422.2730    46.1450     3.3140   213.3810     7.2080     2.2270   181.0480     2.9170   164.2680     2.8390     3.4020   956.0000  1124.9091   211.6100   215.1520
   514.60     1.0700   430.0000    49.0580     3.3140   214.1140     7.4900     2.2340   182.2230     2.9200   164.5450     2.8100     3.4320   956.0000  1128.0000   212.7300   215.4990
   514.70     1.0540   427.6810    53.5620     3.2770   213.0840     7.7440     2.2240   183.4520     2.8700   165.6960     2.7700     3.4210   956.9280  1128.0000   210.2120   215.9560
   514.80     1.0940   420.0000    55.1650     3.2090   212.7150     7.8900     2.2080   183.6990     2.7460   171.0490     2.7590     3.3650   960.0000  1128.0000   210.8250   214.6050
   514.90     1.1160   420.0000    55.4140     3.1320   214.0760     8.1120     2.2030   184.7170     2.6080   171.3230     2.6890     3.2860   960.9460  1128.9460   212.6050   215.5460
   515.00     1.0840   420.0000    54.3650     3.0380   214.4320     9.3060     2.2010   183.6990     2.4450   172.8930     2.6300     3.1380   964.0000  1132.0000   212.7690   216.0950
   515.10     1.1210   422.4120    54.3100     2.9370   213.3210     9.9890     2.1850   185.0060     2.2670   176.2830     2.5330     2.9530   964.0000  1132.9650   211.4880   215.1540
   515.20     1.1110   430.0000    53.9920     2.8340   213.2180    10.7930     2.1770   184.1350     2.1830   178.2370     2.4120     2.7900   964.9750  1136.9750   210.9070   215.5290
   515.30     1.1620   430.0000    53.9990     2.7300   213.7750    11.9520     2.1680   185.0060     2.1000   177.9520     2.2990     2.6270   968.0000  1140.0000   212.1240   215.4260
   515.40     1.1910   430.0000    53.6650     2.6910   212.8200    12.1220     2.1540   187.7800     2.0380   179.0810     2.1050     2.5130   968.9930  1140.9930   210.2060   215.4340
   515.50     1.1740   430.0000    53.5950     2.6970   214.1680    12.0380     2.1550   188.3160     1.9770   177.9520     2.0310     2.4420   972.0000  1144.0000   212.1120   216.2250
   515.60     1.1640   427.4710    52.8170     2.6890   215.2640    12.2100     2.1550   189.0250     1.9440   176.8760     2.1200     2.4110   973.0120  1144.0000   213.6870   216.8420
   515.70     1.1730   420.0000    49.8170     2.6530   215.4110    11.7030     2.1480   189.7620     1.9440   173.6390     2.0740     2.3750   976.0000  1144.0000   214.0100   216.8110
   515.80     1.2120   422.5760    48.3510     2.6430   215.0340    10.5490     2.1580   190.5050     1.9770   173.2710     1.9900     2.3410   976.0000  1145.0300   213.4140   216.6540
   515.90     1.2020   430.0000    46.6730     2.7230   214.0560     9.9000     2.1620   190.5050     2.0000   173.2710     1.9430     2.3380   977.0390  1149.0389   211.9260   216.1860
   516.00     1.2140   430.0000    46.6770     2.8370   214.0430     9.0080     2.1730   190.3500     2.0430   171.1730     2.0960     2.3490   980.0000  1152.0000   212.5420   215.5430
   516.10     1.2270   427.3560    46.5880     2.8990   214.4770     8.0700     2.1710   190.3500     2.0870   169.3000     2.1640     2.3720   981.0580  1152.0000   212.5260   216.4280
   516.20     1.2730   420.0000    45.4240     2.8970   214.9720     6.9840     2.1610   190.3500     2.1120   171.1730     2.1760     2.3930   984.0000  1152.0000   213.6680   216.2750
   516.30     1.2580   422.6900    44.6120     2.8760   214.2030     5.8480     2.1750   188.0950     2.1550   168.4040     2.2410     2.4040   984.0000  1153.0760   210.0490   218.3560
   516.40     1.2790   430.0000    43.3020     2.8660   215.4840     5.7310     2.1930   188.0950     2.1950   168.2280     2.1260     2.4080   984.0000  1156.0000   213.2180   217.7500
   516.50     1.2480   430.0000    42.8510     2.8880   214.2490     5.7030     2.2120   188.0950     2.2510   167.8430     2.0830     2.4250   984.0000  1156.0000   211.1380   217.3590
   516.60     1.2150   430.0000    42.3040     2.9450   215.3840     6.0040     2.2180   187.8790     2.3240   165.9390     1.9860     2.4730   984.0000  1156.0000   214.2930   216.4750
   516.70     1.2000   427.2170    41.6520     2.9880   212.8620     6.3720     2.2140   185.6900     2.4290   164.9140     2.0580     2.5790   984.0000  1154.8870   209.7060   216.0170
   516.80     1.1610   420.0000    40.8840     3.0470   214.8020     6.2520     2.2330   187.8790     2.5370   161.3460     2.3750     2.7580   984.0000  1152.0000   213.3120   216.2930
   516.90     1.1480   420.0000    39.2540     3.1330   213.3680     6.1150     2.2340   188.1650     2.5970   160.6750     2.4840     2.9020   984.0000  1152.0000   210.2450   216.4920
   517.00     1.1040   420.0000    39.5490     3.1530   214.4510     5.7120     2.2490   188.1650     2.5840   160.6750     2.6410     3.0290   984.0000  1152.0000   212.5140   216.3880
   517.10     1.0940   420.0000    40.8150     3.1610   213.2870     5.1300     2.2440   189.6430     2.5200   160.9430     2.7260     3.0770   984.0000  1152.0000   210.8260   215.7490
   517.20     1.1180   422.9000    42.2700     3.1290   213.6210     5.1020     2.2280   187.2560     2.4530   164.0210     2.2600     3.0500   982.8400  1152.0000   211.9530   215.2890
   517.30     1.1290   430.0000    42.8930     3.0700   213.4350     5.0360     2.2220   188.5610     2.3540   164.0850     2.2720     2.9450   980.0000  1152.0000   210.7490   216.1210
