~Version information
  VERS.                            1.20: CWLS LAS  -  VERSION 1.20
  WRAP.                              NO: One line per depth step
~Well information
# MNEM.UNIT
# ====.================================:===================
  STRT.M                          51.00: First depth in file
  STOP.M                         906.10: Last depth in file
  STEP.M                           0.10: Depth increment
  NULL.                           -9999: Null values
  COMP.                         COMPANY: 
  WELL.                            WELL: 317
  FLD .                           FIELD: KARATUBE
  CNTY.                          COUNTY: 
  STAT.                           STATE: 
  DATE.                        LOG DATE: 09/11/2004
  SRVC.                 SERVICE COMPANY: 
  UWI.           Unique Well Identifier: 
~Parametr information block
# MNEM.UNIT
# ====.================================:===================
~Other information
# ------------------------- REMARKS  AREA ------------------
~Curve information
# MNEM.UNIT
# ====.================================:===================
  DEPT.M                               : Depth curve
NGLD  .UE                              : çÖâíêéççõâ ÉÄååÄ äÄêéíÄÜ / Ñêëí3-90
DTP   .US/M                            : àçíÖêÇÄãúçéÖ ÇêÖåü èêéÑ.Çéãçõ èé Ää
SP    .MV                              : ÖëíÖëíÇÖççÄü ëÄåéèéãüêàáÄñàü èé èë
LL3   .OHMM                            : äÄÜ.ëéèêéíàÇãÖçàÖ áéçÑÄ Åä-3 /ÄÅäí
CALI  .MM                              : ëìååÄêçõâ ÑàÄåÖíê äÄÇÖêçéåÖêÄ
GR    .UR/H                            : ÖëíÖëíÇÖççÄü ÉÄååÄ-ÄäíàÇçéëíú èé Éä
RHOB  .G/C3                            : éÅöÖåçÄü èãéíçéëíú èéêéÑõ èé ÉÉäè
CILR  .MMHO                            : áéçÑ àä 7à1.6,êÖÄä.ëàÉçÄã/àä-è/Äàä-5
GZ3B  .OHMM                            : äÄÜ.ëéèê.éÅêÄôÖççéÉé áéçÑÄ N0.5å2.0
CILA  .MMHO                            : áéçÑ àä 7à1.6,Ääí.ëàÉçÄã/àä-è/Äàä-5
MLL   .OHMM                            : äÄÜ.ëéèê/åàäêéÅéäéÇéâ äÄêéíÄÜ/åä-ìñ
GZ3   .OHMM                            : äÄÜ. ëéèêéíàÇãÖçàÖ áéçÑÄ A2.0M0.5N
T1    .MKS                             : T1, ¨™·
T2    .MKS                             : í2, ¨™·
C1    .MM                              : è‡Æ‰®´Ï1,¨¨
C2    .MM                              : è‡Æ‰®´Ï2,¨¨
~ASCII Log Data
# ...
   733.00     1.2020   330.0000    66.1900     3.2860   258.0440     4.3280     2.4410   139.2390     3.6590   149.5890     2.4610     3.6300   800.0000   932.0000   265.4470   250.6410
   733.10     1.1870   334.0390    67.8240     3.1080   252.2070     4.3010     2.4420   139.6180     3.6320   152.0730     2.0570     3.5430   798.3840   932.0000   252.8240   251.5890
   733.20     1.1710   340.0000    65.1650     3.0120   258.4190     4.4220     2.4430   139.6180     3.6350   152.0730     1.6960     3.4360   796.0000   932.0000   268.2880   248.5510
   733.30     1.1730   335.9780    61.5080     3.0130   269.1840     4.5070     2.4290   139.4710     3.7380   151.1600     1.7020     3.3590   799.2180   933.6090   287.8780   250.4900
   733.40     1.2030   330.0000    58.0690     3.0810   277.0500     4.4510     2.4300   139.3770     3.9200   149.9380     1.7060     3.3840   804.0000   936.0000   297.6350   256.4640
   733.50     1.2310   330.0000    55.1680     3.1840   269.7760     4.4110     2.4300   139.3770     4.2270   146.2980     1.8340     3.5460   802.3980   934.3980   286.9690   252.5820
   733.60     1.2300   330.0000    52.2450     3.3130   269.8150     4.4570     2.4560   139.9480     4.3960   144.2690     1.9310     3.7170   800.0000   932.0000   289.1890   250.4410
   733.70     1.2510   322.0260    50.5180     3.4720   268.9170     4.4030     2.4470   139.9480     4.4060   143.8410     1.9480     3.8700   798.4050   927.2160   288.5970   249.2360
   733.80     1.2950   306.0220    49.1190     3.6480   263.3600     4.4120     2.4400   140.3750     4.3350   141.8000     2.8360     3.9750   796.0000   918.4090   279.9000   246.8190
   733.90     1.3100   300.0000    48.9000     3.6150   256.1190     4.4800     2.4130   140.3750     4.2370   141.8000     2.5830     3.9810   796.0000   916.0000   266.8600   245.3770
   734.00     1.3090   307.9200    51.6360     3.4510   247.5140     4.4120     2.4360   140.3750     4.1280   144.6790     1.9470     3.8650   792.8320   916.0000   250.5940   244.4350
   734.10     1.3210   320.0000    55.7980     3.3640   246.0480     4.4010     2.4400   139.5220     4.0260   144.6790     1.9840     3.7410   788.0000   916.0000   249.0530   243.0430
   734.20     1.3170   323.9430    58.2770     3.3810   253.3180     4.2670     2.4220   138.8640     4.0260   143.9440     2.1060     3.6390   786.4230   916.0000   264.1120   242.5250
   734.30     1.2830   330.0000    61.2730     3.4450   257.9340     4.2150     2.4080   138.7990     4.0820   143.8960     2.3020     3.5720   784.0000   916.0000   272.5430   243.3250
   734.40     1.3170   326.0750    64.1240     3.4940   254.4900     4.1760     2.4010   137.7760     4.1290   140.9350     2.6800     3.6160   784.0000   914.4300   265.4700   243.5100
   734.50     1.2640   320.0000    64.3220     3.5580   254.7120     4.1850     2.4170   137.7760     4.1390   140.9350     2.5170     3.6890   780.8670   908.8670   265.1070   244.3180
   734.60     1.2300   320.0000    62.5300     3.6040   247.8310     4.1640     2.4240   138.1130     4.0690   140.9620     2.4930     3.7030   776.0000   904.0000   249.7530   245.9090
   734.70     1.2370   320.0000    57.8220     3.5950   243.1570     4.3500     2.4550   138.3440     3.9500   141.1560     2.3250     3.6740   777.5600   905.5600   242.8060   243.5080
   734.80     1.2300   320.0000    54.1310     3.5110   242.1390     4.1100     2.4530   138.3440     3.8230   145.5280     2.3260     3.5820   780.0000   908.0000   241.2730   243.0050
   734.90     1.2330   323.8810    53.7040     3.3560   243.7240     4.3130     2.4370   137.8280     3.7690   146.1750     2.2480     3.4650   780.0000   909.5520   243.2930   244.1550
   735.00     1.2150   330.0000    53.9330     3.2140   243.6280     4.5620     2.4460   136.8570     3.7720   146.9580     1.8890     3.3230   780.0000   912.0000   241.8450   245.4110
   735.10     1.1860   333.8640    53.6500     3.1590   244.5860     4.5870     2.4700   136.4120     3.8520   146.3940     2.1180     3.2770   778.4550   912.0000   239.9160   249.2560
   735.20     1.1840   336.1460    55.3360     3.1760   248.3230     4.7320     2.4680   136.3860     3.9280   146.3940     2.4950     3.2730   777.5420   912.0000   243.0070   253.6390
   735.30     1.2190   330.0000    59.3950     3.2830   250.7680     4.6830     2.4700   136.3860     3.9650   145.1780     2.3760     3.2950   780.0000   912.0000   245.8000   255.7350
   735.40     1.2150   330.0000    61.9210     3.3610   248.0720     4.6550     2.4790   138.0870     3.9940   144.8220     2.2020     3.3080   780.0000   912.0000   242.2200   253.9240
   735.50     1.2250   330.0000    60.6580     3.3010   245.3390     4.7810     2.4610   138.6090     4.0520   143.0990     1.9800     3.3300   780.0000   912.0000   240.5070   250.1710
   735.60     1.1890   330.0000    58.7210     3.2260   245.0970     4.7790     2.4670   138.6120     4.1350   142.3700     1.7210     3.3610   780.0000   912.0000   242.2750   247.9180
   735.70     1.1900   330.0000    55.6740     3.2620   248.7150     4.7170     2.4710   138.6090     4.1760   142.3170     1.7670     3.4080   780.0000   912.0000   247.7640   249.6660
   735.80     1.2180   322.3970    52.2670     3.3790   253.6360     4.7380     2.4640   137.6020     4.1740   141.0400     1.8670     3.4790   778.4790   907.4380   256.2450   251.0270
   735.90     1.2580   306.2070    48.8940     3.5220   257.7510     4.8450     2.4740   137.6020     4.1680   141.0400     2.0870     3.5680   776.0000   898.4830   265.3300   250.1730
   736.00     1.2310   300.0000    48.2580     3.4570   261.8650     4.9950     2.4440   137.3830     4.1340   142.3240     2.1120     3.6680   776.0000   896.0000   276.3950   247.3350
   736.10     1.2460   311.3230    48.4410     3.3080   256.2880     5.0520     2.4350   136.9820     4.0640   142.3830     2.1710     3.6890   772.9800   897.5100   270.3310   242.2450
   736.20     1.2720   330.0000    48.5640     3.2130   255.3600     5.1050     2.4340   136.5840     4.0030   144.7140     1.9370     3.6360   768.0000   900.0000   269.0890   241.6320
   736.30     1.2730   333.7570    48.5580     3.1580   253.0440     5.0330     2.4360   136.5840     3.9740   144.7140     1.7550     3.5770   768.0000   901.5030   268.7690   237.3190
   736.40     1.2680   340.0000    47.1230     3.1360   260.8500     4.8480     2.4360   136.5840     4.0020   144.7140     1.7120     3.5630   768.0000   904.0000   278.0800   243.6200
   736.50     1.2410   340.0000    47.0670     3.1750   258.1310     4.6560     2.4370   136.6160     4.0660   144.3780     1.6610     3.6210   770.9910   906.9910   273.4270   242.8360
   736.60     1.2400   336.2700    48.4430     3.3350   260.7900     4.8920     2.4500   137.1050     4.1100   141.5960     1.8770     3.7040   776.0000   910.5080   276.3810   245.2000
   736.70     1.2190   330.0000    50.9790     3.4410   265.0980     4.9820     2.4760   136.6160     4.0970   141.5960     2.4680     3.7770   776.0000   908.0000   282.3930   247.8020
   736.80     1.2070   330.0000    53.1070     3.4110   259.5270     4.7640     2.4660   136.5610     3.9730   142.7460     2.6450     3.8110   777.4850   909.4850   271.3830   247.6710
   736.90     1.2020   330.0000    53.3030     3.3120   254.1940     4.8740     2.4530   136.5610     3.8260   143.2160     2.0910     3.7730   780.0000   912.0000   263.3910   244.9980
   737.00     1.1850   333.6950    52.6250     3.1790   254.9010     4.8040     2.4600   135.9780     3.6840   147.6130     1.9700     3.6800   780.0000   913.4780   267.3520   242.4510
   737.10     1.2270   340.0000    51.5340     3.0980   258.7480     4.7050     2.4350   135.9780     3.6390   147.6130     1.9690     3.5530   780.0000   916.0000   273.9500   243.5460
   737.20     1.2150   340.0000    50.1500     3.0810   261.6420     4.6870     2.4330   135.9780     3.6970   147.6130     1.8510     3.4800   781.4710   917.4710   277.6190   245.6650
   737.30     1.2260   340.0000    49.3080     3.1170   257.9050     4.5290     2.4060   135.1570     3.8460   145.5940     1.7430     3.4780   784.0000   920.0000   268.7410   247.0700
