~Version information
  VERS.                            1.20: CWLS LAS  -  VERSION 1.20
  WRAP.                              NO: One line per depth step
~Well information
# MNEM.UNIT
# ====.================================:===================
  STRT.M                          51.00: First depth in file
  STOP.M                         906.10: Last depth in file
  STEP.M                           0.10: Depth increment
  NULL.                           -9999: Null values
  COMP.                         COMPANY: 
  WELL.                            WELL: 317
  FLD .                           FIELD: KARATUBE
  CNTY.                          COUNTY: 
  STAT.                           STATE: 
  DATE.                        LOG DATE: 09/11/2004
  SRVC.                 SERVICE COMPANY: 
  UWI.           Unique Well Identifier: 
~Parametr information block
# MNEM.UNIT
# ====.================================:===================
~Other information
# ------------------------- REMARKS  AREA ------------------
~Curve information
# MNEM.UNIT
# ====.================================:===================
  DEPT.M                               : Depth curve
NGLD  .UE                              : çÖâíêéççõâ ÉÄååÄ äÄêéíÄÜ / Ñêëí3-90
DTP   .US/M                            : àçíÖêÇÄãúçéÖ ÇêÖåü èêéÑ.Çéãçõ èé Ää
SP    .MV                              : ÖëíÖëíÇÖççÄü ëÄåéèéãüêàáÄñàü èé èë
LL3   .OHMM                            : äÄÜ.ëéèêéíàÇãÖçàÖ áéçÑÄ Åä-3 /ÄÅäí
CALI  .MM                              : ëìååÄêçõâ ÑàÄåÖíê äÄÇÖêçéåÖêÄ
GR    .UR/H                            : ÖëíÖëíÇÖççÄü ÉÄååÄ-ÄäíàÇçéëíú èé Éä
RHOB  .G/C3                            : éÅöÖåçÄü èãéíçéëíú èéêéÑõ èé ÉÉäè
CILR  .MMHO                            : áéçÑ àä 7à1.6,êÖÄä.ëàÉçÄã/àä-è/Äàä-5
GZ3B  .OHMM                            : äÄÜ.ëéèê.éÅêÄôÖççéÉé áéçÑÄ N0.5å2.0
CILA  .MMHO                            : áéçÑ àä 7à1.6,Ääí.ëàÉçÄã/àä-è/Äàä-5
MLL   .OHMM                            : äÄÜ.ëéèê/åàäêéÅéäéÇéâ äÄêéíÄÜ/åä-ìñ
GZ3   .OHMM                            : äÄÜ. ëéèêéíàÇãÖçàÖ áéçÑÄ A2.0M0.5N
T1    .MKS                             : T1, ¨™·
T2    .MKS                             : í2, ¨™·
C1    .MM                              : è‡Æ‰®´Ï1,¨¨
C2    .MM                              : è‡Æ‰®´Ï2,¨¨
~ASCII Log Data
# ...
   235.80     1.0720   530.0000    18.6980     3.8910   231.9080     8.9030     2.2670   119.0270     5.2220   130.0080     2.4840     5.0510  1216.0000  1428.0000   225.0910   238.7240
   235.90     1.0830   530.0000    18.3550     3.9450   233.1810     8.6980     2.2790   119.1260     5.2400   130.0080     2.5440     4.9900  1220.0000  1432.0000   227.1330   239.2290
   236.00     1.0670   520.0000    18.8150     3.8950   233.7780     8.7180     2.2830   119.0320     5.2290   129.6060     2.3680     4.8820  1216.0000  1424.0000   228.1610   239.3950
   236.10     1.0470   520.0000    19.9910     3.8200   233.8970     8.2710     2.3030   119.0320     5.1780   129.6060     2.1470     4.7590  1216.0000  1424.0000   227.9010   239.8920
   236.20     1.0470   520.0000    20.8290     3.8310   234.2240     8.1460     2.2980   119.0320     5.1310   129.6060     2.3090     4.6390  1208.0000  1416.0000   228.0540   240.3940
   236.30     1.0280   520.0000    20.9130     3.8920   234.8720     8.3810     2.2730   118.5420     5.0940   129.1790     2.5060     4.4840  1208.0000  1416.0000   229.9720   239.7730
   236.40     1.0100   530.0000    21.5490     3.9260   237.4460     8.3150     2.2580   118.7590     5.0810   129.4970     2.4120     4.3890  1200.0000  1412.0000   232.1940   242.6970
   236.50     0.9980   530.0000    23.0430     3.9170   238.6240     8.2280     2.2450   118.5420     5.0980   129.4970     2.4440     4.3280  1200.0000  1412.0000   234.2790   242.9690
   236.60     1.0210   530.0000    23.1370     3.9050   240.3730     8.3370     2.2400   118.0500     5.1490   130.0820     2.4060     4.3140  1200.0000  1412.0000   235.4940   245.2510
   236.70     1.0260   530.0000    23.0900     3.8600   241.4340     8.2930     2.2340   117.8050     5.1840   131.3870     2.3750     4.3230  1200.0000  1412.0000   237.2170   245.6500
   236.80     1.0460   530.0000    22.5250     3.7720   242.1150     8.3490     2.2340   117.6150     5.2250   131.7350     2.3490     4.3290  1200.0000  1412.0000   239.0540   245.1770
   236.90     1.0590   540.0000    23.7010     3.6680   243.2590     8.2970     2.2230   116.6770     5.2730   132.2860     2.2050     4.3250  1200.0000  1416.0000   240.8100   245.7080
   237.00     1.0500   540.0000    24.9610     3.5830   244.9750     8.3170     2.2240   116.4320     5.3380   131.7350     2.1070     4.3190  1200.0000  1416.0000   242.4950   247.4540
   237.10     1.0650   540.0000    25.6500     3.5690   245.7680     8.2500     2.2290   116.2720     5.3990   131.4110     2.1490     4.3010  1204.0000  1420.0000   243.3420   248.1940
   237.20     1.0540   530.0000    25.0960     3.5950   245.6280     8.0920     2.2270   116.2230     5.4550   131.2950     2.1490     4.2820  1208.0000  1420.0000   242.9500   248.3060
   237.30     1.0730   530.0000    23.9350     3.6130   246.1440     8.1340     2.2320   115.7860     5.5150   131.2830     2.0950     4.2640  1208.0000  1420.0000   243.6300   248.6570
   237.40     1.0710   520.0000    23.6920     3.6330   248.2010     8.3180     2.2360   115.7870     5.5650   129.3450     2.1400     4.2680  1212.0000  1420.0000   246.0630   250.3380
   237.50     1.0620   520.0000    23.4050     3.6280   246.3690     8.1180     2.2390   115.7860     5.6520   128.5500     2.2880     4.2600  1212.0000  1420.0000   241.7520   250.9860
   237.60     1.0140   520.0000    21.1860     3.6030   244.1070     8.1890     2.2400   115.2410     5.7600   126.3320     2.1650     4.2430  1216.0000  1424.0000   238.2140   250.0010
   237.70     1.0200   520.0000    18.4440     3.6260   244.2390     8.3420     2.2520   114.5090     5.8650   123.8930     2.1310     4.2390  1224.0000  1432.0000   239.1860   249.2910
   237.80     1.0400   520.0000    17.6580     3.7710   245.4630     8.3490     2.2730   114.0180     5.9810   120.8130     2.1490     4.2680  1224.0000  1432.0000   241.3650   249.5610
   237.90     1.0200   500.0000    18.8560     4.0460   244.8270     8.1250     2.2790   113.5460     6.0480   119.3370     2.3200     4.3100  1228.0000  1428.0000   241.3620   248.2920
   238.00     1.0210   500.0000    20.6980     4.3290   240.8210     7.9520     2.3050   113.0400     6.0840   119.1280     2.5470     4.3610  1228.0000  1428.0000   237.3030   244.3390
   238.10     1.0030   480.0000    22.5210     4.4810   235.5220     7.9390     2.3240   112.4120     6.0710   119.3370     2.5940     4.4200  1228.0000  1420.0000   231.1170   239.9260
   238.20     0.9720   480.0000    23.1370     4.4310   231.9370     7.8830     2.3210   111.5890     6.0280   119.8520     2.6240     4.4270  1228.0000  1420.0000   227.0860   236.7870
   238.30     0.9880   500.0000    23.5630     4.3110   230.9650     7.9820     2.3030   110.3600     5.9360   121.3660     2.5560     4.4110  1220.0000  1420.0000   226.0020   235.9280
   238.40     0.9820   530.0000    23.7140     4.1870   229.8880     8.0050     2.2930   109.5360     5.8400   121.3660     2.5210     4.3700  1208.0000  1420.0000   223.9810   235.7950
   238.50     1.0040   530.0000    23.8060     4.1270   229.8870     8.3280     2.2590   108.6120     5.7540   120.3110     2.4090     4.3380  1208.0000  1420.0000   224.7770   234.9970
   238.60     0.9950   500.0000    24.3690     4.1370   229.9400     8.0190     2.2460   108.6120     5.7330   118.8350     2.4650     4.3320  1216.0000  1416.0000   225.8040   234.0750
   238.70     1.0030   500.0000    25.1560     4.2200   228.0900     7.8080     2.2510   108.6120     5.8050   118.7630     2.5790     4.3540  1216.0000  1416.0000   222.5280   233.6510
   238.80     1.0010   490.0000    25.3230     4.2930   227.0030     7.8310     2.2550   108.6050     5.8840   117.5010     2.6350     4.4270  1216.0000  1412.0000   221.1880   232.8170
   238.90     1.0330   460.0000    25.7430     4.3740   225.9630     7.9120     2.2540   108.5500     5.8950   117.5010     2.8560     4.4760  1212.0000  1396.0000   221.9540   229.9730
   239.00     1.0380   460.0000    26.8170     4.6210   224.6950     7.8270     2.2470   108.5500     5.8760   119.3940     3.2590     4.5020  1212.0000  1396.0000   219.9150   229.4740
   239.10     1.0380   480.0000    26.4820     4.6070   224.1730     7.8010     2.2370   107.8100     5.8500   120.1130     3.0530     4.5220  1204.0000  1396.0000   218.9630   229.3830
   239.20     1.0160   480.0000    25.0160     4.4950   225.2370     8.0440     2.2580   107.8100     5.8320   122.0040     2.6410     4.5170  1204.0000  1396.0000   220.7330   229.7420
   239.30     1.0400   520.0000    22.8470     4.2580   226.8490     8.1880     2.2710   106.0030     5.8370   122.4090     2.6010     4.4740  1188.0000  1396.0000   223.3390   230.3580
   239.40     1.0570   520.0000    19.3560     4.1530   227.7640     7.7370     2.2780   105.5910     5.8630   122.5450     2.5180     4.4510  1188.0000  1396.0000   224.3100   231.2170
   239.50     1.0410   520.0000    17.1310     4.1690   228.2600     8.2740     2.2660   105.9950     5.9250   122.4090     2.5990     4.4510  1184.0000  1392.0000   224.5700   231.9500
   239.60     0.9890   520.0000    14.8330     4.1090   228.8120     8.3020     2.2560   105.5910     5.9330   121.4810     2.5790     4.4550  1184.0000  1392.0000   225.6900   231.9340
   239.70     0.9900   520.0000    13.6420     3.9660   230.4420     8.5570     2.2520   105.3480     5.9080   120.6960     2.3520     4.4510  1184.0000  1392.0000   228.3950   232.4890
   239.80     1.0070   520.0000     9.7920     3.9530   232.6080     8.5650     2.2570   105.0310     5.8520   119.0940     2.2200     4.4300  1180.0000  1388.0000   231.4150   233.8010
   239.90     1.0300   520.0000     6.4920     4.0450   233.2280     8.7130     2.2580   105.0310     5.8120   117.7840     2.3970     4.4150  1180.0000  1388.0000   231.8940   234.5620
   240.00     1.0130   520.0000     3.5550     4.1150   234.5150     8.4980     2.2430   105.0310     5.7840   115.9220     2.4390     4.4080  1180.0000  1388.0000   233.4010   235.6300
   240.10     1.0500   520.0000     0.6230     4.1340   235.2200     8.4040     2.2290   104.9360     5.7980   114.4000     2.5050     4.4410  1180.0000  1388.0000   233.8750   236.5640
