~Version information
  VERS.                            1.20: CWLS LAS  -  VERSION 1.20
  WRAP.                              NO: One line per depth step
~Well information
# MNEM.UNIT
# ====.================================:===================
  STRT.M                          51.00: First depth in file
  STOP.M                         906.10: Last depth in file
  STEP.M                           0.10: Depth increment
  NULL.                           -9999: Null values
  COMP.                         COMPANY: 
  WELL.                            WELL: 317
  FLD .                           FIELD: KARATUBE
  CNTY.                          COUNTY: 
  STAT.                           STATE: 
  DATE.                        LOG DATE: 09/11/2004
  SRVC.                 SERVICE COMPANY: 
  UWI.           Unique Well Identifier: 
~Parametr information block
# MNEM.UNIT
# ====.================================:===================
~Other information
# ------------------------- REMARKS  AREA ------------------
~Curve information
# MNEM.UNIT
# ====.================================:===================
  DEPT.M                               : Depth curve
NGLD  .UE                              : çÖâíêéççõâ ÉÄååÄ äÄêéíÄÜ / Ñêëí3-90
DTP   .US/M                            : àçíÖêÇÄãúçéÖ ÇêÖåü èêéÑ.Çéãçõ èé Ää
SP    .MV                              : ÖëíÖëíÇÖççÄü ëÄåéèéãüêàáÄñàü èé èë
LL3   .OHMM                            : äÄÜ.ëéèêéíàÇãÖçàÖ áéçÑÄ Åä-3 /ÄÅäí
CALI  .MM                              : ëìååÄêçõâ ÑàÄåÖíê äÄÇÖêçéåÖêÄ
GR    .UR/H                            : ÖëíÖëíÇÖççÄü ÉÄååÄ-ÄäíàÇçéëíú èé Éä
RHOB  .G/C3                            : éÅöÖåçÄü èãéíçéëíú èéêéÑõ èé ÉÉäè
CILR  .MMHO                            : áéçÑ àä 7à1.6,êÖÄä.ëàÉçÄã/àä-è/Äàä-5
GZ3B  .OHMM                            : äÄÜ.ëéèê.éÅêÄôÖççéÉé áéçÑÄ N0.5å2.0
CILA  .MMHO                            : áéçÑ àä 7à1.6,Ääí.ëàÉçÄã/àä-è/Äàä-5
MLL   .OHMM                            : äÄÜ.ëéèê/åàäêéÅéäéÇéâ äÄêéíÄÜ/åä-ìñ
GZ3   .OHMM                            : äÄÜ. ëéèêéíàÇãÖçàÖ áéçÑÄ A2.0M0.5N
T1    .MKS                             : T1, ¨™·
T2    .MKS                             : í2, ¨™·
C1    .MM                              : è‡Æ‰®´Ï1,¨¨
C2    .MM                              : è‡Æ‰®´Ï2,¨¨
~ASCII Log Data
# ...
   455.80     0.9920   490.7810    23.6620     3.0520   221.1110     9.7550     2.1040   147.7020     3.8770   151.3300     1.8160     3.3800  1134.7660  1331.0780   220.6050   221.6170
   455.90     0.9900   460.0000    21.9800     3.1740   221.9760     9.8250     2.1470   147.3760     3.8430   149.2790     1.9830     3.3840  1144.0000  1328.0000   221.2810   222.6720
   456.00     1.0230   450.8200    20.9190     3.2970   222.5990     9.5050     2.1480   147.6890     3.7110   148.2510     2.1320     3.3750  1144.9180  1325.2460   222.8230   222.3750
   456.10     1.0240   420.0000    18.5310     3.4390   224.4850     9.0570     2.1210   147.2620     3.5640   148.2250     2.2570     3.3130  1148.0000  1316.0000   223.9410   225.0280
   456.20     1.0440   417.7150    17.0060     3.5400   223.4420     8.9860     2.1080   147.0150     3.4250   148.2250     2.4460     3.2700  1146.1720  1313.2581   220.2970   226.5870
   456.30     1.0940   410.0000    16.4580     3.5740   222.7820     9.1080     2.1030   146.4440     3.2950   148.0800     2.6220     3.1840  1140.0000  1304.0000   219.7190   225.8460
   456.40     1.1280   410.0000    16.7620     3.6110   220.6180     9.2270     2.1140   145.7680     3.2190   148.6320     2.6920     3.0690  1137.2700  1301.2700   217.9980   223.2380
   456.50     1.1190   414.5410    17.8270     3.5950   218.7480     9.7330     2.1560   145.0730     3.1520   148.7910     2.7080     2.9970  1127.0920  1292.9080   215.0040   222.4920
   456.60     1.1170   430.0000    18.6170     3.5480   218.0760     9.8770     2.1940   144.9040     3.1250   149.5920     2.6870     2.9340  1124.0000  1296.0000   214.3280   221.8250
   456.70     1.0950   430.0000    19.7960     3.5020   218.5980     9.6440     2.2200   144.9040     3.0990   148.8850     2.6720     2.8610  1124.9041  1296.9041   215.8750   221.3200
   456.80     1.0930   430.0000    20.6430     3.4490   218.4350     9.3320     2.2310   145.2130     3.0960   149.5920     2.6520     2.8010  1129.8090  1301.8090   215.5700   221.3000
   456.90     1.1410   430.0000    19.5900     3.4210   217.6520     9.4880     2.2220   145.4470     3.1090   150.1060     2.6240     2.7750  1136.0000  1308.0000   213.7290   221.5760
   457.00     1.1360   432.2510    19.0760     3.3970   218.8320     9.6290     2.2240   145.9990     3.1390   150.1060     2.5970     2.7760  1133.2990  1306.1990   215.5210   222.1420
   457.10     1.1510   440.0000    19.6980     3.3840   220.4540     9.8660     2.2410   146.2750     3.1970   148.4770     2.5790     2.8060  1124.0000  1300.0000   218.1600   222.7490
   457.20     1.1700   440.0000    21.3210     3.3760   219.9300     9.7850     2.2410   146.6840     3.3120   148.3500     2.6200     2.8770  1120.4139  1296.4139   217.2130   222.6470
   457.30     1.1640   440.0000    22.4910     3.3860   219.8750     9.4380     2.2540   147.2510     3.4400   148.4770     2.5450     2.9890  1108.0000  1284.0000   217.1880   222.5620
   457.40     1.1800   440.0000    23.8190     3.4910   220.5330     9.4370     2.2700   147.7590     3.5490   147.9410     2.5190     3.1240  1105.3220  1281.3220   217.6130   223.4540
   457.50     1.1440   442.2270    24.3460     3.7190   219.5310     9.2030     2.2850   148.4570     3.6350   147.7490     2.5220     3.2660  1094.2190  1271.1090   215.7330   223.3290
   457.60     1.1030   450.0000    25.1480     3.6830   217.3310     8.9320     2.3050   148.7780     3.7010   147.7490     2.5290     3.3430  1088.0000  1268.0000   212.4620   222.2010
   457.70     1.0810   450.0000    26.1800     3.5270   216.8180     9.0010     2.3440   149.6200     3.7330   147.7490     2.4810     3.4050  1087.1130  1267.1130   212.0680   221.5680
   457.80     1.0340   450.0000    27.8940     3.4520   217.0320     9.0630     2.3930   149.6750     3.7430   147.2810     2.4720     3.4250  1083.1150  1263.1150   213.1880   220.8760
   457.90     1.0410   450.0000    27.4360     3.4720   216.6930     9.3200     2.3670   149.6750     3.7420   147.2240     2.5900     3.4400  1080.0000  1260.0000   213.5560   219.8290
   458.00     1.0050   452.2020    27.2830     3.5080   216.8310     9.1330     2.3050   150.7440     3.7230   147.2810     2.6580     3.5280  1076.4771  1257.3571   214.3980   219.2640
   458.10     1.0480   460.0000    29.0490     3.4990   218.4540     9.1340     2.2550   152.4650     3.6830   146.7700     2.6560     3.6270  1064.0000  1248.0000   217.4600   219.4480
   458.20     1.0410   464.3850    32.5360     3.5300   219.4400     9.0470     2.2110   153.1630     3.6410   147.5100     2.5780     3.6780  1061.3690  1247.1230   219.2710   219.6090
   458.30     1.0100   480.0000    34.1180     3.4390   219.2370     8.8730     2.1560   153.6260     3.3920   149.8170     2.3210     3.6620  1052.0000  1244.0000   218.4610   220.0120
   458.40     0.9600   486.5480    34.2430     3.1680   222.3570     8.6870     2.1280   153.6260     3.2530   150.9380     1.8850     3.5700  1050.2540  1244.8730   222.9210   221.7930
   458.50     0.9940   510.0000    33.9380     2.9460   224.4660     8.2380     2.1130   153.8280     3.0470   155.7490     1.5660     3.3990  1044.0000  1248.0000   225.5510   223.3800
   458.60     1.0220   510.0000    31.4890     2.8550   220.1740     8.2610     2.1070   153.9000     2.9500   157.5930     1.4600     3.2020  1042.2620  1246.2620   217.7450   222.6020
   458.70     0.9460   503.4960    30.9090     2.8360   220.8250     8.4570     2.1200   154.4170     2.8300   162.4280     1.4450     3.0450  1038.6021  1240.0000   220.1190   221.5310
   458.80     0.9300   480.0000    29.7260     2.8030   221.9860     8.4620     2.1350   155.0240     2.7670   162.8670     1.4210     2.8970  1048.0000  1240.0000   224.4820   219.4900
   458.90     0.9590   477.8420    28.3260     2.7260   219.9970     8.8230     2.1620   155.3500     2.7390   166.3730     1.4780     2.8190  1049.7271  1240.8630   221.3990   218.5950
   459.00     0.9510   470.0000    27.6070     2.6030   219.0260     8.9090     2.1920   155.6010     2.7370   166.4000     1.4240     2.7380  1056.0000  1244.0000   218.3620   219.6900
   459.10     0.9530   467.8520    25.7890     2.5350   216.7770     9.1920     2.1980   155.6020     2.7600   167.8450     1.3200     2.6790  1056.8590  1244.0000   217.2660   216.2870
   459.20     0.9860   457.8560    23.2680     2.5320   215.4160     9.7810     2.1960   156.1530     2.8100   168.5270     1.2400     2.6440  1060.8571  1244.0000   218.4510   212.3810
   459.30     1.0300   450.0000    19.2310     2.5330   214.5810     9.6960     2.1600   157.5640     2.9200   169.1180     1.1820     2.6520  1064.0000  1244.0000   219.1920   209.9690
   459.40     1.0610   452.1340    16.1200     2.5040   213.7070    10.0020     2.1640   157.7370     3.0420   169.1180     1.2590     2.6880  1064.8540  1245.7070   218.5750   208.8390
   459.50     1.0710   460.0000    14.9480     2.4560   213.7850    10.1600     2.1460   158.3590     3.2590   168.1900     1.2730     2.7500  1068.0000  1252.0000   218.9240   208.6460
   459.60     1.0500   464.2480    13.5620     2.4040   213.7560    10.2290     2.1020   158.9640     3.5090   166.8880     1.3380     2.8640  1068.0000  1253.6990   218.1800   209.3320
   459.70     1.0260   484.2480    11.4990     2.3890   212.2560    10.3250     2.1000   158.3590     3.7770   160.2570     1.3040     2.9810  1068.8500  1262.5490   215.9820   208.5310
   459.80     0.9760   500.0000     9.3570     2.5430   211.7580    10.3060     2.0710   158.4000     3.9650   158.2270     1.5010     3.1780  1072.0000  1272.0000   217.0790   206.4370
   459.90     0.9590   483.0860     8.0830     2.7730   213.6630    10.0340     2.0460   157.6500     4.2120   150.3010     1.6830     3.3430  1074.5370  1267.7710   218.7600   208.5660
   460.00     0.9530   420.0000     8.2780     3.0360   213.4620     9.6220     1.9990   157.3880     4.4620   145.3430     1.7910     3.5320  1084.0000  1252.0000   215.8230   211.1010
   460.10     0.9560   426.3130     8.9050     3.2280   225.8560     9.5220     1.9400   157.3120     4.4690   144.3330     1.9730     3.6510  1085.6840  1256.2090   226.1430   225.5690
