~Version information
  VERS.                            1.20: CWLS LAS  -  VERSION 1.20
  WRAP.                              NO: One line per depth step
~Well information
# MNEM.UNIT
# ====.================================:===================
  STRT.M                          51.00: First depth in file
  STOP.M                         906.10: Last depth in file
  STEP.M                           0.10: Depth increment
  NULL.                           -9999: Null values
  COMP.                         COMPANY: 
  WELL.                            WELL: 317
  FLD .                           FIELD: KARATUBE
  CNTY.                          COUNTY: 
  STAT.                           STATE: 
  DATE.                        LOG DATE: 09/11/2004
  SRVC.                 SERVICE COMPANY: 
  UWI.           Unique Well Identifier: 
~Parametr information block
# MNEM.UNIT
# ====.================================:===================
~Other information
# ------------------------- REMARKS  AREA ------------------
~Curve information
# MNEM.UNIT
# ====.================================:===================
  DEPT.M                               : Depth curve
NGLD  .UE                              : çÖâíêéççõâ ÉÄååÄ äÄêéíÄÜ / Ñêëí3-90
DTP   .US/M                            : àçíÖêÇÄãúçéÖ ÇêÖåü èêéÑ.Çéãçõ èé Ää
SP    .MV                              : ÖëíÖëíÇÖççÄü ëÄåéèéãüêàáÄñàü èé èë
LL3   .OHMM                            : äÄÜ.ëéèêéíàÇãÖçàÖ áéçÑÄ Åä-3 /ÄÅäí
CALI  .MM                              : ëìååÄêçõâ ÑàÄåÖíê äÄÇÖêçéåÖêÄ
GR    .UR/H                            : ÖëíÖëíÇÖççÄü ÉÄååÄ-ÄäíàÇçéëíú èé Éä
RHOB  .G/C3                            : éÅöÖåçÄü èãéíçéëíú èéêéÑõ èé ÉÉäè
CILR  .MMHO                            : áéçÑ àä 7à1.6,êÖÄä.ëàÉçÄã/àä-è/Äàä-5
GZ3B  .OHMM                            : äÄÜ.ëéèê.éÅêÄôÖççéÉé áéçÑÄ N0.5å2.0
CILA  .MMHO                            : áéçÑ àä 7à1.6,Ääí.ëàÉçÄã/àä-è/Äàä-5
MLL   .OHMM                            : äÄÜ.ëéèê/åàäêéÅéäéÇéâ äÄêéíÄÜ/åä-ìñ
GZ3   .OHMM                            : äÄÜ. ëéèêéíàÇãÖçàÖ áéçÑÄ A2.0M0.5N
T1    .MKS                             : T1, ¨™·
T2    .MKS                             : í2, ¨™·
C1    .MM                              : è‡Æ‰®´Ï1,¨¨
C2    .MM                              : è‡Æ‰®´Ï2,¨¨
~ASCII Log Data
# ...
   103.80     1.0190      -9999      -9999  9999.0000  9999.0000     5.1160      -9999  9999.0000      -9999  9999.0000      -9999      -9999      -9999      -9999  9999.0000  9999.0000
   103.90     0.9880      -9999      -9999  9999.0000  9999.0000     4.8480      -9999  9999.0000      -9999  9999.0000      -9999      -9999      -9999      -9999  9999.0000  9999.0000
   104.00     0.9830      -9999      -9999  9999.0000  9999.0000     4.8400      -9999  9999.0000      -9999  9999.0000      -9999      -9999      -9999      -9999  9999.0000  9999.0000
   104.10     0.9740      -9999      -9999  9999.0000  9999.0000     5.0720      -9999  9999.0000      -9999  9999.0000      -9999      -9999      -9999      -9999  9999.0000  9999.0000
   104.20     0.9820      -9999      -9999  9999.0000  9999.0000     5.2410      -9999  9999.0000      -9999  9999.0000      -9999      -9999      -9999      -9999  9999.0000  9999.0000
   104.30     0.9480      -9999      -9999  9999.0000  9999.0000     5.5260      -9999  9999.0000      -9999  9999.0000      -9999      -9999      -9999      -9999  9999.0000  9999.0000
   104.40     0.9460      -9999      -9999  9999.0000  9999.0000     5.5410      -9999  9999.0000      -9999  9999.0000      -9999      -9999      -9999      -9999  9999.0000  9999.0000
   104.50     0.9810      -9999      -9999  9999.0000  9999.0000     5.2160      -9999  9999.0000      -9999  9999.0000      -9999      -9999      -9999      -9999  9999.0000  9999.0000
   104.60     0.9570      -9999      -9999  9999.0000  9999.0000     5.1760      -9999  9999.0000      -9999  9999.0000      -9999      -9999      -9999      -9999  9999.0000  9999.0000
   104.70     0.9980      -9999      -9999  9999.0000  9999.0000     5.2540      -9999  9999.0000      -9999  9999.0000      -9999      -9999      -9999      -9999  9999.0000  9999.0000
   104.80     0.9910      -9999      -9999  9999.0000  9999.0000     5.3470      -9999  9999.0000      -9999  9999.0000      -9999      -9999      -9999      -9999  9999.0000  9999.0000
   104.90     1.0110      -9999      -9999  9999.0000  9999.0000     5.3160      -9999  9999.0000      -9999  9999.0000      -9999      -9999      -9999      -9999  9999.0000  9999.0000
   105.00     0.9880      -9999      -9999  9999.0000  9999.0000     5.4960      -9999  9999.0000      -9999  9999.0000      -9999      -9999      -9999      -9999  9999.0000  9999.0000
   105.10     0.9620      -9999      -9999  9999.0000  9999.0000     5.5820      -9999  9999.0000      -9999  9999.0000      -9999      -9999      -9999      -9999  9999.0000  9999.0000
   105.20     1.0150      -9999      -9999  9999.0000  9999.0000     5.7310      -9999  9999.0000      -9999  9999.0000      -9999      -9999      -9999      -9999  9999.0000  9999.0000
   105.30     1.0050      -9999      -9999  9999.0000  9999.0000     5.8520      -9999  9999.0000      -9999  9999.0000      -9999      -9999      -9999      -9999  9999.0000  9999.0000
   105.40     0.9690      -9999      -9999  9999.0000  9999.0000     5.7340      -9999  9999.0000      -9999  9999.0000      -9999      -9999      -9999      -9999  9999.0000  9999.0000
   105.50     0.9710      -9999      -9999  9999.0000  9999.0000     5.5590      -9999  9999.0000      -9999  9999.0000      -9999      -9999      -9999      -9999  9999.0000  9999.0000
   105.60     0.9660      -9999      -9999  9999.0000  9999.0000     5.7060      -9999  9999.0000      -9999  9999.0000      -9999      -9999      -9999      -9999  9999.0000  9999.0000
   105.70     0.9600      -9999      -9999  9999.0000  9999.0000     5.6820      -9999  9999.0000      -9999  9999.0000      -9999      -9999      -9999      -9999  9999.0000  9999.0000
   105.80     0.9790      -9999      -9999  9999.0000  9999.0000     5.7670      -9999  9999.0000      -9999  9999.0000      -9999      -9999      -9999      -9999  9999.0000  9999.0000
   105.90     0.9570      -9999      -9999  9999.0000  9999.0000     5.7560      -9999  9999.0000      -9999  9999.0000      -9999      -9999      -9999      -9999  9999.0000  9999.0000
   106.00     0.9620      -9999      -9999  9999.0000  9999.0000     5.7970      -9999  9999.0000      -9999  9999.0000      -9999      -9999      -9999      -9999  9999.0000  9999.0000
   106.10     0.9260      -9999      -9999  9999.0000  9999.0000     5.6910      -9999  9999.0000      -9999  9999.0000      -9999      -9999      -9999      -9999  9999.0000  9999.0000
   106.20     0.9380      -9999      -9999  9999.0000  9999.0000     5.6360      -9999  9999.0000      -9999  9999.0000      -9999      -9999      -9999      -9999  9999.0000  9999.0000
   106.30     0.9540      -9999      -9999  9999.0000  9999.0000     5.6520      -9999  9999.0000      -9999  9999.0000      -9999      -9999      -9999      -9999  9999.0000  9999.0000
   106.40     0.9650      -9999      -9999  9999.0000  9999.0000     5.3290      -9999  9999.0000      -9999  9999.0000      -9999      -9999      -9999      -9999  9999.0000  9999.0000
   106.50     0.9380      -9999      -9999  9999.0000  9999.0000     5.3420      -9999  9999.0000      -9999  9999.0000      -9999      -9999      -9999      -9999  9999.0000  9999.0000
   106.60     0.9020      -9999      -9999  9999.0000  9999.0000     5.5780      -9999  9999.0000      -9999  9999.0000      -9999      -9999      -9999      -9999  9999.0000  9999.0000
   106.70     0.9280      -9999      -9999  9999.0000  9999.0000     5.6920      -9999  9999.0000      -9999  9999.0000      -9999      -9999      -9999      -9999  9999.0000  9999.0000
   106.80     0.9000      -9999      -9999  9999.0000  9999.0000     5.9650      -9999  9999.0000      -9999  9999.0000      -9999      -9999      -9999      -9999  9999.0000  9999.0000
   106.90     0.9050      -9999      -9999  9999.0000  9999.0000     5.9730      -9999  9999.0000      -9999  9999.0000      -9999      -9999      -9999      -9999  9999.0000  9999.0000
   107.00     0.9110      -9999      -9999  9999.0000  9999.0000     6.1870      -9999  9999.0000      -9999  9999.0000      -9999      -9999      -9999      -9999  9999.0000  9999.0000
   107.10     0.9130      -9999      -9999  9999.0000  9999.0000     6.2100      -9999  9999.0000      -9999  9999.0000      -9999      -9999      -9999      -9999  9999.0000  9999.0000
   107.20     0.9350      -9999      -9999  9999.0000  9999.0000     5.9080      -9999  9999.0000      -9999  9999.0000      -9999      -9999      -9999      -9999  9999.0000  9999.0000
   107.30     0.9180      -9999      -9999  9999.0000  9999.0000     6.0580      -9999  9999.0000      -9999  9999.0000      -9999      -9999      -9999      -9999  9999.0000  9999.0000
   107.40     0.9290      -9999      -9999  9999.0000  9999.0000     5.9250      -9999  9999.0000      -9999  9999.0000      -9999      -9999      -9999      -9999  9999.0000  9999.0000
   107.50     0.9110      -9999      -9999  9999.0000  9999.0000     6.1090      -9999  9999.0000      -9999  9999.0000      -9999      -9999      -9999      -9999  9999.0000  9999.0000
   107.60     0.9250      -9999      -9999  9999.0000  9999.0000     6.1780      -9999  9999.0000      -9999  9999.0000      -9999      -9999      -9999      -9999  9999.0000  9999.0000
   107.70     0.9390      -9999      -9999  9999.0000  9999.0000     5.9170      -9999  9999.0000      -9999  9999.0000      -9999      -9999      -9999      -9999  9999.0000  9999.0000
   107.80     0.9470      -9999      -9999  9999.0000  9999.0000     5.7380      -9999  9999.0000      -9999  9999.0000      -9999      -9999      -9999      -9999  9999.0000  9999.0000
   107.90     0.9810      -9999      -9999  9999.0000  9999.0000     5.6270      -9999  9999.0000      -9999  9999.0000      -9999      -9999      -9999      -9999  9999.0000  9999.0000
   108.00     0.9480      -9999      -9999  9999.0000  9999.0000     5.5070      -9999  9999.0000      -9999  9999.0000      -9999      -9999      -9999      -9999  9999.0000  9999.0000
   108.10     0.9820      -9999      -9999  9999.0000  9999.0000     5.4350      -9999  9999.0000      -9999  9999.0000      -9999      -9999      -9999      -9999  9999.0000  9999.0000
