~Version information
  VERS.                            1.20: CWLS LAS  -  VERSION 1.20
  WRAP.                              NO: One line per depth step
~Well information
# MNEM.UNIT
# ====.================================:===================
  STRT.M                          51.00: First depth in file
  STOP.M                         906.10: Last depth in file
  STEP.M                           0.10: Depth increment
  NULL.                           -9999: Null values
  COMP.                         COMPANY: 
  WELL.                            WELL: 317
  FLD .                           FIELD: KARATUBE
  CNTY.                          COUNTY: 
  STAT.                           STATE: 
  DATE.                        LOG DATE: 09/11/2004
  SRVC.                 SERVICE COMPANY: 
  UWI.           Unique Well Identifier: 
~Parametr information block
# MNEM.UNIT
# ====.================================:===================
~Other information
# ------------------------- REMARKS  AREA ------------------
~Curve information
# MNEM.UNIT
# ====.================================:===================
  DEPT.M                               : Depth curve
NGLD  .UE                              : çÖâíêéççõâ ÉÄååÄ äÄêéíÄÜ / Ñêëí3-90
DTP   .US/M                            : àçíÖêÇÄãúçéÖ ÇêÖåü èêéÑ.Çéãçõ èé Ää
SP    .MV                              : ÖëíÖëíÇÖççÄü ëÄåéèéãüêàáÄñàü èé èë
LL3   .OHMM                            : äÄÜ.ëéèêéíàÇãÖçàÖ áéçÑÄ Åä-3 /ÄÅäí
CALI  .MM                              : ëìååÄêçõâ ÑàÄåÖíê äÄÇÖêçéåÖêÄ
GR    .UR/H                            : ÖëíÖëíÇÖççÄü ÉÄååÄ-ÄäíàÇçéëíú èé Éä
RHOB  .G/C3                            : éÅöÖåçÄü èãéíçéëíú èéêéÑõ èé ÉÉäè
CILR  .MMHO                            : áéçÑ àä 7à1.6,êÖÄä.ëàÉçÄã/àä-è/Äàä-5
GZ3B  .OHMM                            : äÄÜ.ëéèê.éÅêÄôÖççéÉé áéçÑÄ N0.5å2.0
CILA  .MMHO                            : áéçÑ àä 7à1.6,Ääí.ëàÉçÄã/àä-è/Äàä-5
MLL   .OHMM                            : äÄÜ.ëéèê/åàäêéÅéäéÇéâ äÄêéíÄÜ/åä-ìñ
GZ3   .OHMM                            : äÄÜ. ëéèêéíàÇãÖçàÖ áéçÑÄ A2.0M0.5N
T1    .MKS                             : T1, ¨™·
T2    .MKS                             : í2, ¨™·
C1    .MM                              : è‡Æ‰®´Ï1,¨¨
C2    .MM                              : è‡Æ‰®´Ï2,¨¨
~ASCII Log Data
# ...
   345.80     1.1110   450.0000     0.2390     3.4540   220.6210     7.3520     2.3180   121.4020     4.1080   131.1980     1.9830     4.3860  1010.9960  1190.9960   217.5070   223.7360
   345.90     1.0490   442.5150    -1.6270     3.4460   222.8800     7.7880     2.3190   121.5600     4.1010   130.8750     1.8860     4.3060  1017.9880  1194.9940   220.7990   224.9600
   346.00     1.0160   440.0000    -2.4800     3.5310   223.4790     7.9300     2.3080   121.0230     4.1040   130.8750     1.9140     4.2690  1020.0000  1196.0000   221.5810   225.3770
   346.10     1.0310   440.0000    -2.6050     3.6500   222.3750     7.8730     2.2990   121.7870     4.1140   132.4740     2.2890     4.2540  1022.9900  1198.9900   219.3480   225.4020
   346.20     1.0580   440.0000    -2.8130     3.6800   222.0890     7.7100     2.3200   121.7650     4.1210   132.9730     2.2920     4.2530  1024.0000  1200.0000   218.3060   225.8720
   346.30     1.0500   440.0000    -4.4190     3.5950   223.1740     7.8160     2.3250   122.4600     4.1210   132.9240     2.0630     4.2450  1021.0140  1197.0140   220.1390   226.2080
   346.40     1.0560   440.0000    -6.6590     3.4530   223.2810     7.9310     2.3400   121.8260     4.1280   134.5950     1.8260     4.2100  1020.0000  1196.0000   221.0150   225.5470
   346.50     1.0430   440.0000    -9.8060     3.3530   224.1370     8.2050     2.3430   122.5850     4.1440   132.9240     1.9070     4.1730  1020.0000  1196.0000   222.2890   225.9860
   346.60     1.0800   447.4560   -11.3990     3.3730   222.9570     8.2100     2.3160   122.5850     4.1720   132.7430     1.9170     4.1310  1020.0000  1198.9821   220.8060   225.1080
   346.70     1.1010   450.0000   -11.3650     3.4920   223.1310     8.1930     2.2960   122.9080     4.2000   131.6270     1.9800     4.1050  1020.0000  1200.0000   222.1680   224.0940
   346.80     1.0770   442.5540    -9.3390     3.6050   221.6210     8.3350     2.2820   123.9960     4.2200   130.7920     2.0880     4.0950  1020.0000  1197.0210   219.0880   224.1540
   346.90     1.0950   440.0000    -7.2310     3.6550   221.3600     7.8780     2.3050   124.3450     4.2410   130.6550     2.1980     4.1050  1020.0000  1196.0000   218.1260   224.5940
   347.00     1.0980   440.0000    -5.2720     3.6830   221.3420     7.8020     2.3210   124.8270     4.2480   130.6550     2.1810     4.1170  1020.0000  1196.0000   218.5230   224.1620
   347.10     1.1010   440.0000    -4.3210     3.7370   221.0850     8.0600     2.3240   124.8270     4.2440   130.6550     2.1160     4.1250  1022.9730  1198.9730   218.1820   223.9880
   347.20     1.1160   440.0000    -2.7420     3.8040   220.3670     7.8500     2.3190   124.9630     4.2360   129.6790     2.2610     4.1230  1024.0000  1200.0000   216.5900   224.1450
   347.30     1.0990   440.0000    -1.2370     3.8080   218.8890     7.5400     2.3050   124.4170     4.2290   130.9390     2.3140     4.1160  1024.0000  1200.0000   213.7420   224.0370
   347.40     1.1270   440.0000    -0.2800     3.7500   217.3330     7.5830     2.3080   124.7430     4.2300   131.2990     2.2040     4.0950  1024.0000  1200.0000   211.1910   223.4740
   347.50     1.1240   447.4120    -0.3560     3.6600   217.4030     7.2890     2.3290   124.0040     4.2360   132.3880     2.1610     4.0820  1021.0350  1200.0000   211.7860   223.0190
   347.60     1.1380   450.0000    -0.8000     3.5760   217.0780     7.5620     2.3430   124.2240     4.2520   133.8030     2.1810     4.0780  1020.0000  1200.0000   210.7110   223.4450
   347.70     1.1300   450.0000    -1.2120     3.5370   217.3130     7.6570     2.3720   124.0040     4.2710   133.8030     1.8950     4.0790  1020.0000  1200.0000   211.1590   223.4670
   347.80     1.0970   450.0000    -0.0240     3.5150   219.6350     7.8630     2.3870   124.1690     4.3020   133.8030     2.1710     4.0720  1020.0000  1200.0000   215.2060   224.0630
   347.90     1.1270   450.0000     0.5130     3.4490   221.0960     8.1770     2.3820   124.1060     4.3290   134.1870     2.1720     4.0440  1020.0000  1200.0000   217.8370   224.3540
   348.00     1.0970   450.0000     1.1000     3.3480   220.4370     8.4290     2.3760   124.1060     4.3450   135.3580     2.1320     4.0080  1020.0000  1200.0000   215.8690   225.0050
   348.10     1.0880   450.0000     0.8360     3.2850   220.8730     8.2950     2.3770   124.1060     4.3600   134.1870     1.9100     3.9740  1020.0000  1200.0000   216.5080   225.2390
   348.20     1.0950   450.0000    -0.4620     3.2750   222.1510     8.4380     2.3630   123.9350     4.3730   136.8650     1.9070     3.9410  1022.9510  1202.9510   219.1510   225.1520
   348.30     1.0830   450.0000    -0.9050     3.2930   223.3770     8.3780     2.3580   124.6660     4.3860   134.3650     1.9800     3.9310  1024.0000  1204.0000   221.0190   225.7350
   348.40     1.0870   450.0000    -2.1720     3.3030   224.1700     8.4830     2.3490   124.0490     4.4060   134.6820     2.0150     3.9240  1024.0000  1204.0000   221.4220   226.9170
   348.50     1.0800   457.3630    -5.1710     3.2830   221.7460     8.6090     2.3180   124.0490     4.4230   134.3650     1.8890     3.9020  1024.0000  1206.9449   217.0160   226.4760
   348.60     1.0880   460.0000    -5.7510     3.2310   221.2170     8.7810     2.3060   124.0490     4.4420   134.0630     1.8180     3.8810  1024.0000  1208.0000   216.6910   225.7420
   348.70     1.0620   467.3540    -2.9930     3.1690   221.9510     8.5720     2.3030   123.9040     4.4520   133.0000     1.7610     3.8610  1024.0000  1210.9410   218.8520   225.0490
   348.80     1.0560   470.0000     1.0150     3.1470   220.3970     8.4960     2.2880   124.1750     4.4500   132.3760     1.7480     3.8370  1024.0000  1212.0000   216.3030   224.4920
   348.90     1.0760   462.6560     3.1160     3.2640   221.8800     8.4610     2.2620   123.8080     4.4210   129.8700     1.8200     3.8060  1029.8750  1214.9380   218.0610   225.6980
   349.00     1.1120   460.0000     3.6310     3.5000   221.5590     8.3110     2.2300   123.8400     4.3830   129.7120     1.8700     3.7780  1032.0000  1216.0000   217.9440   225.1750
   349.10     1.1660   460.0000     1.6430     3.6780   219.7580     7.3900     2.1970   123.3680     4.3340   128.8720     2.3730     3.7600  1032.0000  1216.0000   215.7630   223.7530
   349.20     1.1220   474.6580    -0.9860     3.7060   216.6210     6.7940     2.1820   123.8400     4.2800   127.1930     2.1080     3.7360  1032.0000  1221.8630   211.4310   221.8110
   349.30     1.0980   480.0000    -1.8130     3.6630   214.9450     5.9580     2.1760   122.5520     4.2470   128.8720     2.1140     3.7050  1032.0000  1224.0000   209.1790   220.7120
   349.40     1.0840   487.3240    -1.8150     3.6290   215.8880     5.7250     2.1650   121.4510     4.2280   127.1700     2.0890     3.6680  1034.9301  1229.8590   210.3940   221.3820
   349.50     1.1000   490.0000    -2.9940     3.5990   216.8590     5.4340     2.1640   121.4050     4.2450   129.1500     2.0530     3.6450  1036.0000  1232.0000   210.3360   223.3820
   349.60     1.0770   490.0000    -4.1440     3.5690   216.9340     5.6940     2.1660   121.0280     4.2860   127.1700     1.9890     3.6350  1041.8521  1237.8521   210.1590   223.7100
   349.70     1.0960   490.0000    -4.2090     3.5650   218.7990     6.1100     2.1610   120.8020     4.3440   128.1860     2.0510     3.6380  1044.0000  1240.0000   213.0090   224.5890
   349.80     1.0720   482.6950    -3.4450     3.5820   219.6070     6.6400     2.1740   120.7790     4.3960   127.0950     2.1410     3.6560  1052.7660  1245.8440   214.4260   224.7880
   349.90     1.1160   480.0000    -3.0780     3.5930   217.2040     6.9480     2.1830   120.8020     4.5110   125.7570     2.1370     3.6910  1061.8400  1253.8400   210.1940   224.2130
   350.00     1.1520   480.0000    -3.6010     3.6010   216.7130     7.4750     2.1770   120.2900     4.6190   125.5150     2.0910     3.7570  1064.0000  1256.0000   209.3200   224.1060
   350.10     1.1870   465.4200    -4.3100     3.6320   217.9780     8.1200     2.1790   121.0320     4.7130   124.6740     2.1060     3.8520  1066.9160  1253.0840   211.2650   224.6920
