~VERSION INFORMATION
 VERS.                 2.0:   CWLS LOG ASCII STANDARD - VERSION 2.0
 WRAP.                  NO:   SINGLE LINE PER DEPTH STEP
~WELL INFORMATION
#MNEM.UNIT       DATA           DESCRIPTION MNEMONIC
#---------    -------------   --------------------------
 STRT.M         16.0000                       : START DEPTH
 STOP.M         788.0000                      : STOP DEPTH
 STEP.M         0.1000                        : STEP VALUE
 NULL.          -999.0000                     : NULL VALUE
 SRVC.          SCH                           : Service Company/Logging company
 DATE.          09/02/2023                    : LAS file Creation Date
 WELL    .      Каратобе КН-4                 : Well Name
 COMP    .      COMPANY                       : Company
 COUNT   .      Kazakhstan                    : Country
~CURVE INFORMATION
#MNEM          UNIT     API CODE   Description
#---------- ---------- ----------  -----------
 DEPTH     .M                    : Depth Index
 BSC       .mm                   : Nominal Caliper
 CALI      .mm                   : Caliper
 GR        .gAPI                 : Gamma Ray
 URAN      .PPM                  : Uranium
 THOR      .PPM                  : Thorium
 POTA      .%                    : Potasium
 DT        .uSec/m               : Sonic travel time
 HAZIM     .deg                  : Hole Azimuth
 SDEVM     .deg                  : Hole Deviation
 RHOZ      .g/cm3                : Bulk Density
 PEFZ      .B/E                  : Formation Photoelectric Factor 
 TNPH      .v/v                  : Neutron porosity
 AT10      .ohm.m                : 10" Array Induction, two foot resolution Resistivity
 AT20      .ohm.m                : 20" Array Induction, two foot resolution Resistivity
 AT30      .ohm.m                : 30" Array Induction, two foot resolution Resistivity
 AT60      .ohm.m                : 60" Array Induction, two foot resolution Resistivity
 AT90      .ohm.m                : 90" Array Induction, two foot resolution Resistivity
 RLA1      .ohm.m                : HRLT Borehole Corrected Resistivity 1
 RLA2      .ohm.m                : HRLT Borehole Corrected Resistivity 2
 RLA3      .ohm.m                : HRLT Borehole Corrected Resistivity 3
 RLA4      .ohm.m                : HRLT Borehole Corrected Resisitivity 4
 RLA5      .ohm.m                : HRLT Borehole Corrected Resistivity 5 
 RT        .ohm.m                : Formation Resistivity
 RXO       .ohm.m                : Flushed zone resistivity
 AHMF      .ohm.m                : Array Induction Mud Resistivity Fully Calibrated
 SP        .mV                   : Spontaneous Potential
 MTEM      .degC                 : Formation Temperature
 HTEM      .DEGC                 : HTC Temperature
 HMIN      .ohm.m                : HIP Micro Inverse Resistivity
 HMNO      .ohm.m                : HIP Micro Normal Resistivity
~A Log data section
# ...
 109.6000  228.7000  229.1720   63.5042    1.3052    3.9712    1.4677 -999.0000  302.8070    0.1300 -999.0000   10.0000 -999.0000 -999.0000 -999.0000 -999.0000 -999.0000 -999.0000    0.0199    0.0176    0.0170    0.0165 -999.0000    0.0152 -999.0000 -999.0000 -999.0000   29.8846   30.9302 -999.0000 -999.0000 
 109.7000  228.7000  229.2790   63.5042    1.2970    3.9508    1.4534 -999.0000  308.4370    0.1220 -999.0000   10.0000 -999.0000 -999.0000 -999.0000 -999.0000 -999.0000 -999.0000    0.0184    0.0166    0.0161    0.0156 -999.0000    0.0144 -999.0000 -999.0000 -999.0000   29.8691   30.9302 -999.0000 -999.0000 
 109.8000  228.7000  229.1030   63.5042    1.3548    3.7665    1.3673 -999.0000  304.1740    0.1220 -999.0000   10.0000 -999.0000 -999.0000 -999.0000 -999.0000 -999.0000 -999.0000    0.0180    0.0162    0.0157    0.0153 -999.0000    0.0143 -999.0000 -999.0000 -999.0000   29.8420   30.9302 -999.0000 -999.0000 
 109.9000  228.7000  229.0400   63.5042    1.3838    3.7094    1.3416 -999.0000  317.9440    0.1220 -999.0000   10.0000 -999.0000 -999.0000 -999.0000 -999.0000 -999.0000 -999.0000    0.0176    0.0159    0.0154    0.0150 -999.0000    0.0140 -999.0000 -999.0000 -999.0000   29.8475   30.9302 -999.0000 -999.0000 
 110.0000  228.7000  229.0580   63.5042    1.3930    3.6859    1.3389 -999.0000  315.5895    0.1230 -999.0000   10.0000 -999.0000 -999.0000 -999.0000 -999.0000 -999.0000 -999.0000    0.0181    0.0163    0.0158    0.0153 -999.0000    0.0143 -999.0000 -999.0000 -999.0000   29.8547   30.9302 -999.0000 -999.0000 
 110.1000  228.7000  229.0760   63.5042    1.4023    3.6624    1.3363 -999.0000  313.2350    0.1240 -999.0000   10.0000 -999.0000 -999.0000 -999.0000 -999.0000 -999.0000 -999.0000    0.0187    0.0167    0.0161    0.0157 -999.0000    0.0145 -999.0000 -999.0000 -999.0000   29.8619   30.9302 -999.0000 -999.0000 
 110.2000  228.7000  229.2880   63.5042    1.4726    3.4367    1.3487 -999.0000  314.2370    0.1260 -999.0000   10.0000 -999.0000 -999.0000 -999.0000 -999.0000 -999.0000 -999.0000    0.0178    0.0161    0.0156    0.0152 -999.0000    0.0142 -999.0000 -999.0000 -999.0000   29.8942   30.9302 -999.0000 -999.0000 
 110.3000  228.7000  228.9870   63.5042    1.5158    3.3291    1.3607 -999.0000  316.8050    0.1390 -999.0000   10.0000 -999.0000 -999.0000 -999.0000 -999.0000 -999.0000 -999.0000    0.0195    0.0173    0.0167    0.0162 -999.0000    0.0150 -999.0000 -999.0000 -999.0000   29.8350   30.9302 -999.0000 -999.0000 
 110.4000  228.7000  229.1390   63.5042    1.5364    3.2492    1.3440 -999.0000  318.4740    0.1420 -999.0000   10.0000 -999.0000 -999.0000 -999.0000 -999.0000 -999.0000 -999.0000    0.0175    0.0158    0.0154    0.0151 -999.0000    0.0140 -999.0000 -999.0000 -999.0000   29.8620   30.9302 -999.0000 -999.0000 
 110.5000  228.7000  229.1480   63.5042    1.5438    3.2594    1.3407 -999.0000  318.9705    0.1440 -999.0000   10.0000 -999.0000 -999.0000 -999.0000 -999.0000 -999.0000 -999.0000    0.0179    0.0161    0.0157    0.0153 -999.0000    0.0142 -999.0000 -999.0000 -999.0000   29.8666   30.9302 -999.0000 -999.0000 
 110.6000  228.7000  229.1570   63.5042    1.5513    3.2696    1.3374 -999.0000  319.4670    0.1460 -999.0000   10.0000 -999.0000 -999.0000 -999.0000 -999.0000 -999.0000 -999.0000    0.0182    0.0164    0.0159    0.0155 -999.0000    0.0143 -999.0000 -999.0000 -999.0000   29.8711   30.9302 -999.0000 -999.0000 
 110.7000  228.7000  229.0820   63.5042    1.5619    3.3598    1.3405 -999.0000  319.9960    0.1500 -999.0000   10.0000 -999.0000 -999.0000 -999.0000 -999.0000 -999.0000 -999.0000    0.0183    0.0164    0.0159    0.0155 -999.0000    0.0143 -999.0000 -999.0000 -999.0000   29.8697   30.9302 -999.0000 -999.0000 
 110.8000  228.7000  228.9160   63.5042    1.5635    3.5537    1.4174 -999.0000  326.0060    0.1690 -999.0000   10.0000 -999.0000 -999.0000 -999.0000 -999.0000 -999.0000 -999.0000    0.0182    0.0165    0.0158    0.0154 -999.0000    0.0143 -999.0000 -999.0000 -999.0000   29.8751   30.9302 -999.0000 -999.0000 
 110.9000  228.7000  228.9170   63.5042    1.5583    3.5752    1.4540 -999.0000  327.4630    0.1800 -999.0000   10.0000 -999.0000 -999.0000 -999.0000 -999.0000 -999.0000 -999.0000    0.0176    0.0159    0.0155    0.0150 -999.0000    0.0139 -999.0000 -999.0000 -999.0000   29.8503   30.9302 -999.0000 -999.0000 
 111.0000  228.7000  228.9635   63.5042    1.5742    3.5694    1.4436 -999.0000  328.1805    0.1830 -999.0000   10.0000 -999.0000 -999.0000 -999.0000 -999.0000 -999.0000 -999.0000    0.0179    0.0161    0.0157    0.0151 -999.0000    0.0140 -999.0000 -999.0000 -999.0000   29.8524   30.9302 -999.0000 -999.0000 
 111.1000  228.7000  229.0100   63.5042    1.5901    3.5637    1.4332 -999.0000  328.8980    0.1860 -999.0000   10.0000 -999.0000 -999.0000 -999.0000 -999.0000 -999.0000 -999.0000    0.0182    0.0163    0.0158    0.0153 -999.0000    0.0142 -999.0000 -999.0000 -999.0000   29.8544   30.9302 -999.0000 -999.0000 
 111.2000  228.7000  229.0680   63.5042    1.5475    3.6433    1.4180 -999.0000  325.8600    0.1930 -999.0000   10.0000 -999.0000 -999.0000 -999.0000 -999.0000 -999.0000 -999.0000    0.0185    0.0165    0.0160    0.0156 -999.0000    0.0145 -999.0000 -999.0000 -999.0000   29.8604   30.9302 -999.0000 -999.0000 
 111.3000  228.7000  229.1610   63.5042    1.5018    3.7378    1.4010 -999.0000  323.5740    0.1930 -999.0000   10.0000 -999.0000 -999.0000 -999.0000 -999.0000 -999.0000 -999.0000    0.0172    0.0157    0.0153    0.0149 -999.0000    0.0139 -999.0000 -999.0000 -999.0000   29.8924   30.9302 -999.0000 -999.0000 
 111.4000  228.7000  229.2000   63.0885    1.5029    3.7613    1.4048 -999.0000  321.5570    0.1840 -999.0000   10.0000 -999.0000 -999.0000 -999.0000 -999.0000 -999.0000 -999.0000    0.0179    0.0161    0.0156    0.0151 -999.0000    0.0141 -999.0000 -999.0000 -999.0000   29.8957   30.9302 -999.0000 -999.0000 
 111.5000  228.7000  229.2010   62.6367    1.4601    3.8345    1.4134 -999.0000  320.6660    0.1815 -999.0000   10.0000 -999.0000 -999.0000 -999.0000 -999.0000 -999.0000 -999.0000    0.0186    0.0168    0.0161    0.0157 -999.0000    0.0145 -999.0000 -999.0000 -999.0000   29.8850   30.9302 -999.0000 -999.0000 
 111.6000  228.7000  229.2020   62.1850    1.4173    3.9077    1.4219 -999.0000  319.7750    0.1790 -999.0000   10.0000 -999.0000 -999.0000 -999.0000 -999.0000 -999.0000 -999.0000    0.0194    0.0174    0.0167    0.0162 -999.0000    0.0149 -999.0000 -999.0000 -999.0000   29.8742   30.9302 -999.0000 -999.0000 
 111.7000  228.7000  229.1030   62.9845    1.3588    4.0581    1.4436 -999.0000  318.2740    0.1810 -999.0000   10.0000 -999.0000 -999.0000 -999.0000 -999.0000 -999.0000 -999.0000    0.0185    0.0166    0.0160    0.0155 -999.0000    0.0144 -999.0000 -999.0000 -999.0000   29.8590   30.9302 -999.0000 -999.0000 
 111.8000  228.7000  229.0400   64.4383    1.2652    4.3460    1.4239 -999.0000  315.9380    0.1890 -999.0000   10.0000 -999.0000 -999.0000 -999.0000 -999.0000 -999.0000 -999.0000    0.0185    0.0166    0.0161    0.0156 -999.0000    0.0145 -999.0000 -999.0000 -999.0000   29.8710   30.9302 -999.0000 -999.0000 
 111.9000  228.7000  229.0400   65.1367    1.2567    4.2456    1.4082 -999.0000  317.6730    0.1990 -999.0000   10.0000 -999.0000 -999.0000 -999.0000 -999.0000 -999.0000 -999.0000    0.0185    0.0166    0.0161    0.0156 -999.0000    0.0144 -999.0000 -999.0000 -999.0000   29.8810   30.9302 -999.0000 -999.0000 
 112.0000  228.7000  229.0590   65.2229    1.2525    4.1996    1.4046 -999.0000  318.2810    0.2000 -999.0000   10.0000 -999.0000 -999.0000 -999.0000 -999.0000 -999.0000 -999.0000    0.0186    0.0167    0.0162    0.0157 -999.0000    0.0144 -999.0000 -999.0000 -999.0000   29.8824   30.9302 -999.0000 -999.0000 
 112.1000  228.7000  229.0780   65.3090    1.2483    4.1535    1.4010 -999.0000  318.8890    0.2010 -999.0000   10.0000 -999.0000 -999.0000 -999.0000 -999.0000 -999.0000 -999.0000    0.0187    0.0168    0.0162    0.0157 -999.0000    0.0145 -999.0000 -999.0000 -999.0000   29.8837   30.9302 -999.0000 -999.0000 
