~VERSION INFORMATION
 VERS.                 2.0:   CWLS LOG ASCII STANDARD - VERSION 2.0
 WRAP.                  NO:   SINGLE LINE PER DEPTH STEP
~WELL INFORMATION
#MNEM.UNIT       DATA           DESCRIPTION MNEMONIC
#---------    -------------   --------------------------
 STRT.M         16.0000                       : START DEPTH
 STOP.M         788.0000                      : STOP DEPTH
 STEP.M         0.1000                        : STEP VALUE
 NULL.          -999.0000                     : NULL VALUE
 SRVC.          SCH                           : Service Company/Logging company
 DATE.          09/02/2023                    : LAS file Creation Date
 WELL    .      Каратобе КН-4                 : Well Name
 COMP    .      COMPANY                       : Company
 COUNT   .      Kazakhstan                    : Country
~CURVE INFORMATION
#MNEM          UNIT     API CODE   Description
#---------- ---------- ----------  -----------
 DEPTH     .M                    : Depth Index
 BSC       .mm                   : Nominal Caliper
 CALI      .mm                   : Caliper
 GR        .gAPI                 : Gamma Ray
 URAN      .PPM                  : Uranium
 THOR      .PPM                  : Thorium
 POTA      .%                    : Potasium
 DT        .uSec/m               : Sonic travel time
 HAZIM     .deg                  : Hole Azimuth
 SDEVM     .deg                  : Hole Deviation
 RHOZ      .g/cm3                : Bulk Density
 PEFZ      .B/E                  : Formation Photoelectric Factor 
 TNPH      .v/v                  : Neutron porosity
 AT10      .ohm.m                : 10" Array Induction, two foot resolution Resistivity
 AT20      .ohm.m                : 20" Array Induction, two foot resolution Resistivity
 AT30      .ohm.m                : 30" Array Induction, two foot resolution Resistivity
 AT60      .ohm.m                : 60" Array Induction, two foot resolution Resistivity
 AT90      .ohm.m                : 90" Array Induction, two foot resolution Resistivity
 RLA1      .ohm.m                : HRLT Borehole Corrected Resistivity 1
 RLA2      .ohm.m                : HRLT Borehole Corrected Resistivity 2
 RLA3      .ohm.m                : HRLT Borehole Corrected Resistivity 3
 RLA4      .ohm.m                : HRLT Borehole Corrected Resisitivity 4
 RLA5      .ohm.m                : HRLT Borehole Corrected Resistivity 5 
 RT        .ohm.m                : Formation Resistivity
 RXO       .ohm.m                : Flushed zone resistivity
 AHMF      .ohm.m                : Array Induction Mud Resistivity Fully Calibrated
 SP        .mV                   : Spontaneous Potential
 MTEM      .degC                 : Formation Temperature
 HTEM      .DEGC                 : HTC Temperature
 HMIN      .ohm.m                : HIP Micro Inverse Resistivity
 HMNO      .ohm.m                : HIP Micro Normal Resistivity
~A Log data section
# ...
 512.6000  215.9000  214.7450  111.0944    1.9710   11.6198    3.1063  452.3618  329.4240    0.2631    2.2031    2.9107    0.4366    2.9081    3.0987    2.7417    2.2174    2.2512    2.3179    2.2682    2.2524    2.2077    2.1641    2.0972    2.9130    0.1023   70.5154   34.0658   36.5225    0.9991    0.9271 
 512.7000  215.9000  215.8660  110.4004    2.1914   11.5703    3.0855  452.1125  328.8815    0.2615    2.2027    2.8282    0.4379    2.9845    3.1640    2.8009    2.2823    2.2669    2.3812    2.3594    2.3303    2.2935    2.2550    2.2196    2.9199    0.1023   70.5186   34.1020   36.5225    1.1038    1.0105 
 512.8000  215.9000  215.2530  105.7207    2.4265   10.4478    2.8904  452.3329  327.6540    0.2610    2.1480    2.5241    0.4516    2.9855    3.1605    2.8004    2.2628    2.2099    2.7194    2.6487    2.5980    2.5621    2.5194    2.3949    3.5163    0.1023   70.6105   34.0705   36.5225    1.0815    1.0028 
 512.9000  215.9000  215.0395  103.8694    2.4256    9.9114    2.7685  450.4112  327.0993    0.2613    2.1173    2.4297    0.4539    2.9050    3.0639    2.7145    2.2021    2.1255    2.7362    2.6481    2.5982    2.5669    2.5257    2.3860    3.5466    0.1023   70.6523   34.0638   36.5225    1.0872    0.9897 
 513.0000  215.9000  214.8260  102.0180    2.4247    9.3751    2.6465  448.4895  326.5446    0.2616    2.0866    2.3354    0.4562    2.8245    2.9673    2.6286    2.1414    2.0411    2.7530    2.6476    2.5984    2.5718    2.5320    2.3771    3.5768    0.1023   70.6940   34.0570   36.5225    1.0929    0.9766 
 513.1000  215.9000  214.6300   99.5320    2.2949    8.4137    2.4267  445.2605  325.5954    0.2630    1.9991    2.1542    0.4862    2.6021    2.7413    2.4279    1.9747    1.8861    2.7979    2.6793    2.6383    2.6173    2.5846    2.4455    3.5558    0.1023   70.6644   34.0716   36.5225    0.7751    0.7035 
 513.2000  215.9000  214.4500   96.8398    2.1215    7.5335    2.2333  445.2328  324.5990    0.2651    1.8819    2.0092    0.5383    2.5583    2.7372    2.4401    1.9449    1.8874    2.4092    2.3020    2.2624    2.2476    2.2223    2.1021    3.0442    0.1024   70.5447   34.0922   36.5225    0.6816    0.6478 
 513.3000  215.9000  213.9190   86.6638    1.8462    6.5485    2.0676  468.1730  322.3513    0.2705    1.6792    1.7755    0.7433    3.2623    3.4820    3.1173    2.5035    2.4270    2.2916    2.2065    2.1891    2.1864    2.1634    2.0942    2.8245    0.1024   70.0087   34.0922   36.5225    0.7989    0.8035 
 513.4000  215.9000  214.0100   84.8578    1.8045    6.5271    2.0761  472.6050  322.1372    0.2707    1.6604    1.7428    0.7821    3.4567    3.7422    3.3840    2.7064    2.6588    2.5499    2.4597    2.4497    2.4481    2.4219    2.3700    3.0391    0.1024   69.9433   34.0904   36.5225    0.8552    0.8503 
 513.5000  215.9000  214.1010   83.0519    1.7627    6.5057    2.0845  477.0371  321.9231    0.2709    1.6417    1.7101    0.8209    3.6510    4.0025    3.6508    2.9094    2.8906    2.8082    2.7129    2.7102    2.7098    2.6804    2.6459    3.2536    0.1024   69.8779   34.0886   36.5225    0.9115    0.8970 
 513.6000  215.9000  214.1660   82.4047    1.8998    6.4736    2.2420  483.6748  321.6291    0.2694    1.6863    1.6836    0.7614    3.6729    4.0755    3.8270    3.0630    3.0957    3.1714    3.0845    3.0938    3.0986    3.0676    3.0723    3.4101    0.1024   69.9983   34.0630   36.5225    0.9519    0.9413 
 513.7000  215.9000  214.2630   87.4426    2.0860    6.7420    2.4538  494.0572  321.4729    0.2674    1.7989    1.7516    0.6458    3.3636    3.7453    3.4975    2.8641    2.8608    3.4582    3.4027    3.4221    3.4294    3.4037    3.4238    3.4153    0.1024   70.1691   34.0541   36.5225    0.6879    0.7380 
 513.8000  215.9000  215.2750  105.0371    2.1834    7.5795    2.9399  491.5796  321.5493    0.2616    2.0669    2.0652    0.4272    2.8517    3.2076    2.9260    2.3481    2.3354    2.7290    2.7322    2.7612    2.7630    2.7594    2.7513    2.7027    0.1025   70.5722   34.0774   36.5225    0.6607    0.7192 
 513.9000  215.9000  215.3440  107.4400    2.1751    7.7158    2.9821  484.5888  321.6661    0.2599    2.1062    2.1665    0.4044    2.7573    3.1264    2.8419    2.2853    2.2759    2.6867    2.6892    2.7173    2.7156    2.7103    2.7052    2.6835    0.1025   70.7226   34.0795   36.5225    0.7919    0.8170 
 514.0000  215.9000  215.4130  109.8430    2.1668    7.8521    3.0243  477.5980  321.7829    0.2582    2.1454    2.2677    0.3817    2.6628    3.0452    2.7577    2.2225    2.2165    2.6443    2.6462    2.6734    2.6682    2.6612    2.6591    2.6643    0.1025   70.8731   34.0815   36.5225    0.9231    0.9148 
 514.1000  215.9000  215.0080  111.2525    2.2111    7.9940    2.9890  462.8949  322.0913    0.2549    2.1714    2.4274    0.3602    2.4046    2.8466    2.5783    2.1137    2.0924    2.6806    2.6828    2.7191    2.7143    2.7040    2.7021    2.6399    0.1024   71.2595   34.0744   36.5225    0.9422    0.8726 
 514.2000  215.9000  214.1680  108.5599    2.3858    7.3508    2.9276  453.9290  322.3084    0.2521    2.1609    2.4768    0.3580    2.1647    2.5540    2.3188    1.8900    1.8841    2.5089    2.5136    2.5589    2.5589    2.5546    2.5470    2.4001    0.1024   71.8469   34.0864   36.5225    0.8049    0.7114 
 514.3000  215.9000  213.7810   98.7728    2.2256    6.7283    2.8130  427.9624  322.4248    0.2522    2.1227    2.4747    0.3846    1.7865    2.1414    1.9086    1.5725    1.5596    1.7862    1.8119    1.8309    1.8379    1.8322    1.8293    1.6964    0.1024   72.3230   34.0553   36.6623    0.6435    0.5685 
 514.4000  215.9000  213.7760   98.3886    2.1594    6.6307    2.8116  426.7079  322.5579    0.2524    2.1188    2.4545    0.3847    1.7513    2.0965    1.8666    1.5254    1.5181    1.7278    1.7552    1.7708    1.7794    1.7730    1.7696    1.6546    0.1024   72.4471   34.0614   36.6163    0.6343    0.5604 
 514.5000  215.9000  213.7710   98.0045    2.0932    6.5331    2.8102  425.4533  322.6910    0.2526    2.1148    2.4342    0.3848    1.7162    2.0515    1.8247    1.4783    1.4766    1.6695    1.6985    1.7106    1.7208    1.7138    1.7098    1.6129    0.1024   72.5711   34.0675   36.5703    0.6251    0.5523 
 514.6000  215.9000  213.6240   95.2997    1.8910    6.6014    2.8164  425.3695  322.9346    0.2533    2.1067    2.4138    0.3879    1.6284    1.9747    1.7537    1.4141    1.4239    1.7052    1.7349    1.7441    1.7568    1.7476    1.7451    1.6376    0.1024   72.7473   34.0879   36.5664    0.5822    0.5143 
 514.7000  215.9000  213.3290   90.4970    1.6131    6.9554    2.8322  427.9132  323.1538    0.2545    2.1021    2.4096    0.3942    1.5571    1.9193    1.7004    1.3654    1.3862    1.6484    1.6783    1.6871    1.7010    1.6918    1.6901    1.5696    0.1024   72.8456   34.1174   36.6577    0.5493    0.4852 
 514.8000  215.9000  213.5620   90.4797    1.5419    7.0718    2.8470  429.0047  323.9364    0.2564    2.1004    2.4433    0.3801    1.5646    1.9288    1.6981    1.3713    1.4156    1.5285    1.5637    1.5870    1.5950    1.5902    1.5997    1.3577    0.1024   72.9016   34.0859   36.5225    0.5127    0.4529 
 514.9000  215.9000  213.6630   89.7509    1.5038    7.1846    2.8458  429.1031  324.1512    0.2566    2.1025    2.4563    0.3856    1.5883    1.9630    1.7270    1.3896    1.4409    1.5120    1.5538    1.5791    1.5838    1.5785    1.5933    1.3263    0.1023   72.8768   34.0785   36.5225    0.5159    0.4557 
 515.0000  215.9000  213.7640   89.0222    1.4658    7.2974    2.8446  429.2016  324.3660    0.2567    2.1046    2.4693    0.3910    1.6120    1.9972    1.7559    1.4080    1.4663    1.4956    1.5439    1.5711    1.5725    1.5668    1.5868    1.2949    0.1023   72.8519   34.0711   36.5225    0.5191    0.4585 
 515.1000  215.9000  213.5630   91.8312    1.4462    7.6080    2.8367  429.6580  325.0594    0.2558    2.1118    2.4918    0.3955    1.6915    2.0921    1.8471    1.4720    1.5352    1.4826    1.5415    1.5716    1.5676    1.5586    1.5861    1.2743    0.1023   72.8064   34.0612   36.5225    0.5934    0.5242 
