~VERSION INFORMATION
 VERS.                 2.0:   CWLS LOG ASCII STANDARD - VERSION 2.0
 WRAP.                  NO:   SINGLE LINE PER DEPTH STEP
~WELL INFORMATION
#MNEM.UNIT       DATA           DESCRIPTION MNEMONIC
#---------    -------------   --------------------------
 STRT.M         16.0000                       : START DEPTH
 STOP.M         788.0000                      : STOP DEPTH
 STEP.M         0.1000                        : STEP VALUE
 NULL.          -999.0000                     : NULL VALUE
 SRVC.          SCH                           : Service Company/Logging company
 DATE.          09/02/2023                    : LAS file Creation Date
 WELL    .      Каратобе КН-4                 : Well Name
 COMP    .      COMPANY                       : Company
 COUNT   .      Kazakhstan                    : Country
~CURVE INFORMATION
#MNEM          UNIT     API CODE   Description
#---------- ---------- ----------  -----------
 DEPTH     .M                    : Depth Index
 BSC       .mm                   : Nominal Caliper
 CALI      .mm                   : Caliper
 GR        .gAPI                 : Gamma Ray
 URAN      .PPM                  : Uranium
 THOR      .PPM                  : Thorium
 POTA      .%                    : Potasium
 DT        .uSec/m               : Sonic travel time
 HAZIM     .deg                  : Hole Azimuth
 SDEVM     .deg                  : Hole Deviation
 RHOZ      .g/cm3                : Bulk Density
 PEFZ      .B/E                  : Formation Photoelectric Factor 
 TNPH      .v/v                  : Neutron porosity
 AT10      .ohm.m                : 10" Array Induction, two foot resolution Resistivity
 AT20      .ohm.m                : 20" Array Induction, two foot resolution Resistivity
 AT30      .ohm.m                : 30" Array Induction, two foot resolution Resistivity
 AT60      .ohm.m                : 60" Array Induction, two foot resolution Resistivity
 AT90      .ohm.m                : 90" Array Induction, two foot resolution Resistivity
 RLA1      .ohm.m                : HRLT Borehole Corrected Resistivity 1
 RLA2      .ohm.m                : HRLT Borehole Corrected Resistivity 2
 RLA3      .ohm.m                : HRLT Borehole Corrected Resistivity 3
 RLA4      .ohm.m                : HRLT Borehole Corrected Resisitivity 4
 RLA5      .ohm.m                : HRLT Borehole Corrected Resistivity 5 
 RT        .ohm.m                : Formation Resistivity
 RXO       .ohm.m                : Flushed zone resistivity
 AHMF      .ohm.m                : Array Induction Mud Resistivity Fully Calibrated
 SP        .mV                   : Spontaneous Potential
 MTEM      .degC                 : Formation Temperature
 HTEM      .DEGC                 : HTC Temperature
 HMIN      .ohm.m                : HIP Micro Inverse Resistivity
 HMNO      .ohm.m                : HIP Micro Normal Resistivity
~A Log data section
# ...
 603.6000  215.9000  213.1650   67.6324    0.6492    5.2183    2.4498  388.1152  337.4471    0.2918    2.1736    2.8333    0.3865    1.1586    1.4265    1.2081    0.9517    0.9198    1.2186    1.1993    1.2105    1.2235    1.2542    1.2274    1.1532    0.1003   72.4227   34.8943   37.3613    0.6312    0.5577 
 603.7000  215.9000  213.1530   63.2314    0.5792    5.1403    2.4761  400.9808  337.3798    0.2907    2.1564    2.7333    0.3780    1.0683    1.3563    1.1700    0.9166    0.8924    1.2049    1.1764    1.1846    1.1958    1.2238    1.1988    1.1422    0.1003   72.4284   34.9038   37.3613    0.5580    0.4929 
 603.8000  215.9000  213.1610   62.8696    0.4989    4.8748    2.3684  413.0381  337.3141    0.2896    2.1256    2.4715    0.3935    0.9389    1.2525    1.0760    0.8484    0.8238    0.9991    0.9752    0.9862    0.9969    1.0242    1.0006    0.9297    0.1002   72.4574   34.8769   37.3613    0.5164    0.4561 
 603.9000  215.9000  213.1715   63.0092    0.5752    4.7542    2.3549  414.3661  337.3261    0.2894    2.1215    2.4281    0.3927    0.9384    1.2535    1.0776    0.8483    0.8273    0.9736    0.9553    0.9642    0.9737    1.0003    0.9780    0.9129    0.1002   72.4680   34.8810   37.3613    0.5187    0.4582 
 604.0000  215.9000  213.1820   63.1489    0.6515    4.6335    2.3413  415.6941  337.3381    0.2892    2.1174    2.3847    0.3919    0.9380    1.2544    1.0792    0.8483    0.8308    0.9481    0.9354    0.9422    0.9505    0.9764    0.9555    0.8961    0.1002   72.4787   34.8850   37.3613    0.5211    0.4603 
 604.1000  215.9000  213.4380   62.5003    0.6701    4.4658    2.3491  415.9688  337.5162    0.2892    2.1159    2.3410    0.3910    0.9556    1.2809    1.0996    0.8607    0.8453    0.9511    0.9463    0.9488    0.9558    0.9810    0.9615    0.9101    0.1002   72.4876   34.8787   37.3613    0.5556    0.4907 
 604.2000  215.9000  213.5120   61.6346    0.6914    4.2207    2.3598  418.1742  337.6620    0.2892    2.1169    2.3339    0.3888    0.9658    1.2935    1.1115    0.8686    0.8605    1.0049    1.0041    1.0076    1.0121    1.0367    1.0200    0.9454    0.1002   72.5055   34.8721   37.3613    0.5783    0.5109 
 604.3000  215.9000  213.1560   58.8347    0.6755    3.5007    2.1909  423.8877  337.7273    0.2890    2.1050    2.3977    0.3841    0.8531    1.1996    1.0279    0.8020    0.8013    1.0284    1.0355    1.0469    1.0501    1.0781    1.0698    0.8991    0.1002   72.5613   34.8878   37.3613    0.5073    0.4481 
 604.4000  215.9000  213.1475   58.2378    0.6380    3.3611    2.1095  423.6215  337.7383    0.2888    2.1006    2.4183    0.3842    0.8198    1.1718    1.0007    0.7822    0.7811    1.0043    1.0101    1.0212    1.0236    1.0508    1.0428    0.8756    0.1002   72.5703   34.8946   37.3613    0.4970    0.4390 
 604.5000  215.9000  213.1390   57.6409    0.6006    3.2214    2.0281  423.3553  337.7492    0.2886    2.0963    2.4388    0.3844    0.7865    1.1439    0.9735    0.7624    0.7610    0.9802    0.9848    0.9955    0.9970    1.0235    1.0157    0.8522    0.1002   72.5792   34.9014   37.3613    0.4866    0.4298 
 604.6000  215.9000  213.1080   57.9184    0.5694    2.9991    1.9698  425.3172  337.8128    0.2881    2.0936    2.4514    0.3833    0.7292    1.0972    0.9310    0.7301    0.7294    0.8971    0.9042    0.9135    0.9165    0.9426    0.9379    0.7639    0.1002   72.6020   34.8920   37.3613    0.4896    0.4325 
 604.7000  215.9000  213.1020   55.9346    0.6613    2.9017    1.9349  427.5827  337.8674    0.2875    2.0904    2.4415    0.3905    0.6906    1.0641    0.9034    0.7101    0.7075    0.8427    0.8512    0.8627    0.8692    0.8949    0.8965    0.6879    0.1003   72.6372   34.8815   37.3613    0.4711    0.4161 
 604.8000  215.9000  213.0370   55.7225    0.7006    3.2789    2.0559  430.8252  338.1421    0.2851    2.0984    2.3421    0.3973    0.6961    1.0719    0.9077    0.7136    0.7091    0.8018    0.8058    0.8209    0.8298    0.8547    0.8554    0.6544    0.1003   72.6945   34.8838   37.3613    0.4381    0.3870 
 604.9000  215.9000  212.9900   56.1007    0.7243    3.4343    2.0933  430.9038  338.2002    0.2833    2.1009    2.3172    0.3959    0.7099    1.0821    0.9173    0.7200    0.7156    0.8146    0.8187    0.8337    0.8430    0.8678    0.8688    0.6638    0.1003   72.6908   34.8894   37.3613    0.4508    0.3982 
 605.0000  215.9000  212.9430   56.4790    0.7479    3.5897    2.1306  430.9824  338.2583    0.2814    2.1033    2.2922    0.3945    0.7237    1.0924    0.9270    0.7265    0.7220    0.8273    0.8316    0.8465    0.8562    0.8809    0.8822    0.6732    0.1003   72.6870   34.8949   37.3613    0.4635    0.4094 
 605.1000  215.9000  212.8800   58.0060    0.8075    3.8848    2.1925  430.7359  338.3231    0.2775    2.1029    2.2545    0.3890    0.7474    1.1155    0.9432    0.7377    0.7332    0.8366    0.8438    0.8600    0.8704    0.8970    0.9027    0.6650    0.1003   72.6718   34.9023   37.3613    0.4927    0.4352 
 605.2000  215.9000  212.9770   62.9661    0.8015    4.1531    2.2551  430.3631  338.2924    0.2757    2.1056    2.2101    0.3782    0.7582    1.1253    0.9524    0.7426    0.7380    0.8472    0.8546    0.8698    0.8811    0.9066    0.9122    0.6744    0.1003   72.6677   34.8928   37.3613    0.5024    0.4438 
 605.3000  215.9000  213.0730   64.2653    0.7397    4.3298    2.2869  430.3625  338.1167    0.2716    2.1041    2.1243    0.3791    0.7574    1.1272    0.9502    0.7392    0.7336    0.8301    0.8420    0.8586    0.8713    0.8972    0.9113    0.6337    0.1003   72.5885   34.8700   37.3613    0.4756    0.4201 
 605.4000  215.9000  213.2700   64.3352    0.7695    4.1795    2.2504  431.4787  337.9435    0.2709    2.1010    2.1094    0.3806    0.7597    1.1283    0.9510    0.7398    0.7334    0.8262    0.8385    0.8562    0.8690    0.8952    0.9101    0.6290    0.1003   72.5824   34.8774   37.3613    0.4773    0.4216 
 605.5000  215.9000  213.4670   64.4051    0.7993    4.0291    2.2139  432.5949  337.7702    0.2702    2.0980    2.0945    0.3821    0.7620    1.1294    0.9517    0.7404    0.7331    0.8223    0.8351    0.8538    0.8666    0.8931    0.9089    0.6243    0.1003   72.5762   34.8848   37.3613    0.4790    0.4231 
 605.6000  215.9000  213.6070   63.0104    0.6700    3.8610    2.1773  433.9486  337.4408    0.2690    2.0916    2.0724    0.3915    0.7731    1.1381    0.9573    0.7453    0.7358    0.8389    0.8495    0.8690    0.8809    0.9090    0.9230    0.6398    0.1002   72.5882   34.8883   37.3613    0.4955    0.4376 
 605.7000  215.9000  213.6000   60.9303    0.4437    3.7565    2.1568  434.8706  337.1237    0.2679    2.0827    2.0691    0.4028    0.7814    1.1465    0.9635    0.7517    0.7392    0.8510    0.8607    0.8794    0.8918    0.9205    0.9325    0.6545    0.1002   72.6065   34.8849   37.3613    0.5160    0.4558 
 605.8000  215.9000  213.5170   57.1160    0.1378    3.4637    2.0746  436.7642  335.8927    0.2654    2.0702    2.0861    0.3968    0.7529    1.1200    0.9422    0.7352    0.7204    0.8793    0.8868    0.9050    0.9195    0.9501    0.9619    0.6716    0.1001   72.4809   34.8930   37.3613    0.4768    0.4212 
 605.9000  215.9000  213.5650   55.2527    0.1071    3.4106    2.0606  436.9041  335.2628    0.2645    2.0698    2.0896    0.3910    0.7377    1.1063    0.9302    0.7276    0.7111    0.8597    0.8677    0.8853    0.9013    0.9331    0.9467    0.6482    0.1001   72.4145   34.9079   37.3613    0.4688    0.4140 
 606.0000  215.9000  213.6130   53.3893    0.0765    3.3574    2.0466  437.0439  334.6329    0.2636    2.0695    2.0931    0.3851    0.7225    1.0927    0.9183    0.7201    0.7018    0.8401    0.8487    0.8657    0.8831    0.9161    0.9315    0.6249    0.1001   72.3480   34.9228   37.3613    0.4607    0.4069 
 606.1000  215.9000  213.7190   51.7931    0.0637    3.3092    2.0152  437.1343  334.5767    0.2617    2.0710    2.1060    0.3791    0.7009    1.0756    0.9048    0.7075    0.6911    0.8095    0.8169    0.8335    0.8518    0.8860    0.9010    0.5982    0.1001   72.2406   34.9228   37.3613    0.4443    0.3924 
