~VERSION INFORMATION
 VERS.                 2.0:   CWLS LOG ASCII STANDARD - VERSION 2.0
 WRAP.                  NO:   SINGLE LINE PER DEPTH STEP
~WELL INFORMATION
#MNEM.UNIT       DATA           DESCRIPTION MNEMONIC
#---------    -------------   --------------------------
 STRT.M         16.0000                       : START DEPTH
 STOP.M         788.0000                      : STOP DEPTH
 STEP.M         0.1000                        : STEP VALUE
 NULL.          -999.0000                     : NULL VALUE
 SRVC.          SCH                           : Service Company/Logging company
 DATE.          09/02/2023                    : LAS file Creation Date
 WELL    .      Каратобе КН-4                 : Well Name
 COMP    .      COMPANY                       : Company
 COUNT   .      Kazakhstan                    : Country
~CURVE INFORMATION
#MNEM          UNIT     API CODE   Description
#---------- ---------- ----------  -----------
 DEPTH     .M                    : Depth Index
 BSC       .mm                   : Nominal Caliper
 CALI      .mm                   : Caliper
 GR        .gAPI                 : Gamma Ray
 URAN      .PPM                  : Uranium
 THOR      .PPM                  : Thorium
 POTA      .%                    : Potasium
 DT        .uSec/m               : Sonic travel time
 HAZIM     .deg                  : Hole Azimuth
 SDEVM     .deg                  : Hole Deviation
 RHOZ      .g/cm3                : Bulk Density
 PEFZ      .B/E                  : Formation Photoelectric Factor 
 TNPH      .v/v                  : Neutron porosity
 AT10      .ohm.m                : 10" Array Induction, two foot resolution Resistivity
 AT20      .ohm.m                : 20" Array Induction, two foot resolution Resistivity
 AT30      .ohm.m                : 30" Array Induction, two foot resolution Resistivity
 AT60      .ohm.m                : 60" Array Induction, two foot resolution Resistivity
 AT90      .ohm.m                : 90" Array Induction, two foot resolution Resistivity
 RLA1      .ohm.m                : HRLT Borehole Corrected Resistivity 1
 RLA2      .ohm.m                : HRLT Borehole Corrected Resistivity 2
 RLA3      .ohm.m                : HRLT Borehole Corrected Resistivity 3
 RLA4      .ohm.m                : HRLT Borehole Corrected Resisitivity 4
 RLA5      .ohm.m                : HRLT Borehole Corrected Resistivity 5 
 RT        .ohm.m                : Formation Resistivity
 RXO       .ohm.m                : Flushed zone resistivity
 AHMF      .ohm.m                : Array Induction Mud Resistivity Fully Calibrated
 SP        .mV                   : Spontaneous Potential
 MTEM      .degC                 : Formation Temperature
 HTEM      .DEGC                 : HTC Temperature
 HMIN      .ohm.m                : HIP Micro Inverse Resistivity
 HMNO      .ohm.m                : HIP Micro Normal Resistivity
~A Log data section
# ...
 289.0000  215.9000  214.6870  102.6447    1.2734   10.4696    2.9058  544.5819  355.2861    0.5926    2.0296    2.8303    0.4897    3.2489    3.9078    3.6513    3.2820    3.1862    3.9515    3.9025    3.9135    3.8886    3.8290    3.8640    4.2227    0.1098   71.4361   31.5279   33.7263    0.4884    0.5407 
 289.1000  215.9000  214.9620  105.0421    1.2265   10.2943    2.8580  546.3752  355.3058    0.5914    2.0269    2.8086    0.4921    3.2278    3.8661    3.6079    3.2175    3.1513    3.8881    3.8214    3.8286    3.8001    3.7392    3.7585    4.2683    0.1098   71.4375   31.5279   33.7263    0.5000    0.5562 
 289.2000  215.9000  215.3905  106.0480    1.2350   10.1245    2.8465  546.9725  355.3144    0.5917    2.0240    2.7991    0.4976    3.2382    3.8723    3.6095    3.2087    3.1544    3.8450    3.7744    3.7805    3.7544    3.6954    3.7106    4.2347    0.1098   71.4295   31.5279   33.7263    0.5105    0.5656 
 289.3000  215.9000  215.8190  107.0539    1.2436    9.9548    2.8351  547.5699  355.3230    0.5920    2.0210    2.7896    0.5031    3.2485    3.8785    3.6111    3.1999    3.1576    3.8019    3.7274    3.7324    3.7087    3.6515    3.6626    4.2012    0.1098   71.4214   31.5279   33.7263    0.5209    0.5750 
 289.4000  215.9000  214.9590  104.8996    1.2623   10.4103    2.8152  547.1391  355.6164    0.5925    2.0166    2.7784    0.5302    3.2886    3.9271    3.6565    3.2471    3.2251    3.7803    3.7148    3.7195    3.7004    3.6506    3.6733    4.0686    0.1098   71.4275   31.5381   33.7263    0.5418    0.5929 
 289.5000  215.9000  214.5990   99.8988    1.2231   10.7785    2.8748  547.1642  356.2342    0.5946    2.0191    2.7757    0.5001    3.3413    4.0343    3.7600    3.3671    3.3716    3.9014    3.8314    3.8333    3.8122    3.7590    3.7772    4.2492    0.1099   71.3225   31.5290   33.7263    0.5349    0.6091 
 289.6000  215.9000  214.7450   97.9000    1.1709   11.1074    2.8469  546.7374  355.7649    0.5893    2.0263    2.7745    0.4900    3.3303    4.0616    3.7722    3.3709    3.3936    3.9392    3.8749    3.8792    3.8581    3.8098    3.8351    4.2198    0.1098   71.2617   31.5170   33.7263    0.5183    0.5901 
 289.7000  215.9000  214.8765   97.8823    1.1482   11.2552    2.8340  546.4346  355.5806    0.5878    2.0305    2.7710    0.4897    3.3212    4.0486    3.7540    3.3487    3.3785    3.9344    3.8713    3.8753    3.8537    3.8064    3.8331    4.1995    0.1098   71.2241   31.5155   33.7263    0.5156    0.5848 
 289.8000  215.9000  215.0080   97.8646    1.1256   11.4030    2.8211  546.1317  355.3964    0.5863    2.0347    2.7676    0.4895    3.3122    4.0355    3.7358    3.3265    3.3634    3.9297    3.8677    3.8715    3.8492    3.8030    3.8310    4.1792    0.1097   71.1865   31.5141   33.7263    0.5128    0.5795 
 289.9000  215.9000  215.4630  100.9322    1.0947   11.5947    2.8129  545.3529  355.3335    0.5883    2.0401    2.7522    0.5008    3.3049    4.0058    3.6851    3.2730    3.3081    3.8865    3.8295    3.8383    3.8078    3.7662    3.7957    4.1222    0.1096   71.0846   31.5261   33.7263    0.5204    0.5807 
 290.0000  215.9000  215.5990  105.6824    1.3272   11.2020    2.8349  544.8836  354.9037    0.5924    2.0424    2.7398    0.4956    3.3035    3.9562    3.6666    3.2359    3.2591    3.8349    3.7715    3.7763    3.7443    3.7063    3.7231    4.1664    0.1097   71.0464   31.5279   33.7263    0.5151    0.5716 
 290.1000  215.9000  215.8020  108.6433    1.4714   10.9803    2.8594  544.0383  354.6192    0.5948    2.0393    2.7608    0.5113    3.2817    3.9458    3.6485    3.2176    3.2433    3.8857    3.8089    3.8067    3.7747    3.7324    3.7332    4.3287    0.1097   70.9911   31.5279   33.7263    0.4691    0.5428 
 290.2000  215.9000  215.8810  108.3005    1.4694   10.8629    2.8954  543.5516  354.5375    0.5956    2.0402    2.7741    0.5115    3.2768    3.9391    3.6463    3.2124    3.2335    3.8812    3.8040    3.8000    3.7680    3.7237    3.7225    4.3393    0.1097   70.9688   31.5279   33.7263    0.4561    0.5314 
 290.3000  215.9000  215.9600  107.9576    1.4673   10.7455    2.9314  543.0650  354.4558    0.5964    2.0411    2.7875    0.5116    3.2720    3.9323    3.6442    3.2072    3.2237    3.8767    3.7991    3.7932    3.7614    3.7150    3.7119    4.3499    0.1097   70.9466   31.5279   33.7263    0.4432    0.5200 
 290.4000  215.9000  216.2230  105.7642    1.4407   10.5872    2.9803  541.8017  354.2580    0.5976    2.0476    2.8163    0.5086    3.2717    3.9207    3.6436    3.1986    3.2148    3.8523    3.7794    3.7755    3.7441    3.6989    3.7043    4.2701    0.1097   70.9190   31.5279   33.7263    0.4681    0.5328 
 290.5000  215.9000  215.6990   99.3227    1.2683   10.6821    2.9409  539.2542  354.7718    0.6009    2.0633    2.8397    0.5089    3.2674    3.8974    3.6127    3.1537    3.1470    3.7731    3.6983    3.6933    3.6734    3.6242    3.6262    4.2044    0.1096   70.8784   31.5462   33.7263    0.5892    0.6289 
 290.6000  215.9000  214.4500   97.7002    1.0269   10.7430    2.9483  539.0969  355.7248    0.6036    2.0672    2.8367    0.5125    3.2709    3.9200    3.6165    3.1605    3.1357    3.7939    3.7040    3.7056    3.6872    3.6332    3.6258    4.2753    0.1095   70.8392   31.5642   33.7263    0.6073    0.6474 
 290.7000  215.9000  214.4565   98.1846    0.9119   10.7935    2.9404  539.1033  355.6710    0.6033    2.0687    2.8368    0.5156    3.2813    3.9254    3.6177    3.1635    3.1311    3.8026    3.7091    3.7128    3.6963    3.6411    3.6344    4.2748    0.1094   70.8672   31.5629   33.7263    0.6061    0.6438 
 290.8000  215.9000  214.4630   98.6689    0.7969   10.8440    2.9326  539.1097  355.6171    0.6029    2.0702    2.8369    0.5186    3.2916    3.9307    3.6190    3.1664    3.1264    3.8114    3.7143    3.7200    3.7054    3.6490    3.6431    4.2743    0.1094   70.8953   31.5615   33.7263    0.6048    0.6402 
 290.9000  215.9000  215.1390  100.9471    0.7253   10.7668    2.9329  539.4376  355.4851    0.5983    2.0705    2.8294    0.5126    3.3177    3.9401    3.6367    3.1756    3.1236    3.7907    3.6996    3.7079    3.6938    3.6427    3.6531    4.1310    0.1093   70.8313   31.5531   33.7263    0.5495    0.5934 
 291.0000  215.9000  214.9610  105.9248    0.6398   10.7157    3.0947  538.6256  355.2395    0.5910    2.0785    2.8355    0.5160    3.3652    3.9859    3.6725    3.2512    3.1774    3.7127    3.6517    3.6797    3.6659    3.6138    3.6474    3.8755    0.1092   70.6129   31.5316   33.7263    0.6011    0.6467 
 291.1000  215.9000  214.3560  106.4484    0.5947   10.9393    3.1456  535.7509  355.3890    0.5897    2.0950    2.8379    0.5241    3.3945    4.0130    3.7042    3.2711    3.2130    3.7907    3.7244    3.7555    3.7399    3.6799    3.7142    3.9993    0.1091   70.4740   31.5350   33.7263    0.6863    0.7243 
 291.2000  215.9000  214.2185  106.1259    0.5687   11.0710    3.1526  533.1529  355.5088    0.5889    2.1031    2.8407    0.5285    3.4050    4.0192    3.7057    3.2556    3.2100    3.8484    3.7803    3.8126    3.7966    3.7332    3.7701    4.0508    0.1091   70.4001   31.5411   33.7263    0.6684    0.7171 
 291.3000  215.9000  214.0810  105.8033    0.5427   11.2028    3.1597  530.5549  355.6286    0.5880    2.1112    2.8434    0.5328    3.4154    4.0255    3.7073    3.2401    3.2070    3.9060    3.8363    3.8696    3.8534    3.7865    3.8259    4.1024    0.1091   70.3261   31.5473   33.7263    0.6505    0.7098 
 291.4000  215.9000  215.1830  103.4854    0.3778   11.1961    3.2058  517.0143  355.6018    0.5821    2.1313    2.8658    0.5514    3.4323    4.0433    3.7016    3.2819    3.2289    3.8911    3.8311    3.8639    3.8521    3.7844    3.8261    4.0581    0.1091   70.2252   31.5687   33.7263    0.6800    0.7523 
 291.5000  215.9000  217.4010   99.7362    0.4801   10.2727    3.1429  497.4524  355.5561    0.5784    2.1582    2.9227    0.5624    3.5150    4.0360    3.7137    3.2913    3.2655    3.9504    3.8959    3.9123    3.8992    3.8175    3.8607    4.2033    0.1092   70.1997   31.5472   33.7263    0.7836    0.8528 
