~VERSION INFORMATION
 VERS.                 2.0:   CWLS LOG ASCII STANDARD - VERSION 2.0
 WRAP.                  NO:   SINGLE LINE PER DEPTH STEP
~WELL INFORMATION
#MNEM.UNIT       DATA           DESCRIPTION MNEMONIC
#---------    -------------   --------------------------
 STRT.M         16.0000                       : START DEPTH
 STOP.M         788.0000                      : STOP DEPTH
 STEP.M         0.1000                        : STEP VALUE
 NULL.          -999.0000                     : NULL VALUE
 SRVC.          SCH                           : Service Company/Logging company
 DATE.          09/02/2023                    : LAS file Creation Date
 WELL    .      Каратобе КН-4                 : Well Name
 COMP    .      COMPANY                       : Company
 COUNT   .      Kazakhstan                    : Country
~CURVE INFORMATION
#MNEM          UNIT     API CODE   Description
#---------- ---------- ----------  -----------
 DEPTH     .M                    : Depth Index
 BSC       .mm                   : Nominal Caliper
 CALI      .mm                   : Caliper
 GR        .gAPI                 : Gamma Ray
 URAN      .PPM                  : Uranium
 THOR      .PPM                  : Thorium
 POTA      .%                    : Potasium
 DT        .uSec/m               : Sonic travel time
 HAZIM     .deg                  : Hole Azimuth
 SDEVM     .deg                  : Hole Deviation
 RHOZ      .g/cm3                : Bulk Density
 PEFZ      .B/E                  : Formation Photoelectric Factor 
 TNPH      .v/v                  : Neutron porosity
 AT10      .ohm.m                : 10" Array Induction, two foot resolution Resistivity
 AT20      .ohm.m                : 20" Array Induction, two foot resolution Resistivity
 AT30      .ohm.m                : 30" Array Induction, two foot resolution Resistivity
 AT60      .ohm.m                : 60" Array Induction, two foot resolution Resistivity
 AT90      .ohm.m                : 90" Array Induction, two foot resolution Resistivity
 RLA1      .ohm.m                : HRLT Borehole Corrected Resistivity 1
 RLA2      .ohm.m                : HRLT Borehole Corrected Resistivity 2
 RLA3      .ohm.m                : HRLT Borehole Corrected Resistivity 3
 RLA4      .ohm.m                : HRLT Borehole Corrected Resisitivity 4
 RLA5      .ohm.m                : HRLT Borehole Corrected Resistivity 5 
 RT        .ohm.m                : Formation Resistivity
 RXO       .ohm.m                : Flushed zone resistivity
 AHMF      .ohm.m                : Array Induction Mud Resistivity Fully Calibrated
 SP        .mV                   : Spontaneous Potential
 MTEM      .degC                 : Formation Temperature
 HTEM      .DEGC                 : HTC Temperature
 HMIN      .ohm.m                : HIP Micro Inverse Resistivity
 HMNO      .ohm.m                : HIP Micro Normal Resistivity
~A Log data section
# ...
 153.8000  215.9000  213.9660   97.0406    1.3263    6.2927    3.2030  660.3040  295.1455    0.4824    2.0662    2.6155    0.4092    3.9783    5.4667    5.9354    6.7289    6.4935    5.0086    5.3693    5.5170    5.5258    5.4803    5.8547    3.5921    0.1117   70.4815   30.0191   31.4894    0.8360    0.7691 
 153.9000  215.9000  213.8180   94.2408    1.3205    6.2622    3.2166  661.9172  292.9023    0.4817    2.0581    2.6163    0.4217    3.9836    5.7710    6.2942    7.4565    7.2761    4.9071    5.2612    5.4060    5.3964    5.3583    5.7045    3.5787    0.1118   70.6459   30.0266   31.4894    0.7275    0.7176 
 154.0000  215.9000  213.7890   90.9347    1.3124    6.2701    3.2091  664.2448  290.6744    0.4809    2.0486    2.6094    0.4308    4.0355    5.7409    6.3606    7.8565    7.4714    5.0908    5.4747    5.6239    5.6072    5.5607    5.9302    3.7134    0.1118   70.8295   30.0366   31.4894    0.5900    0.6304 
 154.1000  215.9000  214.0940   89.3488    1.2501    6.1969    3.1450  665.6278  290.5981    0.4865    2.0423    2.5859    0.4246    3.8968    5.4473    5.4774    5.8656    6.1976    5.8345    6.3914    6.5788    6.5609    6.4985    7.1168    3.9784    0.1118   70.8673   30.0445   31.4894    0.6997    0.6678 
 154.2000  215.9000  214.1875   89.8663    1.2395    6.1698    3.1493  665.1863  290.6473    0.4872    2.0416    2.5656    0.4237    3.8713    5.4460    5.4727    5.8881    6.3398    5.6083    6.1442    6.3133    6.2968    6.2327    6.8146    3.8346    0.1118   70.8464   30.0465   31.4894    0.7261    0.6758 
 154.3000  215.9000  214.2810   90.3838    1.2289    6.1427    3.1536  664.7449  290.6964    0.4878    2.0408    2.5454    0.4229    3.8457    5.4448    5.4680    5.9105    6.4821    5.3822    5.8970    6.0477    6.0327    5.9670    6.5125    3.6908    0.1118   70.8255   30.0484   31.4894    0.7525    0.6838 
 154.4000  215.9000  213.6220   91.2920    1.2692    5.8591    3.1323  663.4550  290.2623    0.4965    2.0161    2.5068    0.4253    3.9613    5.6199    5.8913    6.5085    7.6551    4.9296    5.4347    5.5782    5.5569    5.5020    6.0395    3.3738    0.1117   70.8961   30.0269   31.4894    0.7325    0.6818 
 154.5000  215.9000  213.3880   90.4722    1.1754    5.9019    3.1064  660.9211  290.3321    0.5004    1.9689    2.4583    0.4239    4.1332    5.9168    6.4401    7.1695    8.9193    4.8956    5.3655    5.5216    5.4986    5.4551    5.9540    3.3961    0.1116   71.0217   30.0100   31.4894    0.6503    0.6484 
 154.6000  215.9000  214.0440   84.5610    0.8934    6.1071    2.9925  662.2920  291.3372    0.5067    1.8804    2.3739    0.4339    3.7842    5.5462    5.9892    6.8123    6.8577    5.6867    6.1574    6.3523    6.3378    6.2925    6.8062    3.9842    0.1116   71.2820   30.0149   31.4894    0.3378    0.3327 
 154.7000  215.9000  214.5805   83.9188    0.8740    6.1058    2.9689  665.6122  290.9731    0.5097    1.8682    2.3527    0.4368    3.7280    5.3194    5.7368    6.3519    6.3132    5.7218    6.1792    6.3759    6.3678    6.3278    6.8377    3.9973    0.1116   71.3608   30.0205   31.4894    0.2506    0.2617 
 154.8000  215.9000  215.1170   83.2766    0.8545    6.1044    2.9452  668.9325  290.6090    0.5127    1.8561    2.3316    0.4397    3.6717    5.0927    5.4844    5.8915    5.7687    5.7569    6.2009    6.3995    6.3978    6.3630    6.8693    4.0104    0.1116   71.4397   30.0262   31.4894    0.1634    0.1907 
 154.9000  215.9000  217.6150   83.3942    0.8735    6.0759    2.9231  676.4571  289.0667    0.5197    1.8723    2.3191    0.4428    3.7757    4.8726    5.0530    5.6121    4.9640    5.5780    6.0050    6.1987    6.2125    6.1891    6.7035    3.8312    0.1117   71.6211   30.0360   31.4894    0.1578    0.1984 
 155.0000  215.9000  228.4780   82.8389    0.9346    6.0334    2.9593  677.1864  287.2493    0.5261    1.8920    2.3249    0.4462    4.1850    5.4230    6.0496    6.5363    5.8502    5.1821    5.5848    5.7477    5.7801    5.7550    6.2326    3.5672    0.1119   71.8022   30.0480   31.4894    0.2641    0.3129 
 155.1000  215.9000  232.5250   84.8547    0.7800    6.4164    3.0359  671.8754  285.2182    0.5370    1.9216    2.3547    0.4122    4.5680    6.2090    7.5288    8.1972    7.8622    5.2367    5.5971    5.7465    5.8336    5.8044    6.2370    3.6708    0.1123   72.1490   30.0507   31.4894    0.3592    0.3781 
 155.2000  215.9000  227.5510   83.4321    0.7229    6.3967    3.0533  671.1505  284.4807    0.5390    1.9198    2.3506    0.4097    4.6881    6.0773    7.1609    7.7131    7.4853    5.5328    5.9274    6.1080    6.2099    6.1756    6.6952    3.7983    0.1123   72.2171   30.0346   31.4894    0.2796    0.3121 
 155.3000  215.9000  222.5770   82.0094    0.6658    6.3771    3.0708  670.4255  283.7433    0.5410    1.9181    2.3464    0.4072    4.8081    5.9455    6.7930    7.2290    7.1085    5.8289    6.2577    6.4695    6.5862    6.5468    7.1534    3.9258    0.1122   72.2851   30.0186   31.4894    0.1999    0.2461 
 155.4000  215.9000  219.6660   79.9636    0.5864    6.2426    3.0469  668.7208  284.7516    0.5247    1.9150    2.3061    0.4071    5.1339    5.7747    6.4918    6.7267    6.5080    5.7959    6.2023    6.4405    6.5681    6.5274    7.1632    3.8409    0.1121   72.4199   30.0096   31.5887    0.1638    0.2189 
 155.5000  215.9000  223.1010   78.6150    0.5371    6.0251    2.9742  666.8894  287.8083    0.4918    1.9195    2.2669    0.4114    5.3704    5.3595    6.6427    6.4583    6.8277    5.3922    5.8349    6.0891    6.2196    6.1799    6.9039    3.6065    0.1120   72.5527   30.0204   31.7690    0.2402    0.3044 
 155.6000  215.9000  227.8350   78.4358    0.4718    5.5452    3.0214  672.7379  286.8922    0.4797    1.9041    2.2491    0.4339    5.0630    5.6464    5.3798    5.8538    4.7400    5.5820    6.0844    6.3889    6.5340    6.5177    7.4017    3.8206    0.1118   72.7419   30.0406   31.7690    0.3051    0.3376 
 155.7000  215.9000  223.9610   79.0951    0.4475    5.5333    3.0835  674.6935  286.3052    0.4757    1.9028    2.2561    0.4346    5.4675    5.5527    5.2129    6.2443    4.4958    5.5373    6.0518    6.3848    6.5299    6.5219    7.4687    3.8334    0.1117   72.7874   30.0466   31.7690    0.2739    0.3047 
 155.8000  215.9000  220.0870   79.7544    0.4233    5.5215    3.1456  676.6492  285.7182    0.4717    1.9015    2.2631    0.4353    5.8720    5.4591    5.0460    6.6348    4.2517    5.4926    6.0191    6.3808    6.5258    6.5260    7.5357    3.8461    0.1117   72.8330   30.0526   31.7690    0.2427    0.2719 
 155.9000  215.9000  218.2180   78.6377    0.3521    5.6007    3.1835  675.4069  286.4455    0.4593    1.8783    2.2678    0.4296    5.6439    5.1982    5.4644    6.8401    4.7370    5.5952    6.1894    6.6765    6.8131    6.8353    8.0077    3.6803    0.1116   72.9222   30.0177   31.7690    0.1649    0.2083 
 156.0000  215.9000  225.6650   77.3887    0.2684    5.5852    3.1951  675.0158  286.3955    0.4485    1.8363    2.2741    0.4404    5.9141    5.3646    6.3528    5.7728    4.7536    5.3585    6.0759    6.6448    6.7791    6.8329    8.1986    3.3448    0.1116   73.0148   30.0091   31.7690    0.1506    0.1980 
 156.1000  215.9000  237.8280   74.2933    0.4106    4.9928    3.1206  674.8286  284.3658    0.4347    1.6825    2.2558    0.4905    5.9077    5.9441    6.5273    6.4284    4.7007    4.4307    5.2685    5.8096    5.9013    5.9893    7.3851    2.5327    0.1115   73.2009   30.0130   31.7690    0.1766    0.1995 
 156.2000  215.9000  233.2565   73.4773    0.5292    4.8391    3.1435  674.7333  284.0391    0.4313    1.6425    2.2361    0.4992    5.9114    6.1694    6.3875    6.6228    4.7697    4.1710    5.2208    5.8449    5.9620    6.0688    7.6769    2.1785    0.1115   73.2402   30.0083   31.7690    0.1675    0.1833 
 156.3000  215.9000  228.6850   72.6614    0.6478    4.6854    3.1663  674.6380  283.7123    0.4278    1.6025    2.2164    0.5080    5.9151    6.3947    6.2476    6.8172    4.8387    3.9113    5.1732    5.8803    6.0226    6.1483    7.9687    1.8242    0.1114   73.2795   30.0036   31.7690    0.1585    0.1672 
