~VERSION INFORMATION
 VERS.                 2.0:   CWLS LOG ASCII STANDARD - VERSION 2.0
 WRAP.                  NO:   SINGLE LINE PER DEPTH STEP
~WELL INFORMATION
#MNEM.UNIT       DATA           DESCRIPTION MNEMONIC
#---------    -------------   --------------------------
 STRT.M         16.0000                       : START DEPTH
 STOP.M         788.0000                      : STOP DEPTH
 STEP.M         0.1000                        : STEP VALUE
 NULL.          -999.0000                     : NULL VALUE
 SRVC.          SCH                           : Service Company/Logging company
 DATE.          09/02/2023                    : LAS file Creation Date
 WELL    .      Каратобе КН-4                 : Well Name
 COMP    .      COMPANY                       : Company
 COUNT   .      Kazakhstan                    : Country
~CURVE INFORMATION
#MNEM          UNIT     API CODE   Description
#---------- ---------- ----------  -----------
 DEPTH     .M                    : Depth Index
 BSC       .mm                   : Nominal Caliper
 CALI      .mm                   : Caliper
 GR        .gAPI                 : Gamma Ray
 URAN      .PPM                  : Uranium
 THOR      .PPM                  : Thorium
 POTA      .%                    : Potasium
 DT        .uSec/m               : Sonic travel time
 HAZIM     .deg                  : Hole Azimuth
 SDEVM     .deg                  : Hole Deviation
 RHOZ      .g/cm3                : Bulk Density
 PEFZ      .B/E                  : Formation Photoelectric Factor 
 TNPH      .v/v                  : Neutron porosity
 AT10      .ohm.m                : 10" Array Induction, two foot resolution Resistivity
 AT20      .ohm.m                : 20" Array Induction, two foot resolution Resistivity
 AT30      .ohm.m                : 30" Array Induction, two foot resolution Resistivity
 AT60      .ohm.m                : 60" Array Induction, two foot resolution Resistivity
 AT90      .ohm.m                : 90" Array Induction, two foot resolution Resistivity
 RLA1      .ohm.m                : HRLT Borehole Corrected Resistivity 1
 RLA2      .ohm.m                : HRLT Borehole Corrected Resistivity 2
 RLA3      .ohm.m                : HRLT Borehole Corrected Resistivity 3
 RLA4      .ohm.m                : HRLT Borehole Corrected Resisitivity 4
 RLA5      .ohm.m                : HRLT Borehole Corrected Resistivity 5 
 RT        .ohm.m                : Formation Resistivity
 RXO       .ohm.m                : Flushed zone resistivity
 AHMF      .ohm.m                : Array Induction Mud Resistivity Fully Calibrated
 SP        .mV                   : Spontaneous Potential
 MTEM      .degC                 : Formation Temperature
 HTEM      .DEGC                 : HTC Temperature
 HMIN      .ohm.m                : HIP Micro Inverse Resistivity
 HMNO      .ohm.m                : HIP Micro Normal Resistivity
~A Log data section
# ...
 783.0000  215.9000   70.4250   22.9356    5.6848    0.0379    1.1517  165.9129  324.6428    0.7534 -999.0000 -999.0000   -0.0211   20.7234  137.2519  682.6346  501.5013   92.8012  328.9911  296.2886  287.4515  273.5286  234.0680  317.6179    9.0062    0.1074 -999.0000   34.6668   35.9633    0.2317    0.3696 
 783.1000  215.9000   70.4250   22.9356    5.6848    0.0379    1.1517  166.4595  324.6428    0.7534 -999.0000 -999.0000   -0.0211   19.4825  106.8160 2015.6729  333.1535  151.8233  328.9911  296.2886  287.4515  273.5286  234.0680  317.6179    9.0062    0.1084 -999.0000   34.6668   35.9633    0.2317    0.3696 
 783.2000  215.9000   70.4250   22.9356    5.6848    0.0379    1.1517  166.4050  324.6428    0.7534 -999.0000 -999.0000   -0.0211   18.6812   99.5117  202.4494  229.4957  115.2153  328.9911  296.2886  287.4515  273.5286  234.0680  317.6179    9.0062    0.1092 -999.0000   34.6668   35.9633    0.2317    0.3696 
 783.3000  215.9000   70.4250   22.9356    5.6848    0.0379    1.1517  166.1352  324.6428    0.7534 -999.0000 -999.0000   -0.0211   17.0308   59.8075  377.1340   89.1822   86.5651  328.9911  296.2886  287.4515  273.5286  234.0680  317.6179    9.0062    0.1106 -999.0000   34.6668   35.9633    0.2317    0.3696 
 783.4000  215.9000   70.4250   22.9356    5.6848    0.0379    1.1517  166.1367  324.6428    0.7534 -999.0000 -999.0000   -0.0211   16.8615   58.8105  404.3138   93.2600   96.9728  328.9911  296.2886  287.4515  273.5286  234.0680  317.6179    9.0062    0.1105 -999.0000   34.6668   35.9633    0.2317    0.3696 
 783.5000  215.9000   70.4250   22.9356    5.6848    0.0379    1.1517  166.1382  324.6428    0.7534 -999.0000 -999.0000   -0.0211   16.6923   57.8135  431.4936   97.3379  107.3805  328.9911  296.2886  287.4515  273.5286  234.0680  317.6179    9.0062    0.1104 -999.0000   34.6668   35.9633    0.2317    0.3696 
 783.6000  215.9000   70.4250   22.9356    5.6848    0.0379    1.1517  166.1296  324.6428    0.7534 -999.0000 -999.0000   -0.0211   16.4835   58.0148  512.5144   86.6074  106.5692  328.9911  296.2886  287.4515  273.5286  234.0680  317.6179    9.0062    0.1102 -999.0000   34.6668   35.9633    0.2317    0.3696 
 783.7000  215.9000   70.4250   22.9356    5.6848    0.0379    1.1517  166.1159  324.6428    0.7534 -999.0000 -999.0000   -0.0211   16.2203   57.8448  645.2454   74.6227  102.5287  328.9911  296.2886  287.4515  273.5286  234.0680  317.6179    9.0062    0.1098 -999.0000   34.6668   35.9633    0.2317    0.3696 
 783.8000  215.9000   70.4250   22.9356    5.6848    0.0379    1.1517  166.1126  324.6428    0.7534 -999.0000 -999.0000   -0.0211   15.8537   59.9234 1152.4313   58.7417   79.1467  328.9911  296.2886  287.4515  273.5286  234.0680  317.6179    9.0062    0.1065 -999.0000   34.6668   35.9633    0.2317    0.3696 
 783.9000  215.9000   70.4250   22.9356    5.6848    0.0379    1.1517  166.1005  324.6428    0.7534 -999.0000 -999.0000   -0.0211   15.7980   61.0616 1322.0024   65.9743   95.3125  328.9911  296.2886  287.4515  273.5286  234.0680  317.6179    9.0062    0.1057 -999.0000   34.6668   35.9633    0.2317    0.3696 
 784.0000  215.9000   70.4250   22.9356    5.6848    0.0379    1.1517  166.0884  324.6428    0.7534 -999.0000 -999.0000   -0.0211   15.7423   62.1997 1491.5735   73.2070  111.4782  328.9911  296.2886  287.4515  273.5286  234.0680  317.6179    9.0062    0.1048 -999.0000   34.6668   35.9633    0.2317    0.3696 
 784.1000  215.9000   70.4250   22.9356    5.6848    0.0379    1.1517  166.0871  324.6428    0.7534 -999.0000 -999.0000   -0.0211   15.6410   65.4236 1848.9720   70.5125   98.6308  328.9911  296.2886  287.4515  273.5286  234.0680  317.6179    9.0062    0.1045 -999.0000   34.6668   35.9633    0.2317    0.3696 
 784.2000  215.9000   70.4250   22.9356    5.6848    0.0379    1.1517  166.0875  324.6428    0.7534 -999.0000 -999.0000   -0.0211 -999.0000 -999.0000 -999.0000 -999.0000 -999.0000  328.9911  296.2886  287.4515  273.5286  234.0680  317.6179    9.0062    0.1042 -999.0000   34.6668   35.9633    0.2317    0.3696 
 784.3000  215.9000   70.4250   22.9356    5.6848    0.0379    1.1517  166.0895  324.6428    0.7534 -999.0000 -999.0000   -0.0211 -999.0000 -999.0000 -999.0000 -999.0000 -999.0000  328.9911  296.2886  287.4515  273.5286  234.0680  317.6179    9.0062    0.1021 -999.0000   34.6668   35.9633    0.2317    0.3696 
 784.4000  215.9000   70.4250   22.9356    5.6848    0.0379    1.1517  166.0895  324.6428    0.7534 -999.0000 -999.0000   -0.0211 -999.0000 -999.0000 -999.0000 -999.0000 -999.0000  328.9911  296.2886  287.4515  273.5286  234.0680  317.6179    9.0062    0.1012 -999.0000   34.6668   35.9633    0.2317    0.3696 
 784.5000  215.9000   70.4250   22.9356    5.6848    0.0379    1.1517  166.0895  324.6428    0.7534 -999.0000 -999.0000   -0.0211 -999.0000 -999.0000 -999.0000 -999.0000 -999.0000  328.9911  296.2886  287.4515  273.5286  234.0680  317.6179    9.0062    0.1003 -999.0000   34.6668   35.9633    0.2317    0.3696 
 784.6000  215.9000   70.4250   22.9356    5.6848    0.0379    1.1517  166.0895  324.6428    0.7534 -999.0000 -999.0000   -0.0211 -999.0000 -999.0000 -999.0000 -999.0000 -999.0000  328.9911  296.2886  287.4515  273.5286  234.0680  317.6179    9.0062    0.0986 -999.0000   34.6668   35.9633    0.2317    0.3696 
 784.7000  215.9000   70.4250   22.9356    5.6848    0.0379    1.1517  166.0895  324.6428    0.7534 -999.0000 -999.0000   -0.0211 -999.0000 -999.0000 -999.0000 -999.0000 -999.0000  328.9911  296.2886  287.4515  273.5286  234.0680  317.6179    9.0062    0.0973 -999.0000   34.6668   35.9633    0.2317    0.3696 
 784.8000  215.9000   70.4250   22.9356    5.6848    0.0379    1.1517  166.0895  324.6428    0.7534 -999.0000 -999.0000   -0.0211 -999.0000 -999.0000 -999.0000 -999.0000 -999.0000  328.9911  296.2886  287.4515  273.5286  234.0680  317.6179    9.0062    0.0948 -999.0000   34.6668   35.9633    0.2317    0.3696 
 784.9000  215.9000   70.4250   22.9356    5.6848    0.0379    1.1517  166.0895  324.6428    0.7534 -999.0000 -999.0000   -0.0211 -999.0000 -999.0000 -999.0000 -999.0000 -999.0000  328.9911  296.2886  287.4515  273.5286  234.0680  317.6179    9.0062    0.0943 -999.0000   34.6668   35.9633    0.2317    0.3696 
 785.0000  215.9000   70.4250   22.9356    5.6848    0.0379    1.1517  166.0895  324.6428    0.7534 -999.0000 -999.0000   -0.0211 -999.0000 -999.0000 -999.0000 -999.0000 -999.0000  328.9911  296.2886  287.4515  273.5286  234.0680  317.6179    9.0062    0.0937 -999.0000   34.6668   35.9633    0.2317    0.3696 
 785.1000  215.9000   70.4250   22.9356    5.6848    0.0379    1.1517  166.0895  324.6428    0.7534 -999.0000 -999.0000   -0.0211 -999.0000 -999.0000 -999.0000 -999.0000 -999.0000  328.9911  296.2886  287.4515  273.5286  234.0680  317.6179    9.0062    0.0925 -999.0000   34.6668   35.9633    0.2317    0.3696 
 785.2000  215.9000   70.4250   22.9356    5.6848    0.0379    1.1517  166.0895  324.6428    0.7534 -999.0000 -999.0000   -0.0211 -999.0000 -999.0000 -999.0000 -999.0000 -999.0000  328.9911  296.2886  287.4515  273.5286  234.0680  317.6179    9.0062    0.0913 -999.0000   34.6668   35.9633    0.2317    0.3696 
 785.3000  215.9000   70.4250   22.9356    5.6848    0.0379    1.1517  166.0895  324.6428    0.7534 -999.0000 -999.0000   -0.0211 -999.0000 -999.0000 -999.0000 -999.0000 -999.0000  328.9911  296.2886  287.4515  273.5286  234.0680  317.6179    9.0062    0.0935 -999.0000   34.6668   35.9633    0.2317    0.3696 
 785.4000  215.9000   70.4250   22.9356    5.6848    0.0379    1.1517  166.0895  324.6428    0.7534 -999.0000 -999.0000   -0.0211 -999.0000 -999.0000 -999.0000 -999.0000 -999.0000  328.9911  296.2886  287.4515  273.5286  234.0680  317.6179    9.0062    0.0941 -999.0000   34.6668   35.9633    0.2317    0.3696 
 785.5000  215.9000   70.4250   22.9356    5.6848    0.0379    1.1517  166.0895  324.6428    0.7534 -999.0000 -999.0000   -0.0211 -999.0000 -999.0000 -999.0000 -999.0000 -999.0000  328.9911  296.2886  287.4515  273.5286  234.0680  317.6179    9.0062    0.0947 -999.0000   34.6668   35.9633    0.2317    0.3696 
