~VERSION INFORMATION
 VERS.                 2.0:   CWLS LOG ASCII STANDARD - VERSION 2.0
 WRAP.                  NO:   SINGLE LINE PER DEPTH STEP
~WELL INFORMATION
#MNEM.UNIT       DATA           DESCRIPTION MNEMONIC
#---------    -------------   --------------------------
 STRT.M         16.0000                       : START DEPTH
 STOP.M         788.0000                      : STOP DEPTH
 STEP.M         0.1000                        : STEP VALUE
 NULL.          -999.0000                     : NULL VALUE
 SRVC.          SCH                           : Service Company/Logging company
 DATE.          09/02/2023                    : LAS file Creation Date
 WELL    .      Каратобе КН-4                 : Well Name
 COMP    .      COMPANY                       : Company
 COUNT   .      Kazakhstan                    : Country
~CURVE INFORMATION
#MNEM          UNIT     API CODE   Description
#---------- ---------- ----------  -----------
 DEPTH     .M                    : Depth Index
 BSC       .mm                   : Nominal Caliper
 CALI      .mm                   : Caliper
 GR        .gAPI                 : Gamma Ray
 URAN      .PPM                  : Uranium
 THOR      .PPM                  : Thorium
 POTA      .%                    : Potasium
 DT        .uSec/m               : Sonic travel time
 HAZIM     .deg                  : Hole Azimuth
 SDEVM     .deg                  : Hole Deviation
 RHOZ      .g/cm3                : Bulk Density
 PEFZ      .B/E                  : Formation Photoelectric Factor 
 TNPH      .v/v                  : Neutron porosity
 AT10      .ohm.m                : 10" Array Induction, two foot resolution Resistivity
 AT20      .ohm.m                : 20" Array Induction, two foot resolution Resistivity
 AT30      .ohm.m                : 30" Array Induction, two foot resolution Resistivity
 AT60      .ohm.m                : 60" Array Induction, two foot resolution Resistivity
 AT90      .ohm.m                : 90" Array Induction, two foot resolution Resistivity
 RLA1      .ohm.m                : HRLT Borehole Corrected Resistivity 1
 RLA2      .ohm.m                : HRLT Borehole Corrected Resistivity 2
 RLA3      .ohm.m                : HRLT Borehole Corrected Resistivity 3
 RLA4      .ohm.m                : HRLT Borehole Corrected Resisitivity 4
 RLA5      .ohm.m                : HRLT Borehole Corrected Resistivity 5 
 RT        .ohm.m                : Formation Resistivity
 RXO       .ohm.m                : Flushed zone resistivity
 AHMF      .ohm.m                : Array Induction Mud Resistivity Fully Calibrated
 SP        .mV                   : Spontaneous Potential
 MTEM      .degC                 : Formation Temperature
 HTEM      .DEGC                 : HTC Temperature
 HMIN      .ohm.m                : HIP Micro Inverse Resistivity
 HMNO      .ohm.m                : HIP Micro Normal Resistivity
~A Log data section
# ...
 738.8000  215.9000  242.1040   47.2419   -0.2249    3.6010    1.9785  308.3666  321.8387    0.6657    2.3871    3.1922    0.2576    5.9710    5.0595    4.1803    3.4454    3.3667    4.0672    4.0563    4.1129    4.1590    4.0613    4.0948    4.1342    0.0962   66.0680   35.3659   36.8021    0.1921    0.2747 
 738.9000  215.9000  237.2990   46.0274   -0.2883    3.6126    1.9887  302.6727  321.3686    0.6650    2.3949    3.2000    0.2557    6.0586    5.0773    4.1873    3.5513    3.3774    4.1785    4.1631    4.2028    4.2501    4.1618    4.1939    4.2140    0.0963   66.0123   35.3659   36.8021    0.1858    0.2712 
 739.0000  215.9000  232.4940   44.8128   -0.3518    3.6243    1.9989  296.9788  320.8984    0.6642    2.4027    3.2078    0.2538    6.1462    5.0951    4.1942    3.6572    3.3881    4.2898    4.2699    4.2926    4.3412    4.2623    4.2930    4.2938    0.0965   65.9566   35.3659   36.8021    0.1794    0.2677 
 739.1000  215.9000  227.0300   44.5682   -0.3985    3.4898    1.9598  293.7063  320.2550    0.6684    2.4205    3.2296    0.2482    6.2406    5.1607    4.1497    3.5365    3.3093    4.3148    4.3140    4.3378    4.3903    4.3221    4.3390    4.2808    0.0967   65.9196   35.3659   36.8021    0.1997    0.3000 
 739.2000  215.9000  224.5120   45.5113   -0.3929    3.2727    1.8939  295.6709  319.7665    0.6769    2.4210    3.2455    0.2416    6.0900    5.1144    4.2640    3.5161    3.3700    4.2907    4.3058    4.3331    4.3858    4.3247    4.3315    4.2585    0.0969   65.9417   35.3659   36.8021    0.2421    0.3508 
 739.3000  215.9000  223.6360   45.1576   -0.3654    3.1638    1.8994  304.1007  318.8470    0.6986    2.3822    3.2664    0.2305    6.0924    5.0371    4.4130    3.5241    3.5805    3.9248    3.8739    3.9264    3.9576    3.9532    3.9283    3.8941    0.0969   66.0504   35.3659   36.8021    0.1768    0.2583 
 739.4000  215.9000  223.2810   45.3373   -0.3839    3.1799    1.8807  305.9107  318.9224    0.6989    2.3834    3.2680    0.2287    5.9727    4.9530    4.3751    3.5543    3.5778    3.8903    3.8117    3.8635    3.8880    3.8970    3.8689    3.8418    0.0969   65.9732   35.3659   36.8021    0.1740    0.2534 
 739.5000  215.9000  222.9260   45.5171   -0.4024    3.1961    1.8619  307.7207  318.9977    0.6991    2.3846    3.2695    0.2268    5.8530    4.8688    4.3371    3.5844    3.5751    3.8559    3.7496    3.8006    3.8184    3.8409    3.8096    3.7896    0.0968   65.8960   35.3659   36.8021    0.1711    0.2485 
 739.6000  215.9000  227.1220   44.7952   -0.4485    3.2213    1.8837  305.5153  318.1167    0.7100    2.3970    3.2726    0.2433    5.8473    4.7418    4.1550    3.4377    3.3570    3.7860    3.6625    3.6968    3.7067    3.7360    3.7111    3.7065    0.0968   65.9296   35.3659   36.8021    0.1783    0.2471 
 739.7000  215.9000  230.1320   43.5320   -0.4402    3.0728    1.8664  301.4388  317.8077    0.7194    2.4214    3.2685    0.2567    5.6332    4.5647    4.0708    3.4154    3.2957    3.7686    3.6544    3.6753    3.6914    3.7376    3.6996    3.7007    0.0967   65.9708   35.3659   36.8021    0.2554    0.3336 
 739.8000  215.9000  231.4220   42.5945   -0.4171    2.8946    1.7852  301.8521  318.0033    0.7204    2.4666    3.2763    0.2541    5.4857    4.3788    3.7777    2.9746    2.8653    3.7452    3.6249    3.6444    3.6577    3.7135    3.6707    3.6701    0.0966   65.5447   35.3659   36.8021    0.8201    1.0103 
 739.9000  215.9000  229.4640   42.6587   -0.4087    2.9138    1.7685  303.2590  318.2419    0.7194    2.4679    3.2716    0.2462    5.5969    4.4265    3.8079    3.0086    2.9488    3.7557    3.6632    3.6778    3.6911    3.7441    3.7025    3.7093    0.0966   65.4413   35.3659   36.8021    0.8740    1.0621 
 740.0000  215.9000  227.5060   42.7229   -0.4002    2.9331    1.7519  304.6660  318.4806    0.7184    2.4692    3.2669    0.2383    5.7081    4.4743    3.8381    3.0425    3.0322    3.7661    3.7016    3.7112    3.7244    3.7746    3.7342    3.7485    0.0965   65.3378   35.3659   36.8021    0.9278    1.1139 
 740.1000  215.9000  219.8460   42.1175   -0.3287    2.8787    1.7143  303.8667  319.4779    0.7217    2.4653    3.2512    0.2194    5.7087    4.5808    4.0336    3.2951    3.3344    3.9356    3.8639    3.8482    3.8554    3.9183    3.8853    3.9023    0.0964   65.4203   35.3659   36.8021    0.8080    0.9794 
 740.2000  215.9000  222.4610   42.5675   -0.2293    2.8528    1.7226  303.0968  319.9910    0.7315    2.4480    3.2182    0.2113    5.8579    4.6916    4.0376    3.3461    3.5410    3.9251    3.8319    3.8146    3.8021    3.8641    3.8447    3.9357    0.0965   65.2090   35.3566   36.8021    0.5261    0.6686 
 740.3000  215.9000  223.6450   40.7978   -0.2443    3.0311    1.6964  299.7904  318.9361    0.7482    2.3940    3.1367    0.2150    6.0014    4.7969    4.0184    3.2881    3.5149    3.8791    3.7582    3.7485    3.7156    3.7868    3.7626    4.0088    0.0966   64.9622   35.3341   36.8021    0.9154    1.1195 
 740.4000  215.9000  223.5805   40.9227   -0.2688    3.0676    1.7138  300.6541  318.7601    0.7473    2.3854    3.1451    0.2186    6.0247    4.8032    4.0047    3.2643    3.5016    3.8774    3.7518    3.7424    3.7115    3.7820    3.7571    4.0095    0.0967   64.9975   35.3345   36.8021    1.1753    1.3430 
 740.5000  215.9000  223.5160   41.0477   -0.2933    3.1042    1.7311  301.5177  318.5841    0.7465    2.3769    3.1534    0.2223    6.0479    4.8096    3.9910    3.2404    3.4884    3.8758    3.7454    3.7363    3.7073    3.7773    3.7516    4.0102    0.0967   65.0329   35.3350   36.8021    1.4351    1.5664 
 740.6000  215.9000  223.5210   41.6245   -0.2596    3.1656    1.7274  302.4269  318.5348    0.7413    2.3754    3.2007    0.2283    6.1557    4.8066    3.9789    3.2305    3.3593    3.8689    3.7586    3.7466    3.7206    3.7974    3.7713    3.9366    0.0967   65.0947   35.3396   36.8021    0.8548    1.0367 
 740.7000  215.9000  223.6990   42.4628   -0.0910    3.2178    1.6516  301.3987  318.8852    0.7320    2.3910    3.2718    0.2316    6.2408    4.8922    3.9814    3.2105    3.3481    3.7853    3.6447    3.6430    3.6151    3.6851    3.6490    4.0132    0.0967   65.1170   35.3483   36.8021    0.4456    0.5650 
 740.8000  215.9000  219.4790   43.0048    0.0027    3.2634    1.7395  301.2659  317.0218    0.7258    2.4347    3.3733    0.2529    6.2844    4.9017    4.0659    3.2235    3.3741    3.9964    3.8250    3.8020    3.7826    3.8144    3.7197    4.6852    0.0966   65.3413   35.3422   36.8021    0.4622    0.5934 
 740.9000  215.9000  219.4315   42.3802    0.0371    3.1978    1.6971  301.1865  317.1500    0.7243    2.4404    3.3807    0.2520    6.3055    4.9202    4.0853    3.2473    3.3923    4.0708    3.8951    3.8705    3.8508    3.8742    3.7730    4.7969    0.0966   65.2254   35.3315   36.8021    0.8691    0.9665 
 741.0000  215.9000  219.3840   41.7556    0.0714    3.1321    1.6546  301.1071  317.2782    0.7229    2.4460    3.3881    0.2511    6.3266    4.9387    4.1047    3.2710    3.4104    4.1451    3.9651    3.9390    3.9190    3.9340    3.8263    4.9085    0.0966   65.1095   35.3207   36.8021    1.2759    1.3397 
 741.1000  215.9000  219.4430   40.0470    0.1686    3.0389    1.6560  298.0600  316.8242    0.7226    2.4513    3.3870    0.2374    6.4591    4.9706    4.0816    3.2266    3.3081    4.1818    4.0172    3.9942    3.9750    3.9907    3.9079    4.8704    0.0965   64.9523   35.3193   36.8021    2.4122    2.1669 
 741.2000  215.9000  219.4800   38.4152    0.2806    2.9289    1.6477  294.6987  316.2877    0.7199    2.4558    3.3596    0.2231    6.4780    5.0530    4.1053    3.2221    3.3505    4.2034    4.0237    3.9970    3.9722    3.9874    3.8778    4.9850    0.0965   64.8304   35.3160   36.8021    2.8139    2.4977 
 741.3000  215.9000  220.4970   37.8016    0.5623    2.7751    1.5465  290.7744  315.7045    0.7053    2.4616    3.2539    0.2127    6.3610    5.0121    4.1038    3.1448    3.2011    4.2188    4.0422    4.0270    3.9974    4.0166    3.9200    4.9603    0.0965   64.7978   35.3126   36.7322    2.9173    2.5899 
