~VERSION INFORMATION
 VERS.                 2.0:   CWLS LOG ASCII STANDARD - VERSION 2.0
 WRAP.                  NO:   SINGLE LINE PER DEPTH STEP
~WELL INFORMATION
#MNEM.UNIT       DATA           DESCRIPTION MNEMONIC
#---------    -------------   --------------------------
 STRT.M         16.0000                       : START DEPTH
 STOP.M         788.0000                      : STOP DEPTH
 STEP.M         0.1000                        : STEP VALUE
 NULL.          -999.0000                     : NULL VALUE
 SRVC.          SCH                           : Service Company/Logging company
 DATE.          09/02/2023                    : LAS file Creation Date
 WELL    .      Каратобе КН-4                 : Well Name
 COMP    .      COMPANY                       : Company
 COUNT   .      Kazakhstan                    : Country
~CURVE INFORMATION
#MNEM          UNIT     API CODE   Description
#---------- ---------- ----------  -----------
 DEPTH     .M                    : Depth Index
 BSC       .mm                   : Nominal Caliper
 CALI      .mm                   : Caliper
 GR        .gAPI                 : Gamma Ray
 URAN      .PPM                  : Uranium
 THOR      .PPM                  : Thorium
 POTA      .%                    : Potasium
 DT        .uSec/m               : Sonic travel time
 HAZIM     .deg                  : Hole Azimuth
 SDEVM     .deg                  : Hole Deviation
 RHOZ      .g/cm3                : Bulk Density
 PEFZ      .B/E                  : Formation Photoelectric Factor 
 TNPH      .v/v                  : Neutron porosity
 AT10      .ohm.m                : 10" Array Induction, two foot resolution Resistivity
 AT20      .ohm.m                : 20" Array Induction, two foot resolution Resistivity
 AT30      .ohm.m                : 30" Array Induction, two foot resolution Resistivity
 AT60      .ohm.m                : 60" Array Induction, two foot resolution Resistivity
 AT90      .ohm.m                : 90" Array Induction, two foot resolution Resistivity
 RLA1      .ohm.m                : HRLT Borehole Corrected Resistivity 1
 RLA2      .ohm.m                : HRLT Borehole Corrected Resistivity 2
 RLA3      .ohm.m                : HRLT Borehole Corrected Resistivity 3
 RLA4      .ohm.m                : HRLT Borehole Corrected Resisitivity 4
 RLA5      .ohm.m                : HRLT Borehole Corrected Resistivity 5 
 RT        .ohm.m                : Formation Resistivity
 RXO       .ohm.m                : Flushed zone resistivity
 AHMF      .ohm.m                : Array Induction Mud Resistivity Fully Calibrated
 SP        .mV                   : Spontaneous Potential
 MTEM      .degC                 : Formation Temperature
 HTEM      .DEGC                 : HTC Temperature
 HMIN      .ohm.m                : HIP Micro Inverse Resistivity
 HMNO      .ohm.m                : HIP Micro Normal Resistivity
~A Log data section
# ...
 647.8000  215.9000  213.1770   88.3023    1.6177    9.1166    2.3200  355.5684  337.1070    0.2906    2.3552    3.0972    0.3722    5.6182    4.7496    4.0378    3.1735    3.2403    3.3922    3.3629    3.3612    3.2998    3.2369    3.2304    3.9919    0.0998   70.0626   35.1363   37.3613    1.7970    1.6940 
 647.9000  215.9000  213.0305   86.1093    1.6711    8.8295    2.2790  352.7539  337.2028    0.2894    2.3542    3.1662    0.3719    6.0283    5.0900    4.3573    3.4894    3.5215    3.7959    3.7846    3.7832    3.7238    3.6582    3.6788    4.3012    0.0998   70.0804   35.1447   37.3613    1.7878    1.7138 
 648.0000  215.9000  212.8840   83.9163    1.7245    8.5425    2.2381  349.9394  337.2986    0.2882    2.3533    3.2352    0.3716    6.4385    5.4303    4.6768    3.8054    3.8026    4.1996    4.2062    4.2053    4.1478    4.0796    4.1272    4.6106    0.0998   70.0982   35.1532   37.3613    1.7786    1.7335 
 648.1000  215.9000  212.8150   81.6125    1.7822    8.1207    2.2052  345.5418  337.4335    0.2868    2.3448    3.2793    0.3698    6.8469    5.7821    4.9846    4.1153    4.1207    4.9317    4.9266    4.9182    4.8667    4.7920    4.8419    5.3869    0.0998   70.1278   35.1737   37.3613    2.4040    2.1986 
 648.2000  215.9000  213.0360   81.7523    1.7719    7.8880    2.2311  342.7424  337.5019    0.2863    2.3187    3.2446    0.3667    6.4602    5.5091    4.7365    3.9272    3.9353    5.4499    5.3933    5.3704    5.3281    5.2618    5.2901    5.9887    0.0998   70.1507   35.1980   37.3613    2.2065    1.9935 
 648.3000  215.9000  212.9980   87.3675    1.6624    8.0542    2.5093  345.6928  337.4141    0.2838    2.2627    3.0527    0.3563    6.2040    5.2572    4.5462    3.8001    3.7898    4.6574    4.4632    4.4297    4.4038    4.3746    4.2268    5.6637    0.0998   70.1923   35.1625   37.3613    1.1989    1.2143 
 648.4000  215.9000  212.9450   88.1359    1.6142    8.2473    2.5643  346.0311  337.1712    0.2823    2.2582    3.0417    0.3529    6.3105    5.3480    4.6389    3.9254    3.9132    4.4706    4.2506    4.2206    4.1995    4.1764    3.9928    5.5197    0.0998   70.1906   35.1544   37.3613    1.2350    1.2378 
 648.5000  215.9000  212.8920   88.9043    1.5660    8.4404    2.6193  346.3694  336.9283    0.2808    2.2536    3.0306    0.3495    6.4169    5.4388    4.7317    4.0508    4.0366    4.2838    4.0381    4.0114    3.9951    3.9781    3.7588    5.3757    0.0998   70.1888   35.1463   37.3613    1.2710    1.2612 
 648.6000  215.9000  213.0560   88.4123    1.4319    8.7806    2.6602  347.3419  336.4561    0.2804    2.2710    3.0807    0.3447    6.9384    5.9129    5.2142    4.5812    4.5837    4.3610    4.0787    4.0468    4.0309    4.0242    3.7531    5.5512    0.0998   70.1812   35.1657   37.3613    1.2190    1.2440 
 648.7000  215.9000  213.2620   87.1959    1.3528    8.7865    2.6570  347.9338  336.1055    0.2812    2.3202    3.2103    0.3398    7.8099    6.7274    6.0800    5.3913    5.4734    4.7334    4.4563    4.4015    4.3801    4.3762    4.0791    6.0912    0.0998   70.1607   35.1856   37.3613    1.1417    1.2676 
 648.8000  215.9000  213.5910   84.1455    1.3871    8.0677    2.5006  338.0522  335.7451    0.2850    2.4260    3.5645    0.3303   10.0933    8.9809    8.5010    7.5837    7.7527    6.9313    6.7038    6.6028    6.5671    6.5674    6.3607    8.4901    0.0998   70.0630   35.1829   37.3613    2.1266    2.1595 
 648.9000  215.9000  213.6845   84.4028    1.3972    8.0603    2.4662  330.9411  335.6880    0.2858    2.4413    3.6138    0.3293   10.3143    9.1872    8.5874    7.6773    7.8878    7.3525    7.1364    7.0164    6.9778    6.9818    6.7872    8.9292    0.0998   70.0390   35.1715   37.3613    3.5153    3.2754 
 649.0000  215.9000  213.7780   84.6602    1.4074    8.0529    2.4317  323.8300  335.6309    0.2865    2.4567    3.6631    0.3282   10.5353    9.3934    8.6737    7.7709    8.0228    7.7736    7.5689    7.4300    7.3885    7.3962    7.2137    9.3683    0.0998   70.0150   35.1602   37.3613    4.9041    4.3912 
 649.1000  215.9000  214.1700   88.1858    1.4676    8.1209    2.4244  303.9605  335.7966    0.2887    2.4623    3.7047    0.3297    9.4980    8.2835    7.3369    6.4633    6.7651    8.0657    7.8522    7.6598    7.6076    7.6159    7.3377   10.0444    0.0998   69.9898   35.1321   37.3613    4.9477    4.3998 
 649.2000  215.9000  213.7730   88.0351    1.5052    8.4598    2.4571  303.5043  335.8891    0.2902    2.4476    3.6986    0.3410    7.6238    6.7520    5.9615    4.9967    5.1939    8.2348    7.9692    7.7424    7.6887    7.6935    7.3208   10.3927    0.0997   69.9469   35.1564   37.3613    3.3084    2.9383 
 649.3000  215.9000  213.3300   87.1561    1.4085    9.6017    2.5537  304.8085  336.3883    0.2907    2.4187    3.7156    0.3910    5.9465    5.1735    4.5997    3.6981    3.8688    4.7649    4.4596    4.3609    4.3356    4.3206    3.9422    6.1911    0.0998   70.0193   35.1667   37.3613    1.3912    1.4063 
 649.4000  215.9000  213.7165   87.0329    1.3798    9.8477    2.5595  306.6425  336.5155    0.2898    2.4081    3.7123    0.3957    5.7825    5.0343    4.4641    3.5676    3.7242    4.5559    4.2368    4.1556    4.1298    4.1070    3.7148    5.9412    0.0998   70.0545   35.1782   37.3613    1.0615    1.1530 
 649.5000  215.9000  214.1030   86.9097    1.3512   10.0936    2.5653  308.4766  336.6427    0.2890    2.3976    3.7090    0.4004    5.6185    4.8950    4.3284    3.4371    3.5797    4.3468    4.0140    3.9503    3.9240    3.8935    3.4875    5.6913    0.0998   70.0897   35.1896   37.3613    0.7317    0.8998 
 649.6000  215.9000  215.3460   87.0574    1.2754   10.4920    2.5669  316.8255  336.9445    0.2847    2.3844    3.6612    0.4015    5.8905    4.8871    4.1817    3.2702    3.4016    4.5360    4.1804    4.1342    4.1108    4.0589    3.6498    5.9059    0.0998   70.1273   35.2114   37.3613    0.7355    0.8982 
 649.7000  215.9000  217.3570   89.0134    1.0796   10.7639    2.5821  335.4063  337.5557    0.2726    2.3850    3.5869    0.4008    6.2738    5.1652    4.4196    3.3864    3.4937    4.6064    4.2739    4.2389    4.2206    4.1454    3.7859    5.9478    0.0997   70.0618   35.1790   37.3613    1.1616    1.2613 
 649.8000  215.9000  214.7050   89.8995    1.1632   10.1258    2.4313  340.8748  337.9672    0.2618    2.4317    3.4475    0.3247    6.6672    5.7403    4.8763    3.7751    3.7894    4.3368    4.1316    4.0907    4.0616    3.9168    3.6363    5.6784    0.0996   69.7356   35.1959   37.3613    1.1134    1.3743 
 649.9000  215.9000  214.5875   90.1090    1.1296   10.2636    2.4000  335.5958  337.8770    0.2594    2.4531    3.4346    0.3203    6.5080    5.5431    4.7527    3.7365    3.6889    4.7965    4.6253    4.5814    4.5415    4.3580    4.1005    6.2660    0.0996   69.7132   35.1838   37.3613    0.9409    1.1917 
 650.0000  215.9000  214.4700   90.3185    1.0961   10.4014    2.3687  330.3169  337.7867    0.2570    2.4745    3.4218    0.3160    6.3488    5.3460    4.6291    3.6980    3.5884    5.2561    5.1191    5.0722    5.0214    4.7991    4.5646    6.8536    0.0996   69.6908   35.1716   37.3613    0.7685    1.0091 
 650.1000  215.9000  216.0070   91.2265    1.1843   10.5604    2.3804  319.2208  337.5416    0.2531    2.4961    3.3539    0.3132    5.7342    4.8606    4.1471    3.3169    3.1278    6.0603    5.9305    5.8926    5.8145    5.5304    5.3054    7.8201    0.0996   69.6662   35.1792   37.3613    0.7219    0.9380 
 650.2000  215.9000  218.8010   92.4924    1.3502   10.6867    2.4405  308.5768  337.2523    0.2497    2.5018    3.2156    0.3170    5.0740    4.4180    3.6926    2.8602    2.6939    5.7912    5.6635    5.6395    5.5389    5.2489    5.0224    7.4798    0.0995   69.6518   35.2016   37.3613    1.4101    1.5059 
 650.3000  215.9000  221.7240   96.5356    1.3698   11.6601    2.6036  302.9708  336.5053    0.2438    2.4313    2.8131    0.3661    4.2544    3.7633    3.1318    2.3817    2.2974    4.0218    3.9249    3.9287    3.8158    3.6063    3.4112    5.2514    0.0995   69.5831   35.1854   37.3613    2.0945    1.8847 
