~VERSION INFORMATION
 VERS.                 2.0:   CWLS LOG ASCII STANDARD - VERSION 2.0
 WRAP.                  NO:   SINGLE LINE PER DEPTH STEP
~WELL INFORMATION
#MNEM.UNIT       DATA           DESCRIPTION MNEMONIC
#---------    -------------   --------------------------
 STRT.M         16.0000                       : START DEPTH
 STOP.M         788.0000                      : STOP DEPTH
 STEP.M         0.1000                        : STEP VALUE
 NULL.          -999.0000                     : NULL VALUE
 SRVC.          SCH                           : Service Company/Logging company
 DATE.          09/02/2023                    : LAS file Creation Date
 WELL    .      Каратобе КН-4                 : Well Name
 COMP    .      COMPANY                       : Company
 COUNT   .      Kazakhstan                    : Country
~CURVE INFORMATION
#MNEM          UNIT     API CODE   Description
#---------- ---------- ----------  -----------
 DEPTH     .M                    : Depth Index
 BSC       .mm                   : Nominal Caliper
 CALI      .mm                   : Caliper
 GR        .gAPI                 : Gamma Ray
 URAN      .PPM                  : Uranium
 THOR      .PPM                  : Thorium
 POTA      .%                    : Potasium
 DT        .uSec/m               : Sonic travel time
 HAZIM     .deg                  : Hole Azimuth
 SDEVM     .deg                  : Hole Deviation
 RHOZ      .g/cm3                : Bulk Density
 PEFZ      .B/E                  : Formation Photoelectric Factor 
 TNPH      .v/v                  : Neutron porosity
 AT10      .ohm.m                : 10" Array Induction, two foot resolution Resistivity
 AT20      .ohm.m                : 20" Array Induction, two foot resolution Resistivity
 AT30      .ohm.m                : 30" Array Induction, two foot resolution Resistivity
 AT60      .ohm.m                : 60" Array Induction, two foot resolution Resistivity
 AT90      .ohm.m                : 90" Array Induction, two foot resolution Resistivity
 RLA1      .ohm.m                : HRLT Borehole Corrected Resistivity 1
 RLA2      .ohm.m                : HRLT Borehole Corrected Resistivity 2
 RLA3      .ohm.m                : HRLT Borehole Corrected Resistivity 3
 RLA4      .ohm.m                : HRLT Borehole Corrected Resisitivity 4
 RLA5      .ohm.m                : HRLT Borehole Corrected Resistivity 5 
 RT        .ohm.m                : Formation Resistivity
 RXO       .ohm.m                : Flushed zone resistivity
 AHMF      .ohm.m                : Array Induction Mud Resistivity Fully Calibrated
 SP        .mV                   : Spontaneous Potential
 MTEM      .degC                 : Formation Temperature
 HTEM      .DEGC                 : HTC Temperature
 HMIN      .ohm.m                : HIP Micro Inverse Resistivity
 HMNO      .ohm.m                : HIP Micro Normal Resistivity
~A Log data section
# ...
 424.2000  215.9000  225.3095   99.0437    2.1614    9.8520    2.8788  426.4030   22.5255    0.4848    2.1339    2.6036    0.4367    7.8807    8.3585    9.1070    9.5218   12.0958   26.0380   24.4956   25.6748   26.0657   25.3808   25.8376   21.8163    0.1052   69.9876   33.1511   35.6837    0.6394    0.7342 
 424.3000  215.9000  222.3650  103.2079    2.0968   10.3644    2.9565  424.9004   22.2070    0.4856    2.1443    2.6312    0.4419    6.4513    6.8845    7.1158    7.1758    8.8200   13.9053   13.7715   14.5230   14.6974   14.3059   14.6311   10.7953    0.1052   69.9575   33.1511   35.6837    0.6893    0.7537 
 424.4000  215.9000  218.7520  107.2410    2.0589   11.0350    3.0554  423.1281   21.6204    0.4871    2.1663    2.6694    0.4598    5.0806    5.1312    5.1093    5.0575    6.0793    6.0826    5.9909    6.1508    6.1004    5.9345    6.0503    6.0725    0.1051   69.8892   33.1438   35.6837    0.8067    0.8319 
 424.5000  215.9000  216.2020  108.3638    2.2460   10.9491    3.0241  428.1106   20.9330    0.4890    2.1827    2.6809    0.4680    4.2185    4.2900    4.0599    3.6047    4.6765    4.6110    4.4665    4.5262    4.4108    4.2803    4.1602    5.7490    0.1050   69.7688   33.1613   35.6837    0.9886    0.9570 
 424.6000  215.9000  215.9870  109.1650    2.3206   10.6578    2.9971  437.7711   20.8153    0.4891    2.1815    2.6856    0.4636    4.1549    4.3039    4.0424    3.5397    4.4986    4.4936    4.3767    4.3765    4.2456    4.1024    3.9001    5.8503    0.1050   69.7310   33.1619   35.6837    0.9266    0.9200 
 424.7000  215.9000  215.9415  109.8565    2.3334   10.5532    2.9971  443.1347   20.7877    0.4889    2.1804    2.6841    0.4624    4.1220    4.2948    3.9869    3.4606    4.3597    4.4290    4.3468    4.3177    4.1816    4.0328    3.8204    5.8372    0.1050   69.7180   33.1565   35.6837    0.9705    0.9595 
 424.8000  215.9000  215.8960  110.5480    2.3463   10.4485    2.9971  448.4983   20.7600    0.4887    2.1793    2.6825    0.4611    4.0890    4.2858    3.9314    3.3815    4.2208    4.3645    4.3169    4.2589    4.1176    3.9631    3.7406    5.8241    0.1050   69.7049   33.1511   35.6837    1.0144    0.9989 
 424.9000  215.9000  216.1350  110.7667    2.3552   10.2302    2.9770  447.3668   20.9052    0.4868    2.1732    2.6629    0.4559    4.0162    4.2603    3.8343    3.2899    3.9052    4.2103    4.2730    4.1692    4.0238    3.8554    3.6833    5.7123    0.1050   69.7109   33.1511   35.6837    1.2019    1.1260 
 425.0000  215.9000  216.9280  109.5161    1.9086   10.4929    2.9441  440.8094   21.1907    0.4768    2.1584    2.5864    0.4630    3.9942    4.1300    3.6999    3.1304    3.4819    3.8156    4.0059    3.8782    3.7434    3.5666    3.5090    5.2176    0.1051   69.7900   33.1511   35.6837    1.1204    1.0616 
 425.1000  215.9000  217.2230  103.1031    1.9435   10.4032    2.7479  440.3163   21.2726    0.4726    2.1164    2.5018    0.4727    3.9874    4.0492    3.6065    3.0366    3.3087    3.7751    3.9542    3.8500    3.7198    3.5314    3.4886    5.1239    0.1051   69.8924   33.1511   35.6837    1.0249    0.9973 
 425.2000  215.9000  217.3710   98.8367    1.8909   10.1240    2.6213  441.2677   21.3393    0.4708    2.0729    2.4618    0.4829    3.9995    4.0270    3.5806    3.0199    3.2382    3.8144    3.9638    3.9065    3.7713    3.5736    3.5602    5.0233    0.1051   69.9628   33.1511   35.6837    0.9542    0.9353 
 425.3000  215.9000  217.5190   94.5702    1.8383    9.8448    2.4946  442.2191   21.4061    0.4689    2.0295    2.4217    0.4930    4.0116    4.0048    3.5547    3.0032    3.1677    3.8536    3.9734    3.9631    3.8227    3.6158    3.6317    4.9227    0.1051   70.0332   33.1511   35.6837    0.8836    0.8732 
 425.4000  215.9000  217.7940   84.1869    1.6173    8.8761    2.1906  446.2352   21.5784    0.4656    1.8963    2.3088    0.5238    4.1481    4.1014    3.6208    3.0450    3.1127    3.7729    3.8120    3.8924    3.7550    3.5394    3.5909    4.5191    0.1052   70.2051   33.1511   35.6837    0.7894    0.7949 
 425.5000  215.9000  216.0540   61.5149    1.4646    5.9983    1.4853  463.6975   21.5501    0.4604    1.5743    1.9571    0.7421    4.8163    4.6935    4.1668    3.4389    3.5406    3.5699    3.5792    3.7508    3.6510    3.4345    3.5565    3.8702    0.1052   70.3509   33.1511   35.6837    1.2415    1.1430 
 425.6000  215.9000  215.1520   53.9562    1.3067    4.7667    1.2648  476.0501   21.7282    0.4586    1.4685    1.7424    0.8869    5.2018    5.0297    4.4353    3.6680    3.7276    3.9148    3.9239    4.1303    4.0630    3.8161    3.9516    4.1148    0.1052   70.3828   33.1511   35.6837    1.1987    1.1367 
 425.7000  215.9000  214.9950   52.5974    1.3294    4.6566    1.2522  481.1658   21.7546    0.4586    1.4408    1.6388    0.9373    5.2359    5.1032    4.4927    3.6858    3.7304    4.1651    4.1790    4.3795    4.3424    4.0795    4.2172    4.3165    0.1052   70.3932   33.1511   35.6837    1.1435    1.1317 
 425.8000  215.9000  214.8380   51.2385    1.3521    4.5466    1.2396  486.2816   21.7809    0.4585    1.4130    1.5353    0.9877    5.2701    5.1767    4.5501    3.7035    3.7332    4.4154    4.4342    4.6288    4.6217    4.3429    4.4829    4.5182    0.1052   70.4035   33.1511   35.6837    1.0884    1.1267 
 425.9000  215.9000  214.7200   50.9275    1.4405    4.4867    1.2509  494.8932   21.9415    0.4591    1.4044    1.3858    1.0891    5.2110    5.1436    4.5590    3.6551    3.6682    4.6055    4.5837    4.7335    4.7812    4.4962    4.6374    4.7079    0.1052   70.4088   33.1511   35.6837    1.1590    1.2781 
 426.0000  215.9000  215.1110   52.0229    1.4855    4.4390    1.3040  503.4993   22.8693    0.4613    1.4211    1.3793    1.2169    4.8118    4.7360    4.1923    3.3346    3.2985    5.0559    4.9726    5.0700    5.1523    4.8762    4.9906    5.3496    0.1052   70.4244   33.1511   35.6837    1.4808    1.4996 
 426.1000  215.9000  215.2880   50.0449    1.3788    4.2831    1.2784  503.3353   23.4857    0.4629    1.4229    1.5111    1.1444    4.6341    4.5563    4.0359    3.2579    3.2198    5.2560    5.1469    5.2289    5.3145    5.0483    5.1524    5.5791    0.1052   70.5216   33.1511   35.6837    1.5015    1.3765 
 426.2000  215.9000  215.2870   48.9345    1.3278    4.2187    1.2471  501.9547   23.7664    0.4647    1.4332    1.5805    1.0412    4.5446    4.4657    3.9411    3.1721    3.1304    5.1119    4.9884    5.0575    5.1391    4.8940    4.9809    5.4644    0.1052   70.6181   33.1511   35.6837    1.5172    1.3670 
 426.3000  215.9000  215.2860   47.8241    1.2768    4.1543    1.2158  500.5740   24.0471    0.4664    1.4434    1.6498    0.9381    4.4551    4.3752    3.8462    3.0863    3.0410    4.9678    4.8299    4.8860    4.9638    4.7398    4.8094    5.3498    0.1052   70.7147   33.1511   35.6837    1.5329    1.3576 
 426.4000  215.9000  215.2060   48.9616    1.2872    4.6267    1.2778  495.2591   24.6365    0.4669    1.5004    1.7510    0.8663    4.1916    4.1670    3.6735    2.9473    2.9062    4.3707    4.2210    4.2642    4.3277    4.1757    4.2129    4.6988    0.1052   70.9100   33.1511   35.6837    1.1632    1.0292 
 426.5000  215.9000  214.8730   59.9584    1.6322    5.9331    1.5900  488.5181   25.6905    0.4669    1.7423    1.8794    0.6600    4.0586    4.0527    3.7006    3.0286    2.9554    3.6929    3.5743    3.5889    3.6397    3.5704    3.5777    3.9779    0.1052   71.3689   33.1674   35.6837    0.5318    0.5950 
 426.6000  215.9000  216.5930   68.4430    1.8451    6.5597    1.7953  487.4645   26.0326    0.4657    1.8916    1.9197    0.6069    4.1415    4.0733    3.7264    3.1123    3.0074    3.9148    3.7795    3.7807    3.8280    3.7727    3.7669    4.2536    0.1052   71.5454   33.1773   35.6837    0.4228    0.4903 
 426.7000  215.9000  217.4675   72.2209    1.9481    6.7501    1.8902  486.9405   26.1833    0.4651    1.9543    1.9507    0.5889    4.2601    4.1712    3.8478    3.2140    3.1205    3.9095    3.7708    3.7655    3.8133    3.7608    3.7504    4.2619    0.1051   71.6158   33.1774   35.6837    0.4190    0.4835 
