~VERSION INFORMATION
 VERS.                 2.0:   CWLS LOG ASCII STANDARD - VERSION 2.0
 WRAP.                  NO:   SINGLE LINE PER DEPTH STEP
~WELL INFORMATION
#MNEM.UNIT       DATA           DESCRIPTION MNEMONIC
#---------    -------------   --------------------------
 STRT.M         16.0000                       : START DEPTH
 STOP.M         788.0000                      : STOP DEPTH
 STEP.M         0.1000                        : STEP VALUE
 NULL.          -999.0000                     : NULL VALUE
 SRVC.          SCH                           : Service Company/Logging company
 DATE.          09/02/2023                    : LAS file Creation Date
 WELL    .      Каратобе КН-4                 : Well Name
 COMP    .      COMPANY                       : Company
 COUNT   .      Kazakhstan                    : Country
~CURVE INFORMATION
#MNEM          UNIT     API CODE   Description
#---------- ---------- ----------  -----------
 DEPTH     .M                    : Depth Index
 BSC       .mm                   : Nominal Caliper
 CALI      .mm                   : Caliper
 GR        .gAPI                 : Gamma Ray
 URAN      .PPM                  : Uranium
 THOR      .PPM                  : Thorium
 POTA      .%                    : Potasium
 DT        .uSec/m               : Sonic travel time
 HAZIM     .deg                  : Hole Azimuth
 SDEVM     .deg                  : Hole Deviation
 RHOZ      .g/cm3                : Bulk Density
 PEFZ      .B/E                  : Formation Photoelectric Factor 
 TNPH      .v/v                  : Neutron porosity
 AT10      .ohm.m                : 10" Array Induction, two foot resolution Resistivity
 AT20      .ohm.m                : 20" Array Induction, two foot resolution Resistivity
 AT30      .ohm.m                : 30" Array Induction, two foot resolution Resistivity
 AT60      .ohm.m                : 60" Array Induction, two foot resolution Resistivity
 AT90      .ohm.m                : 90" Array Induction, two foot resolution Resistivity
 RLA1      .ohm.m                : HRLT Borehole Corrected Resistivity 1
 RLA2      .ohm.m                : HRLT Borehole Corrected Resistivity 2
 RLA3      .ohm.m                : HRLT Borehole Corrected Resistivity 3
 RLA4      .ohm.m                : HRLT Borehole Corrected Resisitivity 4
 RLA5      .ohm.m                : HRLT Borehole Corrected Resistivity 5 
 RT        .ohm.m                : Formation Resistivity
 RXO       .ohm.m                : Flushed zone resistivity
 AHMF      .ohm.m                : Array Induction Mud Resistivity Fully Calibrated
 SP        .mV                   : Spontaneous Potential
 MTEM      .degC                 : Formation Temperature
 HTEM      .DEGC                 : HTC Temperature
 HMIN      .ohm.m                : HIP Micro Inverse Resistivity
 HMNO      .ohm.m                : HIP Micro Normal Resistivity
~A Log data section
# ...
 559.4000  215.9000  214.0820  105.7096    1.8103    9.6908    3.0972  406.2171   13.6079    0.3314    2.1318    2.4040    0.3562    3.4005    3.3885    3.0277    2.5032    2.5407    2.8221    2.8605    2.8456    2.8019    2.7347    2.7919    3.0192    0.1011   71.0926   34.5206   37.0817    1.0345    0.9746 
 559.5000  215.9000  213.8150  106.5479    1.7534    9.7895    3.1270  404.8808   13.3472    0.3315    2.1400    2.3932    0.3669    3.3439    3.3784    3.0138    2.4951    2.5333    2.7181    2.7521    2.7411    2.7016    2.6365    2.6890    2.9221    0.1011   71.0678   34.5328   37.0817    1.0275    0.9621 
 559.6000  215.9000  213.7840  108.3395    1.6311    9.8474    3.1535  402.3086   12.9884    0.3310    2.1539    2.3813    0.3789    3.2571    3.3921    3.0014    2.4857    2.5284    2.6829    2.6892    2.6853    2.6475    2.5808    2.6134    3.0018    0.1010   70.9687   34.5460   37.0817    1.1711    1.0663 
 559.7000  215.9000  213.8350  108.9333    1.5996    9.5718    3.1452  400.2160   12.7681    0.3305    2.1610    2.3782    0.3916    3.1129    3.2744    2.9167    2.4448    2.4537    2.7947    2.7859    2.7950    2.7579    2.6899    2.7272    3.0619    0.1010   70.9543   34.5437   37.0817    1.1390    1.0248 
 559.8000  215.9000  213.6750  106.3610    1.5832    8.5032    3.0935  400.5241   12.9301    0.3285    2.1429    2.3981    0.4048    2.8329    3.0346    2.6863    2.2127    2.2694    2.5485    2.4782    2.5015    2.4812    2.4239    2.4183    2.9155    0.1011   71.4041   34.5149   37.0817    1.0287    0.9218 
 559.9000  215.9000  213.5645  105.1464    1.5109    8.4462    3.0948  401.8126   12.9878    0.3280    2.1351    2.3955    0.4063    2.8735    3.1020    2.7648    2.2977    2.3520    2.4978    2.4276    2.4528    2.4360    2.3804    2.3797    2.8270    0.1011   71.5038   34.5158   37.0817    1.0289    0.9299 
 560.0000  215.9000  213.4540  103.9318    1.4386    8.3893    3.0961  403.1011   13.0454    0.3274    2.1273    2.3929    0.4077    2.9142    3.1693    2.8432    2.3828    2.4346    2.4470    2.3770    2.4041    2.3909    2.3369    2.3410    2.7384    0.1011   71.6036   34.5167   37.0817    1.0290    0.9380 
 560.1000  215.9000  213.4400   98.5530    1.3860    8.3554    3.0572  406.6606   12.9566    0.3265    2.1072    2.3923    0.4279    3.2559    3.5233    3.1736    2.6543    2.7292    2.3569    2.3037    2.3207    2.3128    2.2598    2.2695    2.6240    0.1011   71.5025   34.5167   37.0817    1.1341    1.0273 
 560.2000  215.9000  213.6070   96.3038    1.3264    8.2716    2.9952  408.5467   12.8349    0.3259    2.0882    2.3988    0.4271    3.7445    3.9508    3.6835    3.1085    3.3115    2.4746    2.4530    2.4575    2.4569    2.3974    2.4218    2.7048    0.1011   71.2926   34.5232   37.0817    1.1812    1.0986 
 560.3000  215.9000  213.8960   92.0496    1.3370    8.2227    2.9140  412.4430   12.6735    0.3242    2.0714    2.4195    0.4272    4.5263    4.6439    4.2713    3.7633    3.9685    3.4753    3.5075    3.5129    3.5112    3.4132    3.4721    3.6914    0.1011   71.3510   34.5496   37.0817    0.8194    0.8964 
 560.4000  215.9000  213.9815   92.6279    1.3456    8.3559    2.9491  413.1357   12.5914    0.3237    2.0747    2.4349    0.4209    4.3335    4.3960    4.0304    3.5422    3.7401    3.7963    3.8462    3.8618    3.8589    3.7529    3.8159    3.9423    0.1011   71.3242   34.5561   37.0817    0.8097    0.8755 
 560.5000  215.9000  214.0670   93.2062    1.3543    8.4892    2.9842  413.8283   12.5093    0.3231    2.0781    2.4503    0.4147    4.1408    4.1481    3.7895    3.3212    3.5117    4.1173    4.1849    4.2107    4.2067    4.0927    4.1598    4.1932    0.1011   71.2974   34.5627   37.0817    0.8000    0.8545 
 560.6000  215.9000  214.1930   95.3862    1.3430    8.8341    3.0816  414.6472   12.2938    0.3219    2.0988    2.4871    0.4022    3.4278    3.4768    3.1680    2.7142    2.8696    4.1923    4.2603    4.2914    4.2911    4.1808    4.2431    4.0349    0.1011   71.2059   34.5656   37.0817    0.9223    0.8928 
 560.7000  215.9000  214.0980   96.9129    1.2642    9.1619    3.1638  414.4992   12.0303    0.3207    2.1251    2.5409    0.4078    2.8889    3.0182    2.7183    2.2834    2.4025    3.4669    3.4883    3.5094    3.5098    3.4306    3.4863    3.2758    0.1012   71.2466   34.5375   37.0817    0.8817    0.8019 
 560.8000  215.9000  212.4440  107.1646    1.1236    9.9076    3.2387  417.8039   11.4697    0.3175    2.1695    2.6535    0.3972    2.6009    2.7745    2.5056    2.1018    2.2190    2.1972    2.1525    2.1694    2.1745    2.1348    2.1560    2.2820    0.1012   70.9994   34.5417   37.0817    0.7957    0.7576 
 560.9000  215.9000  212.2955  109.0018    1.1644   10.0332    3.2510  418.9698   11.3981    0.3162    2.1707    2.6732    0.3999    2.6230    2.7997    2.5136    2.1122    2.2394    2.1743    2.1235    2.1463    2.1501    2.1135    2.1305    2.2806    0.1012   70.7697   34.5600   37.0817    0.8558    0.8039 
 561.0000  215.9000  212.1470  110.8390    1.2053   10.1588    3.2634  420.1357   11.3266    0.3148    2.1719    2.6929    0.4025    2.6450    2.8249    2.5217    2.1227    2.2598    2.1513    2.0946    2.1231    2.1256    2.0923    2.1050    2.2792    0.1012   70.5400   34.5782   37.0817    0.9160    0.8502 
 561.1000  215.9000  212.3970  112.6838    1.2960   10.3860    3.3282  421.2763   10.8603    0.3138    2.1635    2.7178    0.4044    2.6521    2.8245    2.4878    2.0753    2.2118    2.3155    2.2507    2.2824    2.2809    2.2431    2.2559    2.4768    0.1012   70.3766   34.5711   37.0817    0.9852    0.8935 
 561.2000  215.9000  212.9010  113.4051    1.4079   10.5616    3.4118  421.5050   10.2254    0.3136    2.1509    2.7131    0.4046    2.6199    2.7639    2.4216    1.9924    2.1100    2.3650    2.3031    2.3293    2.3191    2.2797    2.2928    2.5561    0.1013   70.3706   34.5477   37.0817    1.0264    0.9137 
 561.3000  215.9000  213.3390  113.1655    1.7172   10.5120    3.5232  418.5213    8.9809    0.3126    2.1352    2.6986    0.4078    2.5336    2.6826    2.3319    1.8990    1.9837    2.1866    2.1807    2.1661    2.1451    2.1069    2.1277    2.4015    0.1012   70.4072   34.5500   37.0817    1.0338    0.9146 
 561.4000  215.9000  213.3240  113.6290    1.7173   10.5570    3.5329  418.0226    8.7090    0.3124    2.1367    2.6834    0.4092    2.5254    2.6753    2.3066    1.8756    1.9548    2.1716    2.1836    2.1610    2.1369    2.0977    2.1246    2.3784    0.1012   70.4066   34.5345   37.0817    1.0582    0.9362 
 561.5000  215.9000  213.3090  114.0926    1.7173   10.6020    3.5425  417.5238    8.4370    0.3122    2.1383    2.6681    0.4106    2.5171    2.6680    2.2813    1.8521    1.9258    2.1566    2.1865    2.1560    2.1287    2.0885    2.1214    2.3553    0.1012   70.4059   34.5191   37.0817    1.0825    0.9577 
 561.6000  215.9000  213.0620  117.3758    1.7470   10.4141    3.5480  414.9919    8.0693    0.3120    2.1362    2.6393    0.4142    2.5118    2.6297    2.2515    1.8131    1.8744    2.1961    2.2385    2.2079    2.1714    2.1306    2.1704    2.3838    0.1012   70.4182   34.5488   37.0817    1.0400    0.9200 
 561.7000  215.9000  212.9790  117.0444    1.6961   10.5075    3.5298  414.0958    7.6819    0.3118    2.1302    2.5955    0.4225    2.5178    2.6262    2.2419    1.7933    1.8425    2.1878    2.2219    2.2041    2.1606    2.1250    2.1625    2.3668    0.1012   70.4524   34.5656   37.0817    0.9697    0.8576 
 561.8000  215.9000  212.8800  113.0612    1.5161   10.8069    3.4349  425.1467    7.1231    0.3110    2.1204    2.4831    0.4235    2.3986    2.4822    2.1214    1.6816    1.7134    2.1228    2.1095    2.1161    2.0651    2.0361    2.0464    2.4116    0.1012   70.5561   34.5721   37.0817    0.9581    0.8474 
 561.9000  215.9000  212.8570  112.7867    1.5243   10.8643    3.4170  427.1567    7.1042    0.3110    2.1213    2.4646    0.4222    2.3417    2.4156    2.0563    1.6277    1.6521    2.1604    2.1457    2.1533    2.1035    2.0735    2.0889    2.4140    0.1011   70.5368   34.5690   37.0817    0.8685    0.7679 
