~VERSION INFORMATION
 VERS.                 2.0:   CWLS LOG ASCII STANDARD - VERSION 2.0
 WRAP.                  NO:   SINGLE LINE PER DEPTH STEP
~WELL INFORMATION
#MNEM.UNIT       DATA           DESCRIPTION MNEMONIC
#---------    -------------   --------------------------
 STRT.M         16.0000                       : START DEPTH
 STOP.M         788.0000                      : STOP DEPTH
 STEP.M         0.1000                        : STEP VALUE
 NULL.          -999.0000                     : NULL VALUE
 SRVC.          SCH                           : Service Company/Logging company
 DATE.          09/02/2023                    : LAS file Creation Date
 WELL    .      Каратобе КН-4                 : Well Name
 COMP    .      COMPANY                       : Company
 COUNT   .      Kazakhstan                    : Country
~CURVE INFORMATION
#MNEM          UNIT     API CODE   Description
#---------- ---------- ----------  -----------
 DEPTH     .M                    : Depth Index
 BSC       .mm                   : Nominal Caliper
 CALI      .mm                   : Caliper
 GR        .gAPI                 : Gamma Ray
 URAN      .PPM                  : Uranium
 THOR      .PPM                  : Thorium
 POTA      .%                    : Potasium
 DT        .uSec/m               : Sonic travel time
 HAZIM     .deg                  : Hole Azimuth
 SDEVM     .deg                  : Hole Deviation
 RHOZ      .g/cm3                : Bulk Density
 PEFZ      .B/E                  : Formation Photoelectric Factor 
 TNPH      .v/v                  : Neutron porosity
 AT10      .ohm.m                : 10" Array Induction, two foot resolution Resistivity
 AT20      .ohm.m                : 20" Array Induction, two foot resolution Resistivity
 AT30      .ohm.m                : 30" Array Induction, two foot resolution Resistivity
 AT60      .ohm.m                : 60" Array Induction, two foot resolution Resistivity
 AT90      .ohm.m                : 90" Array Induction, two foot resolution Resistivity
 RLA1      .ohm.m                : HRLT Borehole Corrected Resistivity 1
 RLA2      .ohm.m                : HRLT Borehole Corrected Resistivity 2
 RLA3      .ohm.m                : HRLT Borehole Corrected Resistivity 3
 RLA4      .ohm.m                : HRLT Borehole Corrected Resisitivity 4
 RLA5      .ohm.m                : HRLT Borehole Corrected Resistivity 5 
 RT        .ohm.m                : Formation Resistivity
 RXO       .ohm.m                : Flushed zone resistivity
 AHMF      .ohm.m                : Array Induction Mud Resistivity Fully Calibrated
 SP        .mV                   : Spontaneous Potential
 MTEM      .degC                 : Formation Temperature
 HTEM      .DEGC                 : HTC Temperature
 HMIN      .ohm.m                : HIP Micro Inverse Resistivity
 HMNO      .ohm.m                : HIP Micro Normal Resistivity
~A Log data section
# ...
 692.0000  215.9000  212.7090   68.6775    1.7792    5.5875    1.7406  349.5858  342.8022    0.4249    2.2683    2.6987    0.2683   20.0239   17.0321   17.1035   15.4178   16.5491   15.2959   14.4110   14.3632   14.3807   13.6420   12.6906   19.5923    0.0993   69.9147   35.5017   37.3613    2.8323    2.7100 
 692.1000  215.9000  212.2870   69.0588    1.6648    5.6769    1.7118  348.5430  342.7619    0.4250    2.2946    2.7407    0.2548   16.5890   14.9411   13.9610   12.1799   12.9165   13.4131   12.7049   12.6445   12.6879   12.0070   11.2736   17.0535    0.0994   69.8995   35.5134   37.3613    3.0307    2.8891 
 692.2000  215.9000  212.0940   71.0019    1.6283    5.9529    1.7851  345.8566  342.6812    0.4247    2.3380    2.8125    0.2333   15.4653   12.3868   11.7056   10.0218   10.4092   10.3134    9.6665    9.5980    9.6086    9.0351    8.1972   13.3026    0.0994   69.5798   35.5027   37.3613    1.9674    2.1267 
 692.3000  215.9000  210.5590   71.2715    1.6664    5.9604    1.9092  333.3329  342.5179    0.4245    2.4425    3.0392    0.2061   12.2976    9.9892    8.7923    7.0046    7.2924   11.2626   10.4128   10.4588   10.2721    9.6185    8.4379   14.4092    0.0991   68.4846   35.4952   37.3613    5.5407    5.1460 
 692.4000  215.9000  210.4570   71.6682    1.6312    6.1283    1.9252  324.4271  342.3953    0.4240    2.4634    3.1068    0.2066   11.4510    9.3198    8.1018    6.4495    6.6828   10.3568    9.5980    9.6372    9.4263    8.8260    7.7128   13.2909    0.0990   68.4120   35.5010   37.3613    6.2556    5.6928 
 692.5000  215.9000  210.3550   72.0648    1.5961    6.2962    1.9412  315.5212  342.2727    0.4236    2.4844    3.1743    0.2070   10.6045    8.6505    7.4112    5.8944    6.0733    9.4509    8.7832    8.8157    8.5804    8.0335    6.9877   12.1727    0.0989   68.3395   35.5068   37.3613    6.9705    6.2396 
 692.6000  215.9000  211.6470   71.9083    1.5179    6.2972    1.9576  298.2888  342.0097    0.4225    2.5051    3.2585    0.2128    9.3418    7.5864    6.4080    5.0847    5.2888    7.8378    7.3513    7.3741    7.1245    6.6811    5.8290   10.1854    0.0988   68.3084   35.5136   37.3613    6.1361    5.4605 
 692.7000  215.9000  214.8030   70.4927    1.4337    5.8555    1.9549  282.1998  341.7303    0.4212    2.5089    3.2816    0.2242    8.6559    7.1335    6.0856    4.8287    5.1058    6.5798    6.2535    6.2531    6.0153    5.6392    4.9780    8.6004    0.0988   68.4034   35.5136   37.3613    4.5479    4.0627 
 692.8000  215.9000  216.1890   65.6022    1.3567    5.3655    1.8580  277.1842  340.2600    0.4102    2.4867    3.2139    0.2399    7.9867    6.4435    5.4687    4.3179    4.5451    5.7921    5.6817    5.5801    5.3159    4.9833    4.3675    7.8581    0.0988   69.1358   35.4914   37.3613    2.2150    2.1732 
 692.9000  215.9000  216.1590   65.0816    1.3262    5.4671    1.8553  280.0235  340.1483    0.4108    2.4795    3.2004    0.2423    7.8397    6.3251    5.3181    4.2417    4.4332    6.0374    5.9080    5.7869    5.5121    5.1614    4.4790    8.1434    0.0988   69.0321   35.4867   37.3613    2.1962    2.1954 
 693.0000  215.9000  216.1290   64.5611    1.2958    5.5686    1.8525  282.8628  340.0366    0.4113    2.4724    3.1868    0.2447    7.6926    6.2066    5.1675    4.1654    4.3212    6.2828    6.1343    5.9937    5.7083    5.3394    4.5904    8.4286    0.0987   68.9284   35.4820   37.3613    2.1774    2.2177 
 693.1000  215.9000  216.1830   62.5578    1.0440    5.8485    1.9313  295.3639  339.8006    0.4133    2.4521    3.1975    0.2592    7.1923    5.6888    4.7725    3.8106    3.9738    5.8023    5.5986    5.4504    5.1926    4.8617    4.0480    7.5238    0.0987   68.5310   35.4890   37.3613    1.9494    2.0299 
 693.2000  215.9000  216.4490   62.4966    0.8631    6.1741    2.0257  306.3187  339.5732    0.4148    2.4328    3.2132    0.2744    6.6121    5.2239    4.3906    3.5188    3.6332    5.2589    5.0539    4.9058    4.6842    4.3913    3.6299    6.9179    0.0987   68.1617   35.4951   37.3613    1.8493    1.8504 
 693.3000  215.9000  217.4720   67.7974    0.7686    6.6940    2.1348  320.1925  339.1632    0.4143    2.4133    3.2035    0.2984    5.4733    4.4158    3.7547    3.0588    3.1619    4.3122    4.1114    3.9699    3.8079    3.5713    2.9469    6.1444    0.0989   67.8027   35.4962   37.3613    0.7486    0.8981 
 693.4000  215.9000  217.8095   68.2383    0.7391    6.6581    2.1191  325.5211  339.0635    0.4136    2.4114    3.1741    0.3009    5.3850    4.3716    3.6765    3.0027    3.1014    4.1637    3.9560    3.8200    3.6704    3.4426    2.8315    5.9263    0.0990   67.7890   35.4965   37.3613    0.6149    0.7483 
 693.5000  215.9000  218.1470   68.6791    0.7097    6.6223    2.1034  330.8496  338.9638    0.4130    2.4095    3.1448    0.3034    5.2968    4.3273    3.5983    2.9467    3.0408    4.0151    3.8005    3.6701    3.5328    3.3138    2.7161    5.7082    0.0991   67.7754   35.4968   37.3613    0.4812    0.5985 
 693.6000  215.9000  219.5940   69.3357    0.7949    6.2103    2.0238  347.6794  338.7670    0.4114    2.4151    3.0635    0.2979    5.4070    4.3755    3.6313    2.9295    3.0249    3.8959    3.6348    3.5583    3.4379    3.2272    2.6662    5.3753    0.0992   67.8179   35.4954   37.3613    0.5301    0.6444 
 693.7000  215.9000  219.0120   67.8597    0.8243    6.0799    2.0149  344.0033  338.8171    0.3964    2.4248    2.9733    0.2910    5.8825    4.6418    3.9191    3.0847    3.2255    4.1177    3.8182    3.7771    3.6564    3.4305    2.8448    5.3812    0.0994   67.8692   35.5046   37.3613    0.8163    0.9205 
 693.8000  215.9000  217.1800   63.8566    0.8173    5.8829    1.9465  322.0944  339.0456    0.3779    2.4580    2.8782    0.2587    8.2513    6.3835    5.5594    4.2233    4.4480    5.8446    5.4829    5.4314    5.3059    4.9706    4.2873    7.6404    0.0992   67.7948   35.5136   37.3613    3.1161    2.8542 
 693.9000  215.9000  216.6320   62.7212    0.7788    5.9030    1.9381  314.7390  339.1030    0.3763    2.4670    2.8869    0.2496    9.0166    7.0513    6.0928    4.6535    4.8960    6.4751    6.0948    6.0357    5.9286    5.5550    4.8660    8.4640    0.0991   67.8756   35.5097   37.3613    3.7962    3.4169 
 694.0000  215.9000  216.0840   61.5857    0.7402    5.9230    1.9296  307.3837  339.1605    0.3747    2.4760    2.8956    0.2405    9.7818    7.7191    6.6261    5.0837    5.3439    7.1056    6.7067    6.6401    6.5513    6.1394    5.4447    9.2875    0.0990   67.9565   35.5058   37.3613    4.4764    3.9795 
 694.1000  215.9000  215.1380   59.3489    0.6577    5.9427    1.9219  291.6483  339.2459    0.3719    2.4931    2.9267    0.2254   11.0916    8.7031    7.3706    5.6198    5.8305    7.8231    7.3117    7.2458    7.2049    6.7446    5.9631   10.1366    0.0988   68.1815   35.4993   37.3613    3.9981    3.5528 
 694.2000  215.9000  215.2750   57.7142    0.6467    5.6335    1.8854  276.0448  339.2078    0.3708    2.5067    2.9557    0.2181   12.3324    9.7668    8.4400    6.3469    6.5570    8.9861    8.4469    8.4519    8.4428    7.9107    7.2419   11.6477    0.0988   68.2847   35.5101   37.3613    5.0184    4.4630 
 694.3000  215.9000  215.1570   61.4341    0.6733    6.3089    1.9842  268.2236  338.9386    0.3663    2.5018    2.9552    0.2221   12.8018   10.0330    8.8749    6.8409    6.5269   10.1930    9.5169    9.6263    9.6655    9.1256    8.5949   12.8235    0.0987   68.1480   35.5136   37.3613    7.1315    6.3522 
 694.4000  215.9000  215.1570   63.4121    0.6747    6.3439    2.0086  269.6075  338.8840    0.3663    2.4976    2.9376    0.2243   12.2097    9.7639    8.6189    6.8016    6.4116    9.1669    8.5375    8.6485    8.6746    8.2114    7.7164   11.5595    0.0987   68.2439   35.5136   37.3613    6.5500    5.8488 
 694.5000  215.9000  215.1570   65.3901    0.6762    6.3789    2.0329  270.9913  338.8295    0.3663    2.4933    2.9199    0.2265   11.6176    9.4948    8.3629    6.7623    6.2964    8.1408    7.5582    7.6707    7.6837    7.2973    6.8379   10.2954    0.0987   68.3398   35.5136   37.3613    5.9686    5.3454 
