~VERSION INFORMATION
 VERS.                 2.0:   CWLS LOG ASCII STANDARD - VERSION 2.0
 WRAP.                  NO:   SINGLE LINE PER DEPTH STEP
~WELL INFORMATION
#MNEM.UNIT       DATA           DESCRIPTION MNEMONIC
#---------    -------------   --------------------------
 STRT.M         16.0000                       : START DEPTH
 STOP.M         788.0000                      : STOP DEPTH
 STEP.M         0.1000                        : STEP VALUE
 NULL.          -999.0000                     : NULL VALUE
 SRVC.          SCH                           : Service Company/Logging company
 DATE.          09/02/2023                    : LAS file Creation Date
 WELL    .      Каратобе КН-4                 : Well Name
 COMP    .      COMPANY                       : Company
 COUNT   .      Kazakhstan                    : Country
~CURVE INFORMATION
#MNEM          UNIT     API CODE   Description
#---------- ---------- ----------  -----------
 DEPTH     .M                    : Depth Index
 BSC       .mm                   : Nominal Caliper
 CALI      .mm                   : Caliper
 GR        .gAPI                 : Gamma Ray
 URAN      .PPM                  : Uranium
 THOR      .PPM                  : Thorium
 POTA      .%                    : Potasium
 DT        .uSec/m               : Sonic travel time
 HAZIM     .deg                  : Hole Azimuth
 SDEVM     .deg                  : Hole Deviation
 RHOZ      .g/cm3                : Bulk Density
 PEFZ      .B/E                  : Formation Photoelectric Factor 
 TNPH      .v/v                  : Neutron porosity
 AT10      .ohm.m                : 10" Array Induction, two foot resolution Resistivity
 AT20      .ohm.m                : 20" Array Induction, two foot resolution Resistivity
 AT30      .ohm.m                : 30" Array Induction, two foot resolution Resistivity
 AT60      .ohm.m                : 60" Array Induction, two foot resolution Resistivity
 AT90      .ohm.m                : 90" Array Induction, two foot resolution Resistivity
 RLA1      .ohm.m                : HRLT Borehole Corrected Resistivity 1
 RLA2      .ohm.m                : HRLT Borehole Corrected Resistivity 2
 RLA3      .ohm.m                : HRLT Borehole Corrected Resistivity 3
 RLA4      .ohm.m                : HRLT Borehole Corrected Resisitivity 4
 RLA5      .ohm.m                : HRLT Borehole Corrected Resistivity 5 
 RT        .ohm.m                : Formation Resistivity
 RXO       .ohm.m                : Flushed zone resistivity
 AHMF      .ohm.m                : Array Induction Mud Resistivity Fully Calibrated
 SP        .mV                   : Spontaneous Potential
 MTEM      .degC                 : Formation Temperature
 HTEM      .DEGC                 : HTC Temperature
 HMIN      .ohm.m                : HIP Micro Inverse Resistivity
 HMNO      .ohm.m                : HIP Micro Normal Resistivity
~A Log data section
# ...
 333.2000  215.9000  229.2505  128.9706    2.5757   18.2151    2.3186  506.4879  358.8617    0.2107    1.9222    2.2308    0.5616    1.9670    2.0380    1.7673    1.4606    1.4903    1.6543    1.6558    1.6702    1.6561    1.6516    1.6577    1.6867    0.1071   65.1304   32.1287   34.2856    0.3410    0.3964 
 333.3000  215.9000  228.1220  127.8948    2.4966   18.0855    2.3552  508.0565  358.5046    0.2109    1.9291    2.2188    0.5521    2.0459    2.0858    1.8055    1.4901    1.5232    1.7032    1.7100    1.7179    1.7024    1.6969    1.7057    1.7367    0.1071   65.0510   32.1233   34.2856    0.3157    0.3780 
 333.4000  215.9000  226.1620  125.0569    2.3709   17.5176    2.4082  509.7490  357.9922    0.2130    1.9497    2.1926    0.5424    2.1307    2.1513    1.8514    1.5252    1.5806    1.7493    1.7642    1.7627    1.7473    1.7437    1.7535    1.7762    0.1070   64.8359   32.1119   34.2856    0.5371    0.5665 
 333.5000  215.9000  220.7850  119.0832    2.1847   15.9899    2.4581  508.0347  357.4552    0.2216    1.9727    2.1487    0.5199    2.0814    2.2902    1.9558    1.6069    1.6823    1.8903    1.9138    1.8902    1.8657    1.8602    1.8815    1.9294    0.1070   64.5888   32.1116   34.2856    0.2892    0.3440 
 333.6000  215.9000  221.4470  116.5947    2.1319   15.2634    2.5149  502.6097  358.0555    0.2264    1.9749    2.1527    0.5031    2.0391    2.3010    1.9297    1.5866    1.6598    1.8845    1.8895    1.8688    1.8425    1.8365    1.8550    1.9699    0.1070   64.6103   32.1181   34.2856    0.2122    0.2743 
 333.7000  215.9000  224.2610  115.3372    2.1283   14.8618    2.5671  497.9117  358.8358    0.2289    1.9783    2.1672    0.4977    2.0865    2.2878    1.9435    1.5917    1.6631    1.8670    1.8606    1.8483    1.8219    1.8189    1.8340    1.9483    0.1070   64.6189   32.1181   34.2856    0.2325    0.2977 
 333.8000  215.9000  227.0750  114.0797    2.1246   14.4602    2.6193  493.2136  359.6160    0.2313    1.9816    2.1817    0.4923    2.1340    2.2747    1.9574    1.5969    1.6663    1.8494    1.8317    1.8277    1.8014    1.8014    1.8130    1.9266    0.1070   64.6275   32.1181   34.2856    0.2527    0.3211 
 333.9000  215.9000  226.8560  116.3105    2.2021   13.3436    2.7135  487.1036  137.6932    0.2364    1.9983    2.2299    0.4819    2.4058    2.2683    1.9263    1.5613    1.6214    1.8649    1.8356    1.8418    1.8178    1.8198    1.8302    1.9037    0.1071   64.7417   32.1282   34.4585    0.2827    0.3577 
 334.0000  215.9000  227.1250  118.8639    2.0386   12.0159    2.8688  483.2586    3.0490    0.2387    2.0679    2.3366    0.4473    2.8655    2.7462    2.2876    1.8559    1.9170    1.8597    1.7979    1.8181    1.8081    1.8150    1.8116    1.9361    0.1074   65.2323   32.1364   34.3057    0.2622    0.3302 
 334.1000  215.9000  222.3990  117.8745    2.1174   11.1177    2.9541  480.3529    4.4476    0.2336    2.1160    2.3833    0.4041    3.3043    3.1994    2.7495    2.3188    2.3818    1.9214    1.8435    1.8627    1.8679    1.8782    1.8626    1.9848    0.1074   65.6219   32.1365   34.3674    0.4077    0.4766 
 334.2000  215.9000  220.7185  116.8114    2.1073   10.7533    2.9816  476.9354    5.0530    0.2308    2.1396    2.4061    0.3835    3.6358    3.5190    3.0758    2.6442    2.7292    2.0696    1.9827    2.0014    2.0154    2.0262    2.0064    2.1337    0.1074   65.7796   32.1343   34.4133    0.4948    0.5687 
 334.3000  215.9000  219.0380  115.7484    2.0972   10.3889    3.0092  473.5178    5.6584    0.2280    2.1632    2.4289    0.3628    3.9674    3.8386    3.4021    2.9697    3.0767    2.2179    2.1218    2.1401    2.1629    2.1743    2.1502    2.2825    0.1074   65.9374   32.1321   34.4592    0.5819    0.6608 
 334.4000  215.9000  219.3870  112.0559    1.8605   10.0387    3.0097  460.5409    6.6029    0.2227    2.2042    2.4679    0.3295    4.6085    4.5122    4.0315    3.4507    3.5343    2.6812    2.5952    2.6147    2.6547    2.6623    2.6349    2.7930    0.1074   66.1073   32.1200   34.5506    0.7307    0.8233 
 334.5000  215.9000  219.5200  101.2687    1.8153    8.4206    2.9623  420.5961    6.1616    0.2089    2.2444    2.4783    0.3011    5.0559    5.0220    4.5097    3.8010    3.5927    3.7257    3.7087    3.7616    3.8404    3.8612    3.8352    3.3210    0.1074   66.2453   32.1388   34.5652    0.7662    0.8622 
 334.6000  215.9000  220.1860   98.0737    1.6095    7.9353    2.9093  408.2006    6.4621    0.1972    2.2512    2.4677    0.2980    5.0895    4.9957    4.5509    3.8233    3.5457    3.7685    3.7894    3.8672    3.9504    3.9829    4.0117    3.0929    0.1074   66.3034   32.1523   34.5652    0.9709    1.0475 
 334.7000  215.9000  220.0460   96.9214    1.5617    7.7772    2.9576  400.8361    5.1575    0.1925    2.2517    2.4549    0.2975    5.0778    4.9724    4.5791    3.8598    3.5586    3.7896    3.8191    3.9104    3.9924    4.0284    4.0778    3.0469    0.1074   66.2740   32.1536   34.5652    1.0664    1.1145 
 334.8000  215.9000  219.9060   95.7692    1.5138    7.6190    3.0058  393.4716    3.8529    0.1877    2.2523    2.4422    0.2970    5.0660    4.9491    4.6073    3.8964    3.5715    3.8108    3.8488    3.9536    4.0343    4.0739    4.1438    3.0009    0.1074   66.2447   32.1550   34.5652    1.1620    1.1815 
 334.9000  215.9000  219.5480   93.6660    1.4225    7.3983    3.1122  379.5745    1.4425    0.1797    2.2595    2.4114    0.2968    4.9981    4.9105    4.6174    3.9119    3.5983    3.8141    3.8273    3.9479    4.0208    4.0649    4.1145    3.0548    0.1074   66.1709   32.1484   34.5652    1.1099    1.1138 
 335.0000  215.9000  219.2830   89.7156    1.0690    7.4312    3.2131  368.5965  177.1578    0.1723    2.2766    2.4301    0.3053    4.6323    4.8405    4.5517    3.9399    3.6054    3.8506    3.8027    3.9250    4.0032    4.0515    4.0394    3.2491    0.1075   66.1144   32.1271   34.5652    1.2593    1.2930 
 335.1000  215.9000  219.1890   88.7607    0.8780    7.6129    3.2869  369.6683  307.8443    0.1717    2.2816    2.4402    0.3142    4.5550    4.5689    4.3681    3.8380    3.5312    3.9506    3.8790    3.9970    4.0853    4.1385    4.1035    3.3966    0.1076   66.1045   32.1392   34.5652    1.3063    1.3557 
 335.2000  215.9000  219.8110   89.5430    0.8241    7.7220    3.3115  368.2972  189.8089    0.1710    2.2796    2.4504    0.3164    4.5305    4.5236    4.3355    3.8414    3.5136    3.9928    3.9299    4.0350    4.1233    4.1760    4.1368    3.4750    0.1076   66.1089   32.1452   34.5652    1.3079    1.3333 
 335.3000  215.9000  220.4330   90.3253    0.7703    7.8312    3.3361  366.9262   71.7735    0.1704    2.2776    2.4606    0.3187    4.5060    4.4782    4.3028    3.8448    3.4960    4.0351    3.9809    4.0731    4.1613    4.2134    4.1701    3.5534    0.1077   66.1133   32.1513   34.5652    1.3095    1.3110 
 335.4000  215.9000  224.9920   92.6205    0.7551    7.9504    3.3654  367.8780    1.5931    0.1696    2.2593    2.5079    0.3261    4.4034    4.4215    4.0901    3.6061    3.3368    3.9890    3.9299    3.9920    4.0709    4.1171    4.0556    3.7089    0.1076   66.1296   32.1550   34.5652    1.2120    1.2144 
 335.5000  215.9000  230.1770   96.1894    0.7683    8.3495    3.3262  379.5877    4.4755    0.1685    2.2191    2.5944    0.3433    4.0419    4.0869    3.7527    3.2504    3.1217    3.6920    3.6037    3.6281    3.6727    3.7052    3.6599    3.5996    0.1072   66.3051   32.1550   34.5652    1.1162    1.0832 
 335.6000  215.9000  233.2850   95.7782    0.7142    8.1848    3.3026  392.7133    5.7617    0.1691    2.2019    2.6356    0.3541    3.8993    3.9056    3.5604    3.1694    3.0487    3.3989    3.3270    3.3535    3.3729    3.4112    3.3722    3.3488    0.1072   66.5130   32.1532   34.5652    0.9663    0.9938 
 335.7000  215.9000  234.9260   95.2191    0.6751    8.0107    3.2902  399.9575    6.2358    0.1697    2.1950    2.6449    0.3601    3.8236    3.8777    3.4896    3.1537    3.0681    3.3014    3.2220    3.2481    3.2594    3.2960    3.2641    3.2306    0.1072   66.6300   32.1515   34.5652    0.7399    0.7977 
