~VERSION INFORMATION
 VERS.                 2.0:   CWLS LOG ASCII STANDARD - VERSION 2.0
 WRAP.                  NO:   SINGLE LINE PER DEPTH STEP
~WELL INFORMATION
#MNEM.UNIT       DATA           DESCRIPTION MNEMONIC
#---------    -------------   --------------------------
 STRT.M         16.0000                       : START DEPTH
 STOP.M         788.0000                      : STOP DEPTH
 STEP.M         0.1000                        : STEP VALUE
 NULL.          -999.0000                     : NULL VALUE
 SRVC.          SCH                           : Service Company/Logging company
 DATE.          09/02/2023                    : LAS file Creation Date
 WELL    .      Каратобе КН-4                 : Well Name
 COMP    .      COMPANY                       : Company
 COUNT   .      Kazakhstan                    : Country
~CURVE INFORMATION
#MNEM          UNIT     API CODE   Description
#---------- ---------- ----------  -----------
 DEPTH     .M                    : Depth Index
 BSC       .mm                   : Nominal Caliper
 CALI      .mm                   : Caliper
 GR        .gAPI                 : Gamma Ray
 URAN      .PPM                  : Uranium
 THOR      .PPM                  : Thorium
 POTA      .%                    : Potasium
 DT        .uSec/m               : Sonic travel time
 HAZIM     .deg                  : Hole Azimuth
 SDEVM     .deg                  : Hole Deviation
 RHOZ      .g/cm3                : Bulk Density
 PEFZ      .B/E                  : Formation Photoelectric Factor 
 TNPH      .v/v                  : Neutron porosity
 AT10      .ohm.m                : 10" Array Induction, two foot resolution Resistivity
 AT20      .ohm.m                : 20" Array Induction, two foot resolution Resistivity
 AT30      .ohm.m                : 30" Array Induction, two foot resolution Resistivity
 AT60      .ohm.m                : 60" Array Induction, two foot resolution Resistivity
 AT90      .ohm.m                : 90" Array Induction, two foot resolution Resistivity
 RLA1      .ohm.m                : HRLT Borehole Corrected Resistivity 1
 RLA2      .ohm.m                : HRLT Borehole Corrected Resistivity 2
 RLA3      .ohm.m                : HRLT Borehole Corrected Resistivity 3
 RLA4      .ohm.m                : HRLT Borehole Corrected Resisitivity 4
 RLA5      .ohm.m                : HRLT Borehole Corrected Resistivity 5 
 RT        .ohm.m                : Formation Resistivity
 RXO       .ohm.m                : Flushed zone resistivity
 AHMF      .ohm.m                : Array Induction Mud Resistivity Fully Calibrated
 SP        .mV                   : Spontaneous Potential
 MTEM      .degC                 : Formation Temperature
 HTEM      .DEGC                 : HTC Temperature
 HMIN      .ohm.m                : HIP Micro Inverse Resistivity
 HMNO      .ohm.m                : HIP Micro Normal Resistivity
~A Log data section
# ...
 468.4000  215.9000  213.6250  106.0439    1.8110    9.8692    3.0667  445.6290  357.1320    0.3585    2.1343    2.6049    0.4468    3.6089    3.7860    3.4655    2.9748    3.0509    3.2363    3.3909    3.5572    3.4751    3.3225    3.4163    3.0365    0.1035   71.7586   33.5732   36.2429    0.7316    0.7503 
 468.5000  215.9000  214.1550  101.9207    1.9676    9.2478    3.1197  449.0929  358.5189    0.3693    2.1167    2.6746    0.4522    3.9844    4.2081    3.9083    3.4200    3.5048    3.2320    3.3263    3.5366    3.5491    3.3829    3.5018    2.6955    0.1036   71.9022   33.5592   36.2429    0.9678    0.9183 
 468.6000  215.9000  214.7190  101.3887    1.9128    9.1449    3.0612  451.8544  358.9938    0.3741    2.1077    2.6906    0.4510    4.3007    4.5245    4.2259    3.7534    3.8495    3.5125    3.6187    3.8179    3.9030    3.7162    3.8778    2.7610    0.1036   71.9784   33.5619   36.2429    0.9583    0.9140 
 468.7000  215.9000  214.6615  100.6552    1.9946    9.0083    3.0026  453.5772  359.1122    0.3765    2.1049    2.6871    0.4428    4.4496    4.7093    4.4187    3.9570    4.0707    3.6070    3.7154    3.9000    4.0155    3.8262    3.9964    2.7957    0.1037   72.0101   33.5741   36.2429    0.8958    0.8901 
 468.8000  215.9000  214.6040   99.9217    2.0764    8.8716    2.9441  455.3000  359.2307    0.3789    2.1020    2.6836    0.4345    4.5985    4.8941    4.6114    4.1605    4.2918    3.7016    3.8120    3.9821    4.1279    3.9362    4.1151    2.8303    0.1037   72.0418   33.5862   36.2429    0.8333    0.8663 
 468.9000  215.9000  214.3650  102.0006    2.1177    8.7247    2.8888  455.8418  359.1205    0.3838    2.1026    2.6529    0.4299    4.7684    5.1938    4.9797    4.5755    4.6385    3.8911    4.0285    4.1761    4.3635    4.1686    4.3841    2.8919    0.1037   72.0563   33.5940   36.2429    0.7993    0.8611 
 469.0000  215.9000  214.1120  104.5757    2.1665    8.9328    2.8828  455.5087  359.1258    0.3925    2.1138    2.6062    0.4260    4.5960    4.9104    4.5799    4.1015    4.2665    4.3012    4.4727    4.5949    4.7932    4.6546    4.9052    3.1195    0.1037   72.0058   33.5691   36.2429    0.7535    0.7944 
 469.1000  215.9000  214.4060  105.9096    2.1888    9.0440    2.9162  456.8306  359.0547    0.3921    2.1243    2.6347    0.4283    4.2374    4.5889    4.2999    3.7871    3.9286    4.0480    4.1407    4.2500    4.3961    4.3095    4.4336    3.1798    0.1037   71.9637   33.5671   36.2429    0.7681    0.7980 
 469.2000  215.9000  214.6085  106.8853    2.1902    9.0577    2.9348  457.6775  358.9309    0.3905    2.1377    2.6685    0.4312    4.1825    4.5013    4.1590    3.6430    3.8144    3.9277    3.9881    4.0934    4.2164    4.1537    4.2330    3.2005    0.1037   71.9361   33.5719   36.2429    0.8162    0.8229 
 469.3000  215.9000  214.8110  107.8610    2.1915    9.0715    2.9534  458.5244  358.8072    0.3888    2.1511    2.7023    0.4341    4.1276    4.4138    4.0182    3.4989    3.7001    3.8074    3.8355    3.9368    4.0366    3.9978    4.0323    3.2212    0.1036   71.9084   33.5767   36.2429    0.8642    0.8478 
 469.4000  215.9000  214.6530  105.5137    2.1891    9.0566    2.9240  458.2684  358.4404    0.3833    2.1974    2.8118    0.4381    3.9268    4.1817    3.8163    3.2685    3.4068    3.6988    3.7063    3.8067    3.8708    3.8647    3.8691    3.2362    0.1036   71.7577   33.5889   36.2429    0.9184    0.8754 
 469.5000  215.9000  214.8040  100.8136    2.0851    9.2602    2.8028  446.9576  357.7837    0.3735    2.2975    3.0836    0.4207    3.8802    4.1420    3.6561    3.0742    3.1493    3.3447    3.3366    3.3899    3.4175    3.4505    3.4165    3.1171    0.1036   71.5640   33.5610   36.2429    1.0756    1.0564 
 469.6000  215.9000  215.5240   99.0784    1.9174    9.5479    2.7937  432.8513  357.1317    0.3652    2.3155    3.1382    0.4164    3.9456    4.2106    3.7374    3.1345    3.2307    3.3962    3.4182    3.4497    3.4732    3.5315    3.4996    3.1108    0.1036   71.4859   33.5583   36.2429    1.3078    1.2208 
 469.7000  215.9000  215.6370   98.8854    1.8872    9.7785    2.8036  429.1160  356.7866    0.3612    2.3043    3.1428    0.4175    3.9284    4.1283    3.6273    3.0638    3.1365    3.6367    3.7070    3.7363    3.7639    3.8331    3.8420    3.1525    0.1036   71.4212   33.5641   36.2429    1.2503    1.1453 
 469.8000  215.9000  215.7500   98.6924    1.8571   10.0090    2.8134  425.3808  356.4414    0.3572    2.2930    3.1474    0.4187    3.9112    4.0459    3.5171    2.9931    3.0424    3.8771    3.9959    4.0229    4.0547    4.1346    4.1844    3.1942    0.1036   71.3564   33.5699   36.2429    1.1928    1.0699 
 469.9000  215.9000  215.5290   99.5356    1.8917   10.6173    2.8579  423.7947  355.7165    0.3497    2.2523    3.0479    0.4269    3.6336    3.7343    3.2885    2.7784    2.8057    3.7429    3.8152    3.8074    3.8235    3.8959    3.8752    3.3701    0.1036   71.1815   33.5938   36.2429    0.8663    0.8115 
 470.0000  215.9000  214.2750  106.6315    1.8778   10.4357    2.8132  426.1582  354.1880    0.3371    2.1645    2.7330    0.4363    3.2555    3.3541    2.9236    2.4405    2.4141    3.0378    2.9805    2.9711    2.9732    3.0426    3.0027    2.9832    0.1035   70.9066   33.5813   36.2429    0.7291    0.7158 
 470.1000  215.9000  214.9770  108.4479    1.8739   10.1234    2.7485  436.2152  353.4533    0.3333    2.1094    2.5381    0.4397    3.2104    3.3303    2.9287    2.4311    2.3916    2.9311    2.8616    2.8675    2.8685    2.9445    2.8923    2.8804    0.1036   70.7640   33.5935   36.2429    0.6237    0.6488 
 470.2000  215.9000  216.1980  106.4857    1.8210    9.6052    2.6284  447.6515  353.2153    0.3322    2.0596    2.4439    0.4581    3.2452    3.3450    2.9457    2.4430    2.4022    2.9181    2.8466    2.8559    2.8563    2.9324    2.8792    2.8780    0.1037   70.6456   33.5834   36.2429    0.5633    0.6053 
 470.3000  215.9000  217.4190  104.5235    1.7681    9.0870    2.5082  459.0878  352.9772    0.3312    2.0097    2.3496    0.4765    3.2800    3.3597    2.9626    2.4550    2.4129    2.9052    2.8316    2.8444    2.8442    2.9202    2.8661    2.8756    0.1037   70.5273   33.5732   36.2429    0.5028    0.5618 
 470.4000  215.9000  219.3230   97.1533    1.6893    7.9477    2.2372  475.8962  352.5454    0.3299    1.8593    2.1266    0.5163    3.4753    3.4857    3.0407    2.5318    2.4528    2.9915    2.9180    2.9384    2.9347    3.0115    2.9567    2.9446    0.1038   70.3435   33.5706   36.2429    0.4566    0.5297 
 470.5000  215.9000  220.9210   73.4831    1.4543    5.7199    1.5978  491.1706  352.0904    0.3296    1.5295    1.5341    0.6526    3.8287    4.0621    3.5710    2.9656    2.8496    3.0634    3.0548    3.0830    3.0862    3.1671    3.1083    2.9468    0.1038   70.1989   33.5940   36.2429    0.8981    1.0052 
 470.6000  215.9000  219.5100   63.4552    1.2580    5.0172    1.3394  496.1088  352.1852    0.3296    1.4314    1.3157    0.7216    3.8625    4.3047    3.9189    3.2259    3.1265    3.6052    3.6321    3.6709    3.6777    3.7563    3.7182    3.3112    0.1039   70.1098   33.5940   36.2429    0.9600    1.0885 
 470.7000  215.9000  217.3895   60.2141    1.1719    4.8772    1.2757  497.1921  352.3331    0.3295    1.4262    1.2470    0.7318    3.8714    4.2232    3.8880    3.2118    3.1330    3.6526    3.6674    3.7128    3.7208    3.7895    3.7495    3.3905    0.1039   70.0154   33.5940   36.2429    0.9778    1.1008 
 470.8000  215.9000  215.2690   56.9731    1.0859    4.7372    1.2120  498.2754  352.4810    0.3294    1.4210    1.1783    0.7420    3.8804    4.1418    3.8571    3.1976    3.1396    3.7000    3.7027    3.7547    3.7639    3.8227    3.7809    3.4699    0.1039   69.9211   33.5940   36.2429    0.9957    1.1132 
 470.9000  215.9000  216.4700   58.2883    1.2236    4.9819    1.2419  496.5167  353.1696    0.3277    1.4998    1.1980    0.7393    3.7778    3.9803    3.6319    3.0703    3.0256    3.6845    3.6659    3.7323    3.7434    3.7810    3.7420    3.4954    0.1039   69.9445   33.5940   36.2429    0.4596    0.5679 
