~VERSION INFORMATION
 VERS.                 2.0:   CWLS LOG ASCII STANDARD - VERSION 2.0
 WRAP.                  NO:   SINGLE LINE PER DEPTH STEP
~WELL INFORMATION
#MNEM.UNIT       DATA           DESCRIPTION MNEMONIC
#---------    -------------   --------------------------
 STRT.M         16.0000                       : START DEPTH
 STOP.M         788.0000                      : STOP DEPTH
 STEP.M         0.1000                        : STEP VALUE
 NULL.          -999.0000                     : NULL VALUE
 SRVC.          SCH                           : Service Company/Logging company
 DATE.          09/02/2023                    : LAS file Creation Date
 WELL    .      Каратобе КН-4                 : Well Name
 COMP    .      COMPANY                       : Company
 COUNT   .      Kazakhstan                    : Country
~CURVE INFORMATION
#MNEM          UNIT     API CODE   Description
#---------- ---------- ----------  -----------
 DEPTH     .M                    : Depth Index
 BSC       .mm                   : Nominal Caliper
 CALI      .mm                   : Caliper
 GR        .gAPI                 : Gamma Ray
 URAN      .PPM                  : Uranium
 THOR      .PPM                  : Thorium
 POTA      .%                    : Potasium
 DT        .uSec/m               : Sonic travel time
 HAZIM     .deg                  : Hole Azimuth
 SDEVM     .deg                  : Hole Deviation
 RHOZ      .g/cm3                : Bulk Density
 PEFZ      .B/E                  : Formation Photoelectric Factor 
 TNPH      .v/v                  : Neutron porosity
 AT10      .ohm.m                : 10" Array Induction, two foot resolution Resistivity
 AT20      .ohm.m                : 20" Array Induction, two foot resolution Resistivity
 AT30      .ohm.m                : 30" Array Induction, two foot resolution Resistivity
 AT60      .ohm.m                : 60" Array Induction, two foot resolution Resistivity
 AT90      .ohm.m                : 90" Array Induction, two foot resolution Resistivity
 RLA1      .ohm.m                : HRLT Borehole Corrected Resistivity 1
 RLA2      .ohm.m                : HRLT Borehole Corrected Resistivity 2
 RLA3      .ohm.m                : HRLT Borehole Corrected Resistivity 3
 RLA4      .ohm.m                : HRLT Borehole Corrected Resisitivity 4
 RLA5      .ohm.m                : HRLT Borehole Corrected Resistivity 5 
 RT        .ohm.m                : Formation Resistivity
 RXO       .ohm.m                : Flushed zone resistivity
 AHMF      .ohm.m                : Array Induction Mud Resistivity Fully Calibrated
 SP        .mV                   : Spontaneous Potential
 MTEM      .degC                 : Formation Temperature
 HTEM      .DEGC                 : HTC Temperature
 HMIN      .ohm.m                : HIP Micro Inverse Resistivity
 HMNO      .ohm.m                : HIP Micro Normal Resistivity
~A Log data section
# ...
 244.8000  215.9000  217.2240   96.9137    1.5177    8.7940    2.8939  576.6746  348.3108    0.3953    2.0342    2.9348    0.5851    3.3150    4.2970    4.0707    3.6917    3.8583    4.4673    4.3252    4.3089    4.2593    4.1174    3.9588    5.6433    0.1113   73.7786   30.8068   32.8875    0.4591    0.5136 
 244.9000  215.9000  217.6700   93.8407    1.5296    9.0935    2.8814  577.1277  347.9655    0.3968    2.0357    2.9202    0.5596    3.3111    4.2141    3.9169    3.5465    3.6050    4.3698    4.2539    4.2384    4.1877    4.0471    3.9209    5.4726    0.1113   73.8296   30.8080   32.8875    0.4625    0.5166 
 245.0000  215.9000  218.2850   93.1376    1.4160    9.4320    2.8937  577.2792  347.6658    0.3978    2.0302    2.9142    0.5534    3.2762    4.1483    3.8387    3.4493    3.4678    4.2934    4.1935    4.1769    4.1271    3.9901    3.8844    5.3409    0.1113   73.8751   30.8082   32.8875    0.4660    0.5226 
 245.1000  215.9000  219.0860   97.0637    1.0851    9.7788    2.9410  577.1327  348.0983    0.3967    2.0056    2.9167    0.5750    3.2481    4.0238    3.8170    3.3836    3.3513    4.3017    4.2085    4.1925    4.1348    3.9977    3.8885    5.3809    0.1111   73.9806   30.8080   32.8875    0.3762    0.4367 
 245.2000  215.9000  219.1080   98.0280    1.0800    9.7690    2.9455  577.1353  348.2467    0.3959    1.9990    2.9220    0.5821    3.2412    3.9819    3.7640    3.3614    3.3105    4.3180    4.2231    4.2065    4.1482    4.0106    3.8973    5.4108    0.1111   74.0182   30.8082   32.8875    0.3944    0.4448 
 245.3000  215.9000  219.1300   98.9923    1.0748    9.7592    2.9501  577.1379  348.3951    0.3951    1.9923    2.9274    0.5893    3.2343    3.9401    3.7110    3.3391    3.2696    4.3342    4.2377    4.2205    4.1616    4.0235    3.9062    5.4407    0.1110   74.0557   30.8083   32.8875    0.4126    0.4529 
 245.4000  215.9000  219.2730  102.2712    1.0856    9.8355    2.9760  576.8811  347.9707    0.3937    1.9789    2.9317    0.6307    3.1556    3.7992    3.5460    3.2492    3.1732    4.3491    4.2309    4.2127    4.1507    4.0127    3.8630    5.5161    0.1109   74.1374   30.8069   32.8875    0.3495    0.3751 
 245.5000  215.9000  222.2060  101.6407    1.2389    9.6085    2.9598  577.3604  347.7028    0.3941    1.9733    2.9283    0.6014    3.0880    3.6940    3.4388    3.1392    3.1251    4.2570    4.1286    4.1049    4.0423    3.9090    3.7396    5.4314    0.1108   74.0975   30.7975   32.8875    0.3369    0.3639 
 245.6000  215.9000  231.6860  101.0030    1.1755    9.6624    3.0676  578.2584  347.3232    0.3923    1.9671    2.9063    0.6369    3.1544    3.7525    3.5392    3.1211    3.1980    4.1425    3.9932    3.9509    3.8936    3.7646    3.5384    5.3864    0.1107   74.0656   30.8191   32.8875    0.3782    0.4184 
 245.7000  215.9000  231.2975   99.7495    1.2506    9.4675    3.0639  578.5977  347.2541    0.3919    1.9697    2.8994    0.6416    3.2028    3.8177    3.6135    3.1659    3.2510    4.1508    3.9887    3.9486    3.8918    3.7621    3.5224    5.4048    0.1107   74.0655   30.8222   32.8875    0.3820    0.4245 
 245.8000  215.9000  230.9090   98.4961    1.3258    9.2725    3.0602  578.9369  347.1849    0.3915    1.9722    2.8924    0.6464    3.2511    3.8829    3.6878    3.2107    3.3040    4.1591    3.9843    3.9464    3.8900    3.7595    3.5065    5.4232    0.1107   74.0654   30.8253   32.8875    0.3858    0.4306 
 245.9000  215.9000  228.9640   96.8965    1.4592    8.9319    3.0304  579.3504  347.1649    0.3906    1.9808    2.8748    0.6458    3.3582    3.9996    3.8291    3.3432    3.4392    4.1702    3.9873    3.9476    3.8852    3.7533    3.4745    5.4751    0.1107   74.0849   30.8296   32.8875    0.3929    0.4444 
 246.0000  215.9000  228.0970   99.0432    1.3879    9.0374    3.0023  578.9408  347.4200    0.3887    1.9911    2.8574    0.6413    3.4421    4.1589    3.9652    3.4602    3.5727    4.4249    4.1985    4.1519    4.0822    3.9411    3.5912    5.8335    0.1107   74.1562   30.8376   32.8875    0.3958    0.4501 
 246.1000  215.9000  225.3630  100.7687    1.5188    8.6849    2.9298  576.6977  348.7769    0.3848    2.0126    2.8333    0.5698    3.5479    4.3283    4.0735    3.5451    3.6976    4.4798    4.2335    4.1719    4.1033    3.9653    3.5726    5.9118    0.1107   74.2141   30.8421   32.8875    0.4079    0.4655 
 246.2000  215.9000  225.5515  100.6942    1.5443    8.6967    2.9386  575.4117  348.8940    0.3846    2.0159    2.8280    0.5651    3.5869    4.3559    4.0795    3.5529    3.6790    4.4996    4.2371    4.1755    4.1076    3.9692    3.5553    5.9302    0.1107   74.2309   30.8347   32.8875    0.4084    0.4680 
 246.3000  215.9000  225.7400  100.6196    1.5697    8.7085    2.9474  574.1258  349.0112    0.3845    2.0191    2.8227    0.5604    3.6259    4.3835    4.0855    3.5608    3.6605    4.5194    4.2406    4.1792    4.1120    3.9731    3.5381    5.9486    0.1107   74.2476   30.8273   32.8875    0.4089    0.4705 
 246.4000  215.9000  225.5280   99.8316    1.6221    8.7706    2.9498  571.5195  349.1832    0.3833    2.0247    2.8156    0.5581    3.6976    4.4151    4.0952    3.5802    3.6686    4.5083    4.2191    4.1622    4.0919    3.9577    3.5181    5.9170    0.1106   74.2752   30.8251   32.8875    0.4293    0.4965 
 246.5000  215.9000  225.1670   99.0090    1.6677    8.8451    2.9435  568.8259  349.2988    0.3822    2.0255    2.8111    0.5540    3.7351    4.4344    4.0983    3.5751    3.5982    4.4860    4.2587    4.2088    4.1399    4.0062    3.6615    5.9021    0.1106   74.2957   30.8272   32.8875    0.4509    0.5184 
 246.6000  215.9000  224.7570   99.0276    1.8240    8.7806    2.8426  563.1919  349.4323    0.3836    2.0235    2.7936    0.5246    3.8088    4.4690    4.0748    3.5440    3.5027    4.5566    4.2897    4.2684    4.2008    4.0729    3.7256    5.9584    0.1106   74.2881   30.8398   32.8875    0.4540    0.5161 
 246.7000  215.9000  224.4865   98.9483    1.9181    8.6812    2.7945  562.0081  349.5424    0.3839    2.0240    2.7941    0.5285    3.8324    4.4593    4.0756    3.5433    3.5012    4.5630    4.3018    4.2838    4.2198    4.0900    3.7585    5.9541    0.1106   74.2787   30.8471   32.8875    0.4581    0.5202 
 246.8000  215.9000  224.2160   98.8690    2.0123    8.5818    2.7463  560.8242  349.6525    0.3843    2.0246    2.7945    0.5324    3.8559    4.4497    4.0764    3.5426    3.4997    4.5694    4.3138    4.2991    4.2388    4.1072    3.7914    5.9498    0.1106   74.2694   30.8544   32.8875    0.4622    0.5243 
 246.9000  215.9000  223.8120   98.6455    2.1007    8.5309    2.7617  558.8726  349.7471    0.3844    2.0279    2.8022    0.5654    3.8537    4.4725    4.1097    3.5642    3.5089    4.5920    4.3625    4.3399    4.2903    4.1538    3.8728    5.9514    0.1106   74.2055   30.8436   32.8875    0.4759    0.5397 
 247.0000  215.9000  223.3310   97.4777    2.1367    8.4112    2.7576  556.7654  349.3924    0.3848    2.0352    2.8169    0.5755    3.8921    4.5521    4.1826    3.6532    3.5593    4.5670    4.3597    4.3251    4.2830    4.1427    3.8805    5.9088    0.1106   74.2178   30.8270   32.8875    0.4857    0.5495 
 247.1000  215.9000  221.3470   96.2315    1.9995    8.2048    2.8495  552.7937  349.1674    0.3848    2.0529    2.8884    0.5944    4.1090    4.9535    4.6475    4.0724    3.9790    4.6607    4.4743    4.4423    4.4182    4.2733    4.0586    5.9603    0.1107   74.2950   30.8309   32.8875    0.4814    0.5431 
 247.2000  215.9000  221.0820   96.2739    1.9499    8.2249    2.8538  551.0188  349.3456    0.3842    2.0530    2.9100    0.5841    4.1494    5.0080    4.6836    4.1279    4.0190    4.7838    4.5797    4.5545    4.5285    4.3755    4.1429    6.1374    0.1107   74.3002   30.8363   32.8875    0.4694    0.5344 
 247.3000  215.9000  220.8170   96.3163    1.9004    8.2451    2.8581  549.2439  349.5239    0.3837    2.0531    2.9317    0.5738    4.1897    5.0626    4.7197    4.1834    4.0590    4.9070    4.6851    4.6666    4.6388    4.4777    4.2272    6.3145    0.1107   74.3054   30.8418   32.8875    0.4574    0.5258 
