~VERSION INFORMATION
 VERS.                 2.0:   CWLS LOG ASCII STANDARD - VERSION 2.0
 WRAP.                  NO:   SINGLE LINE PER DEPTH STEP
~WELL INFORMATION
#MNEM.UNIT       DATA           DESCRIPTION MNEMONIC
#---------    -------------   --------------------------
 STRT.M         16.0000                       : START DEPTH
 STOP.M         788.0000                      : STOP DEPTH
 STEP.M         0.1000                        : STEP VALUE
 NULL.          -999.0000                     : NULL VALUE
 SRVC.          SCH                           : Service Company/Logging company
 DATE.          09/02/2023                    : LAS file Creation Date
 WELL    .      Каратобе КН-4                 : Well Name
 COMP    .      COMPANY                       : Company
 COUNT   .      Kazakhstan                    : Country
~CURVE INFORMATION
#MNEM          UNIT     API CODE   Description
#---------- ---------- ----------  -----------
 DEPTH     .M                    : Depth Index
 BSC       .mm                   : Nominal Caliper
 CALI      .mm                   : Caliper
 GR        .gAPI                 : Gamma Ray
 URAN      .PPM                  : Uranium
 THOR      .PPM                  : Thorium
 POTA      .%                    : Potasium
 DT        .uSec/m               : Sonic travel time
 HAZIM     .deg                  : Hole Azimuth
 SDEVM     .deg                  : Hole Deviation
 RHOZ      .g/cm3                : Bulk Density
 PEFZ      .B/E                  : Formation Photoelectric Factor 
 TNPH      .v/v                  : Neutron porosity
 AT10      .ohm.m                : 10" Array Induction, two foot resolution Resistivity
 AT20      .ohm.m                : 20" Array Induction, two foot resolution Resistivity
 AT30      .ohm.m                : 30" Array Induction, two foot resolution Resistivity
 AT60      .ohm.m                : 60" Array Induction, two foot resolution Resistivity
 AT90      .ohm.m                : 90" Array Induction, two foot resolution Resistivity
 RLA1      .ohm.m                : HRLT Borehole Corrected Resistivity 1
 RLA2      .ohm.m                : HRLT Borehole Corrected Resistivity 2
 RLA3      .ohm.m                : HRLT Borehole Corrected Resistivity 3
 RLA4      .ohm.m                : HRLT Borehole Corrected Resisitivity 4
 RLA5      .ohm.m                : HRLT Borehole Corrected Resistivity 5 
 RT        .ohm.m                : Formation Resistivity
 RXO       .ohm.m                : Flushed zone resistivity
 AHMF      .ohm.m                : Array Induction Mud Resistivity Fully Calibrated
 SP        .mV                   : Spontaneous Potential
 MTEM      .degC                 : Formation Temperature
 HTEM      .DEGC                 : HTC Temperature
 HMIN      .ohm.m                : HIP Micro Inverse Resistivity
 HMNO      .ohm.m                : HIP Micro Normal Resistivity
~A Log data section
# ...
 380.0000  215.9000  214.6000  105.5725    3.5865    6.9226    2.7988  281.6157   52.0114    0.3356    2.0770    2.9286    0.3475    2.9335    3.9465    3.6789    3.0592    2.4282    4.0261    4.0620    4.2836    4.3539    4.3901    4.5785    2.8532    0.1062   76.2113   32.6583   35.1244    0.5563    0.5355 
 380.1000  215.9000  213.8420  102.2181    3.2475    7.0952    2.7495  321.2327   52.4723    0.3398    2.0393    2.7958    0.3864    2.5233    3.3342    3.1315    2.6166    2.1536    3.1655    3.1037    3.2630    3.3217    3.3567    3.3797    2.5192    0.1062   76.2623   32.6625   35.1244    0.5571    0.5174 
 380.2000  215.9000  213.5570  100.4209    3.0389    7.1290    2.7127  340.9029   52.7361    0.3417    2.0319    2.7445    0.4028    2.4165    3.1464    2.9652    2.5005    2.0831    2.9720    2.8920    3.0307    3.0894    3.1269    3.1168    2.4701    0.1062   76.2767   32.6682   35.1244    0.5565    0.5133 
 380.3000  215.9000  213.2720   98.6237    2.8304    7.1627    2.6759  360.5731   52.9998    0.3437    2.0246    2.6933    0.4191    2.3098    2.9586    2.7989    2.3844    2.0127    2.7784    2.6803    2.7984    2.8571    2.8971    2.8540    2.4209    0.1062   76.2911   32.6738   35.1244    0.5559    0.5092 
 380.4000  215.9000  213.4750   97.0868    2.4696    7.5110    2.7489  394.9557   53.3987    0.3468    2.0223    2.6150    0.4212    2.2291    2.8369    2.7262    2.3560    2.0042    2.6568    2.5459    2.6144    2.6768    2.7169    2.6483    2.5233    0.1062   76.3025   32.6590   35.1244    0.5446    0.4966 
 380.5000  215.9000  214.3620   94.0636    2.2365    7.3188    2.8426  453.6451   54.4011    0.3519    2.0226    2.5246    0.4612    2.1175    2.7836    2.8237    2.5279    2.2083    2.6229    2.6062    2.5762    2.6340    2.6751    2.6286    2.5568    0.1063   76.2795   32.6892   35.1244    0.5434    0.4822 
 380.6000  215.9000  214.4980   91.5115    2.3364    7.0780    2.8991  457.9821   55.0051    0.3524    2.0197    2.4969    0.4615    2.0577    2.7589    2.8530    2.5906    2.3649    2.6184    2.6680    2.6120    2.6536    2.6913    2.6630    2.4787    0.1063   76.2589   32.6798   35.1244    0.5375    0.4762 
 380.7000  215.9000  214.6430   90.7782    2.3419    7.0729    2.9309  459.3371   55.2018    0.3525    2.0180    2.4862    0.4636    2.0220    2.7318    2.8498    2.6074    2.4269    2.5898    2.6676    2.6105    2.6432    2.6832    2.6687    2.3836    0.1063   76.2458   32.6802   35.1244    0.5235    0.4664 
 380.8000  215.9000  214.7880   90.0450    2.3475    7.0678    2.9627  460.6921   55.3984    0.3526    2.0163    2.4755    0.4657    1.9864    2.7047    2.8466    2.6242    2.4888    2.5612    2.6672    2.6090    2.6329    2.6751    2.6743    2.2885    0.1063   76.2327   32.6807   35.1244    0.5095    0.4566 
 380.9000  215.9000  215.1950   89.5314    2.2874    7.2442    3.0302  462.0521   55.6168    0.3525    2.0141    2.4590    0.4724    1.9301    2.6821    2.8234    2.6313    2.6002    2.4875    2.6418    2.5969    2.5995    2.6440    2.6917    2.0720    0.1062   76.2015   32.6897   35.1244    0.5078    0.4532 
 381.0000  215.9000  214.9860   95.7487    2.3590    7.2531    2.9740  462.8852   55.6889    0.3510    2.0173    2.4444    0.4418    1.8565    2.6887    2.8189    2.6382    2.7831    2.2954    2.4825    2.5200    2.4771    2.5232    2.6737    1.6800    0.1061   76.0939   32.6782   35.1244    0.5228    0.4682 
 381.1000  215.9000  214.5680  100.2196    2.4403    7.0375    2.9339  463.2362   55.5561    0.3490    2.0280    2.4596    0.4346    1.8417    2.7166    2.8335    2.6562    2.8617    2.2489    2.4600    2.5493    2.5119    2.5435    2.7878    1.5445    0.1061   76.0308   32.6917   35.1244    0.5232    0.4701 
 381.2000  215.9000  214.4720  101.3524    2.4761    6.8948    2.9201  462.0918   55.4541    0.3483    2.0345    2.4811    0.4297    1.8433    2.7407    2.8582    2.7034    2.9279    2.2448    2.4629    2.5619    2.5304    2.5580    2.8296    1.5368    0.1061   76.0229   32.6971   35.1244    0.5271    0.4724 
 381.3000  215.9000  214.3760  102.4853    2.5119    6.7521    2.9063  460.9474   55.3521    0.3477    2.0409    2.5026    0.4248    1.8450    2.7648    2.8828    2.7505    2.9940    2.2406    2.4659    2.5746    2.5490    2.5725    2.8715    1.5290    0.1061   76.0149   32.7025   35.1244    0.5310    0.4746 
 381.4000  215.9000  214.4610  104.4612    2.5393    6.4689    2.8610  456.4201   55.0814    0.3462    2.0539    2.5580    0.4119    1.8687    2.8704    2.9877    2.8906    3.2449    2.2303    2.4571    2.5701    2.5615    2.5650    2.8813    1.5107    0.1061   75.9755   32.6974   35.1244    0.5925    0.5284 
 381.5000  215.9000  215.2990  105.0289    2.5854    6.0755    2.7604  445.3029   54.1781    0.3427    2.0641    2.6377    0.4050    1.9542    3.0615    3.1943    3.2233    3.5597    2.4093    2.6977    2.8411    2.8536    2.8326    3.2735    1.6612    0.1060   75.8370   32.6740   35.1244    0.6892    0.6090 
 381.6000  215.9000  215.4710  104.9530    2.6546    5.9803    2.7731  442.0460   53.5770    0.3411    2.0581    2.6224    0.4102    1.9417    3.0391    3.1410    3.1710    3.4432    2.4094    2.6959    2.8547    2.8804    2.8479    3.3176    1.6657    0.1060   75.7730   32.6696   35.1244    0.5997    0.5298 
 381.7000  215.9000  215.3700  105.8471    2.6814    5.9378    2.8121  440.7296   53.2516    0.3404    2.0547    2.5971    0.4079    1.9321    3.0166    3.0860    3.1056    3.3365    2.3488    2.6323    2.7878    2.8194    2.7859    3.2570    1.6435    0.1059   75.7447   32.6622   35.1244    0.5863    0.5179 
 381.8000  215.9000  215.2690  106.7412    2.7082    5.8953    2.8511  439.4131   52.9263    0.3397    2.0513    2.5718    0.4056    1.9225    2.9941    3.0310    3.0401    3.2297    2.2882    2.5687    2.7209    2.7585    2.7238    3.1964    1.6213    0.1059   75.7164   32.6548   35.1244    0.5730    0.5061 
 381.9000  215.9000  214.6730  105.4190    2.7284    5.8950    2.8800  438.3808   51.8960    0.3393    2.0426    2.5115    0.4163    1.9057    2.9690    2.9946    3.0154    3.2268    2.2969    2.5866    2.7268    2.7810    2.7395    3.2199    1.6230    0.1058   75.6520   32.6661   35.1244    0.5450    0.4814 
 382.0000  215.9000  214.2710  104.0182    2.8966    5.9029    2.9414  444.1523   50.1846    0.3401    2.0341    2.4224    0.4071    1.8784    2.8282    2.9116    2.8958    3.1286    2.2602    2.5479    2.6588    2.7112    2.6771    3.1173    1.5706    0.1057   75.4953   32.7047   35.1244    0.4875    0.4305 
 382.1000  215.9000  214.0330  101.7641    2.8355    5.9641    2.9429  448.7192   49.6933    0.3409    2.0297    2.4302    0.4188    1.8896    2.7818    2.8278    2.7732    2.9970    2.2370    2.4827    2.6069    2.6578    2.6315    3.0319    1.5291    0.1057   75.3809   32.6983   35.1244    0.4675    0.4136 
 382.2000  215.9000  213.9470  101.0606    2.8122    6.0067    2.9485  451.0092   49.5068    0.3415    2.0286    2.4439    0.4251    1.8825    2.7913    2.8219    2.7471    2.9689    2.2387    2.4586    2.5847    2.6332    2.6079    2.9729    1.5120    0.1057   75.3128   32.6943   35.1244    0.4585    0.4066 
 382.3000  215.9000  213.8610  100.3571    2.7888    6.0493    2.9540  453.2993   49.3202    0.3421    2.0274    2.4576    0.4315    1.8753    2.8009    2.8160    2.7209    2.9407    2.2404    2.4345    2.5624    2.6086    2.5843    2.9140    1.4949    0.1057   75.2447   32.6903   35.1244    0.4495    0.3996 
 382.4000  215.9000  213.9460  101.7683    2.8553    6.1603    3.0012  457.9363   49.0926    0.3437    2.0327    2.4958    0.4352    1.8246    2.6542    2.6766    2.5834    2.7943    2.2368    2.4141    2.5348    2.5861    2.5659    2.8694    1.4850    0.1058   75.0739   32.6917   35.1244    0.4496    0.4010 
 382.5000  215.9000  213.1760  111.6791    3.4066    6.4435    3.1607  463.0612   49.0438    0.3473    2.0814    2.5366    0.4074    1.6158    2.3228    2.2089    2.0255    2.1499    1.9921    2.1614    2.2439    2.2864    2.2749    2.5338    1.3129    0.1059   74.7643   32.6931   35.1244    0.4425    0.3998 
