~VERSION INFORMATION
 VERS.                 2.0:   CWLS LOG ASCII STANDARD - VERSION 2.0
 WRAP.                  NO:   SINGLE LINE PER DEPTH STEP
~WELL INFORMATION
#MNEM.UNIT       DATA           DESCRIPTION MNEMONIC
#---------    -------------   --------------------------
 STRT.M         16.0000                       : START DEPTH
 STOP.M         788.0000                      : STOP DEPTH
 STEP.M         0.1000                        : STEP VALUE
 NULL.          -999.0000                     : NULL VALUE
 SRVC.          SCH                           : Service Company/Logging company
 DATE.          09/02/2023                    : LAS file Creation Date
 WELL    .      Каратобе КН-4                 : Well Name
 COMP    .      COMPANY                       : Company
 COUNT   .      Kazakhstan                    : Country
~CURVE INFORMATION
#MNEM          UNIT     API CODE   Description
#---------- ---------- ----------  -----------
 DEPTH     .M                    : Depth Index
 BSC       .mm                   : Nominal Caliper
 CALI      .mm                   : Caliper
 GR        .gAPI                 : Gamma Ray
 URAN      .PPM                  : Uranium
 THOR      .PPM                  : Thorium
 POTA      .%                    : Potasium
 DT        .uSec/m               : Sonic travel time
 HAZIM     .deg                  : Hole Azimuth
 SDEVM     .deg                  : Hole Deviation
 RHOZ      .g/cm3                : Bulk Density
 PEFZ      .B/E                  : Formation Photoelectric Factor 
 TNPH      .v/v                  : Neutron porosity
 AT10      .ohm.m                : 10" Array Induction, two foot resolution Resistivity
 AT20      .ohm.m                : 20" Array Induction, two foot resolution Resistivity
 AT30      .ohm.m                : 30" Array Induction, two foot resolution Resistivity
 AT60      .ohm.m                : 60" Array Induction, two foot resolution Resistivity
 AT90      .ohm.m                : 90" Array Induction, two foot resolution Resistivity
 RLA1      .ohm.m                : HRLT Borehole Corrected Resistivity 1
 RLA2      .ohm.m                : HRLT Borehole Corrected Resistivity 2
 RLA3      .ohm.m                : HRLT Borehole Corrected Resistivity 3
 RLA4      .ohm.m                : HRLT Borehole Corrected Resisitivity 4
 RLA5      .ohm.m                : HRLT Borehole Corrected Resistivity 5 
 RT        .ohm.m                : Formation Resistivity
 RXO       .ohm.m                : Flushed zone resistivity
 AHMF      .ohm.m                : Array Induction Mud Resistivity Fully Calibrated
 SP        .mV                   : Spontaneous Potential
 MTEM      .degC                 : Formation Temperature
 HTEM      .DEGC                 : HTC Temperature
 HMIN      .ohm.m                : HIP Micro Inverse Resistivity
 HMNO      .ohm.m                : HIP Micro Normal Resistivity
~A Log data section
# ...
 200.6000  215.9000  213.4820   78.3137    0.5881    5.9549    2.8136  500.4856  301.5966    0.2941    2.0646    2.3539    0.4004    2.0290    3.1434    3.3320    3.4339    3.4558    2.6445    2.9314    3.0841    3.1292    3.2120    3.6632    1.7392    0.1113   78.2090   30.3831   32.3282    0.5921    0.5256 
 200.7000  215.9000  213.5015   77.9510    0.5727    5.9893    2.8133  500.5450  301.5341    0.2921    2.0633    2.3530    0.4013    2.0412    3.1681    3.3742    3.4785    3.4905    2.6646    2.9646    3.1156    3.1616    3.2455    3.7087    1.7497    0.1113   78.2543   30.3834   32.3282    0.5950    0.5316 
 200.8000  215.9000  213.5210   77.5882    0.5574    6.0236    2.8130  500.6045  301.4716    0.2901    2.0619    2.3520    0.4022    2.0533    3.1928    3.4164    3.5230    3.5252    2.6848    2.9977    3.1470    3.1941    3.2790    3.7542    1.7602    0.1114   78.2996   30.3837   32.3282    0.5979    0.5376 
 200.9000  215.9000  213.6410   77.2477    0.4479    6.3674    2.9044  500.2690  301.2525    0.2855    2.0549    2.3688    0.4012    2.0445    3.1689    3.3877    3.4171    3.3934    2.7355    3.0434    3.1802    3.2274    3.3121    3.7773    1.8557    0.1114   78.4875   30.3810   32.3282    0.5872    0.5439 
 201.0000  215.9000  213.7480   79.6506    0.5532    6.3446    2.9402  498.8707  300.9171    0.2822    2.0494    2.3853    0.4301    2.0086    3.0782    3.2454    3.2636    3.2233    2.7813    3.0808    3.2045    3.2530    3.3360    3.8075    2.0305    0.1114   78.5399   30.3935   32.3282    0.5822    0.5336 
 201.1000  215.9000  213.8180   84.0346    0.7009    6.4205    2.9755  498.4853  300.7256    0.2791    2.0343    2.4582    0.4567    1.9619    3.0481    3.1632    3.0613    3.0545    2.6340    2.8688    2.9698    3.0226    3.0984    3.4644    1.8669    0.1115   78.3656   30.3833   32.3282    0.6254    0.5596 
 201.2000  215.9000  214.0230   85.3043    0.7721    6.4054    2.9322  499.0026  300.7324    0.2775    2.0336    2.4692    0.4586    1.9800    3.0991    3.2206    3.0701    3.0677    2.6219    2.8658    2.9686    3.0268    3.1045    3.4941    1.8968    0.1116   78.2854   30.3881   32.3282    0.6453    0.5743 
 201.3000  215.9000  214.2280   86.5740    0.8433    6.3903    2.8889  499.5198  300.7392    0.2759    2.0330    2.4802    0.4605    1.9981    3.1502    3.2780    3.0790    3.0810    2.6098    2.8628    2.9675    3.0309    3.1105    3.5238    1.9267    0.1116   78.2052   30.3928   32.3282    0.6653    0.5891 
 201.4000  215.9000  214.3900   88.5851    0.9543    6.4003    2.7828  500.7090  300.7168    0.2723    2.0363    2.4989    0.4596    2.0216    3.2284    3.3764    3.0904    3.0655    2.6994    2.9547    3.0690    3.1381    3.2204    3.6487    1.9746    0.1116   78.0444   30.3988   32.3282    0.6642    0.5893 
 201.5000  215.9000  213.7640   89.0292    0.9411    6.5681    2.6822  501.9748  300.6193    0.2688    2.0489    2.5108    0.4473    2.0374    3.3163    3.4316    3.1253    3.0137    2.7266    2.9590    3.0803    3.1526    3.2336    3.6352    1.9417    0.1116   77.8902   30.3841   32.3282    0.6598    0.5931 
 201.6000  215.9000  213.0830   87.1757    0.8962    7.2453    2.5562  503.9356  300.7605    0.2635    2.0872    2.5525    0.4497    2.0488    3.5141    3.5487    3.3436    3.0612    2.8015    2.9955    3.1365    3.2168    3.2879    3.6606    1.9596    0.1116   78.1161   30.3844   32.3282    0.6974    0.6605 
 201.7000  215.9000  213.2385   86.8750    0.8881    7.3900    2.5607  502.7812  300.9302    0.2629    2.0939    2.5721    0.4412    2.0474    3.5371    3.5647    3.3608    3.0675    2.8603    3.0631    3.2106    3.2950    3.3640    3.7569    2.0053    0.1116   78.2640   30.3918   32.3282    0.6719    0.6491 
 201.8000  215.9000  213.3940   86.5742    0.8801    7.5348    2.5652  501.6267  301.0999    0.2623    2.1006    2.5917    0.4326    2.0460    3.5602    3.5807    3.3781    3.0738    2.9191    3.1308    3.2848    3.3732    3.4402    3.8531    2.0510    0.1116   78.4119   30.3991   32.3282    0.6465    0.6377 
 201.9000  215.9000  213.5400   86.8350    0.8505    8.0819    2.6629  495.9207  301.7646    0.2619    2.1016    2.6472    0.4132    2.0704    3.6677    3.6053    3.3707    3.0598    2.9180    3.1460    3.3068    3.4022    3.4591    3.9104    2.0506    0.1115   78.5280   30.3925   32.3282    0.6683    0.6477 
 202.0000  215.9000  213.5360   89.1004    0.8190    8.7524    2.8065  489.8658  302.8940    0.2645    2.0833    2.6948    0.3950    2.0609    3.6851    3.7767    3.4729    3.0791    2.7084    2.9130    3.0618    3.1570    3.1960    3.6038    1.8956    0.1115   78.5595   30.3812   32.3282    0.6432    0.6167 
 202.1000  215.9000  213.1220  104.6348    0.7907   10.4129    3.1714  486.0945  306.7972    0.2813    2.0383    2.6706    0.3871    2.0166    3.5898    3.7807    3.8769    3.1931    3.2398    3.5516    3.7534    3.8817    3.8959    4.4691    2.1394    0.1114   78.5067   30.3902   32.3282    0.5059    0.4706 
 202.2000  215.9000  213.1460  107.4307    0.7984   10.8316    3.2493  485.5855  307.2551    0.2808    2.0289    2.6557    0.3900    1.9633    3.4910    3.6830    3.8569    3.2162    3.1768    3.4832    3.6826    3.8080    3.8185    4.3845    2.0973    0.1114   78.4930   30.3928   32.3282    0.5024    0.4621 
 202.3000  215.9000  213.1700  110.2266    0.8061   11.2504    3.3272  485.0765  307.7130    0.2804    2.0196    2.6409    0.3929    1.9100    3.3923    3.5852    3.8369    3.2392    3.1139    3.4147    3.6118    3.7342    3.7411    4.2999    2.0552    0.1114   78.4792   30.3955   32.3282    0.4988    0.4535 
 202.4000  215.9000  213.1700  116.4116    0.9397   11.3970    3.4008  485.8912  308.6026    0.2796    2.0086    2.6080    0.3905    1.8480    3.1591    3.3880    3.7214    3.3091    2.9190    3.2225    3.4186    3.5325    3.5380    4.0944    1.9084    0.1113   78.4392   30.3847   32.3282    0.4873    0.4351 
 202.5000  215.9000  213.1630  116.5547    1.0010   11.4741    3.4281  489.4554  309.5626    0.2789    2.0069    2.5833    0.3957    1.7955    2.9583    3.2221    3.5225    3.3071    2.7745    3.0877    3.2915    3.3850    3.3857    3.9514    1.8008    0.1113   78.3772   30.3824   32.3282    0.4888    0.4318 
 202.6000  215.9000  213.1520  110.3755    0.8663   11.4869    3.3600  494.0825  311.4498    0.2768    1.9994    2.5734    0.3975    1.6867    2.6769    2.9474    3.4531    3.4768    2.5555    2.9162    3.1479    3.2180    3.2161    3.8392    1.5853    0.1112   78.1842   30.4055   32.3282    0.4490    0.3966 
 202.7000  215.9000  213.1525  108.6099    0.8959   11.3234    3.3096  494.1809  311.8650    0.2769    1.9981    2.5652    0.3938    1.6761    2.6416    2.9224    3.4039    3.5674    2.5213    2.8839    3.1119    3.1803    3.1774    3.7969    1.5559    0.1112   78.1176   30.4110   32.3282    0.4401    0.3887 
 202.8000  215.9000  213.1530  106.8443    0.9255   11.1599    3.2593  494.2794  312.2802    0.2770    1.9969    2.5570    0.3900    1.6656    2.6063    2.8974    3.3548    3.6580    2.4870    2.8516    3.0760    3.1427    3.1386    3.7547    1.5264    0.1112   78.0509   30.4166   32.3282    0.4311    0.3808 
 202.9000  215.9000  213.1560  103.0042    1.1065   10.6397    3.1352  494.6123  313.1078    0.2787    1.9947    2.5424    0.3824    1.6736    2.5782    2.8946    3.1955    3.6768    2.4113    2.8197    3.0173    3.0841    3.0799    3.7100    1.4417    0.1112   77.9002   30.4213   32.3282    0.4236    0.3742 
 203.0000  215.9000  213.1650  102.2639    0.9630   10.5960    3.0847  494.4897  314.6409    0.2870    1.9932    2.5252    0.3899    1.6925    2.5805    2.8687    3.0544    3.7062    2.3813    2.8712    3.0365    3.0983    3.0954    3.7683    1.3717    0.1111   77.6914   30.4160   32.3282    0.4174    0.3687 
 203.1000  215.9000  213.6230  101.2141    0.7885   10.5928    3.0896  492.2747  317.0398    0.2876    1.9953    2.4848    0.4093    1.7634    2.6496    2.8660    2.9650    3.7878    2.3847    2.8708    3.0067    3.0590    3.0526    3.6885    1.3974    0.1111   77.2516   30.3665   32.3282    0.4299    0.3797 
