~Version
 VERS              .         3.0                           : CWLS LOG ASCII STANDARD - VERSION 3.0
 WRAP              .         NO                            : ONE LINE PER DEPTH STEP
 DLM               .         SPACE                         : DELIMITING CHARACTER(SPACE TAB OR COMMA)
~Well Information
#_______________________________________________________________________________
#
#PARAMETER_NAME    .UNIT     VALUE                         : DESCRIPTION
#_______________________________________________________________________________
STRT               .M        2                             : First reference value
STOP               .M        863                           : Last reference value
STEP               .M        0.1                           : Step increment
NULL               .         -9999                         : Missing value
COMP               .         COMPANY NAME                  : Company
WELL               .         G-29                          : Well name
FLD                .         UZEN                          : Field
LOC                .                                       : Location
SRVC               .         AO "UPGF"                     : Service Company
CTRY               .         CO                            : Country
DATE               .         20/2/2022                     : Service Date
X                  .                                       : X or East-West coordinate
Y                  .                                       : Y or North South coordinate
GDAT               .                                       : Geodetic Datum
HZCS               .                                       : Horizontal Co-ordinate System
COUNTRY            .         COUNTRY                       : KAZAKHSTAN
EREF               .m        144.9                         : 
GRP                .                                       : Group name
ISS                .                                       : Well surveys
PROV               .         PROVINCE                      : AKTAU AREA
TIME               .                                       : LOG TIME
~Parameter Information Block
#_______________________________________________________________________________
#
#PARAMETER_NAME    .UNIT     VALUE                         : DESCRIPTION
#_______________________________________________________________________________
SET                .         Las                           : 
TLFamily_CALI      .         Caliper                       : 
TLFamily_GR        .         Russian Gamma Ray             : 
TLFamily_MD        .         Measured Depth                : 
TLFamily_NPHI      .         Neutron Porosity              : 
TLFamily_PS        .         Spontaneous Potential         : 
TLFamily_Resistivity .         Resistivity                   : 
TLFamily_VSH_GR    .         Shale Volume                  : 
~Curve Information
#_______________________________________________________________________________
#
#LOGNAME           .UNIT     LOG_ID                        : DESCRIPTION
#_______________________________________________________________________________
MD                 .M                                      : Depth {F}
CALI               .mm                                     :  {F}
GR                 .мкР/ч                                  : ГК(мкр/ч) -    33.3 см {F}
NPHI               .%                                      :  {F}
PS                 .mV                                     :  {F}
Resistivity        .OHMM                                   :  {F}
VSH_GR             .unitless                               : Shale volume fraction from Gamma Ray {F}
~Ascii
# ...
312.9      198.94     9.43       56.17492   13.17      2.67       0.5923614 
313        199.21     9.47       56.17492   13.11      2.84       0.6006251 
313.1      199.48     9.45       56.99072   13.05      3          0.5964806 
313.2      199.75     9.43       57.82697   12.98      3.17       0.5923614 
313.3      200.02     9.41       58.68447   12.92      3.38       0.588267  
313.4      200.29     9.39       60.46644   12.86      3.6        0.5841976 
313.5      200.55     9.36       61.39267   12.79      4.07       0.5781395 
313.6      200.82     9.34       62.34364   12.73      4.55       0.5741315 
313.7      201.09     9.32       63.32033   12.66      5.02       0.5701477 
313.8      201.36     9.3        64.32379   12.6       5.49       0.5661881 
313.9      201.63     9.28       64.32379   12.54      5.72       0.5622523 
314        201.9      9.26       65.35513   12.47      5.96       0.5583407 
314.1      202.17     9.24       64.32379   12.41      5.7        0.5544526 
314.2      202.44     9.23       64.32379   12.34      5.45       0.5525174 
314.3      202.71     9.28       64.32379   12.19      5.2        0.5622523 
314.4      202.98     9.33       63.32033   12.05      4.95       0.5721366 
314.5      202.76     9.38       63.32033   11.89      4.7        0.5821721 
314.6      202.53     9.43       62.34364   11.74      4.45       0.5923614 
314.7      202.29     9.48       62.34364   11.58      4.2        0.6027066 
314.8      202.05     9.53       61.39267   11.43      3.95       0.6132104 
314.9      201.81     9.57       61.39267   11.27      3.69       0.6217292 
315        201.57     9.62       60.46644   11.12      3.44       0.6325244 
315.1      201.32     9.67       60.46644   10.97      3.17       0.643485  
315.2      201.08     9.72       60.46644   10.81      2.9        0.6546136 
315.3      200.84     9.77       60.46644   10.66      2.85       0.6659124 
315.4      200.6      9.82       60.46644   10.5       2.81       0.6773843 
315.5      200.36     9.78       59.56401   10.35      2.85       0.6681927 
315.6      200.11     9.74       59.56401   10.2       2.89       0.6591123 
315.7      199.87     9.67       59.56401   10.05      2.94       0.643485  
315.8      199.63     9.61       59.56401   9.91       2.98       0.6303521 
315.9      199.44     9.54       59.56401   10         3.02       0.6153304 
316        199.25     9.48       59.56401   10.09      3.07       0.6027066 
316.1      199.07     9.41       60.46644   10.18      3.11       0.588267  
316.2      198.9      9.34       60.46644   10.27      3.16       0.5741315 
316.3      198.72     9.28       60.46644   10.35      3.2        0.5622523 
316.4      198.55     9.22       60.46644   10.44      3.24       0.5505883 
316.5      198.37     9.29       60.46644   10.53      3.29       0.5642172 
316.6      198.2      9.35       59.56401   10.62      3.33       0.5761326 
316.7      198.02     9.41       58.68447   10.71      3.38       0.588267  
316.8      197.85     9.48       58.68447   10.79      3.43       0.6027066 
316.9      197.67     9.54       58.68447   10.88      3.48       0.6153304 
317        197.5      9.6        58.68447   10.97      3.53       0.6281868 
317.1      197.32     9.59       58.68447   11.06      3.58       0.6260277 
317.2      197.15     9.58       58.68447   11.14      3.63       0.6238752 
317.3      196.97     9.52       59.56401   11.23      3.68       0.611097  
317.4      196.8      9.46       59.56401   11.32      3.73       0.5985497 
317.5      196.96     9.4        59.56401   11.41      3.78       0.5862291 
317.6      197.13     9.34       59.56401   11.5       3.82       0.5741315 
317.7      197.34     9.28       58.68447   11.53      3.7        0.5622523 
317.8      197.56     9.22       57.82697   11.57      3.58       0.5505883 
317.9      197.78     9.16       56.99072   11.57      3.46       0.5391347 
318        198        9.1        56.17492   11.57      3.34       0.5278885 
318.1      198.21     9.03       55.37886   11.57      3.22       0.5150242 
318.2      198.43     8.97       54.60183   11.57      3.1        0.5042138 
318.3      198.65     8.99       53.84315   11.55      2.98       0.5077953 
318.4      198.87     9.01       53.84315   11.52      2.85       0.5113989 
318.5      199.08     9.07       53.10221   11.47      2.73       0.5223416 
318.6      199.3      9.14       52.37838   11.42      2.61       0.5353632 
318.7      199.52     9.2        52.37838   11.43      2.49       0.5467471 
318.8      199.74     9.26       51.67109   11.44      2.37       0.5583407 
318.9      199.95     9.23       51.67109   11.49      2.25       0.5525174 
319        200.17     9.19       52.37838   11.55      2.13       0.5448353 
319.1      200.39     9.15       56.99072   11.6       2.08       0.5372459 
319.2      200.61     9.11       62.34364   11.66      2.03       0.5297484 
319.3      200.82     9.11       62.34364   11.71      2.44       0.5297484 
319.4      201.04     9.12       62.34364   11.77      2.85       0.5316144 
319.5      201.26     9.15       61.39267   11.82      3.14       0.5372459 
319.6      201.48     9.19       61.39267   11.88      3.43       0.5448353 
319.7      201.69     9.23       61.39267   11.93      3.72       0.5525174 
319.8      201.91     9.26       61.39267   11.99      4.01       0.5583407 
319.9      202.13     9.26       61.39267   12.05      4.31       0.5583407 
320        202.35     9.26       60.46644   12.1       4.62       0.5583407 
320.1      202.2      9.2        61.39267   12.05      5.6        0.5467471 
320.2      202.05     9.14       61.39267   12         6.59       0.5353632 
320.3      201.71     9.14       62.34364   11.88      6.76       0.5353632 
320.4      201.36     9.13       63.32033   11.76      6.94       0.5334859 
320.5      201.01     9.15       63.32033   11.64      6.11       0.5372459 
320.6      200.67     9.16       64.32379   11.53      5.27       0.5391347 
320.7      200.32     9.17       64.32379   11.41      3.95       0.5410292 
320.8      199.98     9.18       64.32379   11.29      2.63       0.5429294 
320.9      199.63     9.05       64.32379   11.17      2.61       0.5186718 
321        199.29     8.93       63.32033   11.05      2.59       0.4971155 
321.1      198.94     8.95       64.32379   10.92      2.56       0.5006538 
321.2      198.6      8.97       64.32379   10.79      2.54       0.5042138 
321.3      198.25     9          65.35513   10.64      2.52       0.5095943 
321.4      197.91     9.02       66.4155    10.48      2.5        0.5132089 
321.5      197.75     8.98       65.35513   10.32      2.53       0.5060017 
321.6      197.6      8.95       65.35513   10.17      2.55       0.5006538 
321.7      197.72     8.9        65.35513   10.01      2.57       0.4918481 
321.8      197.83     8.86       64.32379   9.86       2.59       0.4848993 
321.9      197.95     8.81       63.32033   9.73       2.61       0.4763315 
322        198.07     8.77       63.32033   9.6        2.64       0.4695703 
322.1      198.19     8.72       62.34364   9.68       2.66       0.4612336 
322.2      198.3      8.67       61.39267   9.76       2.68       0.4530226 
322.3      198.42     8.63       60.46644   9.84       2.65       0.4465432 
322.4      198.54     8.58       60.46644   9.92       2.62       0.438554  
322.5      198.66     8.55       59.56401   10         2.59       0.4338183 
322.6      198.77     8.52       58.68447   10.08      2.56       0.4291258 
322.7      198.89     8.57       59.56401   10.16      2.59       0.4369706 
322.8      199.01     8.63       59.56401   10.24      2.61       0.4465432 
322.9      199.13     8.68       59.56401   10.31      2.65       0.4546549 
323        199.25     8.73       60.46644   10.39      2.69       0.4628907 
323.1      199.36     8.79       60.46644   10.47      2.72       0.4729405 
323.2      199.48     8.84       61.39267   10.55      2.76       0.4814566 
