~Version
 VERS              .         3.0                           : CWLS LOG ASCII STANDARD - VERSION 3.0
 WRAP              .         NO                            : ONE LINE PER DEPTH STEP
 DLM               .         SPACE                         : DELIMITING CHARACTER(SPACE TAB OR COMMA)
~Well Information
#_______________________________________________________________________________
#
#PARAMETER_NAME    .UNIT     VALUE                         : DESCRIPTION
#_______________________________________________________________________________
STRT               .M        2                             : First reference value
STOP               .M        863                           : Last reference value
STEP               .M        0.1                           : Step increment
NULL               .         -9999                         : Missing value
COMP               .         COMPANY NAME                  : Company
WELL               .         G-29                          : Well name
FLD                .         UZEN                          : Field
LOC                .                                       : Location
SRVC               .         AO "UPGF"                     : Service Company
CTRY               .         CO                            : Country
DATE               .         20/2/2022                     : Service Date
X                  .                                       : X or East-West coordinate
Y                  .                                       : Y or North South coordinate
GDAT               .                                       : Geodetic Datum
HZCS               .                                       : Horizontal Co-ordinate System
COUNTRY            .         COUNTRY                       : KAZAKHSTAN
EREF               .m        144.9                         : 
GRP                .                                       : Group name
ISS                .                                       : Well surveys
PROV               .         PROVINCE                      : AKTAU AREA
TIME               .                                       : LOG TIME
~Parameter Information Block
#_______________________________________________________________________________
#
#PARAMETER_NAME    .UNIT     VALUE                         : DESCRIPTION
#_______________________________________________________________________________
SET                .         Las                           : 
TLFamily_CALI      .         Caliper                       : 
TLFamily_GR        .         Russian Gamma Ray             : 
TLFamily_MD        .         Measured Depth                : 
TLFamily_NPHI      .         Neutron Porosity              : 
TLFamily_PS        .         Spontaneous Potential         : 
TLFamily_Resistivity .         Resistivity                   : 
TLFamily_VSH_GR    .         Shale Volume                  : 
~Curve Information
#_______________________________________________________________________________
#
#LOGNAME           .UNIT     LOG_ID                        : DESCRIPTION
#_______________________________________________________________________________
MD                 .M                                      : Depth {F}
CALI               .mm                                     :  {F}
GR                 .мкР/ч                                  : ГК(мкр/ч) -    33.3 см {F}
NPHI               .%                                      :  {F}
PS                 .mV                                     :  {F}
Resistivity        .OHMM                                   :  {F}
VSH_GR             .unitless                               : Shale volume fraction from Gamma Ray {F}
~Ascii
# ...
687.3      -9999      5.5        43.2337    -8.36      7.44       0.1214585 
687.4      -9999      5.7        43.2337    -8.14      7.22       0.1342771 
687.5      -9999      5.9        43.75825   -7.92      6.13       0.1478993 
687.6      -9999      6.09       43.75825   -7.7       5.03       0.1616307 
687.7      -9999      6.29       43.75825   -7.48      4.71       0.1769678 
687.8      -9999      6.49       43.75825   -7.26      4.38       0.1932665 
687.9      -9999      5.77       43.75825   -7.04      3.87       0.1389509 
688        -9999      5.04       43.2337    -6.82      3.36       0.09477277
688.1      -9999      4.63       43.2337    -6.6       3.23       0.07393775
688.2      -9999      4.23       43.2337    -6.38      3.11       0.05596647
688.3      -9999      4.3        43.2337    -6.16      3.33       0.05895578
688.4      -9999      4.37       43.2337    -5.94      3.55       0.06200938
688.5      -9999      4.44       43.2337    -5.72      3.77       0.06512868
688.6      -9999      4.51       43.2337    -5.5       3.99       0.06831508
688.7      -9999      4.49       43.75825   -5.32      4.38       0.06739773
688.8      -9999      4.47       43.75825   -5.15      4.78       0.06648597
688.9      -9999      4.18       43.75825   -5.79      4.54       0.05386985
689        -9999      3.89       44.29337   -6.43      4.3        0.04231851
689.1      -9999      3.8        43.75825   -7.06      4.06       0.03893582
689.2      -9999      3.71       43.75825   -7.7       3.82       0.03564444
689.3      -9999      3.71       43.75825   -8.34      3.84       0.03564444
689.4      -9999      3.71       43.75825   -8.97      3.86       0.03564444
689.5      -9999      3.72       43.2337    -9.61      4.45       0.03600571
689.6      -9999      3.72       43.2337    -10.25     5.03       0.03600571
689.7      -9999      3.78       43.2337    -10.88     5.47       0.0381966 
689.8      -9999      3.83       43.2337    -11.52     5.91       0.04005311
689.9      -9999      3.94       43.2337    -12.09     6.35       0.04423817
690        -9999      4.05       43.75825   -12.65     6.78       0.04856556
690.1      -9999      4.05       43.75825   -13.1      6.68       0.04856556
690.2      -9999      4.06       43.75825   -13.54     6.57       0.04896617
690.3      -9999      3.85       44.29337   -13.98     6.46       0.04080366
690.4      -9999      3.64       44.29337   -14.43     6.35       0.03314603
690.5      -9999      3.54       44.29337   -14.87     6.78       0.02966785
690.6      -9999      3.44       44.29337   -15.32     7.22       0.02629383
690.7      -9999      3.49       43.75825   -15.7      7.99       0.02796802
690.8      -9999      3.54       43.2337    -16.08     8.75       0.02966785
690.9      -9999      3.58       43.2337    -16.28     9.3        0.03104643
691        -9999      3.63       42.71943   -16.48     9.85       0.03279343
691.1      -9999      3.68       42.71943   -16.69     10.4       0.03456718
691.2      -9999      3.72       42.71943   -16.89     10.94      0.03600571
691.3      -9999      3.77       43.2337    -17.04     11.05      0.03782867
691.4      -9999      3.82       43.2337    -17.19     11.16      0.03967955
691.5      -9999      3.74       43.2337    -16.95     10.83      0.03673158
691.6      -9999      3.66       43.2337    -16.71     10.51      0.03385444
691.7      -9999      3.52       43.75825   -16.47     9.85       0.02898481
691.8      -9999      3.38       43.75825   -16.23     9.19       0.02431812
691.9      -9999      3.34       43.2337    -15.99     7.77       0.02302086
692        -9999      3.3        43.2337    -15.75     6.35       0.02173927
692.1      -9999      3.37       42.71943   -15.51     5.47       0.02399231
692.2      -9999      3.45       42.71943   -15.27     4.6        0.02662663
692.3      -9999      3.52       42.21513   -15.03     4.16       0.02898481
692.4      -9999      3.59       41.72052   -14.79     3.72       0.03139372
692.5      -9999      3.66       41.72052   -14.55     4.27       0.03385444
692.6      -9999      3.73       41.23532   -14.31     4.81       0.0363681 
692.7      -9999      3.69       41.23532   -13.91     5.14       0.03492517
692.8      -9999      3.65       40.75927   -13.52     5.47       0.03349969
692.9      -9999      3.6        40.75927   -12.38     5.91       0.03174205
693        -9999      3.55       40.29211   -11.23     6.35       0.03001093
693.1      -9999      3.82       40.29211   -10.09     6.68       0.03967955
693.2      -9999      4.08       39.83361   -8.95      7          0.04977107
693.3      -9999      4.35       39.83361   -7.81      7          0.06113028
693.4      -9999      4.61       39.38351   -6.67      7          0.07298634
693.5      -9999      4.87       39.38351   -5.56      6.35       0.08581764
693.6      -9999      5.14       38.94161   -4.44      5.69       0.1002608 
693.7      -9999      5.15       38.50767   -3.37      5.47       0.1008188 
693.8      -9999      5.16       38.50767   -2.3       5.25       0.1013786 
693.9      -9999      5.05       38.08149   -1.24      4.71       0.09531412
694        -9999      4.93       38.08149   -0.17      4.16       0.08892556
694.1      -9999      4.81       38.08149   0.9        3.61       0.08276591
694.2      -9999      4.69       38.08149   1.97       3.06       0.07682695
694.3      -9999      4.57       38.94161   3.04       2.74       0.07110078
694.4      -9999      4.45       39.38351   4.11       2.41       0.06557972
694.5      -9999      4.34       39.83361   5.51       2.41       0.06069273
694.6      -9999      4.22       40.29211   6.92       2.41       0.05554458
694.7      -9999      4.1        41.23532   8.51       2.19       0.0505809 
694.8      -9999      3.98       41.72052   10.09      1.97       0.04579505
694.9      -9999      4.08       42.21513   11.68      1.53       0.04977107
695        -9999      4.18       43.2337    13.26      1.09       0.05386985
695.1      -9999      4.39       42.71943   14.84      1.16       0.06289383
695.2      -9999      4.6        42.71943   16.42      1.23       0.07251278
695.3      -9999      4.81       42.21513   18         1.19       0.08276591
695.4      -9999      5.02       42.21513   19.58      1.15       0.09369504
695.5      -9999      5.23       41.72052   21.76      1.22       0.1053447 
695.6      -9999      5.44       41.23532   23.94      1.28       0.1177625 
695.7      -9999      5.65       41.72052   23.5       1.35       0.130999  
695.8      -9999      5.86       41.72052   23.07      1.42       0.1451082 
695.9      -9999      6.52       41.72052   22.56      1.49       0.195798  
696        -9999      7.18       41.72052   22.05      1.55       0.2577519 
696.1      -9999      6.99       41.72052   21.54      1.62       0.2386252 
696.2      -9999      6.8        41.23532   21.04      1.69       0.2205721 
696.3      -9999      6.61       40.75927   21.23      1.76       0.2035323 
696.4      -9999      6.42       40.29211   21.42      1.82       0.1874489 
696.5      -9999      6.36       39.83361   21.77      1.83       0.18256   
696.6      -9999      6.31       39.38351   22.11      1.84       0.1785535 
696.7      -9999      6.4        38.94161   22.46      1.83       0.1858094 
696.8      -9999      6.5        38.50767   22.8       1.82       0.1941078 
696.9      -9999      6.6        38.08149   23.15      1.81       0.2026624 
697        -9999      6.7        37.25156   23.5       1.8        0.2114811 
697.1      -9999      6.72       36.84744   23.84      1.84       0.2132773 
697.2      -9999      6.74       36.05994   24.19      1.89       0.2150843 
697.3      -9999      6.59       36.05994   24.53      1.96       0.2017952 
697.4      -9999      6.43       35.67622   24.88      2.04       0.1882725 
697.5      -9999      6.28       36.05994   25.22      2.12       0.1761786 
697.6      -9999      6.12       36.05994   25.57      2.19       0.1638722 
