~Version
 VERS              .         3.0                           : CWLS LOG ASCII STANDARD - VERSION 3.0
 WRAP              .         NO                            : ONE LINE PER DEPTH STEP
 DLM               .         SPACE                         : DELIMITING CHARACTER(SPACE TAB OR COMMA)
~Well Information
#_______________________________________________________________________________
#
#PARAMETER_NAME    .UNIT     VALUE                         : DESCRIPTION
#_______________________________________________________________________________
STRT               .M        2                             : First reference value
STOP               .M        863                           : Last reference value
STEP               .M        0.1                           : Step increment
NULL               .         -9999                         : Missing value
COMP               .         COMPANY NAME                  : Company
WELL               .         G-29                          : Well name
FLD                .         UZEN                          : Field
LOC                .                                       : Location
SRVC               .         AO "UPGF"                     : Service Company
CTRY               .         CO                            : Country
DATE               .         20/2/2022                     : Service Date
X                  .                                       : X or East-West coordinate
Y                  .                                       : Y or North South coordinate
GDAT               .                                       : Geodetic Datum
HZCS               .                                       : Horizontal Co-ordinate System
COUNTRY            .         COUNTRY                       : KAZAKHSTAN
EREF               .m        144.9                         : 
GRP                .                                       : Group name
ISS                .                                       : Well surveys
PROV               .         PROVINCE                      : AKTAU AREA
TIME               .                                       : LOG TIME
~Parameter Information Block
#_______________________________________________________________________________
#
#PARAMETER_NAME    .UNIT     VALUE                         : DESCRIPTION
#_______________________________________________________________________________
SET                .         Las                           : 
TLFamily_CALI      .         Caliper                       : 
TLFamily_GR        .         Russian Gamma Ray             : 
TLFamily_MD        .         Measured Depth                : 
TLFamily_NPHI      .         Neutron Porosity              : 
TLFamily_PS        .         Spontaneous Potential         : 
TLFamily_Resistivity .         Resistivity                   : 
TLFamily_VSH_GR    .         Shale Volume                  : 
~Curve Information
#_______________________________________________________________________________
#
#LOGNAME           .UNIT     LOG_ID                        : DESCRIPTION
#_______________________________________________________________________________
MD                 .M                                      : Depth {F}
CALI               .mm                                     :  {F}
GR                 .мкР/ч                                  : ГК(мкр/ч) -    33.3 см {F}
NPHI               .%                                      :  {F}
PS                 .mV                                     :  {F}
Resistivity        .OHMM                                   :  {F}
VSH_GR             .unitless                               : Shale volume fraction from Gamma Ray {F}
~Ascii
# ...
635.3      -9999      9.62       49.643     15.27      1.03       0.6325244 
635.4      -9999      9.51       48.99654   15.03      1.07       0.6089898 
635.5      -9999      9.4        48.36407   15.18      1.11       0.5862291 
635.6      -9999      9.28       47.74515   15.33      1.14       0.5622523 
635.7      -9999      9.31       48.36407   16.12      1.14       0.5681649 
635.8      -9999      9.34       48.36407   16.91      1.14       0.5741315 
635.9      -9999      9.4        47.74515   17.7       1.1        0.5862291 
636        -9999      9.47       47.13935   18.49      1.06       0.6006251 
636.1      -9999      9.53       47.13935   18.45      1.02       0.6132104 
636.2      -9999      9.59       46.54626   18.41      0.98       0.6260277 
636.3      -9999      9.33       46.54626   17.71      0.94       0.5721366 
636.4      -9999      9.08       46.54626   17.01      0.9        0.5241849 
636.5      -9999      9.17       47.13935   16.3       0.96       0.5410292 
636.6      -9999      9.26       48.36407   15.6       1.02       0.5583407 
636.7      -9999      9.35       48.99654   14.9       1.02       0.5761326 
636.8      -9999      9.44       49.643     14.2       1.01       0.5944178 
636.9      -9999      9.36       49.643     13.12      1.01       0.5781395 
637        -9999      9.27       49.643     12.05      1.02       0.5602937 
637.1      -9999      9.15       49.643     10.53      1.06       0.5372459 
637.2      -9999      9.03       48.99654   9.01       1.1        0.5150242 
637.3      -9999      9.08       48.99654   8.05       1.15       0.5241849 
637.4      -9999      9.12       48.36407   7.09       1.19       0.5316144 
637.5      -9999      9.18       48.36407   7.88       1.23       0.5429294 
637.6      -9999      9.24       47.74515   8.67       1.28       0.5544526 
637.7      -9999      9.3        47.74515   9.47       1.29       0.5661881 
637.8      -9999      9.35       47.13935   10.26      1.3        0.5761326 
637.9      -9999      9.41       47.13935   11.05      1.26       0.588267  
638        -9999      9.47       46.54626   11.85      1.21       0.6006251 
638.1      -9999      9.5        46.54626   11.14      1.17       0.606889  
638.2      -9999      9.53       45.96548   10.42      1.13       0.6132104 
638.3      -9999      9.53       46.54626   9.27       1.18       0.6132104 
638.4      -9999      9.53       47.13935   8.11       1.22       0.6132104 
638.5      -9999      9.54       47.13935   6.95       1.28       0.6153304 
638.6      -9999      9.54       47.74515   5.8        1.33       0.6153304 
638.7      -9999      9.65       48.36407   4.64       1.39       0.6390806 
638.8      -9999      9.76       48.99654   3.48       1.45       0.6636388 
638.9      -9999      9.88       49.643     2.4        1.5        0.6913829 
639        -9999      9.99       50.30392   1.32       1.56       0.7177197 
639.1      -9999      9.97       50.97978   2.11       1.62       0.7128657 
639.2      -9999      9.96       51.67109   2.89       1.67       0.7104495 
639.3      -9999      9.79       52.37838   3.68       1.73       0.6704801 
639.4      -9999      9.62       53.10221   4.46       1.79       0.6325244 
639.5      -9999      9.46       53.10221   5.25       1.84       0.5985497 
639.6      -9999      9.29       53.84315   6.04       1.9        0.5642172 
639.7      -9999      9.13       53.84315   6.63       1.96       0.5334859 
639.8      -9999      8.96       54.60183   7.22       2.01       0.5024311 
639.9      -9999      8.79       54.60183   7.24       2.07       0.4729405 
640        -9999      8.63       54.60183   7.25       2.13       0.4465432 
640.1      -9999      8.78       53.84315   7.27       2.11       0.4712527 
640.2      -9999      8.92       53.84315   7.28       2.1        0.4953543 
640.3      -9999      9.18       53.84315   7.3        2.09       0.5429294 
640.4      -9999      9.44       53.84315   7.32       2.08       0.5944178 
640.5      -9999      9.7        53.84315   7.62       2.12       0.6501417 
640.6      -9999      9.96       53.84315   7.92       2.15       0.7104495 
640.7      -9999      9.9        53.84315   9.84       2.16       0.696106  
640.8      -9999      9.84       53.10221   11.77      2.18       0.6820223 
640.9      -9999      9.75       53.10221   11.33      2.14       0.6613721 
641        -9999      9.66       52.37838   10.88      2.1        0.6412794 
641.1      -9999      9.57       51.67109   10.14      2.06       0.6217292 
641.2      -9999      9.48       51.67109   9.39       2.02       0.6027066 
641.3      -9999      9.46       50.97978   8.64       2.04       0.5985497 
641.4      -9999      9.43       50.30392   7.9        2.06       0.5923614 
641.5      -9999      9.51       50.30392   7.75       2.16       0.6089898 
641.6      -9999      9.58       49.643     7.61       2.26       0.6238752 
641.7      -9999      9.65       48.99654   8.32       2.36       0.6390806 
641.8      -9999      9.73       48.99654   9.03       2.46       0.6568593 
641.9      -9999      9.8        47.74515   7.52       2.57       0.6727746 
642        -9999      9.87       46.54626   6.01       2.68       0.689032  
642.1      -9999      9.86       45.39664   4.07       2.83       0.6866882 
642.2      -9999      9.84       44.29337   2.13       2.98       0.6820223 
642.3      -9999      9.78       42.71943   1.04       3.13       0.6681927 
642.4      -9999      9.72       41.72052   -0.04      3.29       0.6546136 
642.5      -9999      9.72       40.75927   -0.61      3.44       0.6546136 
642.6      -9999      9.72       40.29211   -1.19      3.59       0.6546136 
642.7      -9999      9.8        40.75927   -1.76      3.74       0.6727746 
642.8      -9999      9.88       41.72052   -2.34      3.89       0.6913829 
642.9      -9999      9.96       42.21513   -2.91      4.04       0.7104495 
643        -9999      10.04      42.71943   -3.49      4.19       0.7299853 
643.1      -9999      9.93       42.71943   -4.06      4.34       0.7032451 
643.2      -9999      9.83       42.71943   -4.64      4.49       0.6796998 
643.3      -9999      9.7        42.71943   -4.14      4.72       0.6501417 
643.4      -9999      9.58       42.71943   -3.64      4.96       0.6238752 
643.5      -9999      9.46       43.2337    -3.01      4.81       0.5985497 
643.6      -9999      9.34       43.75825   -2.39      4.65       0.5741315 
643.7      -9999      9.22       44.83939   -1.76      4.5        0.5505883 
643.8      -9999      9.1        45.96548   -1.14      4.35       0.5278885 
643.9      -9999      9.34       47.13935   -0.54      4.2        0.5741315 
644        -9999      9.58       48.36407   0.06       4.04       0.6238752 
644.1      -9999      9.61       49.643     0.45       3.89       0.6303521 
644.2      -9999      9.64       50.97978   0.84       3.74       0.6368887 
644.3      -9999      9.68       50.97978   1.23       3.59       0.6456972 
644.4      -9999      9.71       51.67109   1.62       3.43       0.6523743 
644.5      -9999      9.74       50.97978   2.01       3.34       0.6591123 
644.6      -9999      9.78       50.97978   2.4        3.24       0.6681927 
644.7      -9999      9.66       50.30392   2.79       3.28       0.6412794 
644.8      -9999      9.54       50.30392   3.18       3.32       0.6153304 
644.9      -9999      9.2        49.643     3.58       3.21       0.5467471 
645        -9999      8.85       49.643     3.97       3.09       0.4831755 
645.1      -9999      8.9        49.643     4.36       2.92       0.4918481 
645.2      -9999      8.95       48.99654   4.75       2.75       0.5006538 
645.3      -9999      9.08       48.99654   5.14       2.58       0.5241849 
645.4      -9999      9.21       48.36407   5.53       2.4        0.5486648 
645.5      -9999      9.06       48.36407   5.92       2.23       0.520504  
645.6      -9999      8.91       47.74515   6.31       2.06       0.4935985 
