~Version
 VERS              .         3.0                           : CWLS LOG ASCII STANDARD - VERSION 3.0
 WRAP              .         NO                            : ONE LINE PER DEPTH STEP
 DLM               .         SPACE                         : DELIMITING CHARACTER(SPACE TAB OR COMMA)
~Well Information
#_______________________________________________________________________________
#
#PARAMETER_NAME    .UNIT     VALUE                         : DESCRIPTION
#_______________________________________________________________________________
STRT               .M        2                             : First reference value
STOP               .M        863                           : Last reference value
STEP               .M        0.1                           : Step increment
NULL               .         -9999                         : Missing value
COMP               .         COMPANY NAME                  : Company
WELL               .         G-29                          : Well name
FLD                .         UZEN                          : Field
LOC                .                                       : Location
SRVC               .         AO "UPGF"                     : Service Company
CTRY               .         CO                            : Country
DATE               .         20/2/2022                     : Service Date
X                  .                                       : X or East-West coordinate
Y                  .                                       : Y or North South coordinate
GDAT               .                                       : Geodetic Datum
HZCS               .                                       : Horizontal Co-ordinate System
COUNTRY            .         COUNTRY                       : KAZAKHSTAN
EREF               .m        144.9                         : 
GRP                .                                       : Group name
ISS                .                                       : Well surveys
PROV               .         PROVINCE                      : AKTAU AREA
TIME               .                                       : LOG TIME
~Parameter Information Block
#_______________________________________________________________________________
#
#PARAMETER_NAME    .UNIT     VALUE                         : DESCRIPTION
#_______________________________________________________________________________
SET                .         Las                           : 
TLFamily_CALI      .         Caliper                       : 
TLFamily_GR        .         Russian Gamma Ray             : 
TLFamily_MD        .         Measured Depth                : 
TLFamily_NPHI      .         Neutron Porosity              : 
TLFamily_PS        .         Spontaneous Potential         : 
TLFamily_Resistivity .         Resistivity                   : 
TLFamily_VSH_GR    .         Shale Volume                  : 
~Curve Information
#_______________________________________________________________________________
#
#LOGNAME           .UNIT     LOG_ID                        : DESCRIPTION
#_______________________________________________________________________________
MD                 .M                                      : Depth {F}
CALI               .mm                                     :  {F}
GR                 .мкР/ч                                  : ГК(мкр/ч) -    33.3 см {F}
NPHI               .%                                      :  {F}
PS                 .mV                                     :  {F}
Resistivity        .OHMM                                   :  {F}
VSH_GR             .unitless                               : Shale volume fraction from Gamma Ray {F}
~Ascii
# ...
364.9      201.64     9.84       64.32379   7.87       2.37       0.6820223 
365        202.11     9.69       64.32379   7.65       2.31       0.647916  
365.1      202.59     9.74       63.32033   7.43       2.27       0.6591123 
365.2      203.07     9.79       62.34364   7.21       2.23       0.6704801 
365.3      203.55     9.84       62.34364   6.99       2.26       0.6820223 
365.4      204.02     9.9        61.39267   6.77       2.28       0.696106  
365.5      203.67     9.95       61.39267   6.55       2.31       0.7080407 
365.6      203.31     10         60.46644   6.33       2.33       0.720158  
365.7      202.12     10.06      61.39267   6.11       2.36       0.7349441 
365.8      200.93     10.11      61.39267   5.89       2.38       0.7474734 
365.9      201.07     10.11      61.39267   5.97       2.41       0.7474734 
366        201.21     10.11      61.39267   6.05       2.43       0.7474734 
366.1      202.21     10.05      61.39267   6.2        2.48       0.7324609 
366.2      203.2      10         61.39267   6.36       2.52       0.720158  
366.3      204.19     9.94       60.46644   6.51       2.61       0.7056392 
366.4      205.19     9.88       60.46644   6.66       2.69       0.6913829 
366.5      206.18     9.82       59.56401   6.81       2.78       0.6773843 
366.6      207.17     9.76       59.56401   6.97       2.86       0.6636388 
366.7      208.17     9.71       60.46644   7.12       2.95       0.6523743 
366.8      209.16     9.65       60.46644   7.27       3.03       0.6390806 
366.9      210.15     9.59       61.39267   7.42       2.98       0.6260277 
367        211.15     9.53       62.34364   7.57       2.94       0.6132104 
367.1      211.46     9.49       63.32033   7.53       2.85       0.6047946 
367.2      211.78     9.45       64.32379   7.49       2.76       0.5964806 
367.3      210.64     9.51       63.32033   7.26       2.67       0.6089898 
367.4      209.51     9.57       63.32033   7.02       2.58       0.6217292 
367.5      208.37     9.63       63.32033   6.79       2.49       0.6347033 
367.6      207.24     9.69       63.32033   6.56       2.4        0.647916  
367.7      206.1      9.75       62.34364   6.32       2.38       0.6613721 
367.8      204.97     9.81       62.34364   6.09       2.36       0.675076  
367.9      203.83     9.87       62.34364   5.95       2.38       0.689032  
368        202.7      9.92       62.34364   5.82       2.4        0.7008582 
368.1      202.67     9.98       62.34364   5.84       2.41       0.7152888 
368.2      202.65     10.04      62.34364   5.86       2.43       0.7299853 
368.3      202.72     10.1       62.34364   5.88       2.44       0.7449525 
368.4      202.8      10.16      62.34364   5.9        2.46       0.7601948 
368.5      202.88     10.22      62.34364   5.76       2.46       0.7757182 
368.6      202.96     10.28      62.34364   5.62       2.46       0.7915267 
368.7      203.04     10.34      61.39267   4.97       2.56       0.807627  
368.8      203.12     10.39      61.39267   4.32       2.67       0.8212698 
368.9      203.11     10.45      62.34364   4.25       2.77       0.8379171 
369        203.1      10.51      63.32033   4.17       2.87       0.8548712 
369.1      202.7      10.49      63.32033   4.39       2.98       0.8491853 
369.2      202.3      10.47      64.32379   4.61       3.08       0.8435343 
369.3      202.6      10.41      64.32379   4.82       3.15       0.826785  
369.4      202.9      10.35      65.35513   5.04       3.22       0.810339  
369.5      203.63     10.29      66.4155    5.26       3.1        0.7941898 
369.6      204.35     10.23      66.4155    5.47       2.98       0.7783327 
369.7      205.08     10.22      66.4155    5.69       2.86       0.7757182 
369.8      205.8      10.22      66.4155    5.91       2.74       0.7757182 
369.9      206.53     10.25      65.35513   6.12       2.62       0.7835864 
370        207.26     10.29      65.35513   6.34       2.5        0.7941898 
370.1      207.98     10.33      65.35513   6.56       2.38       0.8049231 
370.2      208.71     10.36      64.32379   6.77       2.26       0.813059  
370.3      209.43     10.39      65.35513   6.79       2.2        0.8212698 
370.4      210.16     10.42      65.35513   6.8        2.13       0.8295554 
370.5      210.88     10.36      65.35513   6.73       2.15       0.813059  
370.6      211.61     10.3       66.4155    6.66       2.16       0.7968609 
370.7      210.52     10.24      66.4155    6.59       2.18       0.7809556 
370.8      209.44     10.18      67.50613   6.53       2.19       0.7653378 
370.9      205.46     10.23      67.50613   6.46       2.21       0.7783327 
371        201.49     10.27      67.50613   6.39       2.22       0.7888722 
371.1      201.24     10.33      66.4155    6.6        2.23       0.8049231 
371.2      200.98     10.39      64.32379   6.8        2.23       0.8212698 
371.3      201.59     10.45      65.35513   6.88       2.21       0.8379171 
371.4      202.19     10.51      66.4155    6.96       2.19       0.8548712 
371.5      202.8      10.56      66.4155    6.78       2.17       0.8692377 
371.6      203.4      10.61      67.50613   6.61       2.14       0.8838241 
371.7      204.01     10.53      66.4155    6.43       2.12       0.8605914 
371.8      204.61     10.45      66.4155    6.25       2.1        0.8379171 
371.9      205.21     10.36      65.35513   6.08       2.08       0.813059  
372        205.82     10.28      64.32379   5.9        2.06       0.7915267 
372.1      206.42     10.2       63.32033   5.73       2.04       0.7705121 
372.2      207.03     10.12      62.34364   5.55       2.01       0.7500023 
372.3      207.63     10.04      62.34364   5.37       1.99       0.7299853 
372.4      208.24     9.95       61.39267   5.2        1.97       0.7080407 
372.5      206.78     9.88       60.46644   5.02       1.95       0.6913829 
372.6      205.32     9.8        59.56401   4.84       1.93       0.6727746 
372.7      203.5      9.85       59.56401   4.71       1.94       0.6843519 
372.8      201.69     9.91       59.56401   4.59       1.96       0.6984785 
372.9      202.39     9.91       60.46644   4.9        1.99       0.6984785 
373        203.08     9.9        60.46644   5.21       2.02       0.696106  
373.1      203.78     9.82       60.46644   5.52       2.06       0.6773843 
373.2      204.47     9.75       60.46644   5.83       2.09       0.6613721 
373.3      205.17     9.67       60.46644   6.14       2.12       0.643485  
373.4      205.86     9.59       60.46644   6.45       2.15       0.6260277 
373.5      206.56     9.51       60.46644   6.76       2.18       0.6089898 
373.6      207.25     9.44       59.56401   7.07       2.22       0.5944178 
373.7      207.95     9.36       59.56401   7.38       2.25       0.5781395 
373.8      208.64     9.28       59.56401   7.69       2.28       0.5622523 
373.9      209.24     9.22       60.46644   7.56       2.31       0.5505883 
374        209.83     9.15       61.39267   7.43       2.35       0.5372459 
374.1      206.49     9.2        62.34364   7.14       2.38       0.5467471 
374.2      203.15     9.26       64.32379   6.85       2.42       0.5583407 
374.3      201.46     9.31       65.35513   6.56       2.45       0.5681649 
374.4      199.77     9.36       66.4155    6.27       2.49       0.5781395 
374.5      200.07     9.41       65.35513   5.98       2.53       0.588267  
374.6      200.37     9.47       65.35513   5.69       2.56       0.6006251 
374.7      200.66     9.44       64.32379   5.4        2.6        0.5944178 
374.8      200.96     9.41       64.32379   5.11       2.63       0.588267  
374.9      201.26     9.37       63.32033   4.82       2.67       0.5801528 
375        201.56     9.34       63.32033   4.53       2.7        0.5741315 
375.1      201.86     9.3        62.34364   4.24       2.73       0.5661881 
375.2      202.15     9.26       62.34364   3.95       2.76       0.5583407 
