~Version
 VERS              .         3.0                           : CWLS LOG ASCII STANDARD - VERSION 3.0
 WRAP              .         NO                            : ONE LINE PER DEPTH STEP
 DLM               .         SPACE                         : DELIMITING CHARACTER(SPACE TAB OR COMMA)
~Well Information
#_______________________________________________________________________________
#
#PARAMETER_NAME    .UNIT     VALUE                         : DESCRIPTION
#_______________________________________________________________________________
STRT               .M        2                             : First reference value
STOP               .M        863                           : Last reference value
STEP               .M        0.1                           : Step increment
NULL               .         -9999                         : Missing value
COMP               .         COMPANY NAME                  : Company
WELL               .         G-29                          : Well name
FLD                .         UZEN                          : Field
LOC                .                                       : Location
SRVC               .         AO "UPGF"                     : Service Company
CTRY               .         CO                            : Country
DATE               .         20/2/2022                     : Service Date
X                  .                                       : X or East-West coordinate
Y                  .                                       : Y or North South coordinate
GDAT               .                                       : Geodetic Datum
HZCS               .                                       : Horizontal Co-ordinate System
COUNTRY            .         COUNTRY                       : KAZAKHSTAN
EREF               .m        144.9                         : 
GRP                .                                       : Group name
ISS                .                                       : Well surveys
PROV               .         PROVINCE                      : AKTAU AREA
TIME               .                                       : LOG TIME
~Parameter Information Block
#_______________________________________________________________________________
#
#PARAMETER_NAME    .UNIT     VALUE                         : DESCRIPTION
#_______________________________________________________________________________
SET                .         Las                           : 
TLFamily_CALI      .         Caliper                       : 
TLFamily_GR        .         Russian Gamma Ray             : 
TLFamily_MD        .         Measured Depth                : 
TLFamily_NPHI      .         Neutron Porosity              : 
TLFamily_PS        .         Spontaneous Potential         : 
TLFamily_Resistivity .         Resistivity                   : 
TLFamily_VSH_GR    .         Shale Volume                  : 
~Curve Information
#_______________________________________________________________________________
#
#LOGNAME           .UNIT     LOG_ID                        : DESCRIPTION
#_______________________________________________________________________________
MD                 .M                                      : Depth {F}
CALI               .mm                                     :  {F}
GR                 .мкР/ч                                  : ГК(мкр/ч) -    33.3 см {F}
NPHI               .%                                      :  {F}
PS                 .mV                                     :  {F}
Resistivity        .OHMM                                   :  {F}
VSH_GR             .unitless                               : Shale volume fraction from Gamma Ray {F}
~Ascii
# ...
260.9      239.23     10.79      72.19845   10.37      2.08       0.9382106 
261        235.46     10.86      70.973     10.4       2.15       0.9601778 
261.1      234.41     10.94      70.973     10.43      2.22       0.9858625 
261.2      233.36     11.01      70.973     10.46      2.29       1         
261.3      235.75     11.08      72.19845   10.49      2.36       1         
261.4      238.13     11.16      72.19845   10.52      2.44       1         
261.5      240.51     11.23      72.19845   10.55      2.35       1         
261.6      242.9      11.31      72.19845   10.58      2.27       1         
261.7      245.28     11.31      72.19845   10.61      1.92       1         
261.8      247.66     11.32      72.19845   10.64      1.57       1         
261.9      250.05     11.27      70.973     10.66      1.52       1         
262        252.43     11.21      70.973     10.69      1.48       1         
262.1      250.54     11.16      70.973     10.69      1.49       1         
262.2      248.66     11.11      70.973     10.68      1.51       1         
262.3      245.14     11.05      69.78348   10.59      1.49       1         
262.4      241.62     11         69.78348   10.49      1.46       1         
262.5      242.07     10.94      69.78348   10.39      1.46       0.9858625 
262.6      242.51     10.89      68.62834   10.3       1.46       0.9697367 
262.7      246.6      10.83      69.78348   10.2       1.51       0.9507062 
262.8      250.68     10.78      69.78348   10.11      1.55       0.9351103 
262.9      252.3      10.72      69.78348   10.01      1.6        0.9167062 
263        253.93     10.67      69.78348   9.91       1.65       0.9016233 
263.1      250.28     10.61      69.78348   9.82       1.7        0.8838241 
263.2      246.64     10.56      69.78348   9.72       1.75       0.8692377 
263.3      246.08     10.5       68.62834   9.74       1.8        0.852024  
263.4      245.52     10.45      68.62834   9.76       1.84       0.8379171 
263.5      249.01     10.39      67.50613   9.85       1.89       0.8212698 
263.6      252.51     10.34      67.50613   9.94       1.94       0.807627  
263.7      256.01     10.3       67.50613   10.04      1.99       0.7968609 
263.8      259.5      10.25      67.50613   10.13      2.04       0.7835864 
263.9      259.59     10.31      67.50613   10.22      2.01       0.7995402 
264        259.68     10.36      66.4155    10.31      1.97       0.813059  
264.1      251.5      10.42      66.4155    10.41      2.02       0.8295554 
264.2      243.32     10.48      65.35513   10.5       2.07       0.8463553 
264.3      244.58     10.51      64.32379   10.59      2.23       0.8548712 
264.4      245.83     10.54      64.32379   10.68      2.39       0.8634648 
264.5      246.72     10.49      63.32033   10.77      2.54       0.8491853 
264.6      247.6      10.45      63.32033   10.87      2.7        0.8379171 
264.7      246.15     10.43      62.34364   10.93      2.86       0.8323342 
264.8      244.7      10.42      61.39267   11         3.01       0.8295554 
264.9      243.25     10.44      61.39267   11.05      3.17       0.8351214 
265        241.8      10.47      60.46644   11.1       3.33       0.8435343 
265.1      240.35     10.5       61.39267   11.15      3.48       0.852024  
265.2      238.9      10.53      62.34364   11.2       3.63       0.8605914 
265.3      237.45     10.56      62.34364   10.95      3.74       0.8692377 
265.4      236        10.59      63.32033   10.7       3.85       0.8779631 
265.5      234.56     10.54      64.32379   10.48      3.96       0.8634648 
265.6      233.11     10.49      64.32379   10.26      4.06       0.8491853 
265.7      233.94     10.39      65.35513   10.28      4.17       0.8212698 
265.8      234.77     10.29      66.4155    10.31      4.28       0.7941898 
265.9      236.2      10.19      66.4155    10.34      4.38       0.767921  
266        237.63     10.09      67.50613   10.37      4.49       0.742439  
266.1      239.07     9.99       67.50613   10.39      4.6        0.7177197 
266.2      240.5      9.89       68.62834   10.42      4.71       0.6937411 
266.3      241.94     9.79       67.50613   10.45      4.65       0.6704801 
266.4      243.37     9.68       67.50613   10.48      4.59       0.6456972 
266.5      244.8      9.71       67.50613   10.5       4.25       0.6523743 
266.6      246.24     9.74       67.50613   10.53      3.92       0.6591123 
266.7      247.67     9.79       66.4155    10.56      3.88       0.6704801 
266.8      249.11     9.85       66.4155    10.59      3.84       0.6843519 
266.9      250.54     9.9        66.4155    10.56      3.88       0.696106  
267        251.97     9.95       66.4155    10.53      3.92       0.7080407 
267.1      249.43     9.99       66.4155    10.47      3.65       0.7177197 
267.2      246.89     10.03      66.4155    10.4       3.39       0.7275172 
267.3      241.16     9.9        67.50613   10.34      3.29       0.696106  
267.4      235.43     9.76       67.50613   10.28      3.18       0.6636388 
267.5      232.18     9.66       66.4155    10.22      3.3        0.6412794 
267.6      228.93     9.55       66.4155    10.15      3.42       0.6174569 
267.7      230.26     9.58       66.4155    10.09      3.53       0.6238752 
267.8      231.58     9.61       66.4155    10.03      3.65       0.6303521 
267.9      232.91     9.64       67.50613   9.97       3.76       0.6368887 
268        234.23     9.68       69.78348   9.9        3.88       0.6456972 
268.1      235.55     9.71       69.78348   9.84       4          0.6523743 
268.2      236.88     9.74       68.62834   9.78       4.11       0.6591123 
268.3      237.46     9.77       68.62834   9.81       3.9        0.6659124 
268.4      238.05     9.8        68.62834   9.84       3.69       0.6727746 
268.5      238.09     9.72       68.62834   9.86       3.45       0.6546136 
268.6      238.13     9.63       67.50613   9.89       3.2        0.6347033 
268.7      238.17     9.67       70.973     9.92       2.96       0.643485  
268.8      238.2      9.72       74.76371   9.95       2.71       0.6546136 
268.9      240.5      9.76       74.76371   9.98       2.76       0.6636388 
269        242.79     9.8        73.46144   10.01      2.82       0.6727746 
269.1      240.8      9.85       73.46144   10.04      2.96       0.6843519 
269.2      238.82     9.89       73.46144   10.07      3.1        0.6937411 
269.3      238.54     9.8        72.19845   10.06      3.2        0.6727746 
269.4      238.27     9.72       72.19845   10.05      3.29       0.6546136 
269.5      239.44     9.7        70.973     10.02      3.38       0.6501417 
269.6      240.61     9.67       70.973     9.98       3.47       0.643485  
269.7      241.77     9.7        70.973     9.94       3.57       0.6501417 
269.8      242.94     9.74       69.78348   9.91       3.66       0.6591123 
269.9      244.11     9.77       69.78348   9.87       3.75       0.6659124 
270        245.28     9.8        69.78348   9.84       3.84       0.6727746 
270.1      246.45     9.83       69.78348   9.8        3.55       0.6796998 
270.2      247.62     9.86       69.78348   9.77       3.26       0.6866882 
270.3      248.33     9.9        70.973     9.73       2.91       0.696106  
270.4      249.04     9.93       72.19845   9.7        2.56       0.7032451 
270.5      247.84     9.96       72.19845   9.7        2.6        0.7104495 
270.6      246.65     9.99       73.46144   9.71       2.63       0.7177197 
270.7      247.07     9.91       72.19845   9.81       2.67       0.6984785 
270.8      247.48     9.84       72.19845   9.92       2.71       0.6820223 
270.9      248.87     9.74       72.19845   10.02      2.68       0.6591123 
271        250.26     9.64       70.973     10.12      2.65       0.6368887 
271.1      251.65     9.69       70.973     10.22      2.59       0.647916  
271.2      253.04     9.74       69.78348   10.32      2.53       0.6591123 
