~Version
 VERS              .         3.0                           : CWLS LOG ASCII STANDARD - VERSION 3.0
 WRAP              .         NO                            : ONE LINE PER DEPTH STEP
 DLM               .         SPACE                         : DELIMITING CHARACTER(SPACE TAB OR COMMA)
~Well Information
#_______________________________________________________________________________
#
#PARAMETER_NAME    .UNIT     VALUE                         : DESCRIPTION
#_______________________________________________________________________________
STRT               .M        2                             : First reference value
STOP               .M        863                           : Last reference value
STEP               .M        0.1                           : Step increment
NULL               .         -9999                         : Missing value
COMP               .         COMPANY NAME                  : Company
WELL               .         G-29                          : Well name
FLD                .         UZEN                          : Field
LOC                .                                       : Location
SRVC               .         AO "UPGF"                     : Service Company
CTRY               .         CO                            : Country
DATE               .         20/2/2022                     : Service Date
X                  .                                       : X or East-West coordinate
Y                  .                                       : Y or North South coordinate
GDAT               .                                       : Geodetic Datum
HZCS               .                                       : Horizontal Co-ordinate System
COUNTRY            .         COUNTRY                       : KAZAKHSTAN
EREF               .m        144.9                         : 
GRP                .                                       : Group name
ISS                .                                       : Well surveys
PROV               .         PROVINCE                      : AKTAU AREA
TIME               .                                       : LOG TIME
~Parameter Information Block
#_______________________________________________________________________________
#
#PARAMETER_NAME    .UNIT     VALUE                         : DESCRIPTION
#_______________________________________________________________________________
SET                .         Las                           : 
TLFamily_CALI      .         Caliper                       : 
TLFamily_GR        .         Russian Gamma Ray             : 
TLFamily_MD        .         Measured Depth                : 
TLFamily_NPHI      .         Neutron Porosity              : 
TLFamily_PS        .         Spontaneous Potential         : 
TLFamily_Resistivity .         Resistivity                   : 
TLFamily_VSH_GR    .         Shale Volume                  : 
~Curve Information
#_______________________________________________________________________________
#
#LOGNAME           .UNIT     LOG_ID                        : DESCRIPTION
#_______________________________________________________________________________
MD                 .M                                      : Depth {F}
CALI               .mm                                     :  {F}
GR                 .мкР/ч                                  : ГК(мкр/ч) -    33.3 см {F}
NPHI               .%                                      :  {F}
PS                 .mV                                     :  {F}
Resistivity        .OHMM                                   :  {F}
VSH_GR             .unitless                               : Shale volume fraction from Gamma Ray {F}
~Ascii
# ...
583.3      187.12     9.61       52.37838   -2.51      3.23       0.6303521 
583.4      187.1      9.63       52.37838   -3.93      3.37       0.6347033 
583.5      187.15     9.58       51.67109   -8.96      3.5        0.6238752 
583.6      187.2      9.53       51.67109   -13.99     3.63       0.6132104 
583.7      187.26     9.48       52.37838   -13.42     2.68       0.6027066 
583.8      187.31     9.43       52.37838   -12.85     1.73       0.5923614 
583.9      187.36     9.46       53.10221   -12.28     1.34       0.5985497 
584        187.42     9.48       53.84315   -11.71     0.95       0.6027066 
584.1      187.36     9.53       53.10221   -10.94     0.89       0.6132104 
584.2      187.31     9.58       53.10221   -10.18     0.82       0.6238752 
584.3      186.86     9.61       53.10221   -9.28      0.86       0.6303521 
584.4      186.41     9.64       52.37838   -8.38      0.91       0.6368887 
584.5      185.97     9.61       52.37838   -7.48      0.93       0.6303521 
584.6      185.52     9.58       52.37838   -6.58      0.96       0.6238752 
584.7      185.07     9.55       52.37838   -5.68      0.92       0.6174569 
584.8      184.63     9.53       52.37838   -4.78      0.89       0.6132104 
584.9      184.18     9.58       52.37838   -3.88      0.85       0.6238752 
585        183.73     9.62       52.37838   -2.98      0.82       0.6325244 
585.1      183.53     9.67       51.67109   -3.77      0.85       0.643485  
585.2      183.33     9.72       51.67109   -4.56      0.88       0.6546136 
585.3      184.24     9.77       51.67109   -5.66      0.91       0.6659124 
585.4      185.15     9.82       50.97978   -6.75      0.95       0.6773843 
585.5      186.05     9.87       51.67109   -7.83      0.98       0.689032  
585.6      186.96     9.92       51.67109   -8.91      1.01       0.7008582 
585.7      186.53     9.96       51.67109   -8.32      1.02       0.7104495 
585.8      186.1      10.01      50.97978   -7.73      1.03       0.7226037 
585.9      185.64     10.03      50.30392   -7.24      0.98       0.7275172 
586        185.19     10.04      49.643     -6.75      0.93       0.7299853 
586.1      184.73     9.99       48.99654   -7.07      0.96       0.7177197 
586.2      184.27     9.94       48.36407   -7.38      0.98       0.7056392 
586.3      183.81     9.89       47.74515   -7.7       1.01       0.6937411 
586.4      183.35     9.84       47.13935   -8.02      1.04       0.6820223 
586.5      183.77     9.81       47.74515   -8.15      1.06       0.675076  
586.6      184.18     9.78       47.74515   -8.28      1.08       0.6681927 
586.7      184.7      9.83       48.99654   -7.94      1.05       0.6796998 
586.8      185.23     9.88       49.643     -7.59      1.03       0.6913829 
586.9      185.75     9.85       50.30392   -8.25      1.03       0.6843519 
587        186.27     9.82       50.97978   -8.91      1.03       0.6773843 
587.1      186.79     9.74       50.97978   -9.82      1.06       0.6591123 
587.2      187.32     9.66       50.30392   -10.72     1.09       0.6412794 
587.3      187.84     9.58       50.30392   -10.42     1.12       0.6238752 
587.4      188.36     9.5        49.643     -10.11     1.15       0.606889  
587.5      188.88     9.42       49.643     -10.77     1.18       0.5903111 
587.6      189.41     9.35       49.643     -11.43     1.21       0.5761326 
587.7      188.15     9.33       48.99654   -12.09     1.18       0.5721366 
587.8      186.89     9.31       48.99654   -12.75     1.15       0.5681649 
587.9      186.03     9.35       48.99654   -13.39     1.04       0.5761326 
588        185.16     9.38       48.36407   -14.04     0.93       0.5821721 
588.1      185.4      9.42       48.99654   -13.76     0.95       0.5903111 
588.2      185.64     9.46       48.99654   -13.49     0.97       0.5985497 
588.3      185.88     9.5        49.643     -13.21     0.97       0.606889  
588.4      186.11     9.53       50.97978   -12.94     0.97       0.6132104 
588.5      186.35     9.56       51.67109   -12.67     0.88       0.6195899 
588.6      186.59     9.59       51.67109   -12.39     0.78       0.6260277 
588.7      186.83     9.56       51.67109   -12.48     0.76       0.6195899 
588.8      187.07     9.53       51.67109   -12.57     0.75       0.6132104 
588.9      187.31     9.56       51.67109   -12.71     0.78       0.6195899 
589        187.55     9.58       50.97978   -12.86     0.8        0.6238752 
589.1      187.78     9.66       50.97978   -12.34     0.89       0.6412794 
589.2      188.02     9.74       50.97978   -11.82     0.97       0.6591123 
589.3      188.26     9.82       50.97978   -10.94     1.05       0.6773843 
589.4      188.5      9.9        50.30392   -10.07     1.13       0.696106  
589.5      188.74     9.97       50.30392   -9.2       1.22       0.7128657 
589.6      188.98     10.05      50.30392   -8.32      1.3        0.7324609 
589.7      189.21     10.13      50.30392   -7.45      1.05       0.7525389 
589.8      189.45     10.21      49.643     -6.57      0.8        0.7731112 
589.9      190.46     10.11      49.643     -5.88      0.84       0.7474734 
590        191.47     10.01      49.643     -5.18      0.89       0.7226037 
590.1      191.31     9.87       48.99654   -4.63      0.93       0.689032  
590.2      191.16     9.73       48.99654   -4.08      0.97       0.6568593 
590.3      191        9.59       48.36407   -4.2       1.01       0.6260277 
590.4      190.85     9.45       47.74515   -4.32      1.06       0.5964806 
590.5      190.69     9.31       50.97978   -5.74      1.08       0.5681649 
590.6      190.54     9.16       53.84315   -7.16      1.11       0.5391347 
590.7      190.38     9.15       53.84315   -8.58      1.08       0.5372459 
590.8      190.23     9.13       53.10221   -10        1.06       0.5334859 
590.9      190.07     9.17       53.10221   -11.01     1.03       0.5410292 
591        189.92     9.2        53.10221   -12.02     1.01       0.5467471 
591.1      189.76     9.24       53.10221   -12.04     1.01       0.5544526 
591.2      189.6      9.27       52.37838   -12.07     1.02       0.5602937 
591.3      189.54     9.27       52.37838   -12.29     1.08       0.5602937 
591.4      189.47     9.27       51.67109   -12.52     1.14       0.5602937 
591.5      189.45     9.23       51.67109   -12.73     1.14       0.5525174 
591.6      189.42     9.19       50.97978   -12.94     1.14       0.5448353 
591.7      189.4      9.21       50.97978   -12.73     1.08       0.5486648 
591.8      189.38     9.22       50.30392   -12.51     1.01       0.5505883 
591.9      189.35     9.29       51.67109   -12.3      0.95       0.5642172 
592        189.33     9.36       52.37838   -12.08     0.88       0.5781395 
592.1      189.31     9.35       52.37838   -12.17     0.84       0.5761326 
592.2      189.28     9.34       52.37838   -12.25     0.81       0.5741315 
592.3      189.27     9.33       52.37838   -12.63     0.82       0.5721366 
592.4      189.25     9.32       52.37838   -13.01     0.84       0.5701477 
592.5      189.25     9.31       52.37838   -13.39     0.86       0.5681649 
592.6      189.25     9.3        53.10221   -13.77     0.87       0.5661881 
592.7      189.25     9.31       53.84315   -13.34     0.84       0.5681649 
592.8      189.25     9.33       54.60183   -12.9      0.8        0.5721366 
592.9      189.25     9.41       54.60183   -13.29     0.77       0.588267  
593        189.25     9.49       53.84315   -13.68     0.74       0.6047946 
593.1      189.25     9.35       53.84315   -14.06     0.76       0.5761326 
593.2      189.25     9.21       53.10221   -14.45     0.77       0.5486648 
593.3      189.25     9.07       53.10221   -13.43     0.8        0.5223416 
593.4      189.25     8.93       52.37838   -12.41     0.82       0.4971155 
593.5      189.25     8.79       52.37838   -10.31     0.84       0.4729405 
593.6      189.25     8.65       52.37838   -8.21      0.87       0.449773  
