~Version
 VERS              .         3.0                           : CWLS LOG ASCII STANDARD - VERSION 3.0
 WRAP              .         NO                            : ONE LINE PER DEPTH STEP
 DLM               .         SPACE                         : DELIMITING CHARACTER(SPACE TAB OR COMMA)
~Well Information
#_______________________________________________________________________________
#
#PARAMETER_NAME    .UNIT     VALUE                         : DESCRIPTION
#_______________________________________________________________________________
STRT               .M        2                             : First reference value
STOP               .M        863                           : Last reference value
STEP               .M        0.1                           : Step increment
NULL               .         -9999                         : Missing value
COMP               .         COMPANY NAME                  : Company
WELL               .         G-29                          : Well name
FLD                .         UZEN                          : Field
LOC                .                                       : Location
SRVC               .         AO "UPGF"                     : Service Company
CTRY               .         CO                            : Country
DATE               .         20/2/2022                     : Service Date
X                  .                                       : X or East-West coordinate
Y                  .                                       : Y or North South coordinate
GDAT               .                                       : Geodetic Datum
HZCS               .                                       : Horizontal Co-ordinate System
COUNTRY            .         COUNTRY                       : KAZAKHSTAN
EREF               .m        144.9                         : 
GRP                .                                       : Group name
ISS                .                                       : Well surveys
PROV               .         PROVINCE                      : AKTAU AREA
TIME               .                                       : LOG TIME
~Parameter Information Block
#_______________________________________________________________________________
#
#PARAMETER_NAME    .UNIT     VALUE                         : DESCRIPTION
#_______________________________________________________________________________
SET                .         Las                           : 
TLFamily_CALI      .         Caliper                       : 
TLFamily_GR        .         Russian Gamma Ray             : 
TLFamily_MD        .         Measured Depth                : 
TLFamily_NPHI      .         Neutron Porosity              : 
TLFamily_PS        .         Spontaneous Potential         : 
TLFamily_Resistivity .         Resistivity                   : 
TLFamily_VSH_GR    .         Shale Volume                  : 
~Curve Information
#_______________________________________________________________________________
#
#LOGNAME           .UNIT     LOG_ID                        : DESCRIPTION
#_______________________________________________________________________________
MD                 .M                                      : Depth {F}
CALI               .mm                                     :  {F}
GR                 .мкР/ч                                  : ГК(мкр/ч) -    33.3 см {F}
NPHI               .%                                      :  {F}
PS                 .mV                                     :  {F}
Resistivity        .OHMM                                   :  {F}
VSH_GR             .unitless                               : Shale volume fraction from Gamma Ray {F}
~Ascii
# ...
479.3      217.9      9.82       70.973     -1.89      3.65       0.6773843 
479.4      219.33     9.7        69.78348   -2.26      3.71       0.6501417 
479.5      217.54     9.58       69.78348   -2.64      3.78       0.6238752 
479.6      215.76     9.46       68.62834   -3.01      3.85       0.5985497 
479.7      213.97     9.46       68.62834   -3.38      3.91       0.5985497 
479.8      212.18     9.46       67.50613   -3.76      3.98       0.5985497 
479.9      210.39     9.5        67.50613   -4.13      4.05       0.606889  
480        208.6      9.53       66.4155    -4.51      4.11       0.6132104 
480.1      210.22     9.56       66.4155    -4.88      4.18       0.6195899 
480.2      211.83     9.59       65.35513   -5.26      4.25       0.6260277 
480.3      213.82     9.63       65.35513   -5.63      4.31       0.6347033 
480.4      215.8      9.66       64.32379   -6         4.38       0.6412794 
480.5      217.79     9.69       64.32379   -6.38      4.45       0.647916  
480.6      219.78     9.73       63.32033   -6.75      4.51       0.6568593 
480.7      221.76     9.76       64.32379   -7.13      4.41       0.6636388 
480.8      223.75     9.79       65.35513   -7.5       4.31       0.6704801 
480.9      221.36     9.83       65.35513   -7.87      4.07       0.6796998 
481        218.98     9.86       66.4155    -8.25      3.84       0.6866882 
481.1      215.57     9.89       66.4155    -8.6       3.6        0.6937411 
481.2      212.16     9.92       66.4155    -8.96      3.36       0.7008582 
481.3      209.99     9.96       65.35513   -9.26      3.23       0.7104495 
481.4      207.81     9.99       65.35513   -9.57      3.11       0.7177197 
481.5      206.42     10.02      64.32379   -9.87      3.15       0.7250569 
481.6      205.03     10.06      64.32379   -10.18     3.19       0.7349441 
481.7      203.64     10.02      64.32379   -10.48     3.23       0.7250569 
481.8      202.24     9.99       64.32379   -10.79     3.27       0.7177197 
481.9      201.88     9.93       65.35513   -10.42     3.31       0.7032451 
482        201.51     9.87       66.4155    -10.06     3.35       0.689032  
482.1      202.32     9.89       67.50613   -9.53      3.23       0.6937411 
482.2      203.14     9.9        68.62834   -9         3.1        0.696106  
482.3      203.96     9.94       69.78348   -8.47      3.12       0.7056392 
482.4      204.77     9.98       70.973     -7.95      3.14       0.7152888 
482.5      205.59     10.01      72.19845   -7.42      3.29       0.7226037 
482.6      206.41     10.05      73.46144   -6.89      3.44       0.7324609 
482.7      207.22     10.02      73.46144   -6.43      3.58       0.7250569 
482.8      208.04     9.99       73.46144   -5.98      3.73       0.7177197 
482.9      208.86     9.92       72.19845   -5.64      3.88       0.7008582 
483        209.67     9.86       70.973     -5.31      4.02       0.6866882 
483.1      211.82     9.8        68.62834   -4.97      4.17       0.6727746 
483.2      213.97     9.73       67.50613   -4.64      4.32       0.6568593 
483.3      216.45     9.67       66.4155    -4.42      4.46       0.643485  
483.4      218.94     9.6        65.35513   -4.21      4.61       0.6281868 
483.5      220.11     9.54       64.32379   -4.41      4.76       0.6153304 
483.6      221.28     9.47       63.32033   -4.62      4.9        0.6006251 
483.7      219.12     9.41       62.34364   -4.82      5.02       0.588267  
483.8      216.97     9.34       61.39267   -5.02      5.15       0.5741315 
483.9      215.04     9.28       60.46644   -5.55      5.01       0.5622523 
484        213.12     9.21       59.56401   -6.07      4.87       0.5486648 
484.1      213.86     9.15       58.68447   -6.73      4.73       0.5372459 
484.2      214.61     9.08       57.82697   -7.39      4.59       0.5241849 
484.3      215.35     9.02       56.99072   -8.05      4.44       0.5132089 
484.4      216.1      8.96       56.17492   -8.71      4.3        0.5024311 
484.5      214.51     8.89       55.37886   -9.02      4.49       0.4901031 
484.6      212.91     8.83       55.37886   -9.34      4.67       0.479743  
484.7      209.51     8.83       56.17492   -9.37      5.06       0.479743  
484.8      206.1      8.84       57.82697   -9.4       5.45       0.4814566 
484.9      203.71     8.89       59.56401   -9.36      5.84       0.4901031 
485        201.32     8.95       61.39267   -9.33      6.23       0.5006538 
485.1      200.72     9.01       62.34364   -9.17      7.71       0.5113989 
485.2      200.13     9.07       63.32033   -9.02      9.19       0.5223416 
485.3      199.53     9.12       63.32033   -8.86      9.85       0.5316144 
485.4      198.94     9.18       62.34364   -8.7       10.51      0.5429294 
485.5      198.49     9.15       63.32033   -8.54      11.71      0.5372459 
485.6      198.04     9.11       63.32033   -8.39      12.91      0.5297484 
485.7      198.14     9.17       64.32379   -8.62      13.57      0.5410292 
485.8      198.24     9.23       64.32379   -8.86      14.23      0.5525174 
485.9      198.34     9.26       63.32033   -9.15      17.07      0.5583407 
486        198.44     9.29       63.32033   -9.45      19.92      0.5642172 
486.1      198.54     9.19       63.32033   -9.74      21.56      0.5448353 
486.2      198.64     9.09       62.34364   -10.04     23.2       0.5260339 
486.3      198.74     9          62.34364   -10.33     24.07      0.5095943 
486.4      198.84     8.9        61.39267   -10.63     24.95      0.4918481 
486.5      198.94     8.93       61.39267   -10.92     19.37      0.4971155 
486.6      199.04     8.95       61.39267   -11.22     13.79      0.5006538 
486.7      199.14     8.97       61.39267   -11.51     12.58      0.5042138 
486.8      199.23     9          60.46644   -11.81     11.38      0.5095943 
486.9      199.26     9.02       62.34364   -12.1      10.4       0.5132089 
487        199.28     9.05       64.32379   -12.4      9.41       0.5186718 
487.1      199.29     9.07       63.32033   -12.6      8.43       0.5223416 
487.2      199.31     9.09       63.32033   -12.8      7.44       0.5260339 
487.3      199.32     9.12       63.32033   -13        7.11       0.5316144 
487.4      199.34     9.14       63.32033   -13.19     6.78       0.5353632 
487.5      199.35     9.12       62.34364   -13.39     6.85       0.5316144 
487.6      199.37     9.09       62.34364   -13.58     6.93       0.5260339 
487.7      199.38     9.15       62.34364   -13.78     6.66       0.5372459 
487.8      199.39     9.21       61.39267   -13.97     6.39       0.5486648 
487.9      199.41     9.27       62.34364   -13.89     6.12       0.5602937 
488        199.42     9.32       62.34364   -13.81     5.85       0.5701477 
488.1      199.44     9.38       62.34364   -13.67     5.58       0.5821721 
488.2      199.45     9.44       63.32033   -13.53     5.31       0.5944178 
488.3      199.47     9.49       62.34364   -13.39     5.04       0.6047946 
488.4      199.48     9.55       62.34364   -13.24     4.77       0.6174569 
488.5      199.47     9.61       60.46644   -13.26     4.55       0.6303521 
488.6      199.46     9.67       59.56401   -13.28     4.34       0.643485  
488.7      199.41     9.72       57.82697   -13.38     4.2        0.6546136 
488.8      199.36     9.78       56.99072   -13.49     4.06       0.6681927 
488.9      199.31     9.76       56.17492   -13.59     3.92       0.6636388 
489        199.26     9.75       55.37886   -13.69     3.78       0.6613721 
489.1      199.22     9.63       56.17492   -13.79     3.64       0.6347033 
489.2      199.17     9.52       56.99072   -13.89     3.5        0.611097  
489.3      199.12     9.4        56.99072   -13.99     3.36       0.5862291 
489.4      199.07     9.29       57.82697   -14.09     3.22       0.5642172 
489.5      199.02     9.33       58.68447   -14.2      3.08       0.5721366 
489.6      198.97     9.37       59.56401   -14.3      2.94       0.5801528 
