~Version
 VERS              .         3.0                           : CWLS LOG ASCII STANDARD - VERSION 3.0
 WRAP              .         NO                            : ONE LINE PER DEPTH STEP
 DLM               .         SPACE                         : DELIMITING CHARACTER(SPACE TAB OR COMMA)
~Well Information
#_______________________________________________________________________________
#
#PARAMETER_NAME    .UNIT     VALUE                         : DESCRIPTION
#_______________________________________________________________________________
STRT               .M        2                             : First reference value
STOP               .M        863                           : Last reference value
STEP               .M        0.1                           : Step increment
NULL               .         -9999                         : Missing value
COMP               .         COMPANY NAME                  : Company
WELL               .         G-29                          : Well name
FLD                .         UZEN                          : Field
LOC                .                                       : Location
SRVC               .         AO "UPGF"                     : Service Company
CTRY               .         CO                            : Country
DATE               .         20/2/2022                     : Service Date
X                  .                                       : X or East-West coordinate
Y                  .                                       : Y or North South coordinate
GDAT               .                                       : Geodetic Datum
HZCS               .                                       : Horizontal Co-ordinate System
COUNTRY            .         COUNTRY                       : KAZAKHSTAN
EREF               .m        144.9                         : 
GRP                .                                       : Group name
ISS                .                                       : Well surveys
PROV               .         PROVINCE                      : AKTAU AREA
TIME               .                                       : LOG TIME
~Parameter Information Block
#_______________________________________________________________________________
#
#PARAMETER_NAME    .UNIT     VALUE                         : DESCRIPTION
#_______________________________________________________________________________
SET                .         Las                           : 
TLFamily_CALI      .         Caliper                       : 
TLFamily_GR        .         Russian Gamma Ray             : 
TLFamily_MD        .         Measured Depth                : 
TLFamily_NPHI      .         Neutron Porosity              : 
TLFamily_PS        .         Spontaneous Potential         : 
TLFamily_Resistivity .         Resistivity                   : 
TLFamily_VSH_GR    .         Shale Volume                  : 
~Curve Information
#_______________________________________________________________________________
#
#LOGNAME           .UNIT     LOG_ID                        : DESCRIPTION
#_______________________________________________________________________________
MD                 .M                                      : Depth {F}
CALI               .mm                                     :  {F}
GR                 .мкР/ч                                  : ГК(мкр/ч) -    33.3 см {F}
NPHI               .%                                      :  {F}
PS                 .mV                                     :  {F}
Resistivity        .OHMM                                   :  {F}
VSH_GR             .unitless                               : Shale volume fraction from Gamma Ray {F}
~Ascii
# ...
739.3      -9999      6.25       40.75927   27.01      2.02       0.1738253 
739.4      -9999      6.27       40.29211   26.65      2.05       0.1753918 
739.5      -9999      6.35       39.83361   26.29      2.04       0.1817538 
739.6      -9999      6.44       39.83361   25.93      2.03       0.1890985 
739.7      -9999      6.52       39.38351   25.62      1.98       0.195798  
739.8      -9999      6.61       39.38351   25.31      1.93       0.2035323 
739.9      -9999      6.69       38.94161   25.54      1.88       0.2105871 
740        -9999      6.78       38.94161   25.76      1.83       0.2187317 
740.1      -9999      6.86       38.94161   25.99      1.81       0.2261608 
740.2      -9999      6.95       38.50767   26.22      1.79       0.2347374 
740.3      -9999      7.03       38.50767   25.86      1.82       0.2425606 
740.4      -9999      7.12       38.50767   25.5       1.85       0.2515921 
740.5      -9999      7.2        38.50767   24.67      1.85       0.2598303 
740.6      -9999      7.29       38.50767   23.84      1.85       0.2693409 
740.7      -9999      6.98       38.50767   23         1.81       0.2376488 
740.8      -9999      6.68       38.50767   22.17      1.76       0.2096959 
740.9      -9999      6.42       38.94161   21.34      1.72       0.1874489 
741        -9999      6.16       39.38351   20.51      1.67       0.1668929 
741.1      -9999      6.27       39.38351   19.67      1.62       0.1753918 
741.2      -9999      6.37       39.38351   18.84      1.58       0.1833686 
741.3      -9999      6.48       39.38351   18.01      1.53       0.1924279 
741.4      -9999      6.59       39.38351   17.18      1.49       0.2017952 
741.5      -9999      6.7        39.83361   16.34      1.45       0.2114811 
741.6      -9999      6.8        40.29211   15.51      1.41       0.2205721 
741.7      -9999      6.91       40.75927   14.68      1.46       0.2308965 
741.8      -9999      7.02       41.23532   13.84      1.5        0.2415722 
741.9      -9999      7.13       41.72052   14.23      1.55       0.252611  
742        -9999      7.23       42.71943   14.61      1.6        0.2629717 
742.1      -9999      7.43       43.2337    15.02      1.65       0.2846624 
742.2      -9999      7.62       43.75825   15.43      1.69       0.3065269 
742.3      -9999      7.85       44.29337   15.84      1.74       0.3347414 
742.4      -9999      8.07       44.83939   16.25      1.79       0.3636394 
742.5      -9999      8.12       44.29337   16.66      1.84       0.3704811 
742.6      -9999      8.17       44.29337   17.07      1.89       0.3774276 
742.7      -9999      8.06       43.75825   17.48      1.8        0.3622835 
742.8      -9999      7.95       43.2337    17.88      1.71       0.3476375 
742.9      -9999      7.84       42.71943   18.29      1.6        0.3334732 
743        -9999      7.73       42.21513   18.7       1.48       0.3197748 
743.1      -9999      7.62       41.72052   19.11      1.6        0.3065269 
743.2      -9999      7.51       41.72052   19.52      1.73       0.2937148 
743.3      -9999      7.4        41.23532   19.93      1.85       0.2813241 
743.4      -9999      7.29       40.75927   20.34      1.97       0.2693409 
743.5      -9999      7.18       40.75927   20.75      1.76       0.2577519 
743.6      -9999      7.07       40.29211   21.16      1.55       0.2465441 
743.7      -9999      6.96       40.29211   21.07      1.59       0.2357049 
743.8      -9999      6.85       39.83361   20.97      1.63       0.2252222 
743.9      -9999      6.79       39.38351   18.84      1.69       0.2196504 
744        -9999      6.74       39.38351   16.71      1.75       0.2150843 
744.1      -9999      6.84       39.38351   15.23      1.81       0.2242866 
744.2      -9999      6.94       39.38351   13.74      1.88       0.2337728 
744.3      -9999      7.04       39.38351   12.66      1.94       0.2435519 
744.4      -9999      7.13       39.38351   11.57      2          0.252611  
744.5      -9999      7.23       38.94161   11.1       2.06       0.2629717 
744.6      -9999      7.33       38.08149   10.63      2.12       0.2736522 
744.7      -9999      7.33       37.66285   11.04      2.02       0.2736522 
744.8      -9999      7.32       36.84744   11.46      1.92       0.2725694 
744.9      -9999      7.22       36.45029   11.87      1.87       0.2619213 
745        -9999      7.11       35.67622   12.29      1.81       0.2505764 
745.1      -9999      7          36.05994   12.7       1.87       0.2396046 
745.2      -9999      6.89       36.05994   13.11      1.93       0.2289936 
745.3      -9999      6.79       36.05994   13.27      1.98       0.2196504 
745.4      -9999      6.68       36.05994   13.43      2.03       0.2096959 
745.5      -9999      6.57       36.45029   13.43      2          0.2000687 
745.6      -9999      6.47       36.45029   13.43      1.97       0.1915917 
745.7      -9999      6.36       36.45029   13.43      1.99       0.18256   
745.8      -9999      6.25       36.84744   13.43      2.01       0.1738253 
745.9      -9999      6.29       37.66285   13.24      2.08       0.1769678 
746        -9999      6.34       38.08149   13.06      2.15       0.1809501 
746.1      -9999      6.41       38.94161   12.66      2.22       0.1866279 
746.2      -9999      6.49       39.83361   12.26      2.29       0.1932665 
746.3      -9999      6.56       41.72052   11.87      2.36       0.1992093 
746.4      -9999      6.64       44.29337   11.47      2.43       0.2061577 
746.5      -9999      6.71       43.75825   11.47      2.5        0.2123778 
746.6      -9999      6.79       43.2337    11.46      2.57       0.2196504 
746.7      -9999      6.87       42.71943   12.31      2.6        0.2271022 
746.8      -9999      6.94       42.21513   13.16      2.63       0.2337728 
746.9      -9999      7.02       41.72052   14.01      2.49       0.2415722 
747        -9999      7.09       41.23532   14.86      2.35       0.2485542 
747.1      -9999      7.17       40.75927   15.44      2.21       0.2567175 
747.2      -9999      7.24       40.29211   16.02      2.06       0.2640251 
747.3      -9999      7.41       39.83361   16.53      1.92       0.2824334 
747.4      -9999      7.58       39.38351   17.03      1.78       0.3018183 
747.5      -9999      7.76       38.94161   17.54      1.65       0.3234654 
747.6      -9999      7.93       38.50767   18.05      1.52       0.3450268 
747.7      -9999      8.15       38.08149   17.87      1.56       0.3746363 
747.8      -9999      8.36       38.08149   17.7       1.59       0.4048088 
747.9      -9999      8.58       38.94161   17.13      1.57       0.438554  
748        -9999      8.79       40.29211   16.56      1.56       0.4729405 
748.1      -9999      8.94       41.72052   15.99      1.47       0.4988819 
748.2      -9999      9.1        43.2337    15.42      1.39       0.5278885 
748.3      -9999      8.91       43.75825   14.85      1.31       0.4935985 
748.4      -9999      8.73       44.29337   14.28      1.23       0.4628907 
748.5      -9999      8.54       43.75825   14.25      1.26       0.4322493 
748.6      -9999      8.36       43.2337    14.21      1.29       0.4048088 
748.7      -9999      8.17       42.71943   14.65      1.55       0.3774276 
748.8      -9999      7.99       42.21513   15.09      1.81       0.3529067 
748.9      -9999      7.8        41.72052   15.52      2.06       0.3284388 
749        -9999      7.62       41.23532   15.96      2.32       0.3065269 
749.1      -9999      7.46       40.75927   16.4       2.58       0.2880313 
749.2      -9999      7.3        40.29211   16.84      2.84       0.2704138 
749.3      -9999      7.36       39.83361   17.28      3.09       0.2769202 
749.4      -9999      7.42       39.38351   17.72      3.35       0.2835462 
749.5      -9999      7.48       38.94161   18.15      3.36       0.2902943 
749.6      -9999      7.54       38.50767   18.59      3.37       0.2971666 
