~Version
 VERS              .         3.0                           : CWLS LOG ASCII STANDARD - VERSION 3.0
 WRAP              .         NO                            : ONE LINE PER DEPTH STEP
 DLM               .         SPACE                         : DELIMITING CHARACTER(SPACE TAB OR COMMA)
~Well Information
#_______________________________________________________________________________
#
#PARAMETER_NAME    .UNIT     VALUE                         : DESCRIPTION
#_______________________________________________________________________________
STRT               .M        2                             : First reference value
STOP               .M        863                           : Last reference value
STEP               .M        0.1                           : Step increment
NULL               .         -9999                         : Missing value
COMP               .         COMPANY NAME                  : Company
WELL               .         G-29                          : Well name
FLD                .         UZEN                          : Field
LOC                .                                       : Location
SRVC               .         AO "UPGF"                     : Service Company
CTRY               .         CO                            : Country
DATE               .         20/2/2022                     : Service Date
X                  .                                       : X or East-West coordinate
Y                  .                                       : Y or North South coordinate
GDAT               .                                       : Geodetic Datum
HZCS               .                                       : Horizontal Co-ordinate System
COUNTRY            .         COUNTRY                       : KAZAKHSTAN
EREF               .m        144.9                         : 
GRP                .                                       : Group name
ISS                .                                       : Well surveys
PROV               .         PROVINCE                      : AKTAU AREA
TIME               .                                       : LOG TIME
~Parameter Information Block
#_______________________________________________________________________________
#
#PARAMETER_NAME    .UNIT     VALUE                         : DESCRIPTION
#_______________________________________________________________________________
SET                .         Las                           : 
TLFamily_CALI      .         Caliper                       : 
TLFamily_GR        .         Russian Gamma Ray             : 
TLFamily_MD        .         Measured Depth                : 
TLFamily_NPHI      .         Neutron Porosity              : 
TLFamily_PS        .         Spontaneous Potential         : 
TLFamily_Resistivity .         Resistivity                   : 
TLFamily_VSH_GR    .         Shale Volume                  : 
~Curve Information
#_______________________________________________________________________________
#
#LOGNAME           .UNIT     LOG_ID                        : DESCRIPTION
#_______________________________________________________________________________
MD                 .M                                      : Depth {F}
CALI               .mm                                     :  {F}
GR                 .мкР/ч                                  : ГК(мкр/ч) -    33.3 см {F}
NPHI               .%                                      :  {F}
PS                 .mV                                     :  {F}
Resistivity        .OHMM                                   :  {F}
VSH_GR             .unitless                               : Shale volume fraction from Gamma Ray {F}
~Ascii
# ...
791.3      -9999      5.41       35.29896   30.07      2.73       0.1159396 
791.4      -9999      5.47       35.67622   30.02      2.36       0.1196021 
791.5      -9999      5.3        35.67622   30.07      2.28       0.1093962 
791.6      -9999      5.12       35.29896   30.11      2.21       0.0991498 
791.7      -9999      4.94       35.29896   30.38      2.29       0.08944909
791.8      -9999      4.76       34.928     30.65      2.37       0.080265  
791.9      -9999      4.58       34.928     30.92      2.45       0.07157   
792        -9999      4.4        34.56319   31.19      2.54       0.06333809
792.1      -9999      4.77       34.56319   31.46      2.62       0.08076213
792.2      -9999      5.13       34.20436   31.73      2.7        0.09970447
792.3      -9999      5.5        34.20436   31.99      2.78       0.1214585 
792.4      -9999      5.87       33.85138   32.26      2.86       0.1458028 
792.5      -9999      5.76       33.85138   32.53      2.94       0.1382772 
792.6      -9999      5.65       33.50411   32.8       3.02       0.130999  
792.7      -9999      5.54       33.50411   32.35      3.09       0.1239603 
792.8      -9999      5.43       33.16241   31.9       3.17       0.117153  
792.9      -9999      5.31       33.16241   31.4       3.23       0.1099821 
793        -9999      5.2        32.82616   30.91      3.29       0.1036346 
793.1      -9999      5.09       32.82616   30.42      3.33       0.09749594
793.2      -9999      4.98       32.82616   29.93      3.37       0.09155916
793.3      -9999      4.87       33.16241   29.44      3.32       0.08581764
793.4      -9999      4.76       33.16241   28.95      3.27       0.080265  
793.5      -9999      4.65       33.50411   29.11      3.22       0.07489496
793.6      -9999      4.54       33.85138   29.28      3.18       0.06970157
793.7      -9999      4.43       33.85138   29.57      3.13       0.06467898
793.8      -9999      4.31       34.20436   29.86      3.08       0.05938803
793.9      -9999      4.23       34.20436   29.72      3.03       0.05596647
794        -9999      4.14       34.56319   29.58      2.98       0.05221537
794.1      -9999      4.18       34.56319   29.19      3.18       0.05386985
794.2      -9999      4.21       34.56319   28.8       3.37       0.055124  
794.3      -9999      4.25       33.16241   28.41      3.93       0.05681407
794.4      -9999      4.28       31.84875   28.02      4.49       0.05809519
794.5      -9999      4.25       31.22209   27.63      5.05       0.05681407
794.6      -9999      4.21       30.61434   27.24      5.6        0.055124  
794.7      -9999      4.26       30.02466   27.17      6.07       0.05723982
794.8      -9999      4.3        29.45226   27.11      6.53       0.05895578
794.9      -9999      4.34       28.62444   27.33      6.76       0.06069273
795        -9999      4.39       27.8315    27.54      6.99       0.06289383
795.1      -9999      4.28       27.07129   27.76      7.22       0.05809519
795.2      -9999      4.17       26.34183   27.98      7.45       0.05345436
795.3      -9999      4.05       25.8717    28.2       7.52       0.04856556
795.4      -9999      3.94       25.41392   28.42      7.59       0.04423817
795.5      -9999      3.83       25.18951   28.52      7.59       0.04005311
795.6      -9999      3.72       24.96801   28.62      7.59       0.03600571
795.7      -9999      3.6        24.74936   28.56      7.59       0.03174205
795.8      -9999      3.49       24.53352   28.5       7.59       0.02796802
795.9      -9999      3.48       24.11002   28.44      6.83       0.02763114
796        -9999      3.47       23.69709   28.38      6.07       0.02729528
796.1      -9999      3.5        23.49447   28.33      6.76       0.02830592
796.2      -9999      3.53       23.29435   28.27      7.44       0.02932581
796.3      -9999      3.56       23.09669   28.23      7.88       0.03035505
796.4      -9999      3.59       22.90143   28.19      8.32       0.03139372
796.5      -9999      3.62       22.32968   28.52      8.64       0.0324419 
796.6      -9999      3.65       21.77811   28.85      8.97       0.03349969
796.7      -9999      3.53       21.42108   28.84      10.61      0.02932581
796.8      -9999      3.41       21.07226   28.83      12.26      0.02530147
796.9      -9999      3.28       20.73137   28.82      13.24      0.02110431
797        -9999      3.14       20.39814   28.81      14.23      0.01676601
797.1      -9999      3.15       20.23432   28.8       14.55      0.0170698 
797.2      -9999      3.15       20.07232   28.8       14.88      0.0170698 
797.3      -9999      3.21       19.2886    29.03      16.19      0.01891207
797.4      -9999      3.27       18.54616   29.26      17.51      0.02078826
797.5      -9999      3.29       17.43632   29.52      18.06      0.02142131
797.6      -9999      3.31       16.41279   29.78      18.6       0.02205821
797.7      -9999      3.18       16.29042   30.03      18.82      0.01798674
797.8      -9999      3.04       16.16923   30.29      19.04      0.01377836
797.9      -9999      3.04       17.30387   30.55      19.48      0.01377836
798        -9999      3.03       18.54616   30.8       19.92      0.01348456
798.1      -9999      3.1        19.2886    31.06      20.46      0.01556004
798.2      -9999      3.18       20.07232   31.32      21.01      0.01798674
798.3      -9999      3.25       19.59694   31.57      21.99      0.02015906
798.4      -9999      3.32       19.13691   31.83      22.98      0.02237811
798.5      -9999      3.35       18.83839   32.09      22.65      0.02334369
798.6      -9999      3.39       18.54616   32.34      22.32      0.02464491
798.7      -9999      3.37       20.73137   32.6       21.12      0.02399231
798.8      -9999      3.35       23.29435   32.86      19.92      0.02334369
798.9      -9999      3.33       23.49447   33.11      19.26      0.02269899
799        -9999      3.32       23.69709   33.37      18.6       0.02237811
799.1      -9999      3.3        23.49447   33.63      17.29      0.02173927
799.2      -9999      3.28       23.29435   33.89      15.98      0.02110431
799.3      -9999      3.35       22.32968   34.22      15.32      0.02334369
799.4      -9999      3.42       21.42108   34.55      14.66      0.02563126
799.5      -9999      3.51       21.24566   34.9       14.88      0.02864485
799.6      -9999      3.6        21.07226   35.26      15.1       0.03174205
799.7      -9999      3.52       20.90084   35.61      15.65      0.02898481
799.8      -9999      3.43       20.73137   35.96      16.2       0.02596204
799.9      -9999      3.38       20.56381   36.31      16.3       0.02431812
800        -9999      3.32       20.39814   36.66      16.41      0.02237811
800.1      -9999      3.38       20.73137   36.96      15.76      0.02431812
800.2      -9999      3.44       21.07226   37.26      15.1       0.02629383
800.3      -9999      3.49       21.59855   36.92      14.44      0.02796802
800.4      -9999      3.55       22.14364   36.59      13.79      0.03001093
800.5      -9999      3.61       21.77811   36.25      13.35      0.03209144
800.6      -9999      3.67       21.42108   35.91      12.91      0.03421027
800.7      -9999      3.72       21.77811   35.58      11.71      0.03600571
800.8      -9999      3.78       22.14364   35.24      10.51      0.0381966 
800.9      -9999      3.84       23.69709   34.91      9.52       0.04042782
801        -9999      3.9        25.41392   34.57      8.54       0.04270011
801.1      -9999      3.96       27.57457   34.61      7.22       0.04501423
801.2      -9999      4.01       30.02466   34.65      5.91       0.0469752 
801.3      -9999      4.07       30.9159    34.69      5.36       0.04936802
801.4      -9999      4.13       31.84875   34.74      4.81       0.0518049 
801.5      -9999      4.19       30.9159    34.78      4.49       0.05428664
801.6      -9999      4.24       30.02466   34.83      4.16       0.05638961
