~Version
 VERS              .         3.0                           : CWLS LOG ASCII STANDARD - VERSION 3.0
 WRAP              .         NO                            : ONE LINE PER DEPTH STEP
 DLM               .         SPACE                         : DELIMITING CHARACTER(SPACE TAB OR COMMA)
~Well Information
#_______________________________________________________________________________
#
#PARAMETER_NAME    .UNIT     VALUE                         : DESCRIPTION
#_______________________________________________________________________________
STRT               .M        2                             : First reference value
STOP               .M        863                           : Last reference value
STEP               .M        0.1                           : Step increment
NULL               .         -9999                         : Missing value
COMP               .         COMPANY NAME                  : Company
WELL               .         G-29                          : Well name
FLD                .         UZEN                          : Field
LOC                .                                       : Location
SRVC               .         AO "UPGF"                     : Service Company
CTRY               .         CO                            : Country
DATE               .         20/2/2022                     : Service Date
X                  .                                       : X or East-West coordinate
Y                  .                                       : Y or North South coordinate
GDAT               .                                       : Geodetic Datum
HZCS               .                                       : Horizontal Co-ordinate System
COUNTRY            .         COUNTRY                       : KAZAKHSTAN
EREF               .m        144.9                         : 
GRP                .                                       : Group name
ISS                .                                       : Well surveys
PROV               .         PROVINCE                      : AKTAU AREA
TIME               .                                       : LOG TIME
~Parameter Information Block
#_______________________________________________________________________________
#
#PARAMETER_NAME    .UNIT     VALUE                         : DESCRIPTION
#_______________________________________________________________________________
SET                .         Las                           : 
TLFamily_CALI      .         Caliper                       : 
TLFamily_GR        .         Russian Gamma Ray             : 
TLFamily_MD        .         Measured Depth                : 
TLFamily_NPHI      .         Neutron Porosity              : 
TLFamily_PS        .         Spontaneous Potential         : 
TLFamily_Resistivity .         Resistivity                   : 
TLFamily_VSH_GR    .         Shale Volume                  : 
~Curve Information
#_______________________________________________________________________________
#
#LOGNAME           .UNIT     LOG_ID                        : DESCRIPTION
#_______________________________________________________________________________
MD                 .M                                      : Depth {F}
CALI               .mm                                     :  {F}
GR                 .мкР/ч                                  : ГК(мкр/ч) -    33.3 см {F}
NPHI               .%                                      :  {F}
PS                 .mV                                     :  {F}
Resistivity        .OHMM                                   :  {F}
VSH_GR             .unitless                               : Shale volume fraction from Gamma Ray {F}
~Ascii
# ...
531.3      192.04     9.48       58.68447   -9.96      1.6        0.6027066 
531.4      192.09     9.54       58.68447   -10.84     1.42       0.6153304 
531.5      192.34     9.6        57.82697   -11.05     1.4        0.6281868 
531.6      192.58     9.67       57.82697   -11.26     1.37       0.643485  
531.7      192.83     9.67       56.99072   -10.65     1.39       0.643485  
531.8      193.08     9.68       56.17492   -10.04     1.42       0.6456972 
531.9      193.33     9.65       56.99072   -9.43      1.44       0.6390806 
532        193.58     9.62       56.99072   -8.82      1.47       0.6325244 
532.1      193.83     9.62       58.68447   -8.21      1.44       0.6325244 
532.2      194.07     9.61       61.39267   -7.61      1.41       0.6303521 
532.3      194.32     9.64       60.46644   -7         1.35       0.6368887 
532.4      194.57     9.67       60.46644   -6.39      1.28       0.643485  
532.5      194.82     9.7        58.68447   -5.17      1.24       0.6501417 
532.6      195.07     9.72       57.82697   -3.95      1.2        0.6546136 
532.7      195.32     9.75       59.56401   -2.75      1.7        0.6613721 
532.8      195.56     9.78       62.34364   -1.55      2.2        0.6681927 
532.9      196.43     9.81       61.39267   -1.97      2.7        0.675076  
533        197.29     9.84       61.39267   -2.4       3.2        0.6820223 
533.1      198.51     9.83       61.39267   -2.83      3.7        0.6796998 
533.2      199.74     9.83       60.46644   -3.25      4.2        0.6796998 
533.3      200.97     9.88       60.46644   -3.68      4.81       0.6913829 
533.4      202.2      9.94       60.46644   -4.1       5.43       0.7056392 
533.5      199.06     10         59.56401   -4.53      5.1        0.720158  
533.6      195.92     10.05      59.56401   -4.96      4.78       0.7324609 
533.7      196.45     10.11      59.56401   -5.09      4.45       0.7474734 
533.8      196.98     10.16      60.46644   -5.22      4.13       0.7601948 
533.9      197.51     10.22      60.46644   -4.91      3.7        0.7757182 
534        198.04     10.28      61.39267   -4.61      3.28       0.7915267 
534.1      194.91     10.33      60.46644   -4.31      2.81       0.8049231 
534.2      191.78     10.39      60.46644   -4         2.35       0.8212698 
534.3      192.66     10.44      59.56401   -3.82      1.99       0.8351214 
534.4      193.53     10.49      59.56401   -3.64      1.64       0.8491853 
534.5      194.4      10.41      58.68447   -3.85      1.7        0.826785  
534.6      195.28     10.32      58.68447   -4.05      1.77       0.8022275 
534.7      196.15     10.24      57.82697   -4.25      1.84       0.7809556 
534.8      197.03     10.16      57.82697   -4.46      1.9        0.7601948 
534.9      197.9      10.07      57.82697   -4.66      1.97       0.7374347 
535        198.78     9.99       56.99072   -4.86      2.03       0.7177197 
535.1      198.02     9.9        56.99072   -5.06      2.1        0.696106  
535.2      197.26     9.82       56.17492   -5.27      2.17       0.6773843 
535.3      196.29     9.82       56.17492   -5.25      2.04       0.6773843 
535.4      195.31     9.82       55.37886   -5.24      1.9        0.6773843 
535.5      196.11     9.87       55.37886   -5.02      1.77       0.689032  
535.6      196.9      9.93       55.37886   -4.81      1.64       0.7032451 
535.7      197.3      9.98       56.17492   -4.71      1.7        0.7152888 
535.8      197.69     10.03      56.99072   -4.62      1.75       0.7275172 
535.9      195.86     10.09      57.82697   -4.8       1.72       0.742439  
536        194.03     10.14      58.68447   -4.98      1.69       0.7550832 
536.1      193.91     10.19      58.68447   -5.17      1.66       0.767921  
536.2      193.79     10.25      58.68447   -5.35      1.64       0.7835864 
536.3      194.9      10.2       58.68447   -5.54      1.68       0.7705121 
536.4      196.02     10.15      58.68447   -5.72      1.72       0.7576349 
536.5      197.13     10.06      58.68447   -5.9       1.76       0.7349441 
536.6      198.24     9.98       58.68447   -6.09      1.8        0.7152888 
536.7      199.35     9.99       59.56401   -6.16      1.84       0.7177197 
536.8      200.47     10         59.56401   -6.23      1.88       0.720158  
536.9      201.58     10.01      60.46644   -5.98      1.92       0.7226037 
537        202.69     10.02      61.39267   -5.73      1.96       0.7250569 
537.1      201.25     10.03      62.34364   -5.48      1.95       0.7275172 
537.2      199.81     10.05      63.32033   -5.23      1.94       0.7324609 
537.3      197.95     9.98       62.34364   -4.98      1.84       0.7152888 
537.4      196.1      9.92       62.34364   -4.73      1.73       0.7008582 
537.5      194.31     9.84       61.39267   -4.48      1.62       0.6820223 
537.6      192.53     9.76       61.39267   -4.23      1.51       0.6636388 
537.7      193        9.68       60.46644   -4.85      1.41       0.6456972 
537.8      193.48     9.61       59.56401   -5.47      1.32       0.6303521 
537.9      193.96     9.53       59.56401   -6.88      1.28       0.6132104 
538        194.44     9.45       59.56401   -8.3       1.24       0.5964806 
538.1      194.91     9.37       59.56401   -9.71      1.24       0.5801528 
538.2      195.39     9.29       60.46644   -11.12     1.25       0.5642172 
538.3      193.75     9.22       60.46644   -12.53     1.28       0.5505883 
538.4      192.11     9.14       61.39267   -13.95     1.32       0.5353632 
538.5      190.19     9.06       60.46644   -15.26     1.35       0.520504  
538.6      188.27     8.98       60.46644   -16.58     1.39       0.5060017 
538.7      189.01     8.9        60.46644   -17.07     1.4        0.4918481 
538.8      189.75     8.83       59.56401   -17.56     1.41       0.479743  
538.9      190.51     8.75       59.56401   -18.05     1.39       0.4662203 
539        191.26     8.67       58.68447   -18.54     1.37       0.4530226 
539.1      192.02     8.59       57.82697   -19.03     1.43       0.4401422 
539.2      192.77     8.51       57.82697   -19.51     1.49       0.4275711 
539.3      192.59     8.44       56.99072   -19.56     1.56       0.4168194 
539.4      192.4      8.36       56.99072   -19.61     1.63       0.4048088 
539.5      192.05     8.28       56.17492   -19.4      1.66       0.3930868 
539.6      191.7      8.2        56.17492   -19.19     1.69       0.3816465 
539.7      191.35     8.12       55.37886   -18.98     1.61       0.3704811 
539.8      191        8.04       54.60183   -18.77     1.54       0.359584  
539.9      190.65     7.97       54.60183   -18.56     1.47       0.3502641 
540        190.3      7.89       53.84315   -18.35     1.39       0.3398528 
540.1      189.95     7.81       53.84315   -18.14     1.32       0.3296917 
540.2      189.6      7.73       53.10221   -17.93     1.25       0.3197748 
540.3      189.55     7.65       53.10221   -18.21     1.17       0.3100961 
540.4      189.51     7.58       52.37838   -18.5      1.1        0.3018183 
540.5      189.76     7.5        52.37838   -18.83     1.08       0.2925712 
540.6      190.02     7.42       51.67109   -19.17     1.07       0.2835462 
540.7      190.28     7.34       51.67109   -19.49     1.1        0.2747382 
540.8      190.54     7.26       50.97978   -19.8      1.12       0.2661418 
540.9      190.79     7.19       50.97978   -19.77     1.15       0.2587895 
541        191.05     7.11       50.30392   -19.74     1.18       0.2505764 
541.1      191.31     7.03       50.30392   -19.71     1.21       0.2425606 
541.2      191.56     6.95       49.643     -19.68     1.23       0.2347374 
541.3      191.77     6.87       49.643     -19.65     1.21       0.2271022 
541.4      191.98     6.8        50.30392   -19.62     1.18       0.2205721 
541.5      191.91     6.81       50.30392   -19.59     1.14       0.2214965 
541.6      191.84     6.83       50.97978   -19.55     1.11       0.2233537 
