~Version
 VERS              .         3.0                           : CWLS LOG ASCII STANDARD - VERSION 3.0
 WRAP              .         NO                            : ONE LINE PER DEPTH STEP
 DLM               .         SPACE                         : DELIMITING CHARACTER(SPACE TAB OR COMMA)
~Well Information
#_______________________________________________________________________________
#
#PARAMETER_NAME    .UNIT     VALUE                         : DESCRIPTION
#_______________________________________________________________________________
STRT               .M        2                             : First reference value
STOP               .M        863                           : Last reference value
STEP               .M        0.1                           : Step increment
NULL               .         -9999                         : Missing value
COMP               .         COMPANY NAME                  : Company
WELL               .         G-29                          : Well name
FLD                .         UZEN                          : Field
LOC                .                                       : Location
SRVC               .         AO "UPGF"                     : Service Company
CTRY               .         CO                            : Country
DATE               .         20/2/2022                     : Service Date
X                  .                                       : X or East-West coordinate
Y                  .                                       : Y or North South coordinate
GDAT               .                                       : Geodetic Datum
HZCS               .                                       : Horizontal Co-ordinate System
COUNTRY            .         COUNTRY                       : KAZAKHSTAN
EREF               .m        144.9                         : 
GRP                .                                       : Group name
ISS                .                                       : Well surveys
PROV               .         PROVINCE                      : AKTAU AREA
TIME               .                                       : LOG TIME
~Parameter Information Block
#_______________________________________________________________________________
#
#PARAMETER_NAME    .UNIT     VALUE                         : DESCRIPTION
#_______________________________________________________________________________
SET                .         Las                           : 
TLFamily_CALI      .         Caliper                       : 
TLFamily_GR        .         Russian Gamma Ray             : 
TLFamily_MD        .         Measured Depth                : 
TLFamily_NPHI      .         Neutron Porosity              : 
TLFamily_PS        .         Spontaneous Potential         : 
TLFamily_Resistivity .         Resistivity                   : 
TLFamily_VSH_GR    .         Shale Volume                  : 
~Curve Information
#_______________________________________________________________________________
#
#LOGNAME           .UNIT     LOG_ID                        : DESCRIPTION
#_______________________________________________________________________________
MD                 .M                                      : Depth {F}
CALI               .mm                                     :  {F}
GR                 .мкР/ч                                  : ГК(мкр/ч) -    33.3 см {F}
NPHI               .%                                      :  {F}
PS                 .mV                                     :  {F}
Resistivity        .OHMM                                   :  {F}
VSH_GR             .unitless                               : Shale volume fraction from Gamma Ray {F}
~Ascii
# ...
54         -9999      8.02       90.41511   -9999      -9999      0.356901  
54.1       -9999      7.95       90.41511   -9999      -9999      0.3476375 
54.2       -9999      7.88       92.30096   -9999      -9999      0.3385691 
54.3       -9999      7.86       92.30096   -9999      -9999      0.3360134 
54.4       -9999      7.85       92.30096   -9999      -9999      0.3347414 
54.5       -9999      7.89       92.30096   -9999      -9999      0.3398528 
54.6       -9999      7.93       92.30096   -9999      -9999      0.3450268 
54.7       -9999      7.96       92.30096   -9999      -9999      0.3489488 
54.8       -9999      8          92.30096   -9999      -9999      0.3542341 
54.9       -9999      8.04       92.30096   -9999      -9999      0.359584  
55         -9999      8.08       92.30096   -9999      -9999      0.3649995 
55.1       -9999      8.09       92.30096   -9999      -9999      0.3663637 
55.2       -9999      8.11       90.41511   -9999      -9999      0.3691044 
55.3       -9999      8.09       90.41511   -9999      -9999      0.3663637 
55.4       -9999      8.08       90.41511   -9999      -9999      0.3649995 
55.5       -9999      8.06       90.41511   -9999      -9999      0.3622835 
55.6       -9999      8.04       92.30096   -9999      -9999      0.359584  
55.7       -9999      8.03       92.30096   -9999      -9999      0.3582404 
55.8       -9999      8.01       94.25817   -9999      -9999      0.3555655 
55.9       -9999      8.04       94.25817   -9999      -9999      0.359584  
56         -9999      8.06       96.29077   -9999      -9999      0.3622835 
56.1       -9999      8.11       98.40314   -9999      -9999      0.3691044 
56.2       -9999      8.15       98.40314   -9999      -9999      0.3746363 
56.3       -9999      8.2        100.6      -9999      -9999      0.3816465 
56.4       -9999      8.24       100.6      -9999      -9999      0.3873319 
56.5       -9999      8.29       100.6      -9999      -9999      0.3945365 
56.6       -9999      8.33       100.6      -9999      -9999      0.4003797 
56.7       -9999      8.38       100.6      -9999      -9999      0.4077842 
56.8       -9999      8.42       100.6      -9999      -9999      0.4137893 
56.9       -9999      8.47       100.6      -9999      -9999      0.4213994 
57         -9999      8.51       98.40314   -9999      -9999      0.4275711 
57.1       -9999      8.45       98.40314   -9999      -9999      0.4183414 
57.2       -9999      8.39       98.40314   -9999      -9999      0.4092787 
57.3       -9999      8.32       96.29077   -9999      -9999      0.3989122 
57.4       -9999      8.26       96.29077   -9999      -9999      0.3902006 
57.5       -9999      8.24       96.29077   -9999      -9999      0.3873319 
57.6       -9999      8.22       94.25817   -9999      -9999      0.3844807 
57.7       -9999      8.26       94.25817   -9999      -9999      0.3902006 
57.8       -9999      8.3        92.30096   -9999      -9999      0.3959907 
57.9       -9999      8.34       92.30096   -9999      -9999      0.4018516 
58         -9999      8.38       90.41511   -9999      -9999      0.4077842 
58.1       -9999      8.39       90.41511   -9999      -9999      0.4092787 
58.2       -9999      8.4        88.59683   -9999      -9999      0.4107775 
58.3       -9999      8.32       88.59683   -9999      -9999      0.3989122 
58.4       -9999      8.25       86.84262   -9999      -9999      0.3887641 
58.5       -9999      8.19       86.84262   -9999      -9999      0.3802359 
58.6       -9999      8.13       85.14919   -9999      -9999      0.371862  
58.7       -9999      8.18       85.14919   -9999      -9999      0.3788297 
58.8       -9999      8.24       83.5135    -9999      -9999      0.3873319 
58.9       -9999      8.3        83.5135    -9999      -9999      0.3959907 
59         -9999      8.35       85.14919   -9999      -9999      0.403328  
59.1       -9999      8.41       85.14919   -9999      -9999      0.4122811 
59.2       -9999      8.46       86.84262   -9999      -9999      0.4198681 
59.3       -9999      8.47       88.59683   -9999      -9999      0.4213994 
59.4       -9999      8.48       88.59683   -9999      -9999      0.4229351 
59.5       -9999      8.52       90.41511   -9999      -9999      0.4291258 
59.6       -9999      8.55       92.30096   -9999      -9999      0.4338183 
59.7       -9999      8.59       92.30096   -9999      -9999      0.4401422 
59.8       -9999      8.63       94.25817   -9999      -9999      0.4465432 
59.9       -9999      8.65       94.25817   -9999      -9999      0.449773  
60         -9999      8.67       96.29077   -9999      -9999      0.4530226 
60.1       -9999      8.61       96.29077   -9999      -9999      0.4433329 
60.2       -9999      8.54       98.40314   -9999      -9999      0.4322493 
60.3       -9999      8.47       96.29077   -9999      -9999      0.4213994 
60.4       -9999      8.4        96.29077   -9999      -9999      0.4107775 
60.5       -9999      8.4        96.29077   -9999      -9999      0.4107775 
60.6       -9999      8.41       96.29077   -9999      -9999      0.4122811 
60.7       -9999      8.45       94.25817   -9999      -9999      0.4183414 
60.8       -9999      8.5        94.25817   -9999      -9999      0.426021  
60.9       -9999      8.55       94.25817   -9999      -9999      0.4338183 
61         -9999      8.59       96.29077   -9999      -9999      0.4401422 
61.1       -9999      8.62       96.29077   -9999      -9999      0.4449356 
61.2       -9999      8.65       96.29077   -9999      -9999      0.449773  
61.3       -9999      8.66       96.29077   -9999      -9999      0.4513953 
61.4       -9999      8.67       94.25817   -9999      -9999      0.4530226 
61.5       -9999      8.71       94.25817   -9999      -9999      0.4595814 
61.6       -9999      8.75       94.25817   -9999      -9999      0.4662203 
61.7       -9999      8.8        94.25817   -9999      -9999      0.4746334 
61.8       -9999      8.85       94.25817   -9999      -9999      0.4831755 
61.9       -9999      8.9        94.25817   -9999      -9999      0.4918481 
62         -9999      8.94       94.25817   -9999      -9999      0.4988819 
62.1       -9999      8.99       94.25817   -9999      -9999      0.5077953 
62.2       -9999      9.04       94.25817   -9999      -9999      0.5168452 
62.3       -9999      9.09       96.29077   -9999      -9999      0.5260339 
62.4       -9999      9.14       98.40314   -9999      -9999      0.5353632 
62.5       -9999      9.12       96.29077   -9999      -9999      0.5316144 
62.6       -9999      9.1        96.29077   -9999      -9999      0.5278885 
62.7       -9999      9.03       96.29077   -9999      -9999      0.5150242 
62.8       -9999      8.95       96.29077   -9999      -9999      0.5006538 
62.9       -9999      8.88       94.25817   -9999      -9999      0.4883632 
63         -9999      8.8        94.25817   -9999      -9999      0.4746334 
63.1       -9999      8.73       94.25817   -9999      -9999      0.4628907 
63.2       -9999      8.65       92.30096   -9999      -9999      0.449773  
63.3       -9999      8.62       92.30096   -9999      -9999      0.4449356 
63.4       -9999      8.59       92.30096   -9999      -9999      0.4401422 
63.5       -9999      8.62       92.30096   -9999      -9999      0.4449356 
63.6       -9999      8.64       94.25817   -9999      -9999      0.4481558 
63.7       -9999      8.67       94.25817   -9999      -9999      0.4530226 
63.8       -9999      8.69       96.29077   -9999      -9999      0.456292  
63.9       -9999      8.7        96.29077   -9999      -9999      0.4579342 
64         -9999      8.71       96.29077   -9999      -9999      0.4595814 
64.09999999999999 -9999      8.67       96.29077   -9999      -9999      0.4530226 
64.2       -9999      8.64       96.29077   -9999      -9999      0.4481558 
64.3       -9999      8.6        94.25817   -9999      -9999      0.4417352 
