~Version
 VERS              .         3.0                           : CWLS LOG ASCII STANDARD - VERSION 3.0
 WRAP              .         NO                            : ONE LINE PER DEPTH STEP
 DLM               .         SPACE                         : DELIMITING CHARACTER(SPACE TAB OR COMMA)
~Well Information
#_______________________________________________________________________________
#
#PARAMETER_NAME    .UNIT     VALUE                         : DESCRIPTION
#_______________________________________________________________________________
STRT               .M        2                             : First reference value
STOP               .M        863                           : Last reference value
STEP               .M        0.1                           : Step increment
NULL               .         -9999                         : Missing value
COMP               .         COMPANY NAME                  : Company
WELL               .         G-29                          : Well name
FLD                .         UZEN                          : Field
LOC                .                                       : Location
SRVC               .         AO "UPGF"                     : Service Company
CTRY               .         CO                            : Country
DATE               .         20/2/2022                     : Service Date
X                  .                                       : X or East-West coordinate
Y                  .                                       : Y or North South coordinate
GDAT               .                                       : Geodetic Datum
HZCS               .                                       : Horizontal Co-ordinate System
COUNTRY            .         COUNTRY                       : KAZAKHSTAN
EREF               .m        144.9                         : 
GRP                .                                       : Group name
ISS                .                                       : Well surveys
PROV               .         PROVINCE                      : AKTAU AREA
TIME               .                                       : LOG TIME
~Parameter Information Block
#_______________________________________________________________________________
#
#PARAMETER_NAME    .UNIT     VALUE                         : DESCRIPTION
#_______________________________________________________________________________
SET                .         Las                           : 
TLFamily_CALI      .         Caliper                       : 
TLFamily_GR        .         Russian Gamma Ray             : 
TLFamily_MD        .         Measured Depth                : 
TLFamily_NPHI      .         Neutron Porosity              : 
TLFamily_PS        .         Spontaneous Potential         : 
TLFamily_Resistivity .         Resistivity                   : 
TLFamily_VSH_GR    .         Shale Volume                  : 
~Curve Information
#_______________________________________________________________________________
#
#LOGNAME           .UNIT     LOG_ID                        : DESCRIPTION
#_______________________________________________________________________________
MD                 .M                                      : Depth {F}
CALI               .mm                                     :  {F}
GR                 .мкР/ч                                  : ГК(мкр/ч) -    33.3 см {F}
NPHI               .%                                      :  {F}
PS                 .mV                                     :  {F}
Resistivity        .OHMM                                   :  {F}
VSH_GR             .unitless                               : Shale volume fraction from Gamma Ray {F}
~Ascii
# ...
156.9      210.75     10.09      66.4155    21.68      3.64       0.742439  
157        210.75     10.2       67.50613   21.34      3.91       0.7705121 
157.1      210.75     10.24      68.62834   21.01      4.25       0.7809556 
157.2      210.75     10.28      69.78348   20.68      4.58       0.7915267 
157.3      212.54     10.22      70.973     20.35      4.78       0.7757182 
157.4      214.33     10.16      72.19845   20.02      4.99       0.7601948 
157.5      217.55     10.1       73.46144   19.69      4.85       0.7449525 
157.6      220.77     10.04      74.76371   19.36      4.71       0.7299853 
157.7      223.99     9.98       74.76371   19.08      4.58       0.7152888 
157.8      227.21     9.92       74.76371   18.79      4.44       0.7008582 
157.9      230.43     9.86       74.76371   18.55      4.31       0.6866882 
158        233.65     9.81       74.76371   18.31      4.17       0.675076  
158.1      236.87     9.75       73.46144   18.07      4.04       0.6613721 
158.2      240.09     9.69       73.46144   17.83      3.9        0.647916  
158.3      243.31     9.63       72.19845   17.59      3.77       0.6347033 
158.4      246.53     9.57       72.19845   17.35      3.63       0.6217292 
158.5      249.74     9.51       72.19845   17.1       3.5        0.6089898 
158.6      252.96     9.45       70.973     16.86      3.36       0.5964806 
158.7      256.18     9.45       70.973     16.62      3.53       0.5964806 
158.8      259.4      9.46       69.78348   16.38      3.69       0.5985497 
158.9      262.62     9.51       69.78348   16.14      3.86       0.6089898 
159        265.84     9.57       68.62834   15.9       4.04       0.6217292 
159.1      263.49     9.62       68.62834   15.86      4.21       0.6325244 
159.2      261.15     9.68       68.62834   15.82      4.38       0.6456972 
159.3      251.48     9.73       68.62834   15.8       4.57       0.6568593 
159.4      241.81     9.78       68.62834   15.78      4.75       0.6681927 
159.5      237.87     9.8        67.50613   15.76      4.94       0.6727746 
159.6      233.93     9.82       67.50613   15.74      5.12       0.6773843 
159.7      234.78     9.79       66.4155    15.87      5.31       0.6704801 
159.8      235.63     9.76       65.35513   16.01      5.49       0.6636388 
159.9      235.37     9.79       63.32033   16.19      5.68       0.6704801 
160        235.12     9.82       62.34364   16.37      5.87       0.6773843 
160.1      232.74     9.85       61.39267   16.55      5.82       0.6843519 
160.2      230.35     9.89       60.46644   16.73      5.78       0.6937411 
160.3      227.97     9.93       61.39267   16.91      5.64       0.7032451 
160.4      225.58     9.96       61.39267   17.09      5.5        0.7104495 
160.5      223.89     10         63.32033   17.27      5.39       0.720158  
160.6      222.2      10.03      65.35513   17.45      5.28       0.7275172 
160.7      223.34     10.07      67.50613   17.64      5.33       0.7374347 
160.8      224.48     10.11      69.78348   17.82      5.37       0.7474734 
160.9      225.62     10.11      69.78348   18         5.41       0.7474734 
161        226.77     10.12      69.78348   18.18      5.45       0.7500023 
161.1      224.55     10.01      69.78348   18.36      5.5        0.7226037 
161.2      222.34     9.9        69.78348   18.54      5.54       0.696106  
161.3      218.53     9.93       72.19845   18.72      5.58       0.7032451 
161.4      214.73     9.96       74.76371   18.9       5.62       0.7104495 
161.5      212.96     10         73.46144   19.08      5.46       0.720158  
161.6      211.19     10.04      73.46144   19.26      5.29       0.7299853 
161.7      211.66     10.08      72.19845   19.17      4.86       0.739933  
161.8      212.12     10.12      72.19845   19.08      4.43       0.7500023 
161.9      212.58     10.05      72.19845   18.85      4.57       0.7324609 
162        213.05     9.99       72.19845   18.62      4.72       0.7177197 
162.1      213.51     9.89       72.19845   17.9       4.95       0.6937411 
162.2      213.97     9.79       72.19845   17.18      5.18       0.6704801 
162.3      214.53     9.7        72.19845   17.32      5.41       0.6501417 
162.4      215.09     9.6        73.46144   17.46      5.64       0.6281868 
162.5      217.48     9.5        73.46144   17.6       5.87       0.606889  
162.6      219.86     9.41       73.46144   17.73      6.11       0.588267  
162.7      222.25     9.41       73.46144   17.87      6.43       0.588267  
162.8      224.63     9.41       74.76371   18.01      6.75       0.588267  
162.9      224.48     9.46       73.46144   18.15      6.52       0.5985497 
163        224.32     9.51       72.19845   18.29      6.28       0.6089898 
163.1      222.14     9.55       70.973     18.43      5.48       0.6174569 
163.2      219.95     9.59       69.78348   18.56      4.69       0.6260277 
163.3      217.86     9.58       69.78348   18.7       4.7        0.6238752 
163.4      215.78     9.58       69.78348   18.84      4.71       0.6238752 
163.5      216.12     9.57       69.78348   18.87      4.8        0.6217292 
163.6      216.47     9.57       70.973     18.9       4.88       0.6217292 
163.7      216.82     9.59       70.973     18.63      4.96       0.6260277 
163.8      217.17     9.61       70.973     18.36      5.05       0.6303521 
163.9      216.87     9.68       69.78348   18.48      5.13       0.6456972 
164        216.58     9.76       68.62834   18.61      5.21       0.6636388 
164.1      215.7      9.83       67.50613   18.74      5.18       0.6796998 
164.2      214.81     9.91       66.4155    18.86      5.14       0.6984785 
164.3      213.93     9.98       66.4155    18.99      5.08       0.7152888 
164.4      213.05     10.05      66.4155    19.12      5.01       0.7324609 
164.5      213.62     10.02      66.4155    19.05      5.07       0.7250569 
164.6      214.19     9.98       67.50613   18.99      5.13       0.7152888 
164.7      215.41     9.92       67.50613   18.71      5.26       0.7008582 
164.8      216.63     9.87       68.62834   18.43      5.39       0.689032  
164.9      217.85     9.81       68.62834   18.15      5.31       0.675076  
165        219.08     9.76       68.62834   17.87      5.23       0.6636388 
165.1      220.3      9.71       68.62834   17.58      5.15       0.6523743 
165.2      221.52     9.66       68.62834   17.3       5.08       0.6412794 
165.3      221.37     9.68       68.62834   16.97      5          0.6456972 
165.4      221.21     9.7        68.62834   16.63      4.92       0.6501417 
165.5      220.14     9.72       69.78348   16.82      4.89       0.6546136 
165.6      219.07     9.74       72.19845   17         4.86       0.6591123 
165.7      217.99     9.76       70.973     17.18      4.98       0.6636388 
165.8      216.92     9.78       70.973     17.36      5.1        0.6681927 
165.9      217.29     9.8        69.78348   17.55      5.22       0.6727746 
166        217.66     9.83       69.78348   17.73      5.34       0.6796998 
166.1      219.76     9.85       68.62834   17.91      5.46       0.6843519 
166.2      221.86     9.87       68.62834   18.09      5.58       0.689032  
166.3      222.73     9.89       68.62834   18.1       5.71       0.6937411 
166.4      223.6      9.91       67.50613   18.1       5.83       0.6984785 
166.5      220.82     9.92       67.50613   18         5.96       0.7008582 
166.6      218.04     9.93       66.4155    17.9       6.1        0.7032451 
166.7      215.26     9.85       66.4155    17.8       6.23       0.6843519 
166.8      212.48     9.76       66.4155    17.69      6.37       0.6636388 
166.9      210.06     9.68       65.35513   17.59      6.5        0.6456972 
167        207.64     9.6        65.35513   17.49      6.63       0.6281868 
167.1      208.32     9.52       64.32379   17.69      6.77       0.611097  
167.2      208.99     9.44       64.32379   17.89      6.9        0.5944178 
