~Version
 VERS              .         3.0                           : CWLS LOG ASCII STANDARD - VERSION 3.0
 WRAP              .         NO                            : ONE LINE PER DEPTH STEP
 DLM               .         SPACE                         : DELIMITING CHARACTER(SPACE TAB OR COMMA)
~Well Information
#_______________________________________________________________________________
#
#PARAMETER_NAME    .UNIT     VALUE                         : DESCRIPTION
#_______________________________________________________________________________
STRT               .M        2                             : First reference value
STOP               .M        863                           : Last reference value
STEP               .M        0.1                           : Step increment
NULL               .         -9999                         : Missing value
COMP               .         COMPANY NAME                  : Company
WELL               .         G-29                          : Well name
FLD                .         UZEN                          : Field
LOC                .                                       : Location
SRVC               .         AO "UPGF"                     : Service Company
CTRY               .         CO                            : Country
DATE               .         20/2/2022                     : Service Date
X                  .                                       : X or East-West coordinate
Y                  .                                       : Y or North South coordinate
GDAT               .                                       : Geodetic Datum
HZCS               .                                       : Horizontal Co-ordinate System
COUNTRY            .         COUNTRY                       : KAZAKHSTAN
EREF               .m        144.9                         : 
GRP                .                                       : Group name
ISS                .                                       : Well surveys
PROV               .         PROVINCE                      : AKTAU AREA
TIME               .                                       : LOG TIME
~Parameter Information Block
#_______________________________________________________________________________
#
#PARAMETER_NAME    .UNIT     VALUE                         : DESCRIPTION
#_______________________________________________________________________________
SET                .         Las                           : 
TLFamily_CALI      .         Caliper                       : 
TLFamily_GR        .         Russian Gamma Ray             : 
TLFamily_MD        .         Measured Depth                : 
TLFamily_NPHI      .         Neutron Porosity              : 
TLFamily_PS        .         Spontaneous Potential         : 
TLFamily_Resistivity .         Resistivity                   : 
TLFamily_VSH_GR    .         Shale Volume                  : 
~Curve Information
#_______________________________________________________________________________
#
#LOGNAME           .UNIT     LOG_ID                        : DESCRIPTION
#_______________________________________________________________________________
MD                 .M                                      : Depth {F}
CALI               .mm                                     :  {F}
GR                 .мкР/ч                                  : ГК(мкр/ч) -    33.3 см {F}
NPHI               .%                                      :  {F}
PS                 .mV                                     :  {F}
Resistivity        .OHMM                                   :  {F}
VSH_GR             .unitless                               : Shale volume fraction from Gamma Ray {F}
~Ascii
# ...
104.9      -9999      8.61       68.62834   -9999      -9999      0.4433329 
105        221.25     8.66       68.62834   -9999      3.66       0.4513953 
105.1      221.28     8.7        69.78348   -9999      4.11       0.4579342 
105.2      221.3      8.74       69.78348   -9999      4.56       0.464553  
105.3      221.78     8.78       70.973     -9999      5.01       0.4712527 
105.4      222.26     8.82       72.19845   -9999      5.46       0.4780346 
105.5      222.73     8.86       73.46144   -9999      5.91       0.4848993 
105.6      223.21     8.9        73.46144   -9999      6.36       0.4918481 
105.7      223.69     8.95       73.46144   -9999      6.75       0.5006538 
105.8      224.16     8.99       73.46144   -9999      7.15       0.5077953 
105.9      223.36     9.03       72.19845   -9999      7.32       0.5150242 
106        222.56     9.07       72.19845   17.49      7.49       0.5223416 
106.1      224.99     9.04       72.19845   17.49      8.56       0.5168452 
106.2      227.41     9          72.19845   17.48      9.63       0.5095943 
106.3      228.96     8.96       70.973     17.39      10.18      0.5024311 
106.4      230.5      8.93       70.973     17.3       10.72      0.4971155 
106.5      230.5      8.95       70.973     17.12      11.27      0.5006538 
106.6      230.5      8.98       69.78348   16.93      11.82      0.5060017 
106.7      230.5      9.01       70.973     16.71      11.49      0.5113989 
106.8      230.5      9.04       70.973     16.5       11.16      0.5168452 
106.9      237.12     9.06       70.973     16.27      11.05      0.520504  
107        243.74     9.08       72.19845   16.05      10.94      0.5241849 
107.1      255.53     9.06       72.19845   15.8       11.27      0.520504  
107.2      267.31     9.03       70.973     15.56      11.6       0.5150242 
107.3      268.12     9.04       70.973     15.32      11.93      0.5168452 
107.4      268.93     9.06       70.973     15.08      12.26      0.520504  
107.5      264.43     9.07       70.973     14.98      11.82      0.5223416 
107.6      259.93     9.08       70.973     14.88      11.38      0.5241849 
107.7      255.42     9.07       69.78348   14.88      10.94      0.5223416 
107.8      250.92     9.05       69.78348   14.88      10.51      0.5186718 
107.9      278.88     9.02       69.78348   14.99      11.16      0.5132089 
108        306.84     8.99       69.78348   15.11      11.82      0.5077953 
108.1      319.44     8.96       69.78348   15.22      12.26      0.5024311 
108.2      332.04     8.93       68.62834   15.34      12.69      0.4971155 
108.3      342.22     8.94       68.62834   15.23      12.04      0.4988819 
108.4      352.39     8.95       68.62834   15.11      11.38      0.5006538 
108.5      362.57     8.96       67.50613   14.99      10.72      0.5024311 
108.6      372.75     8.97       67.50613   14.87      10.07      0.5042138 
108.7      382.93     8.99       66.4155    14.75      9.74       0.5077953 
108.8      393.1      9          65.35513   14.63      9.41       0.5095943 
108.9      350.67     8.99       66.4155    14.38      9.08       0.5077953 
109        308.24     8.98       67.50613   14.13      8.75       0.5060017 
109.1      283.38     8.94       66.4155    13.85      8.54       0.4988819 
109.2      258.53     8.9        66.4155    13.56      8.32       0.4918481 
109.3      264.68     8.87       66.4155    13.28      8.32       0.4866287 
109.4      270.84     8.83       65.35513   13         8.32       0.479743  
109.5      277        8.79       65.35513   12.87      8.32       0.4729405 
109.6      283.16     8.75       65.35513   12.73      8.32       0.4662203 
109.7      283.84     8.71       65.35513   12.61      8.54       0.4595814 
109.8      284.52     8.67       64.32379   12.48      8.75       0.4530226 
109.9      277.12     8.71       64.32379   12.35      9.08       0.4595814 
110        269.72     8.74       64.32379   12.23      9.41       0.464553  
110.1      262.32     8.78       66.4155    12.1       9.74       0.4712527 
110.2      254.92     8.82       67.50613   11.97      10.07      0.4780346 
110.3      264.99     8.85       67.50613   11.85      10.51      0.4831755 
110.4      275.05     8.89       67.50613   11.72      10.94      0.4901031 
110.5      271.28     8.93       66.4155    11.59      11.16      0.4971155 
110.6      267.5      8.97       66.4155    11.47      11.38      0.5042138 
110.7      263.73     9          65.35513   11.56      11.93      0.5095943 
110.8      259.96     9.04       65.35513   11.66      12.47      0.5168452 
110.9      263.91     9.08       65.35513   11.88      12.69      0.5241849 
111        267.87     9.12       64.32379   12.1       12.91      0.5316144 
111.1      274.54     9.1        64.32379   11.96      12.37      0.5278885 
111.2      281.2      9.07       63.32033   11.82      11.82      0.5223416 
111.3      287.86     9.02       63.32033   11.55      11.71      0.5132089 
111.4      294.52     8.97       63.32033   11.29      11.6       0.5042138 
111.5      301.19     8.92       62.34364   11.14      11.6       0.4953543 
111.6      307.85     8.87       62.34364   10.98      11.6       0.4866287 
111.7      306        8.86       62.34364   10.9       11.6       0.4848993 
111.8      304.15     8.85       62.34364   10.83      11.6       0.4831755 
111.9      297.74     8.87       63.32033   10.76      11.6       0.4866287 
112        291.32     8.9        64.32379   10.68      11.6       0.4918481 
112.1      273.53     8.92       65.35513   10.61      11.49      0.4953543 
112.2      255.73     8.95       66.4155    10.54      11.38      0.5006538 
112.3      248.98     8.98       66.4155    10.46      11.38      0.5060017 
112.4      242.23     9          65.35513   10.39      11.38      0.5095943 
112.5      240.99     9.03       65.35513   10.32      11.38      0.5150242 
112.6      239.76     9.05       65.35513   10.24      11.38      0.5186718 
112.7      238.52     9.06       65.35513   10.14      11.16      0.520504  
112.8      237.29     9.08       64.32379   10.03      10.94      0.5241849 
112.9      236.05     9.08       64.32379   9.92       10.72      0.5241849 
113        234.82     9.09       64.32379   9.82       10.51      0.5260339 
113.1      233.59     9.12       64.32379   9.71       10.72      0.5316144 
113.2      232.35     9.15       64.32379   9.6        10.94      0.5372459 
113.3      231.12     9.17       63.32033   9.49       11.16      0.5410292 
113.4      229.88     9.2        63.32033   9.38       11.38      0.5467471 
113.5      228.65     9.13       63.32033   9.27       11.33      0.5334859 
113.6      227.41     9.05       63.32033   9.16       11.27      0.5186718 
113.7      226.18     8.95       63.32033   9.05       11.22      0.5006538 
113.8      224.94     8.84       62.34364   8.94       11.16      0.4814566 
113.9      223.72     8.89       64.32379   8.83       11.05      0.4901031 
114        222.5      8.93       67.50613   8.72       10.94      0.4971155 
114.1      222.6      8.98       66.4155    8.61       10.61      0.5060017 
114.2      222.7      9.02       66.4155    8.5        10.29      0.5132089 
114.3      222.8      9.06       66.4155    8.64       10.51      0.520504  
114.4      222.9      9.11       66.4155    8.79       10.72      0.5297484 
114.5      223        9.15       66.4155    8.94       10.83      0.5372459 
114.6      223.1      9.2        66.4155    9.09       10.94      0.5467471 
114.7      223.41     9.24       67.50613   9.24       10.94      0.5544526 
114.8      223.71     9.28       68.62834   9.39       10.94      0.5622523 
114.9      224.7      9.27       68.62834   9.53       10.83      0.5602937 
115        225.68     9.25       68.62834   9.68       10.72      0.5563937 
115.1      226.67     9.16       68.62834   9.83       10.51      0.5391347 
115.2      227.65     9.06       67.50613   9.98       10.29      0.520504  
