~Version
 VERS              .         3.0                           : CWLS LOG ASCII STANDARD - VERSION 3.0
 WRAP              .         NO                            : ONE LINE PER DEPTH STEP
 DLM               .         SPACE                         : DELIMITING CHARACTER(SPACE TAB OR COMMA)
~Well Information
#_______________________________________________________________________________
#
#PARAMETER_NAME    .UNIT     VALUE                         : DESCRIPTION
#_______________________________________________________________________________
STRT               .M        2                             : First reference value
STOP               .M        863                           : Last reference value
STEP               .M        0.1                           : Step increment
NULL               .         -9999                         : Missing value
COMP               .         COMPANY NAME                  : Company
WELL               .         G-29                          : Well name
FLD                .         UZEN                          : Field
LOC                .                                       : Location
SRVC               .         AO "UPGF"                     : Service Company
CTRY               .         CO                            : Country
DATE               .         20/2/2022                     : Service Date
X                  .                                       : X or East-West coordinate
Y                  .                                       : Y or North South coordinate
GDAT               .                                       : Geodetic Datum
HZCS               .                                       : Horizontal Co-ordinate System
COUNTRY            .         COUNTRY                       : KAZAKHSTAN
EREF               .m        144.9                         : 
GRP                .                                       : Group name
ISS                .                                       : Well surveys
PROV               .         PROVINCE                      : AKTAU AREA
TIME               .                                       : LOG TIME
~Parameter Information Block
#_______________________________________________________________________________
#
#PARAMETER_NAME    .UNIT     VALUE                         : DESCRIPTION
#_______________________________________________________________________________
SET                .         Las                           : 
TLFamily_CALI      .         Caliper                       : 
TLFamily_GR        .         Russian Gamma Ray             : 
TLFamily_MD        .         Measured Depth                : 
TLFamily_NPHI      .         Neutron Porosity              : 
TLFamily_PS        .         Spontaneous Potential         : 
TLFamily_Resistivity .         Resistivity                   : 
TLFamily_VSH_GR    .         Shale Volume                  : 
~Curve Information
#_______________________________________________________________________________
#
#LOGNAME           .UNIT     LOG_ID                        : DESCRIPTION
#_______________________________________________________________________________
MD                 .M                                      : Depth {F}
CALI               .mm                                     :  {F}
GR                 .мкР/ч                                  : ГК(мкр/ч) -    33.3 см {F}
NPHI               .%                                      :  {F}
PS                 .mV                                     :  {F}
Resistivity        .OHMM                                   :  {F}
VSH_GR             .unitless                               : Shale volume fraction from Gamma Ray {F}
~Ascii
# ...
416.9      237.85     10.35      69.78348   1.93       2.05       0.810339  
417        237.25     10.31      69.78348   1.88       2.06       0.7995402 
417.1      231.35     10.27      68.62834   1.83       2.13       0.7888722 
417.2      225.44     10.22      67.50613   1.78       2.2        0.7757182 
417.3      225.38     10.18      68.62834   1.73       2.26       0.7653378 
417.4      225.31     10.14      68.62834   1.68       2.31       0.7550832 
417.5      225.25     10.2       68.62834   1.75       2.29       0.7705121 
417.6      225.19     10.26      68.62834   1.82       2.28       0.7862253 
417.7      225.13     10.44      68.62834   1.95       2.26       0.8351214 
417.8      225.07     10.61      69.78348   2.07       2.24       0.8838241 
417.9      225.68     10.56      69.78348   2.2        2.3        0.8692377 
418        226.28     10.51      68.62834   2.33       2.35       0.8548712 
418.1      227.79     10.42      68.62834   2.46       2.4        0.8295554 
418.2      229.3      10.34      67.50613   2.59       2.45       0.807627  
418.3      230.81     10.26      66.4155    2.71       2.5        0.7862253 
418.4      232.32     10.18      65.35513   2.84       2.55       0.7653378 
418.5      233.83     10.12      66.4155    2.97       2.6        0.7500023 
418.6      235.34     10.06      67.50613   3.1        2.66       0.7349441 
418.7      236.85     10.15      68.62834   3.04       2.68       0.7576349 
418.8      238.36     10.24      69.78348   2.98       2.7        0.7809556 
418.9      236.26     10.28      72.19845   2.83       2.64       0.7915267 
419        234.16     10.31      73.46144   2.69       2.58       0.7995402 
419.1      230.55     10.3       72.19845   2.54       2.52       0.7968609 
419.2      226.94     10.28      72.19845   2.39       2.46       0.7915267 
419.3      223.33     10.31      72.19845   2.24       2.4        0.7995402 
419.4      219.72     10.34      70.973     2.1        2.34       0.807627  
419.5      216.11     10.39      70.973     1.95       2.28       0.8212698 
419.6      212.5      10.44      69.78348   1.8        2.22       0.8351214 
419.7      214.56     10.31      69.78348   1.66       2.19       0.7995402 
419.8      216.62     10.19      68.62834   1.51       2.16       0.767921  
419.9      219.1      10.06      68.62834   1.45       2.26       0.7349441 
420        221.59     9.93       67.50613   1.4        2.36       0.7032451 
420.1      224.07     9.84       68.62834   1.5        2.46       0.6820223 
420.2      226.55     9.76       68.62834   1.6        2.56       0.6636388 
420.3      229.04     9.82       69.78348   1.7        2.66       0.6773843 
420.4      231.52     9.88       70.973     1.8        2.75       0.6913829 
420.5      234        9.94       70.973     1.91       2.86       0.7056392 
420.6      236.49     10         69.78348   2.01       2.96       0.720158  
420.7      233.38     10.06      68.62834   2.11       3.07       0.7349441 
420.8      230.28     10.12      68.62834   2.21       3.17       0.7500023 
420.9      226.54     10.18      67.50613   2.2        3.28       0.7653378 
421        222.79     10.24      66.4155    2.18       3.38       0.7809556 
421.1      221.98     10.3       65.35513   2.1        3.41       0.7968609 
421.2      221.16     10.36      65.35513   2.02       3.44       0.813059  
421.3      221.41     10.35      64.32379   1.94       3.26       0.810339  
421.4      221.65     10.34      63.32033   1.86       3.08       0.807627  
421.5      220.22     10.27      62.34364   1.77       2.9        0.7888722 
421.6      218.79     10.19      62.34364   1.69       2.72       0.767921  
421.7      218.56     10.12      61.39267   1.61       2.54       0.7500023 
421.8      218.33     10.05      60.46644   1.53       2.36       0.7324609 
421.9      219.1      10.06      60.46644   1.45       2.22       0.7349441 
422        219.86     10.07      59.56401   1.37       2.07       0.7374347 
422.1      220.62     10.07      58.68447   1.34       2.09       0.7374347 
422.2      221.38     10.08      58.68447   1.32       2.11       0.739933  
422.3      222.14     10.09      57.82697   1.41       2.13       0.742439  
422.4      222.9      10.1       57.82697   1.5        2.14       0.7449525 
422.5      221.54     9.99       62.34364   1.6        2.16       0.7177197 
422.6      220.18     9.87       67.50613   1.69       2.18       0.689032  
422.7      222.52     9.74       69.78348   1.78       2.17       0.6591123 
422.8      224.86     9.61       72.19845   1.88       2.15       0.6303521 
422.9      228.1      9.48       70.973     1.97       2.14       0.6027066 
423        231.33     9.34       70.973     2.06       2.12       0.5741315 
423.1      225.32     9.37       69.78348   2.15       2.26       0.5801528 
423.2      219.31     9.39       69.78348   2.25       2.4        0.5841976 
423.3      218.33     9.47       69.78348   2.34       4.02       0.6006251 
423.4      217.35     9.55       68.62834   2.43       5.64       0.6174569 
423.5      221.26     9.64       68.62834   2.52       6.6        0.6368887 
423.6      225.18     9.72       67.50613   2.61       7.56       0.6546136 
423.7      227.61     9.8        67.50613   2.63       7.63       0.6727746 
423.8      230.05     9.89       67.50613   2.66       7.71       0.6937411 
423.9      230.88     9.97       69.78348   2.68       7.28       0.7128657 
424        231.71     10.05      72.19845   2.71       6.85       0.7324609 
424.1      232.54     10.13      72.19845   2.62       6.41       0.7525389 
424.2      233.37     10.22      70.973     2.53       5.98       0.7757182 
424.3      234.01     10.3       69.78348   2.34       5.55       0.7968609 
424.4      234.65     10.38      69.78348   2.15       5.12       0.8185245 
424.5      225.91     10.46      68.62834   1.96       3.84       0.8407215 
424.6      217.17     10.53      67.50613   1.77       2.56       0.8605914 
424.7      216.45     10.61      67.50613   1.58       2.58       0.8838241 
424.8      215.72     10.68      66.4155    1.39       2.61       0.9046216 
424.9      217.51     10.75      66.4155    1.2        2.63       0.9258663 
425        219.3      10.83      65.35513   1.01       2.65       0.9507062 
425.1      220.16     10.9       64.32379   1.04       2.67       0.9729419 
425.2      221.03     10.97      64.32379   1.07       2.7        0.9956567 
425.3      220.45     11.05      63.32033   1.15       2.72       1         
425.4      219.86     11.12      63.32033   1.23       2.74       1         
425.5      222.32     11.19      64.32379   1.31       2.76       1         
425.6      224.78     11.26      65.35513   1.39       2.78       1         
425.7      222.19     11.34      65.35513   1.47       2.77       1         
425.8      219.59     11.41      66.4155    1.55       2.76       1         
425.9      216.99     11.37      67.50613   1.63       3.01       1         
426        214.4      11.34      68.62834   1.71       3.26       1         
426.1      211.8      11.2       68.62834   1.79       3.51       1         
426.2      209.21     11.06      69.78348   1.87       3.76       1         
426.3      206.61     10.92      69.78348   1.8        4.03       0.9793827 
426.4      204.02     10.78      70.973     1.73       4.3        0.9351103 
426.5      202.37     10.63      69.78348   1.62       4.87       0.8897213 
426.6      200.72     10.48      69.78348   1.51       5.43       0.8463553 
426.7      201.05     10.32      69.78348   1.4        6.48       0.8022275 
426.8      201.39     10.16      68.62834   1.3        7.52       0.7601948 
426.9      201.73     10.01      68.62834   1.19       7.25       0.7226037 
427        202.06     9.85       68.62834   1.08       6.99       0.6843519 
427.1      202.4      9.7        67.50613   0.98       6.61       0.6501417 
427.2      202.73     9.54       67.50613   0.87       6.23       0.6153304 
