~Version
 VERS              .         3.0                           : CWLS LOG ASCII STANDARD - VERSION 3.0
 WRAP              .         NO                            : ONE LINE PER DEPTH STEP
 DLM               .         SPACE                         : DELIMITING CHARACTER(SPACE TAB OR COMMA)
~Well Information
#_______________________________________________________________________________
#
#PARAMETER_NAME    .UNIT     VALUE                         : DESCRIPTION
#_______________________________________________________________________________
STRT               .M        2                             : First reference value
STOP               .M        863                           : Last reference value
STEP               .M        0.1                           : Step increment
NULL               .         -9999                         : Missing value
COMP               .         COMPANY NAME                  : Company
WELL               .         G-29                          : Well name
FLD                .         UZEN                          : Field
LOC                .                                       : Location
SRVC               .         AO "UPGF"                     : Service Company
CTRY               .         CO                            : Country
DATE               .         20/2/2022                     : Service Date
X                  .                                       : X or East-West coordinate
Y                  .                                       : Y or North South coordinate
GDAT               .                                       : Geodetic Datum
HZCS               .                                       : Horizontal Co-ordinate System
COUNTRY            .         COUNTRY                       : KAZAKHSTAN
EREF               .m        144.9                         : 
GRP                .                                       : Group name
ISS                .                                       : Well surveys
PROV               .         PROVINCE                      : AKTAU AREA
TIME               .                                       : LOG TIME
~Parameter Information Block
#_______________________________________________________________________________
#
#PARAMETER_NAME    .UNIT     VALUE                         : DESCRIPTION
#_______________________________________________________________________________
SET                .         Las                           : 
TLFamily_CALI      .         Caliper                       : 
TLFamily_GR        .         Russian Gamma Ray             : 
TLFamily_MD        .         Measured Depth                : 
TLFamily_NPHI      .         Neutron Porosity              : 
TLFamily_PS        .         Spontaneous Potential         : 
TLFamily_Resistivity .         Resistivity                   : 
TLFamily_VSH_GR    .         Shale Volume                  : 
~Curve Information
#_______________________________________________________________________________
#
#LOGNAME           .UNIT     LOG_ID                        : DESCRIPTION
#_______________________________________________________________________________
MD                 .M                                      : Depth {F}
CALI               .mm                                     :  {F}
GR                 .мкР/ч                                  : ГК(мкр/ч) -    33.3 см {F}
NPHI               .%                                      :  {F}
PS                 .mV                                     :  {F}
Resistivity        .OHMM                                   :  {F}
VSH_GR             .unitless                               : Shale volume fraction from Gamma Ray {F}
~Ascii
# ...
843.3      -9999      9.01       33.16241   24.62      2.15       0.5113989 
843.4      -9999      9.14       33.50411   24.31      2.18       0.5353632 
843.5      -9999      9.28       33.85138   24         2.2        0.5622523 
843.6      -9999      9.42       34.20436   23.69      2.23       0.5903111 
843.7      -9999      9.46       33.85138   23.73      2.26       0.5985497 
843.8      -9999      9.51       33.85138   23.76      2.29       0.6089898 
843.9      -9999      9.36       33.50411   23.81      2.31       0.5781395 
844        -9999      9.21       33.50411   23.86      2.34       0.5486648 
844.1      -9999      9.06       33.50411   23.9       2.22       0.520504  
844.2      -9999      8.91       33.50411   23.95      2.1        0.4935985 
844.3      -9999      8.77       33.50411   24         2.13       0.4695703 
844.4      -9999      8.62       33.50411   24.04      2.17       0.4449356 
844.5      -9999      8.51       33.50411   23.87      2.2        0.4275711 
844.6      -9999      8.39       33.16241   23.7       2.23       0.4092787 
844.7      -9999      8.4        33.16241   23.62      2.26       0.4107775 
844.8      -9999      8.41       32.82616   23.53      2.3        0.4122811 
844.9      -9999      8.42       32.82616   23.73      2.27       0.4137893 
845        -9999      8.43       32.49521   23.92      2.24       0.4153021 
845.1      -9999      8.43       32.49521   24.12      2.2        0.4153021 
845.2      -9999      8.44       32.16945   24.31      2.17       0.4168194 
845.3      -9999      8.33       32.16945   24.51      2.16       0.4003797 
845.4      -9999      8.22       31.84875   24.71      2.15       0.3844807 
845.5      -9999      8.11       31.84875   24.9       2.19       0.3691044 
845.6      -9999      8          31.533     25.1       2.23       0.3542341 
845.7      -9999      8.07       31.533     24.98      2.27       0.3636394 
845.8      -9999      8.14       31.22209   24.87      2.31       0.3732471 
845.9      -9999      8.04       31.22209   24.51      2.35       0.359584  
846        -9999      7.95       31.22209   24.14      2.39       0.3476375 
846.1      -9999      7.9        30.9159    24         2.42       0.3411404 
846.2      -9999      7.85       30.9159    23.85      2.46       0.3347414 
846.3      -9999      8.23       30.9159    24.1       2.5        0.385904  
846.4      -9999      8.6        30.61434   24.35      2.54       0.4417352 
846.5      -9999      8.6        30.31729   24.61      2.58       0.4417352 
846.6      -9999      8.6        30.31729   24.86      2.62       0.4417352 
846.7      -9999      8.6        30.02466   24.85      2.66       0.4417352 
846.8      -9999      8.6        29.73635   24.84      2.7        0.4417352 
846.9      -9999      8.51       29.73635   24.78      2.74       0.4275711 
847        -9999      8.42       29.73635   24.71      2.78       0.4137893 
847.1      -9999      8.32       30.02466   24.65      2.82       0.3989122 
847.2      -9999      8.23       30.31729   24.58      2.86       0.385904  
847.3      -9999      8.18       30.31729   24.52      2.87       0.3788297 
847.4      -9999      8.14       30.61434   24.45      2.87       0.3732471 
847.5      -9999      8.09       30.31729   24.5       2.79       0.3663637 
847.6      -9999      8.04       30.31729   24.54      2.71       0.359584  
847.7      -9999      8.18       30.61434   24.74      2.64       0.3788297 
847.8      -9999      8.32       30.61434   24.95      2.57       0.3989122 
847.9      -9999      8.46       30.9159    24.69      2.63       0.4198681 
848        -9999      8.6        30.9159    24.44      2.7        0.4417352 
848.1      -9999      8.79       31.22209   24.09      2.76       0.4729405 
848.2      -9999      8.98       31.22209   23.74      2.82       0.5060017 
848.3      -9999      9.07       31.533     23.39      2.89       0.5223416 
848.4      -9999      9.16       31.533     23.04      2.95       0.5391347 
848.5      -9999      9.3        31.84875   22.7       3.02       0.5661881 
848.6      -9999      9.44       31.84875   22.35      3.08       0.5944178 
848.7      -9999      9.49       32.16945   22         3.15       0.6047946 
848.8      -9999      9.54       32.16945   21.65      3.21       0.6153304 
848.9      -9999      9.58       32.49521   21.85      3.28       0.6238752 
849        -9999      9.63       32.49521   22.05      3.34       0.6347033 
849.1      -9999      9.63       32.16945   22.4       3.41       0.6347033 
849.2      -9999      9.63       31.84875   22.76      3.47       0.6347033 
849.3      -9999      9.63       31.84875   23.11      3.54       0.6347033 
849.4      -9999      9.63       31.533     23.47      3.6        0.6347033 
849.5      -9999      9.54       31.22209   23.82      3.52       0.6153304 
849.6      -9999      9.44       30.9159    24.18      3.45       0.5944178 
849.7      -9999      9.35       30.61434   27.2       3.34       0.5761326 
849.8      -9999      9.26       30.31729   30.22      3.24       0.5583407 
849.9      -9999      9.26       30.02466   29.7       3.13       0.5583407 
850        -9999      9.26       29.73635   29.18      3.03       0.5583407 
850.1      -9999      9.35       29.45226   28.67      2.93       0.5761326 
850.2      -9999      9.44       29.17231   28.15      2.84       0.5944178 
850.3      -9999      9.49       28.62444   27.63      2.94       0.6047946 
850.4      -9999      9.54       28.35637   27.11      3.05       0.6153304 
850.5      -9999      9.76       27.8315    26.59      3.15       0.6636388 
850.6      -9999      9.99       27.57457   26.08      3.26       0.7177197 
850.7      -9999      10.23      27.07129   25.56      3.36       0.7783327 
850.8      -9999      10.47      26.82481   25.04      3.46       0.8435343 
850.9      -9999      10.71      26.58168   24.53      3.57       0.9136712 
851        -9999      10.95      26.10519   24.03      3.67       0.9891173 
851.1      -9999      11.19      25.8717    23.77      3.78       1         
851.2      -9999      11.43      25.64129   23.5       3.88       1         
851.3      -9999      11.66      25.41392   23.42      3.98       1         
851.4      -9999      11.9       25.41392   23.34      4.09       1         
851.5      -9999      12.59      25.18951   23.47      4.19       1         
851.6      -9999      13.28      24.96801   23.6       4.3        1         
851.7      -9999      13.7       24.53352   23.72      4.4        1         
851.8      -9999      14.12      24.11002   23.85      4.51       1         
851.9      -9999      14.35      23.69709   23.92      4.61       1         
852        -9999      14.59      23.29435   23.99      4.71       1         
852.1      -9999      14.82      22.51797   -9999      4.82       1         
852.2      -9999      15.06      21.77811   -9999      4.92       1         
852.3      -9999      15.29      21.42108   -9999      4.95       1         
852.4      -9999      15.52      21.07226   -9999      4.98       1         
852.5      -9999      16.08      20.39814   -9999      4.98       1         
852.6      -9999      16.64      19.75366   -9999      4.98       1         
852.7      -9999      16.88      19.59694   -9999      5.44       1         
852.8      -9999      17.11      19.44193   -9999      5.89       1         
852.9      -9999      17.35      18.98685   -9999      6.12       1         
853        -9999      17.58      18.54616   -9999      6.35       1         
853.1      -9999      18.05      17.97979   -9999      7          1         
853.2      -9999      18.52      17.43632   -9999      7.66       1         
853.3      -9999      18.94      17.04294   -9999      8.43       1         
853.4      -9999      19.36      16.66113   -9999      9.19       1         
853.5      -9999      20.2       16.0492    -9999      10.18      1         
853.6      -9999      21.04      15.4659    -9999      11.16      1         
