~Version
 VERS              .         3.0                           : CWLS LOG ASCII STANDARD - VERSION 3.0
 WRAP              .         NO                            : ONE LINE PER DEPTH STEP
 DLM               .         SPACE                         : DELIMITING CHARACTER(SPACE TAB OR COMMA)
~Well Information
#_______________________________________________________________________________
#
#PARAMETER_NAME    .UNIT     VALUE                         : DESCRIPTION
#_______________________________________________________________________________
STRT               .M        2                             : First reference value
STOP               .M        863                           : Last reference value
STEP               .M        0.1                           : Step increment
NULL               .         -9999                         : Missing value
COMP               .         COMPANY NAME                  : Company
WELL               .         G-29                          : Well name
FLD                .         UZEN                          : Field
LOC                .                                       : Location
SRVC               .         AO "UPGF"                     : Service Company
CTRY               .         CO                            : Country
DATE               .         20/2/2022                     : Service Date
X                  .                                       : X or East-West coordinate
Y                  .                                       : Y or North South coordinate
GDAT               .                                       : Geodetic Datum
HZCS               .                                       : Horizontal Co-ordinate System
COUNTRY            .         COUNTRY                       : KAZAKHSTAN
EREF               .m        144.9                         : 
GRP                .                                       : Group name
ISS                .                                       : Well surveys
PROV               .         PROVINCE                      : AKTAU AREA
TIME               .                                       : LOG TIME
~Parameter Information Block
#_______________________________________________________________________________
#
#PARAMETER_NAME    .UNIT     VALUE                         : DESCRIPTION
#_______________________________________________________________________________
SET                .         Las                           : 
TLFamily_CALI      .         Caliper                       : 
TLFamily_GR        .         Russian Gamma Ray             : 
TLFamily_MD        .         Measured Depth                : 
TLFamily_NPHI      .         Neutron Porosity              : 
TLFamily_PS        .         Spontaneous Potential         : 
TLFamily_Resistivity .         Resistivity                   : 
TLFamily_VSH_GR    .         Shale Volume                  : 
~Curve Information
#_______________________________________________________________________________
#
#LOGNAME           .UNIT     LOG_ID                        : DESCRIPTION
#_______________________________________________________________________________
MD                 .M                                      : Depth {F}
CALI               .mm                                     :  {F}
GR                 .мкР/ч                                  : ГК(мкр/ч) -    33.3 см {F}
NPHI               .%                                      :  {F}
PS                 .mV                                     :  {F}
Resistivity        .OHMM                                   :  {F}
VSH_GR             .unitless                               : Shale volume fraction from Gamma Ray {F}
~Ascii
# ...
208.9      199.07     8.66       63.32033   15.89      3.12       0.4513953 
209        199.08     8.67       63.32033   15.88      3.1        0.4530226 
209.1      199.1      8.7        63.32033   15.87      3.08       0.4579342 
209.2      199.11     8.72       63.32033   15.86      3.06       0.4612336 
209.3      199.12     8.75       63.32033   15.82      3.04       0.4662203 
209.4      199.13     8.77       62.34364   15.79      3.02       0.4695703 
209.5      199.14     8.8        62.34364   15.76      3.05       0.4746334 
209.6      199.15     8.82       62.34364   15.73      3.09       0.4780346 
209.7      199.16     8.78       62.34364   15.69      3.12       0.4712527 
209.8      199.18     8.74       61.39267   15.66      3.15       0.464553  
209.9      199.19     8.67       62.34364   15.63      3.14       0.4530226 
210        199.2      8.6        63.32033   15.6       3.12       0.4417352 
210.1      199.21     8.53       64.32379   15.57      3.11       0.4306851 
210.2      199.22     8.46       64.32379   15.53      3.09       0.4198681 
210.3      199.23     8.39       64.32379   15.5       3.08       0.4092787 
210.4      199.24     8.32       63.32033   15.47      3.06       0.3989122 
210.5      199.29     8.25       62.34364   15.42      3.05       0.3887641 
210.6      199.35     8.19       62.34364   15.38      3.03       0.3802359 
210.7      199.41     8.23       62.34364   15.23      3.02       0.385904  
210.8      199.48     8.27       63.32033   15.07      3          0.3916416 
210.9      199.55     8.31       63.32033   14.92      2.99       0.3974493 
211        199.62     8.35       64.32379   14.77      2.98       0.403328  
211.1      199.69     8.39       64.32379   14.62      2.96       0.4092787 
211.2      199.76     8.44       64.32379   14.47      2.95       0.4168194 
211.3      199.82     8.41       64.32379   14.69      2.95       0.4122811 
211.4      199.89     8.37       63.32033   14.91      2.95       0.4062942 
211.5      199.96     8.33       63.32033   15.15      2.98       0.4003797 
211.6      200.03     8.28       62.34364   15.39      3.01       0.3930868 
211.7      200.1      8.29       61.39267   15.52      3.04       0.3945365 
211.8      200.16     8.3        61.39267   15.66      3.07       0.3959907 
211.9      200.23     8.35       61.39267   15.65      3.1        0.403328  
212        200.3      8.39       60.46644   15.64      3.13       0.4092787 
212.1      200.37     8.44       61.39267   15.63      3.05       0.4168194 
212.2      200.44     8.48       62.34364   15.62      2.98       0.4229351 
212.3      200.5      8.52       63.32033   15.61      2.93       0.4291258 
212.4      200.57     8.57       63.32033   15.6       2.87       0.4369706 
212.5      200.64     8.61       63.32033   15.59      2.91       0.4433329 
212.6      200.71     8.66       62.34364   15.59      2.94       0.4513953 
212.7      200.76     8.53       61.39267   15.58      2.98       0.4306851 
212.8      200.81     8.39       61.39267   15.57      3.01       0.4092787 
212.9      200.85     8.44       61.39267   15.56      3.04       0.4168194 
213        200.89     8.48       60.46644   15.55      3.08       0.4229351 
213.1      200.93     8.52       60.46644   15.51      3.06       0.4291258 
213.2      200.97     8.56       61.39267   15.46      3.04       0.4353921 
213.3      201.01     8.53       60.46644   15.39      2.98       0.4306851 
213.4      201.05     8.5        60.46644   15.31      2.92       0.426021  
213.5      201.09     8.49       60.46644   15.23      2.89       0.4244757 
213.6      201.13     8.48       59.56401   15.15      2.86       0.4229351 
213.7      201.17     8.5        59.56401   15.07      2.91       0.426021  
213.8      201.21     8.52       59.56401   15         2.95       0.4291258 
213.9      201.25     8.54       58.68447   14.97      3          0.4322493 
214        201.3      8.56       58.68447   14.95      3.05       0.4353921 
214.1      201.34     8.54       58.68447   15.02      3.1        0.4322493 
214.2      201.38     8.53       58.68447   15.09      3.14       0.4306851 
214.3      201.42     8.48       59.56401   15.15      3.15       0.4229351 
214.4      201.46     8.44       59.56401   15.22      3.17       0.4168194 
214.5      201.5      8.4        59.56401   15.29      3.03       0.4107775 
214.6      201.54     8.36       59.56401   15.36      2.9        0.4048088 
214.7      201.58     8.31       60.46644   15.42      2.89       0.3974493 
214.8      201.62     8.27       60.46644   15.49      2.88       0.3916416 
214.9      201.66     8.32       60.46644   15.44      2.94       0.3989122 
215        201.7      8.36       60.46644   15.39      3.01       0.4048088 
215.1      201.84     8.42       59.56401   15.27      3.07       0.4137893 
215.2      201.98     8.48       58.68447   15.15      3.13       0.4229351 
215.3      202.24     8.54       57.82697   15.04      3.1        0.4322493 
215.4      202.51     8.61       57.82697   14.92      3.07       0.4433329 
215.5      202.77     8.59       57.82697   14.8       3.05       0.4401422 
215.6      203.04     8.58       58.68447   14.69      3.02       0.438554  
215.7      203.3      8.55       58.68447   14.57      3.03       0.4338183 
215.8      203.56     8.51       59.56401   14.45      3.05       0.4275711 
215.9      203.83     8.54       59.56401   14.34      3.07       0.4322493 
216        204.09     8.58       60.46644   14.22      3.1        0.438554  
216.1      203.84     8.59       59.56401   14.11      3.05       0.4401422 
216.2      203.58     8.6        59.56401   13.99      3          0.4417352 
216.3      203.1      8.54       59.56401   13.88      2.99       0.4322493 
216.4      202.62     8.47       58.68447   13.78      2.99       0.4213994 
216.5      202.15     8.4        58.68447   13.67      3.01       0.4107775 
216.6      201.67     8.34       58.68447   13.56      3.04       0.4018516 
216.7      201.48     8.27       57.82697   13.45      3.07       0.3916416 
216.8      201.29     8.21       57.82697   13.34      3.09       0.3830614 
216.9      201.32     8.19       58.68447   13.23      3.12       0.3802359 
217        201.35     8.17       58.68447   13.12      3.14       0.3774276 
217.1      201.38     8.21       59.56401   13.24      3.17       0.3830614 
217.2      201.41     8.25       61.39267   13.36      3.19       0.3887641 
217.3      201.44     8.29       62.34364   13.5       3.16       0.3945365 
217.4      201.47     8.33       63.32033   13.64      3.12       0.4003797 
217.5      201.5      8.36       63.32033   13.78      3.08       0.4048088 
217.6      201.54     8.4        64.32379   13.93      3.05       0.4107775 
217.7      201.57     8.44       63.32033   14.07      3.01       0.4168194 
217.8      201.6      8.48       63.32033   14.21      2.97       0.4229351 
217.9      201.63     8.52       63.32033   14.16      2.94       0.4291258 
218        201.66     8.56       62.34364   14.12      2.91       0.4353921 
218.1      201.69     8.6        62.34364   14.04      2.9        0.4417352 
218.2      201.72     8.64       62.34364   13.95      2.88       0.4481558 
218.3      201.76     8.68       62.34364   13.87      2.87       0.4546549 
218.4      201.79     8.72       62.34364   13.78      2.86       0.4612336 
218.5      201.82     8.67       62.34364   13.7       2.84       0.4530226 
218.6      201.85     8.62       63.32033   13.63      2.83       0.4449356 
218.7      201.88     8.58       61.39267   13.8       2.85       0.438554  
218.8      201.91     8.55       60.46644   13.97      2.88       0.4338183 
218.9      201.94     8.58       60.46644   14.09      2.9        0.438554  
219        201.98     8.61       60.46644   14.22      2.93       0.4433329 
219.1      202.02     8.64       60.46644   14.09      2.95       0.4481558 
219.2      202.07     8.66       60.46644   13.96      2.97       0.4513953 
