~Version
 VERS              .         3.0                           : CWLS LOG ASCII STANDARD - VERSION 3.0
 WRAP              .         NO                            : ONE LINE PER DEPTH STEP
 DLM               .         SPACE                         : DELIMITING CHARACTER(SPACE TAB OR COMMA)
~Well Information
#_______________________________________________________________________________
#
#PARAMETER_NAME    .UNIT     VALUE                         : DESCRIPTION
#_______________________________________________________________________________
STRT               .M        0                             : First reference value
STOP               .M        868                           : Last reference value
STEP               .M        0.1                           : Step increment
NULL               .         -9999                         : Missing value
COMP               .                                       : Company
WELL               .         334                           : Well name
FLD                .         Каратобе                      : Field
LOC                .                                       : Location
SRVC               .         SCH                           : Service Company
CTRY               .                                       : Country
DATE               .         10/09/2023                    : Service Date
LATI               .         0                             : Latitude
LONG               .         0                             : Longitude
GDAT               .                                       : Geodetic Datum
ORIGINALWELLNAME   .         Каратобе 334                  : 
RWS                .         -999                          : Def_Rw
WST                .         -999                          : Def_Rwt
~Parameter Information Block
#_______________________________________________________________________________
#
#PARAMETER_NAME    .UNIT     VALUE                         : DESCRIPTION
#_______________________________________________________________________________
SET                .         Las                           : 
TLFamily_AZIM      .         Hole Azimuth                  : 
TLFamily_BSC       .         Bit Size                      : 
TLFamily_CALI      .         Caliper                       : 
TLFamily_DEPTH     .         Measured Depth                : 
TLFamily_DEVI      .         Hole Deviation                : 
TLFamily_DTP       .         Compressional Slowness        : 
TLFamily_GR        .         Russian Gamma Ray             : 
TLFamily_GZ3       .         Gradient 225                  : 
TLFamily_GZB       .         Gradient Inverted 225         : 
TLFamily_IKD1F3    .         Conductivity                  : 
TLFamily_IKD2F3    .         Conductivity                  : 
TLFamily_IKD3F3    .         Conductivity                  : 
TLFamily_IKD4F3    .         Conductivity                  : 
TLFamily_IKD5F3    .         Conductivity                  : 
TLFamily_LL3       .         Lateral Log Resistivity       : 
TLFamily_MINV      .         Micro Gradient Resistivity    : 
TLFamily_MLL       .         Micro Resistivity             : 
TLFamily_MNOR      .         Micro Resistivity             : 
TLFamily_PHI_FINAL .         Porosity                      : 
TLFamily_RB        .         Mud Resistivity               : 
TLFamily_RHOB      .         Bulk Density                  : 
TLFamily_SP        .         Spontaneous Potential         : 
TLFamily_SW_AR     .         Water Saturation              : 
TLFamily_TEMP      .         Temperature                   : 
TLFamily_TNPH      .         Neutron Porosity              : 
TLFamily_VSH_GR    .         Shale Volume                  : 
~Curve Information
#_______________________________________________________________________________
#
#LOGNAME           .UNIT     LOG_ID                        : DESCRIPTION
#_______________________________________________________________________________
DEPTH              .M                                      : DEPTH {F}
AZIM               .deg                                    : Azimuth {F}
BSC                .mm                                     : Nominal Caliper {F}
CALI               .mm                                     : Caliper {F}
DEVI               .deg                                    : Deviatiom {F}
DTP                .US/M                                   : Sonic travel time {F}
GR                 .мкР/ч                                  : GAMMA RAYS {F}
GZ3                .OHMM                                   : APP.RESISTIVITY BY LATERAL A2.0M0.5N {F}
GZB                .OHMM                                   : APP.RESISTIVITY BY LATERAL N0.5M2.0A {F}
IKD1F3             .OHMM                                   : Induction zonde IKD1F3 {F}
IKD2F3             .OHMM                                   : Induction zonde IKD2F3 {F}
IKD3F3             .OHMM                                   : Induction zonde IKD3F3 {F}
IKD4F3             .OHMM                                   : Induction zonde IKD4F3 {F}
IKD5F3             .OHMM                                   : Induction zonde IKD5F3 {F}
LL3                .OHMM                                   : APPAR.RESIST. LATEROLOG 3 ELECTRODES {F}
MINV               .OHMM                                   : MICROLATERAL A0.025M0.025N {F}
MLL                .OHMM                                   : MICROLATEROLOG {F}
MNOR               .OHMM                                   : MICRONORMAL A0.05M {F}
PHI_FINAL          .m3/m3                                  : Porosity {F}
RB                 .OHMM                                   : Mud Resistivity {F}
RHOB               .G/C3                                   : BULK DENSITY BY DGGL {F}
SP                 .mV                                     : Spontaneous Potential {F}
SW_AR              .m3/m3                                  :  {F}
TEMP               .C                                      : Formation Temperature {F}
TNPH               .V/V                                    : Neutron porosity {F}
VSH_GR             .unitless                               : Shale volume fraction from Gamma Ray {F}
~Ascii
# ...
861.8      197.0822   215.9      207.1004   0.8613     153.7811   3.7094     -9999      -9999      12443.9199 11715.1221 10489.2715 10000      9760.728499999999 180.6652   0.7415     16.5618    0.7244     0          -9999      3.2909     -9999      1          34.8       0.082      0         
861.9      195.3302   215.9      206.9168   0.878      153.7811   3.7948     -9999      -9999      12443.9199 11715.1221 10489.2715 10000      9760.728499999999 180.5162   0.607      17.055     0.6038     0          -9999      3.2649     -9999      1          34.8       0.0829     0         
862        193.4222   215.9      207.28     0.8833     153.7811   3.7028     -9999      -9999      12443.9199 11715.1221 10489.2715 10000      9760.728499999999 183.715    0.5769     15.985     0.5506     0          -9999      3.2403     -9999      1          34.8       0.0791     0         
862.1      190.8394   215.9      207.4904   0.8967     153.7811   3.5233     -9999      -9999      12443.9199 11715.1221 10489.2715 10000      9760.728499999999 182.8674   0.5444     10.9596    0.5541     0          -9999      3.2288     -9999      1          34.8       0.0718     0         
862.2      188.445    215.9      207.1688   0.9173     153.7811   3.3752     -9999      -9999      12443.9199 11715.1221 10489.2715 10000      9760.728499999999 181.4432   0.4762     7.4842     0.5532     0          -9999      3.2253     -9999      1          34.8       0.0662     0         
862.3      187.2224   215.9      207.2404   0.9404     153.7811   3.3151     -9999      -9999      12443.9199 11715.1221 10489.2715 10000      9760.728499999999 180.5714   0.4096     5.7282     0.4963     0          -9999      3.2152     -9999      1          34.8       0.0634     0         
862.4      186.4276   215.9      207.0308   0.9651     153.7811   3.328      -9999      -9999      12443.9199 11715.1221 10489.2715 10000      9760.728499999999 181.0828   0.3859     4.6382     0.508      0          -9999      3.2038     -9999      1          34.8       0.0643     0         
862.5      185.4248   215.9      206.5652   0.9907     153.7811   3.3557     -9999      -9999      12443.9199 11715.1221 10489.2715 10000      9760.728499999999 181.218    0.3471     4.7676     0.4659     0          -9999      3.2        -9999      1          34.8       0.0695     0         
862.6      184.3542   215.9      206.5546   1.0151     153.7811   3.3588     -9999      -9999      12443.9199 11715.1221 10489.2715 10000      9760.728499999999 -9999      0.3367     3.879      0.4853     0          -9999      3.2038     -9999      -9999      34.8       0.0752     0         
862.7      183.7752   215.9      200.5774   1.0298     153.7811   3.3235     -9999      -9999      12443.9199 11715.1221 10489.2715 10000      9760.728499999999 -9999      0.3297     3.3626     0.4637     0          -9999      3.207      -9999      -9999      34.8       0.0753     0         
862.8      183.517    215.9      181.3234   1.0416     153.7811   3.2584     -9999      -9999      12443.9199 11715.1221 10489.2715 10000      9760.728499999999 -9999      0.3101     2.6398     0.4952     0          -9999      3.173      -9999      -9999      34.8       0.0724     0         
862.9      182.6632   215.9      167.9964   1.0685     153.7811   3.1923     -9999      -9999      12443.9199 11715.1221 10489.2715 10000      9760.728499999999 -9999      0.3827     1.0042     0.3865     0.005190289 -9999      3.0554     -9999      -9999      34.8       0.0733     0         
863        181.4396   215.9      179.4498   1.0978     153.7811   3.1232     -9999      -9999      12443.9199 11715.1221 10489.2715 10000      9760.728499999999 -9999      0.2524     0.3246     0.3227     0.01733014 -9999      2.8584     -9999      -9999      34.8       0.0746     0         
863.1      180.708    215.9      194.3662   1.1265     153.7811   3.033      -9999      -9999      12443.9199 11715.1221 10489.2715 10000      9760.728499999999 -9999      0.237      0.1106     0.3017     0.08113285 -9999      2.6344     -9999      -9999      34.8       0.0719     0         
863.2      180.1848   215.9      202.0214   1.1482     153.7811   2.9225     -9999      -9999      12443.9199 11715.1221 10489.2715 10000      9760.728499999999 -9999      0.255      -0.0224    0.2937     0.1438531  -9999      2.4429     -9999      -9999      34.8       0.0696     0         
863.3      179.4078   215.9      201.4464   1.162      -9999      2.8094     -9999      -9999      12443.9199 11715.1221 10489.2715 10000      9760.728499999999 -9999      0.2471     0.028      0.293      0.2802335  -9999      2.3162     -9999      -9999      34.8       0.0705     0         
863.4      178.8476   215.9      199.7426   1.1804     -9999      2.7171     -9999      -9999      12443.9199 11715.1221 10489.2715 10000      9760.728499999999 -9999      0.246      0.0256     0.2768     0.3131421  -9999      2.2541     -9999      -9999      34.8       0.0761     0         
863.5      178.523    215.9      191.3352   1.21       -9999      2.6631     -9999      -9999      12443.9199 11715.1221 10489.2715 10000      9760.728499999999 -9999      0.2415     0.0136     0.275      0.3269783  -9999      2.2313     -9999      -9999      34.8       0.0872     0         
863.6      178.1426   215.9      170.8116   1.2195     -9999      2.6597     -9999      -9999      12443.9199 11715.1221 10489.2715 10000      9760.728499999999 -9999      0.2428     -0.0096    0.2813     0.3324831  -9999      2.2236     -9999      -9999      34.8       0.0954     0         
863.7      177.6118   215.9      141.319    1.2158     -9999      2.7086     -9999      -9999      12443.9199 11715.1221 10489.2715 10000      9760.728499999999 -9999      0.252      -0.0864    0.2757     0.3321414  -9999      2.2232     -9999      -9999      34.8       0.0925     0         
863.8      176.8286   215.9      126.3612   1.2273     -9999      2.7718     -9999      -9999      12443.9199 11715.1221 10489.2715 10000      9760.728499999999 -9999      0.2395     -0.1986    0.275      0.3279491  -9999      2.228      -9999      -9999      34.8       0.0834     0         
863.9      175.8364   215.9      121.9468   1.242      -9999      2.8068     -9999      -9999      12443.9199 11715.1221 10489.2715 10000      9760.728499999999 -9999      0.2425     -0.2856    0.2705     0.3279823  -9999      2.2263     -9999      -9999      34.8       0.079      0         
864        175.0376   215.9      125.9116   1.26       -9999      2.8155     -9999      -9999      12443.9199 11715.1221 10489.2715 10000      9760.728499999999 -9999      0.2034     -0.2786    0.2574     0.3383346  -9999      2.2071     -9999      -9999      34.8       0.0815     0         
864.1      174.6604   215.9      134.9328   1.2775     -9999      2.8325     -9999      -9999      12443.9199 11715.1221 10489.2715 10000      9760.728499999999 -9999      0.2296     -0.289     0.2731     0.3532864  -9999      2.1788     -9999      -9999      34.8       0.0835     0         
864.2      174.082    215.9      142.3414   1.3098     -9999      2.8731     -9999      -9999      -9999      -9999      -9999      -9999      -9999      -9999      0.233      -0.2332    0.2813     0.3617084  -9999      2.1616     -9999      -9999      34.8       0.0811     0         
864.3      173.4236   215.9      144.2558   1.3395     -9999      2.9664     -9999      -9999      -9999      -9999      -9999      -9999      -9999      -9999      0.2708     -0.2582    0.2856     0.3611904  -9999      2.1617     -9999      -9999      34.8       0.0786     0         
864.4      173.3944   215.9      138.4336   1.36       -9999      3.0823     -9999      -9999      -9999      -9999      -9999      -9999      -9999      -9999      0.2372     -0.2054    0.2923     0.3567946  -9999      2.17       -9999      -9999      34.8       0.078      0         
864.5      173.345    215.9      130.8584   1.3651     -9999      3.215      -9999      -9999      -9999      -9999      -9999      -9999      -9999      -9999      0.233      -0.1084    0.293      0.3520006  -9999      2.179      -9999      -9999      34.8       0.0772     0         
