~Version
 VERS              .         3.0                           : CWLS LOG ASCII STANDARD - VERSION 3.0
 WRAP              .         NO                            : ONE LINE PER DEPTH STEP
 DLM               .         SPACE                         : DELIMITING CHARACTER(SPACE TAB OR COMMA)
~Well Information
#_______________________________________________________________________________
#
#PARAMETER_NAME    .UNIT     VALUE                         : DESCRIPTION
#_______________________________________________________________________________
STRT               .M        0                             : First reference value
STOP               .M        868                           : Last reference value
STEP               .M        0.1                           : Step increment
NULL               .         -9999                         : Missing value
COMP               .                                       : Company
WELL               .         334                           : Well name
FLD                .         Каратобе                      : Field
LOC                .                                       : Location
SRVC               .         SCH                           : Service Company
CTRY               .                                       : Country
DATE               .         10/09/2023                    : Service Date
LATI               .         0                             : Latitude
LONG               .         0                             : Longitude
GDAT               .                                       : Geodetic Datum
ORIGINALWELLNAME   .         Каратобе 334                  : 
RWS                .         -999                          : Def_Rw
WST                .         -999                          : Def_Rwt
~Parameter Information Block
#_______________________________________________________________________________
#
#PARAMETER_NAME    .UNIT     VALUE                         : DESCRIPTION
#_______________________________________________________________________________
SET                .         Las                           : 
TLFamily_AZIM      .         Hole Azimuth                  : 
TLFamily_BSC       .         Bit Size                      : 
TLFamily_CALI      .         Caliper                       : 
TLFamily_DEPTH     .         Measured Depth                : 
TLFamily_DEVI      .         Hole Deviation                : 
TLFamily_DTP       .         Compressional Slowness        : 
TLFamily_GR        .         Russian Gamma Ray             : 
TLFamily_GZ3       .         Gradient 225                  : 
TLFamily_GZB       .         Gradient Inverted 225         : 
TLFamily_IKD1F3    .         Conductivity                  : 
TLFamily_IKD2F3    .         Conductivity                  : 
TLFamily_IKD3F3    .         Conductivity                  : 
TLFamily_IKD4F3    .         Conductivity                  : 
TLFamily_IKD5F3    .         Conductivity                  : 
TLFamily_LL3       .         Lateral Log Resistivity       : 
TLFamily_MINV      .         Micro Gradient Resistivity    : 
TLFamily_MLL       .         Micro Resistivity             : 
TLFamily_MNOR      .         Micro Resistivity             : 
TLFamily_PHI_FINAL .         Porosity                      : 
TLFamily_RB        .         Mud Resistivity               : 
TLFamily_RHOB      .         Bulk Density                  : 
TLFamily_SP        .         Spontaneous Potential         : 
TLFamily_SW_AR     .         Water Saturation              : 
TLFamily_TEMP      .         Temperature                   : 
TLFamily_TNPH      .         Neutron Porosity              : 
TLFamily_VSH_GR    .         Shale Volume                  : 
~Curve Information
#_______________________________________________________________________________
#
#LOGNAME           .UNIT     LOG_ID                        : DESCRIPTION
#_______________________________________________________________________________
DEPTH              .M                                      : DEPTH {F}
AZIM               .deg                                    : Azimuth {F}
BSC                .mm                                     : Nominal Caliper {F}
CALI               .mm                                     : Caliper {F}
DEVI               .deg                                    : Deviatiom {F}
DTP                .US/M                                   : Sonic travel time {F}
GR                 .мкР/ч                                  : GAMMA RAYS {F}
GZ3                .OHMM                                   : APP.RESISTIVITY BY LATERAL A2.0M0.5N {F}
GZB                .OHMM                                   : APP.RESISTIVITY BY LATERAL N0.5M2.0A {F}
IKD1F3             .OHMM                                   : Induction zonde IKD1F3 {F}
IKD2F3             .OHMM                                   : Induction zonde IKD2F3 {F}
IKD3F3             .OHMM                                   : Induction zonde IKD3F3 {F}
IKD4F3             .OHMM                                   : Induction zonde IKD4F3 {F}
IKD5F3             .OHMM                                   : Induction zonde IKD5F3 {F}
LL3                .OHMM                                   : APPAR.RESIST. LATEROLOG 3 ELECTRODES {F}
MINV               .OHMM                                   : MICROLATERAL A0.025M0.025N {F}
MLL                .OHMM                                   : MICROLATEROLOG {F}
MNOR               .OHMM                                   : MICRONORMAL A0.05M {F}
PHI_FINAL          .m3/m3                                  : Porosity {F}
RB                 .OHMM                                   : Mud Resistivity {F}
RHOB               .G/C3                                   : BULK DENSITY BY DGGL {F}
SP                 .mV                                     : Spontaneous Potential {F}
SW_AR              .m3/m3                                  :  {F}
TEMP               .C                                      : Formation Temperature {F}
TNPH               .V/V                                    : Neutron porosity {F}
VSH_GR             .unitless                               : Shale volume fraction from Gamma Ray {F}
~Ascii
# ...
236.2      192.5582   215.9      217.0868   0.6118     535.5757   9.6583     3.3202     3.0646     2.627599954605103 2.886399984359741 2.941200017929077 3.01200008392334 3.135400056838989 2.4438     0.8053     3.8866     0.7155     0.1127107  0.2358     2.4169     41.5404    1          26.97      0.2683     0.6602275 
236.3      192.377    215.9      217.4262   0.6149     497.5741   9.5785     3.3498     3.0182     2.658200025558472 2.930999994277954 2.991199970245361 3.05839991569519 3.09060001373291 2.4282     0.7093     3.7762     0.7213     0.1228006  0.2308     2.4038     41.4166    1          26.97      0.2621     0.6375722 
236.4      192.4344   215.9      217.795    0.6135     493.4756   9.3801     3.3924     3.0044     2.803200006484985 3.053200006484985 3.107399940490723 3.10319995880127 3.019200086593628 2.435      0.9664     4.1366     0.8526     0.150722   0.2308     2.3699     41.3272    1          26.9711    0.2743     0.5841942 
236.5      192.5452   215.9      219.368    0.6229     496.5195   9.1639     3.4258     3.0486     2.933599948883057 3.165999889373779 3.144799947738647 3.023400068283081 2.946599960327148 2.442      0.5739     2.9414     0.5736     0.1904073  0.2348     2.3102     41.2736    0.9336491  26.973     0.3139     0.530519  
236.6      192.6768   215.9      220.9902   0.654      487.5293   9.0833     3.4158     3.1726     2.858000040054321 3.05019998550415 2.976200103759766 2.867399930953979 2.849600076675415 2.411      0.4973     2.6842     0.5671     0.2224092  0.2378     2.2374     41.2573    0.8048474  26.973     0.3348     0.5116327 
236.7      192.2078   215.9      232.28     0.6653     510.3928   9.1944     3.291      3.3376     2.431600093841553 2.634399890899658 2.625      2.659199953079224 2.709000110626221 2.275      0.5813     3.081      0.6159     0.2357272  0.237      2.1751     41.2826    0.7835863  26.9741    0.3343     0.537821  
236.8      190.6316   215.9      252.8466   0.6253     536.3302   9.3786     3.1724     3.4834     2.035599946975708 2.300600051879883 2.365999937057495 2.486200094223022 2.58299994468689 2.1506     0.5775     3.2592     0.5751     0.2315058  0.237      2.1419     41.3486    0.8224994  26.9751    0.314      0.583806  
236.9      189.8384   215.9      255.788    0.6164     565.4358999999999 9.5632     3.0586     3.5888     2.082600116729736 2.29419994354248 2.379199981689453 2.476000070571899 2.58459997177124 2.1102     0.5616     4.0612     0.6006     0.2153302  0.2366     2.1436     41.4415    0.8933969  26.9761    0.3011     0.633308  
237        190.394    215.9      245.9616   0.7011     588.7795   9.7344     2.9666     3.6404     2.34060001373291 2.491600036621094 2.515599966049194 2.551399946212769 2.632800102233887 2.1596     0.5798     3.9032     0.6229     0.1970192  0.235      2.1625     41.5358    0.964292   26.9772    0.3209     0.6824955 
237.1      190.0362   215.9      238.717    0.7633     593.967    9.8966     2.9902     3.655      2.482800006866455 2.672199964523315 2.682600021362305 2.676599979400635 2.686000108718872 2.2254     0.6306     3.938      0.6511     0.1761069  0.2348     2.187      41.6139    1          26.9812    0.3277     0.7322094 
237.2      187.8848   215.9      232.8568   0.7607     601.0023   10.0413    3.0886     3.626      2.551000118255615 2.750799894332886 2.789799928665161 2.822200059890747 2.759399890899658 2.3006     0.7836     4.1286     0.6414     0.1582844  0.234      2.2218     41.6783    1          26.9851    0.3217     0.7792783 
237.3      187.3982   215.9      227.716    0.7505     615.0685   10.1798    3.2242     3.5238     2.567800045013428 2.777400016784668 2.828399896621704 2.900799989700317 2.846999883651733 2.3642     0.5984     4.1602     0.6112     0.1390316  0.2338     2.265      41.7589    1          26.9871    0.3285     0.8268739 
237.4      190.888    215.9      224.4174   0.7215     637.7305   10.3903    3.3028     3.3474     2.558000087738037 2.789599895477295 2.842000007629395 2.905200004577637 2.926000118255615 2.4074     0.666      4.0994     0.5783     0.1176693  0.2326     2.2994     41.8911    1          26.9878    0.3207     0.9042906 
237.5      192.8944   215.9      225.56     0.7025     562.6663   10.8382    3.343      3.1536     2.569799900054932 2.770800113677979 2.83459997177124 2.891000032424927 2.949399948120117 2.4308     0.6355     3.7626     0.5795     0.1036238  0.2304     2.3067     42.1024    1          26.9841    0.3167     1         
237.6      191.5064   215.9      230.0768   0.7244     484.6483   11.6195    3.3412     2.992      2.554399967193604 2.704999923706055 2.797399997711182 2.877000093460083 2.9235999584198 2.422      0.6463     3.9084     0.6736     0.1081831  0.2278     2.2933     42.3819    1          26.9863    0.3176     1         
237.7      189.7592   215.9      234.5924   0.7435     474.0375   12.562     3.3028     2.8996     2.503999948501587 2.660200119018555 2.762599945068359 2.863399982452393 2.894599914550781 2.4262     0.6003     4.508      0.5859     0.1083136  0.2274     2.2851     42.7034    1          26.9912    0.2943     1         
237.8      187.261    215.9      234.8088   0.7513     488.0394   13.3578    3.2174     2.8446     2.560800075531006 2.710000038146973 2.755399942398071 2.839600086212158 2.898999929428101 2.4492     0.73       4.001      0.6767     0.1054377  0.229      2.2919     43.0297    1          26.9951    0.2889     1         
237.9      185.6552   215.9      228.6682   0.7562     513.994    13.8059    3.088      2.8304     2.655400037765503 2.781199932098389 2.789200067520142 2.833600044250488 2.901599884033203 2.4626     0.7252     4.4458     0.6592     0.1003527  0.2286     2.3077     43.3378    1          26.9959    0.2905     1         
238        186.8862   215.9      223.8386   0.7551     509.9255   13.864     2.9386     2.8678     2.58299994468689 2.698199987411499 2.740999937057495 2.822000026702881 2.869800090789795 2.4076     0.5781     4.6718     0.6164     0.09380645 0.227      2.3228     43.6041    1          26.994     0.2771     1         
238.1      187.7764   215.9      229.72     0.7544     492.2795   13.6274    2.8134     2.9076     2.384200096130371 2.578200101852417 2.674799919128418 2.778199911117554 2.830399990081787 2.368      0.7159     4.3182     0.7587     0.09057245 0.2268     2.3317     43.8198    1          26.9941    0.2747     1         
238.2      187.2784   215.9      232.4972   0.7591     480.2325   13.2421    2.6912     2.9546     2.502000093460083 2.634000062942505 2.69160008430481 2.765399932861328 2.839999914169312 2.3642     0.8041     4.0172     0.7471     0.09106946 0.226      2.3348     43.997     1          26.9954    0.2881     1         
238.3      186.668    215.9      230.4972   0.7658     472.8071   12.8756    2.5662     3.017      2.674400091171265 2.733200073242188 2.728600025177002 2.772799968719482 2.852400064468384 2.3788     0.7931     4.2478     0.7602     0.09335265 0.226      2.3297     44.1613    1          27.0011    0.2933     1         
238.4      186.005    215.9      229.3618   0.7598     458.7623   12.6372    2.5044     3.0762     2.558000087738037 2.684200048446655 2.721800088882446 2.771600008010864 2.838399887084961 2.369      0.7586     4.1082     0.8142     0.0968192  0.226      2.321      44.3246    1          27.002     0.2984     1         
238.5      185.5912   215.9      228.1098   0.7424     445.5707   12.5437    2.4762     3.132      2.492399930953979 2.642800092697144 2.721400022506714 2.808599948883057 2.848999977111816 2.3796     0.9917     4.3906     0.8065     0.09849717 0.226      2.3194     44.4729    1          27.0021    0.3086     1         
238.6      186.375    215.9      225.6614   0.7344     440.7947   12.4857    2.4678     3.1884     2.591200113296509 2.711400032043457 2.747200012207031 2.84279990196228 2.895400047302246 2.4494     0.8965     4.562      0.8464     0.09392085 0.226      2.3302     44.592     1          27.0041    0.2998     1         
