~Version
 VERS              .         3.0                           : CWLS LOG ASCII STANDARD - VERSION 3.0
 WRAP              .         NO                            : ONE LINE PER DEPTH STEP
 DLM               .         SPACE                         : DELIMITING CHARACTER(SPACE TAB OR COMMA)
~Well Information
#_______________________________________________________________________________
#
#PARAMETER_NAME    .UNIT     VALUE                         : DESCRIPTION
#_______________________________________________________________________________
STRT               .M        0                             : First reference value
STOP               .M        868                           : Last reference value
STEP               .M        0.1                           : Step increment
NULL               .         -9999                         : Missing value
COMP               .                                       : Company
WELL               .         334                           : Well name
FLD                .         Каратобе                      : Field
LOC                .                                       : Location
SRVC               .         SCH                           : Service Company
CTRY               .                                       : Country
DATE               .         10/09/2023                    : Service Date
LATI               .         0                             : Latitude
LONG               .         0                             : Longitude
GDAT               .                                       : Geodetic Datum
ORIGINALWELLNAME   .         Каратобе 334                  : 
RWS                .         -999                          : Def_Rw
WST                .         -999                          : Def_Rwt
~Parameter Information Block
#_______________________________________________________________________________
#
#PARAMETER_NAME    .UNIT     VALUE                         : DESCRIPTION
#_______________________________________________________________________________
SET                .         Las                           : 
TLFamily_AZIM      .         Hole Azimuth                  : 
TLFamily_BSC       .         Bit Size                      : 
TLFamily_CALI      .         Caliper                       : 
TLFamily_DEPTH     .         Measured Depth                : 
TLFamily_DEVI      .         Hole Deviation                : 
TLFamily_DTP       .         Compressional Slowness        : 
TLFamily_GR        .         Russian Gamma Ray             : 
TLFamily_GZ3       .         Gradient 225                  : 
TLFamily_GZB       .         Gradient Inverted 225         : 
TLFamily_IKD1F3    .         Conductivity                  : 
TLFamily_IKD2F3    .         Conductivity                  : 
TLFamily_IKD3F3    .         Conductivity                  : 
TLFamily_IKD4F3    .         Conductivity                  : 
TLFamily_IKD5F3    .         Conductivity                  : 
TLFamily_LL3       .         Lateral Log Resistivity       : 
TLFamily_MINV      .         Micro Gradient Resistivity    : 
TLFamily_MLL       .         Micro Resistivity             : 
TLFamily_MNOR      .         Micro Resistivity             : 
TLFamily_PHI_FINAL .         Porosity                      : 
TLFamily_RB        .         Mud Resistivity               : 
TLFamily_RHOB      .         Bulk Density                  : 
TLFamily_SP        .         Spontaneous Potential         : 
TLFamily_SW_AR     .         Water Saturation              : 
TLFamily_TEMP      .         Temperature                   : 
TLFamily_TNPH      .         Neutron Porosity              : 
TLFamily_VSH_GR    .         Shale Volume                  : 
~Curve Information
#_______________________________________________________________________________
#
#LOGNAME           .UNIT     LOG_ID                        : DESCRIPTION
#_______________________________________________________________________________
DEPTH              .M                                      : DEPTH {F}
AZIM               .deg                                    : Azimuth {F}
BSC                .mm                                     : Nominal Caliper {F}
CALI               .mm                                     : Caliper {F}
DEVI               .deg                                    : Deviatiom {F}
DTP                .US/M                                   : Sonic travel time {F}
GR                 .мкР/ч                                  : GAMMA RAYS {F}
GZ3                .OHMM                                   : APP.RESISTIVITY BY LATERAL A2.0M0.5N {F}
GZB                .OHMM                                   : APP.RESISTIVITY BY LATERAL N0.5M2.0A {F}
IKD1F3             .OHMM                                   : Induction zonde IKD1F3 {F}
IKD2F3             .OHMM                                   : Induction zonde IKD2F3 {F}
IKD3F3             .OHMM                                   : Induction zonde IKD3F3 {F}
IKD4F3             .OHMM                                   : Induction zonde IKD4F3 {F}
IKD5F3             .OHMM                                   : Induction zonde IKD5F3 {F}
LL3                .OHMM                                   : APPAR.RESIST. LATEROLOG 3 ELECTRODES {F}
MINV               .OHMM                                   : MICROLATERAL A0.025M0.025N {F}
MLL                .OHMM                                   : MICROLATEROLOG {F}
MNOR               .OHMM                                   : MICRONORMAL A0.05M {F}
PHI_FINAL          .m3/m3                                  : Porosity {F}
RB                 .OHMM                                   : Mud Resistivity {F}
RHOB               .G/C3                                   : BULK DENSITY BY DGGL {F}
SP                 .mV                                     : Spontaneous Potential {F}
SW_AR              .m3/m3                                  :  {F}
TEMP               .C                                      : Formation Temperature {F}
TNPH               .V/V                                    : Neutron porosity {F}
VSH_GR             .unitless                               : Shale volume fraction from Gamma Ray {F}
~Ascii
# ...
476.3      146.4464   215.9      211.9222   1.2636     468.9058   9.1933     2.6984     26.1314    5.218400001525879 5.828400135040283 6.464000225067139 6.738999843597412 6.707799911499023 4.7012     1.0544     3.702      1.0231     0.2210803  0.2682     2.3857     50.2077    0.5643564  31.2838    0.2583     0.4031884 
476.4      146.1204   215.9      211.9702   1.2576     479.8424   9.2979     2.7534     26.9876    5.446400165557861 6.230400085449219 6.954400062561035 7.129000186920166 7.224199771881104 4.7354     1.0717     3.996      1.0554     0.2143901  0.2686     2.3923     49.5795    0.5796916  31.283     0.2503     0.4185801 
476.5      145.9196   215.9      211.9386   1.2444     542.3708   9.3152     2.8008     28.1362    5.928999900817871 6.662000179290771 7.310599803924561 7.55079984664917 7.69379997253418 4.7802     1.0857     4.452      1.0932     0.2070429  0.2668     2.4142     49.0005    0.5972154  31.2837    0.2538     0.4211723 
476.6      146.3044   215.9      211.8868   1.2238     595.519    9.2199     2.85       29.6774    6.047399997711182 6.910399913787842 7.717800140380859 8.017600059509277 7.986400127410889 4.8152     1.2157     4.7346     1.1411     0.2037634  0.2658     2.4418     48.4439    0.6044393  31.2871    0.272      0.4070571 
476.7      146.6098   215.9      211.8644   1.2002     568.9342   9.0607     2.9        31.443     5.982999801635742 7.356800079345703 8.329000473022461 8.473999977111816 8.189599990844727 4.8484     1.338      4.8414     1.2189     0.2030666  0.265      2.4684     47.8775    0.6042646  31.2912    0.282      0.3843535 
476.8      145.9112   215.9      211.9182   1.1896     551.7383   8.9262     2.9484     32.561     6.68120002746582 8.284000396728516 9.155799865722656 8.904199600219727 8.56980037689209 4.8768     1.3545     4.8896     1.1154     0.1976204  0.2676     2.4961     47.2546    0.6189604  31.292     0.2728     0.3659939 
476.9      144.8738   215.9      212.5504   1.1864     531.4213999999999 8.8755     2.9912     33.1686    7.535200119018555 8.911600112915039 9.617199897766113 9.269000053405762 9.065400123596191 4.8518     1.0805     5.1338     1.0256     0.1905025  0.2786     2.5195     46.5669    0.6438733  31.2932    0.2624     0.359262  
477        144.0768   215.9      213.883    1.1753     492.3438   8.8895     3.0398     33.1678    7.188799858093262 8.58180046081543 9.583600044250488 9.746199607849121 9.497200012207031 4.838      1.1121     5.3862     1.0638     0.1886954  0.2808     2.5315     45.8345    0.6510412  31.2972    0.2748     0.3611108 
477.1      143.3666   215.9      214.4166   1.1565     457.9606   8.8821     3.1024     32.3076    6.729800224304199 8.450400352478027 10.2628002166748 10.5492000579834 9.942999839782715 4.8782     1.1757     9.277      1.5001     0.1911804  0.2792     2.527      45.0929    0.6397111  31.2985    0.2886     0.3601327 
477.2      142.4236   215.9      213.4514   1.1398     454.8352   8.7405     3.1872     31.15      7.735799789428711 9.913000106811523 12.18179988861084 11.8548002243042 10.74820041656494 5.0646     7.905      26.7508    17.9865    0.1916265  0.2768     2.5246     44.3844    0.6254156  31.3007    0.2711     0.341825  
477.3      141.4216   215.9      212.1588   1.126      451.7099   8.3847     3.3084     29.8274    10.41300010681152 12.72999954223633 14.97399997711182 13.6870002746582 12.16800022125244 5.4274     11.6085    35.9768    26.7385    0.18358    0.2802     2.5565     43.7429    0.6288651  31.3035    0.2294     0.2990918 
477.4      140.8418   215.9      211.5966   1.1162     412.6366   7.936      3.4564     28.5012    12.28940010070801 14.75059986114502 17.30940055847168 15.90079975128174 13.74860000610352 5.728      11.4942    36.8278    23.5534    0.1469434  0.2808     2.6281     43.1818    0.7630939  31.3048    0.1828     0.2512749 
477.5      140.4846   215.9      211.5588   1.1095     282.898    7.5412     3.6382     27.2048    11.94260025024414 14.65900039672852 19.10040092468262 18.70199966430664 15.1923999786377 5.8382     9.9303     36.6074    22.0763    0.0485287  0.2794     2.7184     42.6971    1          31.304     0.1548     0.2141767 
477.6      139.557    215.9      211.5812   1.0956     220.3824   7.2994     3.8654     25.9194    11.11260032653809 15.15540027618408 22.12220001220703 22.17399978637695 16.99920082092285 5.847      11.832     36.6416    26.461     0.02532969 0.2768     2.7996     42.2632    1          31.3042    0.1429     0.1935188 
477.7      138.041    215.9      211.5292   1.0742     226.6416   7.2141     4.1222     24.6232    12.9326000213623 18.42020034790039 26.87179946899414 25.97879981994629 19.035400390625 5.848      13.0178    36.7006    27.7674    0.01525255 0.276      2.8381     41.8587    1          31.3055    0.1411     0.1865792 
477.8      136.4928   215.9      211.53     1.0555     137.5498   7.23       4.4042     23.2682    16.87179946899414 21.73760032653809 32.0093994140625 29.63599967956543 21.20359992980957 5.853      13.7486    36.7504    29.8631    0.01406313 0.2762     2.8493     41.4757    1          31.3075    0.1405     0.1878595 
477.9      135.1826   215.9      211.5736   1.0413     148.495    7.2923     4.7164     21.8988    19.13979911804199 22.40839958190918 34.34000015258789 31.29999923706055 22.56599998474121 5.859      15.1995    37.015     32.912     0.01283152 0.2778     2.8556     41.1167    1          31.3092    0.1388     0.1929345 
478        135.3532   215.9      211.565    1.0231     157.8582   7.3756     5.0634     20.5914    19.92259979248047 23.62319946289063 34.64920043945313 33.04019927978516 23.23780059814453 5.8712     15.4412    36.7494    32.8876    0.01178    0.2806     2.864      40.7889    1          31.3107    0.1392     0.199869  
478.1      136.864    215.9      211.564    0.9984     151.616    7.4574     5.4616     19.4106    22.32220077514648 26.16399955749512 37.68140029907227 35.34960174560547 24.47459983825684 5.8932     15.3025    36.4918    30.1779    0.009845228 0.279      2.8764     40.4981    1          31.3137    0.1371     0.2068483 
478.2      136.8482   215.9      211.5694   0.9802     220.4038   7.4955     5.9184     18.37      22.42180061340332 29.11580085754395 39.31919860839844 36.19599914550781 25.59580039978027 5.9244     14.917     36.3102    29.0134    0.007642739 0.2802     2.8942     40.2416    1          31.3167    0.1341     0.2101575 
478.3      134.8334   215.9      211.5674   0.9758     286.0448   7.4766     6.4398     17.3834    23.55719947814941 29.22279930114746 41.56340026855469 38.48479843139648 26.78759956359863 5.9732     14.4278    36.2022    27.1611    0.008429076 0.2854     2.9191     40.0159    1          31.3192    0.1365     0.2085112 
478.4      133.5246   215.9      211.5574   0.962      309.4785   7.42       7.0064     16.437     21.0629997253418 27.01099967956543 42.38840103149414 39.78799819946289 27.39959907531738 6.0082     13.4168    35.8446    24.698     0.0255837  0.2872     2.9327     39.8091    1          31.3205    0.1446     0.2036361 
478.5      133.3306   215.9      211.5702   0.922      242.2598   7.3371     7.611      15.5228    20.2947998046875 27.80400085449219 45.29600143432617 41.36000061035156 28.08839988708496 6.0382     12.9041    35.882     23.9375    0.008478488 0.2882     2.9192     39.6127    1          31.3227    0.1451     0.1966425 
478.6      132.8326   215.9      211.6394   0.8949     200.0611   7.2244     8.2558     14.6288    24.06900024414063 30.59819984436035 50.39580154418945 43.38840103149414 29.18519973754883 6.0632     12.5773    37.2562    22.2556    0.009672388 0.2888     2.8862     39.4323    1          31.325     0.1314     0.1874079 
478.7      131.8264   215.9      211.749    0.9198     240.7079   7.0766     8.9536     13.7212    25.87380027770996 31.78660011291504 51.86600112915039 44.40919876098633 30.03440093994141 6.08       11.7693    37.8888    21.9994    0.01176517 0.2882     2.8535     39.2814    1          31.325     0.1227     0.1757577 
