~Version
 VERS              .         3.0                           : CWLS LOG ASCII STANDARD - VERSION 3.0
 WRAP              .         NO                            : ONE LINE PER DEPTH STEP
 DLM               .         SPACE                         : DELIMITING CHARACTER(SPACE TAB OR COMMA)
~Well Information
#_______________________________________________________________________________
#
#PARAMETER_NAME    .UNIT     VALUE                         : DESCRIPTION
#_______________________________________________________________________________
STRT               .M        0                             : First reference value
STOP               .M        868                           : Last reference value
STEP               .M        0.1                           : Step increment
NULL               .         -9999                         : Missing value
COMP               .                                       : Company
WELL               .         334                           : Well name
FLD                .         Каратобе                      : Field
LOC                .                                       : Location
SRVC               .         SCH                           : Service Company
CTRY               .                                       : Country
DATE               .         10/09/2023                    : Service Date
LATI               .         0                             : Latitude
LONG               .         0                             : Longitude
GDAT               .                                       : Geodetic Datum
ORIGINALWELLNAME   .         Каратобе 334                  : 
RWS                .         -999                          : Def_Rw
WST                .         -999                          : Def_Rwt
~Parameter Information Block
#_______________________________________________________________________________
#
#PARAMETER_NAME    .UNIT     VALUE                         : DESCRIPTION
#_______________________________________________________________________________
SET                .         Las                           : 
TLFamily_AZIM      .         Hole Azimuth                  : 
TLFamily_BSC       .         Bit Size                      : 
TLFamily_CALI      .         Caliper                       : 
TLFamily_DEPTH     .         Measured Depth                : 
TLFamily_DEVI      .         Hole Deviation                : 
TLFamily_DTP       .         Compressional Slowness        : 
TLFamily_GR        .         Russian Gamma Ray             : 
TLFamily_GZ3       .         Gradient 225                  : 
TLFamily_GZB       .         Gradient Inverted 225         : 
TLFamily_IKD1F3    .         Conductivity                  : 
TLFamily_IKD2F3    .         Conductivity                  : 
TLFamily_IKD3F3    .         Conductivity                  : 
TLFamily_IKD4F3    .         Conductivity                  : 
TLFamily_IKD5F3    .         Conductivity                  : 
TLFamily_LL3       .         Lateral Log Resistivity       : 
TLFamily_MINV      .         Micro Gradient Resistivity    : 
TLFamily_MLL       .         Micro Resistivity             : 
TLFamily_MNOR      .         Micro Resistivity             : 
TLFamily_PHI_FINAL .         Porosity                      : 
TLFamily_RB        .         Mud Resistivity               : 
TLFamily_RHOB      .         Bulk Density                  : 
TLFamily_SP        .         Spontaneous Potential         : 
TLFamily_SW_AR     .         Water Saturation              : 
TLFamily_TEMP      .         Temperature                   : 
TLFamily_TNPH      .         Neutron Porosity              : 
TLFamily_VSH_GR    .         Shale Volume                  : 
~Curve Information
#_______________________________________________________________________________
#
#LOGNAME           .UNIT     LOG_ID                        : DESCRIPTION
#_______________________________________________________________________________
DEPTH              .M                                      : DEPTH {F}
AZIM               .deg                                    : Azimuth {F}
BSC                .mm                                     : Nominal Caliper {F}
CALI               .mm                                     : Caliper {F}
DEVI               .deg                                    : Deviatiom {F}
DTP                .US/M                                   : Sonic travel time {F}
GR                 .мкР/ч                                  : GAMMA RAYS {F}
GZ3                .OHMM                                   : APP.RESISTIVITY BY LATERAL A2.0M0.5N {F}
GZB                .OHMM                                   : APP.RESISTIVITY BY LATERAL N0.5M2.0A {F}
IKD1F3             .OHMM                                   : Induction zonde IKD1F3 {F}
IKD2F3             .OHMM                                   : Induction zonde IKD2F3 {F}
IKD3F3             .OHMM                                   : Induction zonde IKD3F3 {F}
IKD4F3             .OHMM                                   : Induction zonde IKD4F3 {F}
IKD5F3             .OHMM                                   : Induction zonde IKD5F3 {F}
LL3                .OHMM                                   : APPAR.RESIST. LATEROLOG 3 ELECTRODES {F}
MINV               .OHMM                                   : MICROLATERAL A0.025M0.025N {F}
MLL                .OHMM                                   : MICROLATEROLOG {F}
MNOR               .OHMM                                   : MICRONORMAL A0.05M {F}
PHI_FINAL          .m3/m3                                  : Porosity {F}
RB                 .OHMM                                   : Mud Resistivity {F}
RHOB               .G/C3                                   : BULK DENSITY BY DGGL {F}
SP                 .mV                                     : Spontaneous Potential {F}
SW_AR              .m3/m3                                  :  {F}
TEMP               .C                                      : Formation Temperature {F}
TNPH               .V/V                                    : Neutron porosity {F}
VSH_GR             .unitless                               : Shale volume fraction from Gamma Ray {F}
~Ascii
# ...
428.8      174.4844   215.9      215.7492   0.4855     503.2889   11.3852    2.461      3.09       2.640399932861328 2.736999988555908 2.711199998855591 2.686399936676025 2.739200115203857 2.136      0.61       2.2694     0.6791     0.1531237  0.215      2.2829     42.218     1          30.1452    0.2834     0.8512152 
428.9      176.041    215.9      215.5672   0.4842     489.2313   11.5659    2.4426     3.024      2.688199996948242 2.780200004577637 2.741199970245361 2.746000051498413 2.765799999237061 2.1572     0.8614     2.6884     0.6712     0.1574442  0.215      2.2501     42.1565    1          30.1475    0.3333     0.9028946 
429        178.1444   215.9      215.3632   0.496      497.0425   11.6364    2.4312     2.9784     2.778599977493286 2.863399982452393 2.841799974441528 2.816999912261963 2.795799970626831 2.1906     0.538      2.638      0.5836     0.1702095  0.215      2.2045     42.0981    1          30.1512    0.3568     0.9238239 
429.1      178.8982   215.9      214.9974   0.5075     500.1636   11.6312    2.423      2.9558     2.874000072479248 2.978800058364868 2.927799940109253 2.889800071716309 2.832600116729736 2.245      0.5935     2.703      0.6514     0.1766932  0.215      2.1786     42.0557    1          30.1514    0.3339     0.922265  
429.2      177.8326   215.9      215.1774   0.5176     486.1059   11.644     2.4162     2.9588     2.989799976348877 3.095999956130981 3.027199983596802 2.947799921035767 2.876399993896484 2.258      0.7345     2.5134     0.7338     0.1692239  0.215      2.1924     42.0221    1          30.1504    0.3157     0.9261063 
429.3      178.547    215.9      214.1954   0.5249     486.1102   11.7701    2.4014     2.9772     3.035799980163574 3.141400098800659 3.05679988861084 2.976599931716919 2.898400068283081 2.2398     0.8354     2.245      0.8257     0.1375939  0.215      2.2585     41.9866    1          30.1518    0.3095     0.9647433 
429.4      183.258    215.9      212.116    0.5176     468.3999   12.0541    2.3834     2.9916     2.939199924468994 3.082200050354004 3.037400007247925 2.97979998588562 2.900399923324585 2.2088     0.9683     2.1952     0.8512     0.1034511  0.215      2.3352     41.9392    1          30.1542    0.3039     1         
429.5      187.15     215.9      211.5618   0.5173     471.0108   12.457     2.367      2.9914     2.82699990272522 3.016799926757813 3.009399890899658 2.962399959564209 2.907000064849854 2.1818     0.9487     2.0412     0.8314     0.08043576 0.215      2.3945     41.8823    1          30.1556    0.2724     1         
429.6      188.23     215.9      211.5244   0.546      488.9312   12.8653    2.361      2.9556     2.832600116729736 3.029599905014038 3.004600048065186 2.947200059890747 2.932399988174438 2.173      0.8136     1.8448     0.784      0.06854255 0.215      2.4281     41.8235    1          30.156     0.2643     1         
429.7      189.1686   215.9      211.5902   0.5813     496.0779   13.1418    2.3722     2.9076     2.869600057601929 3.048399925231934 3.012799978256226 2.967600107192993 2.958800077438354 2.1762     0.7342     1.885      0.7565     0.06574848 0.2152     2.4423     41.7755    1          30.156     0.2756     1         
429.8      189.5398   215.9      211.6626   0.6198     491.4134   13.1483    2.3888     2.8572     2.858599901199341 3.047399997711182 3.033200025558472 3.006599903106689 2.984600067138672 2.1972     0.9043     1.949      0.8026     0.06313322 0.216      2.4465     41.7359    1          30.1584    0.2671     1         
429.9      190.3366   215.9      211.372    0.6564     483.9237   12.8548    2.4132     2.815      2.863199949264526 3.127599954605103 3.105400085449219 3.055000066757202 3.021600008010864 2.2362     0.9636     2.0146     0.8323     0.06199279 0.216      2.447      41.6915    1          30.16      0.2608     1         
430        192.912    215.9      211.0308   0.6773     551.3653   12.4125    2.458      2.782      2.979599952697754 3.246400117874146 3.195600032806396 3.123800039291382 3.073400020599365 2.2642     0.9833     2.0838     0.9007     0.06176356 0.2158     2.4444     41.6166    1          30.1606    0.2517     1         
430.1      195.2446   215.9      210.9876   0.6915     620.7019   11.9823    2.4986     2.758      3.02839994430542 3.303999900817871 3.256999969482422 3.18120002746582 3.117199897766113 2.2728     1.0255     2.0608     0.8729     0.06387123 0.2152     2.4398     41.5032    1          30.1616    0.2569     1         
430.2      195.7178   215.9      210.9758   0.7085     625.6664   11.7038    2.5438     2.7354     3.046799898147583 3.340800046920776 3.305200099945068 3.210799932479858 3.14680004119873 2.2518     0.9382     1.9856     0.8249     0.07961317 0.216      2.4359     41.3635    1          30.1626    0.27       0.9442483 
430.3      195.727    215.9      210.9726   0.7285     629.2891   11.6046    2.5978     2.7022     3.081799983978271 3.353800058364868 3.323400020599365 3.233999967575073 3.170000076293945 2.233      0.9361     1.9978     0.8236     0.08771119 0.2162     2.4368     41.2188    1          30.1636    0.2776     0.9143288 
430.4      195.9824   215.9      211.0064   0.7482     636.2943   11.6246    2.6518     2.6698     3.071799993515015 3.329600095748901 3.328000068664551 3.251399993896484 3.185400009155273 2.224      0.9271     2.0866     0.8231     0.08581448 0.217      2.4426     41.0732    1          30.1646    0.2843     0.9202901 
430.5      196.205    215.9      211.1058   0.766      606.5499   11.6781    2.7062     2.6474     3.04419994354248 3.335000038146973 3.3264000415802 3.259200096130371 3.179199934005737 2.219      0.9755     2.0828     0.8464     0.0789318  0.217      2.4496     40.9285    1          30.165     0.2782     0.9364116 
430.6      195.8012   215.9      211.1768   0.7815     563.2966   11.706     2.7632     2.6398     3.075400114059448 3.345200061798096 3.335400104522705 3.266999959945679 3.163800001144409 2.216      0.954      2.0438     0.8382     0.07471372 0.2168     2.4522     40.7885    1          30.1662    0.2698     0.9449219 
430.7      195.1066   215.9      211.2348   0.7933     548.1671   11.707     2.8194     2.636      3.058000087738037 3.335799932479858 3.323600053787231 3.255399942398071 3.158999919891357 2.219      1.0032     2.0598     0.9        0.07831018 0.216      2.4463     40.6745    1          30.1682    0.2809     0.9452282 
430.8      194.7484   215.9      211.2598   0.8053     550.225    11.7169    2.854      2.6428     3.066200017929077 3.31060004234314 3.273400068283081 3.223200082778931 3.134999990463257 2.2098     1.0153     2.04       0.8386     0.0820156  0.2158     2.4357     40.5931    1          30.1708    0.2884     0.9482657 
430.9      194.6392   215.9      211.098    0.8178     528.519    11.7245    2.8782     2.659      2.993599891662598 3.225199937820435 3.220200061798096 3.206000089645386 3.098400115966797 2.1838     0.9008     1.7784     0.7788     0.08303614 0.2148     2.43       40.5421    1          30.1714    0.2879     0.9506035 
431        194.1556   215.9      210.89     0.8284     517.4366   11.7181    2.8988     2.6852     2.883800029754639 3.154000043869019 3.203399896621704 3.160599946975708 3.071000099182129 2.1608     0.8709     1.634      0.7613     0.08535843 0.2138     2.4315     40.5194    1          30.171     0.3007     0.9486342 
431.1      193.3198   215.9      210.824    0.8338     515.7175   11.6953    2.9168     2.7184     2.863199949264526 3.18179988861084 3.176399946212769 3.133800029754639 3.024399995803833 2.151      0.8429     1.7404     0.76       0.0852199  0.2128     2.4394     40.5422    1          30.1722    0.3036     0.9416499 
431.2      192.995    215.9      210.8178   0.8384     495.9278   11.6294    2.9296     2.7636     2.871200084686279 3.144799947738647 3.145800113677979 3.087800025939941 2.969599962234497 2.143      0.8625     1.8016     0.76       0.0797666  0.212      2.4509     40.6305    1          30.1742    0.2649     0.921726  
