~Version
 VERS              .         3.0                           : CWLS LOG ASCII STANDARD - VERSION 3.0
 WRAP              .         NO                            : ONE LINE PER DEPTH STEP
 DLM               .         SPACE                         : DELIMITING CHARACTER(SPACE TAB OR COMMA)
~Well Information
#_______________________________________________________________________________
#
#PARAMETER_NAME    .UNIT     VALUE                         : DESCRIPTION
#_______________________________________________________________________________
STRT               .M        0                             : First reference value
STOP               .M        868                           : Last reference value
STEP               .M        0.1                           : Step increment
NULL               .         -9999                         : Missing value
COMP               .                                       : Company
WELL               .         334                           : Well name
FLD                .         Каратобе                      : Field
LOC                .                                       : Location
SRVC               .         SCH                           : Service Company
CTRY               .                                       : Country
DATE               .         10/09/2023                    : Service Date
LATI               .         0                             : Latitude
LONG               .         0                             : Longitude
GDAT               .                                       : Geodetic Datum
ORIGINALWELLNAME   .         Каратобе 334                  : 
RWS                .         -999                          : Def_Rw
WST                .         -999                          : Def_Rwt
~Parameter Information Block
#_______________________________________________________________________________
#
#PARAMETER_NAME    .UNIT     VALUE                         : DESCRIPTION
#_______________________________________________________________________________
SET                .         Las                           : 
TLFamily_AZIM      .         Hole Azimuth                  : 
TLFamily_BSC       .         Bit Size                      : 
TLFamily_CALI      .         Caliper                       : 
TLFamily_DEPTH     .         Measured Depth                : 
TLFamily_DEVI      .         Hole Deviation                : 
TLFamily_DTP       .         Compressional Slowness        : 
TLFamily_GR        .         Russian Gamma Ray             : 
TLFamily_GZ3       .         Gradient 225                  : 
TLFamily_GZB       .         Gradient Inverted 225         : 
TLFamily_IKD1F3    .         Conductivity                  : 
TLFamily_IKD2F3    .         Conductivity                  : 
TLFamily_IKD3F3    .         Conductivity                  : 
TLFamily_IKD4F3    .         Conductivity                  : 
TLFamily_IKD5F3    .         Conductivity                  : 
TLFamily_LL3       .         Lateral Log Resistivity       : 
TLFamily_MINV      .         Micro Gradient Resistivity    : 
TLFamily_MLL       .         Micro Resistivity             : 
TLFamily_MNOR      .         Micro Resistivity             : 
TLFamily_PHI_FINAL .         Porosity                      : 
TLFamily_RB        .         Mud Resistivity               : 
TLFamily_RHOB      .         Bulk Density                  : 
TLFamily_SP        .         Spontaneous Potential         : 
TLFamily_SW_AR     .         Water Saturation              : 
TLFamily_TEMP      .         Temperature                   : 
TLFamily_TNPH      .         Neutron Porosity              : 
TLFamily_VSH_GR    .         Shale Volume                  : 
~Curve Information
#_______________________________________________________________________________
#
#LOGNAME           .UNIT     LOG_ID                        : DESCRIPTION
#_______________________________________________________________________________
DEPTH              .M                                      : DEPTH {F}
AZIM               .deg                                    : Azimuth {F}
BSC                .mm                                     : Nominal Caliper {F}
CALI               .mm                                     : Caliper {F}
DEVI               .deg                                    : Deviatiom {F}
DTP                .US/M                                   : Sonic travel time {F}
GR                 .мкР/ч                                  : GAMMA RAYS {F}
GZ3                .OHMM                                   : APP.RESISTIVITY BY LATERAL A2.0M0.5N {F}
GZB                .OHMM                                   : APP.RESISTIVITY BY LATERAL N0.5M2.0A {F}
IKD1F3             .OHMM                                   : Induction zonde IKD1F3 {F}
IKD2F3             .OHMM                                   : Induction zonde IKD2F3 {F}
IKD3F3             .OHMM                                   : Induction zonde IKD3F3 {F}
IKD4F3             .OHMM                                   : Induction zonde IKD4F3 {F}
IKD5F3             .OHMM                                   : Induction zonde IKD5F3 {F}
LL3                .OHMM                                   : APPAR.RESIST. LATEROLOG 3 ELECTRODES {F}
MINV               .OHMM                                   : MICROLATERAL A0.025M0.025N {F}
MLL                .OHMM                                   : MICROLATEROLOG {F}
MNOR               .OHMM                                   : MICRONORMAL A0.05M {F}
PHI_FINAL          .m3/m3                                  : Porosity {F}
RB                 .OHMM                                   : Mud Resistivity {F}
RHOB               .G/C3                                   : BULK DENSITY BY DGGL {F}
SP                 .mV                                     : Spontaneous Potential {F}
SW_AR              .m3/m3                                  :  {F}
TEMP               .C                                      : Formation Temperature {F}
TNPH               .V/V                                    : Neutron porosity {F}
VSH_GR             .unitless                               : Shale volume fraction from Gamma Ray {F}
~Ascii
# ...
668.8      195.8241   215.9      210.355    0.6727     352.0759   7.3027     8.5006     12.3142    6.023399829864502 7.260799884796143 9.890800476074219 11.79080009460449 11.87539958953857 7.2824     1.111      3.4522     1.0681     0.2648915  0.271      2.3926     51.1084    0.3717895  33.7415    0.3339     0.1684161 
668.9      195.3596   215.9      210.2554   0.6781     339.9089   6.9783     8.577      12.4026    6.163000106811523 7.417600154876709 10.05099964141846 11.71440029144287 11.92500019073486 7.3878     1.2175     3.6782     1.1938     0.2629912  0.2713     2.4034     51.1364    0.3715786  33.7418    0.342      0.1470199 
669        194.8882   215.9      210.1082   0.6905     349.3492   6.7554     8.652      12.493     6.704800128936768 7.819200038909912 10.28380012512207 11.81420040130615 12.18519973754883 7.4394     1.4972     4.3362     1.351      0.2700738  0.2717     2.4209     51.187     0.3604753  33.7412    0.3557     0.1333834 
669.1      194.2865   215.9      209.9894   0.7063     369.2675   6.7759     8.755      12.5454    6.836999893188477 7.895199775695801 10.3120002746582 12.07159996032715 12.32719993591309 7.4774     1.3236     4.4222     1.2626     0.2730033  0.271      2.4396     51.2281    0.3556263  33.7433    0.3446     0.134603  
669.2      193.2306   215.9      210.0648   0.704      368.4958   7.0515     8.8882     12.5642    6.491799831390381 7.789199829101563 10.42080020904541 12.35379981994629 12.35140037536621 7.5708     1.2893     4.1274     1.2375     0.2604193  0.2713     2.4525     51.2845    0.3703178  33.7471    0.3249     0.151683  
669.3      192.2651   215.9      210.3284   0.6817     362.5366   7.4744     9.016      12.5796    6.526199817657471 7.973800182342529 10.78499984741211 12.6028003692627 12.56560039520264 7.6224     1.3753     4.4742     1.3269     0.2468316  0.2717     2.4541     51.3974    0.3892713  33.7472    0.3154     0.1805348 
669.4      193.107    215.9      210.4954   0.6705     358.5024   7.8597     9.1494     12.6462    6.931000232696533 8.323800086975098 11.06879997253418 12.70279979705811 12.89680004119873 7.6372     1.3715     4.4014     1.3217     0.237633   0.2704     2.4453     51.5824    0.403916   33.7485    0.3097     0.2098986 
669.5      195.1819   215.9      210.5546   0.6721     359.0083   8.0515     9.2726     12.7664    7.090000152587891 8.299799919128418 10.98239994049072 12.67479991912842 13.0576000213623 7.625      1.2476     3.9266     1.2462     0.2379956  0.2696     2.4329     51.8345    0.4036493  33.749     0.3165     0.2257136 
669.6      195.4724   215.9      210.5072   0.6711     359.8957   7.9964     9.3652     12.8804    6.777400016784668 7.932400226593018 10.75559997558594 12.62460041046143 13.05539989471436 7.611      1.3321     3.879      1.301      0.243726   0.2716     2.4226     52.1234    0.3945505  33.7498    0.3226     0.2210848 
669.7      194.1304   215.9      210.3842   0.6676     361.6449   7.7608     9.3826     12.9878    6.622799873352051 7.858799934387207 10.7701997756958 12.71059989929199 13.13319969177246 7.5552     1.3727     4.2992     1.3188     0.2491228  0.2727     2.4189     52.4061    0.3875417  33.7516    0.3119     0.202063  
669.8      193.6222   215.9      210.344    0.6742     357.7907   7.5406     9.3408     13.1006    6.903999805450439 8.172200202941895 11.05819988250732 12.91880035400391 13.35739994049072 7.4774     1.3544     4.3748     1.3254     0.251981   0.2714     2.4202     52.6636    0.3852956  33.7536    0.3144     0.1853618 
669.9      193.7692   215.9      210.3664   0.6917     346.8541   7.4375     9.2844     13.1414    7.117800235748291 8.368800163269043 11.1761999130249 13.0629997253418 13.45899963378906 7.4298     1.3277     4.269      1.2351     0.2510504  0.27       2.4199     52.8558    0.3880611  33.7548    0.3291     0.1778821 
670        193.4055   215.9      210.371    0.7003     340.149    7.434      9.2568     13.1538    7.020999908447266 8.262599945068359 11.11999988555908 13.07600021362305 13.33300018310547 7.5        1.2872     4.5466     1.2232     0.2463812  0.2703     2.4122     52.9553    0.3934103  33.755     0.3124     0.1776318 
670.1      192.799    215.9      210.372    0.6985     344.1489   7.4354     9.272      13.179     6.935800075531006 8.166399955749512 10.97679996490479 12.93920040130615 13.2096004486084 7.6248     1.4027     4.8708     1.2581     0.2479715  0.2707     2.3959     52.9415    0.3874159  33.755     0.2794     0.1777319 
670.2      193.2614   215.9      210.3984   0.6973     349.3278   7.3469     9.2974     13.2532    6.974599838256836 8.174400329589844 10.81519985198975 12.70559978485107 13.18099975585938 7.692      1.2225     4.4366     1.2305     0.2547715  0.27       2.3832     52.8414    0.3752913  33.7566    0.2643     0.1714814 
670.3      194.5926   215.9      210.455    0.697      351.57     7.136      9.3512     13.3512    6.915200233459473 8.071999549865723 10.5629997253418 12.44859981536865 13.08720016479492 7.7022     1.2991     4.2464     1.2468     0.2586752  0.2704     2.3834     52.7427    0.3693631  33.7586    0.2527     0.1571836 
670.4      194.9465   215.9      210.4952   0.6967     348.6719   6.8397     9.4148     13.489     6.712200164794922 7.855199813842773 10.37779998779297 12.27280044555664 12.93080043792725 7.7454     1.2713     4.142      1.2076     0.2592765  0.271      2.3946     52.7489    0.367394   33.7582    0.2549     0.1384429 
670.5      194.4541   215.9      210.4686   0.6979     349.868    6.5961     9.3944     13.6884    6.597000122070313 7.773600101470947 10.29580020904541 12.20919990539551 12.85140037536621 7.754      1.3363     4.2182     1.293      0.261816   0.2706     2.4112     52.8837    0.3636122  33.758     0.2798     0.1241359 
670.6      194.4221   215.9      210.3548   0.7024     345.5894   6.5511     9.3118     13.9488    6.739999771118164 7.860000133514404 10.32120037078857 12.28960037231445 12.8858003616333 7.7506     1.4394     4.619      1.3516     0.2569179  0.2704     2.4266     53.0906    0.3706324  33.7596    0.2867     0.1215959 
670.7      194.8101   215.9      210.2484   0.7099     354.1723   6.7382     9.2154     14.22      6.833199977874756 7.907800197601318 10.40680027008057 12.48340034484863 12.93000030517578 7.7614     1.2961     4.5094     1.231      0.2534579  0.271      2.4339     53.2371    0.3754092  33.7632    0.2693     0.1323653 
670.8      195.0739   215.9      210.2706   0.7079     352.3331   7.0731     9.1358     14.4744    6.684800148010254 7.831600189208984 10.53040027618408 12.55780029296875 12.88659954071045 7.8024     1.1953     4.1456     1.2035     0.2472001  0.271      2.4259     53.2334    0.3838179  33.764     0.2529     0.153077  
670.9      195.2606   215.9      210.327    0.6958     340.0375   7.426      9.0492     14.701     6.617000102996826 7.797999858856201 10.55140018463135 12.54979991912842 12.82740020751953 7.8354     1.3768     4.4442     1.2839     0.2390143  0.271      2.4049     53.0876    0.3960585  33.7648    0.2443     0.1770608 
671        195.7183   215.9      210.3522   0.6887     342.6827   7.6909     8.9644     14.8888    6.748199939727783 7.844200134277344 10.47200012207031 12.54380035400391 12.81060028076172 7.8546     1.2954     4.4574     1.2399     0.2392354  0.271      2.3904     52.8753    0.3951692  33.7666    0.2434     0.1966518 
671.1      196.3316   215.9      210.3356   0.6871     348.8476   7.8018     8.904      14.9924    6.724800109863281 7.825200080871582 10.35400009155273 12.42479991912842 12.68019962310791 7.9088     1.3587     4.5288     1.3006     0.2386834  0.2706     2.3953     52.682     0.3946137  33.7694    0.2438     0.2052855 
671.2      196.2871   215.9      210.3354   0.681      357.7435   7.7331     8.8756     15.0206    6.644199848175049 7.786799907684326 10.36040019989014 12.34659957885742 12.56859970092773 8.078      1.3184     4.6566     1.2855     0.2382941  0.2696     2.416      52.5362    0.3907615  33.7716    0.2409     0.1999062 
