~Version
 VERS              .         3.0                           : CWLS LOG ASCII STANDARD - VERSION 3.0
 WRAP              .         NO                            : ONE LINE PER DEPTH STEP
 DLM               .         SPACE                         : DELIMITING CHARACTER(SPACE TAB OR COMMA)
~Well Information
#_______________________________________________________________________________
#
#PARAMETER_NAME    .UNIT     VALUE                         : DESCRIPTION
#_______________________________________________________________________________
STRT               .M        0                             : First reference value
STOP               .M        868                           : Last reference value
STEP               .M        0.1                           : Step increment
NULL               .         -9999                         : Missing value
COMP               .                                       : Company
WELL               .         334                           : Well name
FLD                .         Каратобе                      : Field
LOC                .                                       : Location
SRVC               .         SCH                           : Service Company
CTRY               .                                       : Country
DATE               .         10/09/2023                    : Service Date
LATI               .         0                             : Latitude
LONG               .         0                             : Longitude
GDAT               .                                       : Geodetic Datum
ORIGINALWELLNAME   .         Каратобе 334                  : 
RWS                .         -999                          : Def_Rw
WST                .         -999                          : Def_Rwt
~Parameter Information Block
#_______________________________________________________________________________
#
#PARAMETER_NAME    .UNIT     VALUE                         : DESCRIPTION
#_______________________________________________________________________________
SET                .         Las                           : 
TLFamily_AZIM      .         Hole Azimuth                  : 
TLFamily_BSC       .         Bit Size                      : 
TLFamily_CALI      .         Caliper                       : 
TLFamily_DEPTH     .         Measured Depth                : 
TLFamily_DEVI      .         Hole Deviation                : 
TLFamily_DTP       .         Compressional Slowness        : 
TLFamily_GR        .         Russian Gamma Ray             : 
TLFamily_GZ3       .         Gradient 225                  : 
TLFamily_GZB       .         Gradient Inverted 225         : 
TLFamily_IKD1F3    .         Conductivity                  : 
TLFamily_IKD2F3    .         Conductivity                  : 
TLFamily_IKD3F3    .         Conductivity                  : 
TLFamily_IKD4F3    .         Conductivity                  : 
TLFamily_IKD5F3    .         Conductivity                  : 
TLFamily_LL3       .         Lateral Log Resistivity       : 
TLFamily_MINV      .         Micro Gradient Resistivity    : 
TLFamily_MLL       .         Micro Resistivity             : 
TLFamily_MNOR      .         Micro Resistivity             : 
TLFamily_PHI_FINAL .         Porosity                      : 
TLFamily_RB        .         Mud Resistivity               : 
TLFamily_RHOB      .         Bulk Density                  : 
TLFamily_SP        .         Spontaneous Potential         : 
TLFamily_SW_AR     .         Water Saturation              : 
TLFamily_TEMP      .         Temperature                   : 
TLFamily_TNPH      .         Neutron Porosity              : 
TLFamily_VSH_GR    .         Shale Volume                  : 
~Curve Information
#_______________________________________________________________________________
#
#LOGNAME           .UNIT     LOG_ID                        : DESCRIPTION
#_______________________________________________________________________________
DEPTH              .M                                      : DEPTH {F}
AZIM               .deg                                    : Azimuth {F}
BSC                .mm                                     : Nominal Caliper {F}
CALI               .mm                                     : Caliper {F}
DEVI               .deg                                    : Deviatiom {F}
DTP                .US/M                                   : Sonic travel time {F}
GR                 .мкР/ч                                  : GAMMA RAYS {F}
GZ3                .OHMM                                   : APP.RESISTIVITY BY LATERAL A2.0M0.5N {F}
GZB                .OHMM                                   : APP.RESISTIVITY BY LATERAL N0.5M2.0A {F}
IKD1F3             .OHMM                                   : Induction zonde IKD1F3 {F}
IKD2F3             .OHMM                                   : Induction zonde IKD2F3 {F}
IKD3F3             .OHMM                                   : Induction zonde IKD3F3 {F}
IKD4F3             .OHMM                                   : Induction zonde IKD4F3 {F}
IKD5F3             .OHMM                                   : Induction zonde IKD5F3 {F}
LL3                .OHMM                                   : APPAR.RESIST. LATEROLOG 3 ELECTRODES {F}
MINV               .OHMM                                   : MICROLATERAL A0.025M0.025N {F}
MLL                .OHMM                                   : MICROLATEROLOG {F}
MNOR               .OHMM                                   : MICRONORMAL A0.05M {F}
PHI_FINAL          .m3/m3                                  : Porosity {F}
RB                 .OHMM                                   : Mud Resistivity {F}
RHOB               .G/C3                                   : BULK DENSITY BY DGGL {F}
SP                 .mV                                     : Spontaneous Potential {F}
SW_AR              .m3/m3                                  :  {F}
TEMP               .C                                      : Formation Temperature {F}
TNPH               .V/V                                    : Neutron porosity {F}
VSH_GR             .unitless                               : Shale volume fraction from Gamma Ray {F}
~Ascii
# ...
137.2      -9999      228.7      229.5102   0.6793     2753.9919  5.8501     0.0112     0.031      -9999      -9999      -9999      -9999      -9999      -9999      0.1033     -9999      0.0754     -9999      0.2208     -9999      -9999      -9999      24.82      0.373      0.3813929 
137.3      -9999      228.7      229.508    0.6935     2726.0703  5.9013     0.012      0.0308     -9999      -9999      -9999      -9999      -9999      -9999      0.1057     -9999      0.0866     -9999      0.22       -9999      -9999      -9999      24.82      0.3741     0.3896261 
137.4      -9999      228.7      229.4772   0.7115     2584.8784  5.7684     0.0118     0.0302     -9999      -9999      -9999      -9999      -9999      -9999      0.1141     -9999      0.088      -9999      0.22       -9999      -9999      -9999      24.822     0.3864     0.368551  
137.5      -9999      228.7      229.4666   0.7229     2201.5359  5.5885     0.0114     0.0312     -9999      -9999      -9999      -9999      -9999      -9999      0.07       -9999      0.0826     -9999      0.2204     -9999      -9999      -9999      24.825     0.3823     0.3415117 
137.6      -9999      228.7      229.3892   0.7473     2001.8943  5.4791     0.013      0.0318     -9999      -9999      -9999      -9999      -9999      -9999      0.0524     -9999      0.1288     -9999      0.222      -9999      -9999      -9999      24.828     0.3796     0.3258668 
137.7      -9999      228.7      229.2304   0.77       1972.7488  5.5247     0.0128     0.0312     -9999      -9999      -9999      -9999      -9999      -9999      0.1068     -9999      0.0296     -9999      0.2224     -9999      -9999      -9999      24.831     0.3703     0.3323166 
137.8      -9999      228.7      229.1486   0.7951     1723.528   5.7047     0.0122     0.0318     -9999      -9999      -9999      -9999      -9999      -9999      0.1094     -9999      0.0738     -9999      0.225      -9999      -9999      -9999      24.832     0.355      0.3587852 
137.9      -9999      228.7      229.1364   0.8224     1640.4688  5.9015     0.013      0.031      -9999      -9999      -9999      -9999      -9999      -9999      0.0991     -9999      0.0125     -9999      0.228      -9999      -9999      -9999      24.832     0.3361     0.3896586 
138        -9999      228.7      229.5418   0.8596     1658.0944  5.9861     0.0128     0.031      -9999      -9999      -9999      -9999      -9999      -9999      0.0998     -9999      0.0527     -9999      0.2234     -9999      -9999      -9999      24.832     0.3093     0.4035848 
138.1      -9999      228.7      229.6128   0.882      1712.8145  5.8748     0.012      0.0308     -9999      -9999      -9999      -9999      -9999      -9999      0.1108     -9999      0.0733     -9999      0.2206     -9999      -9999      -9999      24.838     0.3007     0.3853467 
138.2      -9999      228.7      226.6342   0.8884     1746.712   5.6547     0.0118     0.03       -9999      -9999      -9999      -9999      -9999      -9999      0.094      -9999      0.0867     -9999      0.219      -9999      -9999      -9999      24.84      0.3099     0.351268  
138.3      -9999      228.7      224.538    0.9127     1695.088   5.462      0.011      0.0304     -9999      -9999      -9999      -9999      -9999      -9999      0.0965     -9999      0.0736     -9999      0.2192     -9999      -9999      -9999      24.84      0.3135     0.323474  
138.4      -9999      228.7      227.3246   0.9747     1653.9904  5.3717     0.011      0.0318     -9999      -9999      -9999      -9999      -9999      -9999      0.0952     -9999      0.0558     -9999      0.22       -9999      -9999      -9999      24.842     0.3113     0.3110688 
138.5      -9999      228.7      228.9468   1.0385     1599.8896  5.3718     0.0114     0.031      -9999      -9999      -9999      -9999      -9999      -9999      0.095      -9999      0.0855     -9999      0.22       -9999      -9999      -9999      24.842     0.3024     0.3110824 
138.6      -9999      228.7      229.1976   1.0567     1562.3488  5.3976     0.0128     0.031      -9999      -9999      -9999      -9999      -9999      -9999      0.095      -9999      0.0881     -9999      0.22       -9999      -9999      -9999      24.845     0.2909     0.3145877 
138.7      -9999      228.7      229.106    1.0507     1596.3328  5.4012     0.012      0.0306     -9999      -9999      -9999      -9999      -9999      -9999      0.1058     -9999      0.088      -9999      0.22       -9999      -9999      -9999      24.847     0.287      0.3150792 
138.8      -9999      228.7      229.0668   1.0362     1610.0848  5.3875     0.012      0.0292     -9999      -9999      -9999      -9999      -9999      -9999      0.0962     -9999      0.0547     -9999      0.2202     -9999      -9999      -9999      24.846     0.2727     0.3132117 
138.9      -9999      228.7      228.9668   1.0282     1650.2321  5.418      0.0122     0.0298     -9999      -9999      -9999      -9999      -9999      -9999      0.095      -9999      0.0654     -9999      0.2212     -9999      -9999      -9999      24.851     0.2348     0.3173814 
139        -9999      228.7      228.8158   1.026      1663.6096  5.4996     0.0128     0.0288     -9999      -9999      -9999      -9999      -9999      -9999      0.095      -9999      0.0823     -9999      0.2216     -9999      -9999      -9999      24.854     0.2249     0.3287539 
139.1      -9999      228.7      228.7422   1.0251     1572.04    5.5924     0.0122     0.0282     -9999      -9999      -9999      -9999      -9999      -9999      0.095      -9999      0.0714     -9999      0.22       -9999      -9999      -9999      24.856     0.2427     0.3420804 
139.2      -9999      228.7      228.6954   1.0276     1541.5408  5.6502     0.013      0.0292     -9999      -9999      -9999      -9999      -9999      -9999      0.086      -9999      0.0781     -9999      0.22       -9999      -9999      -9999      24.858     0.2518     0.3505978 
139.3      -9999      228.7      228.6816   1.0275     1570.3408  5.6451     0.0128     0.0302     -9999      -9999      -9999      -9999      -9999      -9999      0.0967     -9999      0.0502     -9999      0.22       -9999      -9999      -9999      24.857     0.255      0.3498395 
139.4      -9999      228.7      228.704    1.0269     1630.1729  5.5687     0.0122     0.0308     -9999      -9999      -9999      -9999      -9999      -9999      0.0917     -9999      0.0614     -9999      0.22       -9999      -9999      -9999      24.857     0.2527     0.3386365 
139.5      -9999      228.7      228.7216   1.0327     1633.1392  5.4196     0.013      0.03       -9999      -9999      -9999      -9999      -9999      -9999      0.0874     -9999      0.0486     -9999      0.2202     -9999      -9999      -9999      24.86      0.2524     0.3176013 
139.6      -9999      228.7      228.736    1.0342     1668.736   5.2189     0.0128     0.0298     -9999      -9999      -9999      -9999      -9999      -9999      0.0879     -9999      0.0668     -9999      0.221      -9999      -9999      -9999      24.862     0.2535     0.2909338 
139.7      -9999      228.7      228.7398   1.0327     1701.0928  5.0563     0.012      0.029      -9999      -9999      -9999      -9999      -9999      -9999      0.0871     -9999      0.0798     -9999      0.221      -9999      -9999      -9999      24.865     0.2392     0.2706361 
139.8      -9999      228.7      228.7224   1.0327     1694.584   4.9753     0.012      0.0288     -9999      -9999      -9999      -9999      -9999      -9999      0.0942     -9999      0.0486     -9999      0.221      -9999      -9999      -9999      24.867     0.2503     0.2609395 
139.9      -9999      228.7      228.702    1.0229     1679.4928  4.9506     0.012      0.0282     -9999      -9999      -9999      -9999      -9999      -9999      0.1058     -9999      0.0783     -9999      0.2212     -9999      -9999      -9999      24.87      0.2846     0.258036  
