~Version
 VERS              .         3.0                           : CWLS LOG ASCII STANDARD - VERSION 3.0
 WRAP              .         NO                            : ONE LINE PER DEPTH STEP
 DLM               .         SPACE                         : DELIMITING CHARACTER(SPACE TAB OR COMMA)
~Well Information
#_______________________________________________________________________________
#
#PARAMETER_NAME    .UNIT     VALUE                         : DESCRIPTION
#_______________________________________________________________________________
STRT               .M        0                             : First reference value
STOP               .M        868                           : Last reference value
STEP               .M        0.1                           : Step increment
NULL               .         -9999                         : Missing value
COMP               .                                       : Company
WELL               .         334                           : Well name
FLD                .         Каратобе                      : Field
LOC                .                                       : Location
SRVC               .         SCH                           : Service Company
CTRY               .                                       : Country
DATE               .         10/09/2023                    : Service Date
LATI               .         0                             : Latitude
LONG               .         0                             : Longitude
GDAT               .                                       : Geodetic Datum
ORIGINALWELLNAME   .         Каратобе 334                  : 
RWS                .         -999                          : Def_Rw
WST                .         -999                          : Def_Rwt
~Parameter Information Block
#_______________________________________________________________________________
#
#PARAMETER_NAME    .UNIT     VALUE                         : DESCRIPTION
#_______________________________________________________________________________
SET                .         Las                           : 
TLFamily_AZIM      .         Hole Azimuth                  : 
TLFamily_BSC       .         Bit Size                      : 
TLFamily_CALI      .         Caliper                       : 
TLFamily_DEPTH     .         Measured Depth                : 
TLFamily_DEVI      .         Hole Deviation                : 
TLFamily_DTP       .         Compressional Slowness        : 
TLFamily_GR        .         Russian Gamma Ray             : 
TLFamily_GZ3       .         Gradient 225                  : 
TLFamily_GZB       .         Gradient Inverted 225         : 
TLFamily_IKD1F3    .         Conductivity                  : 
TLFamily_IKD2F3    .         Conductivity                  : 
TLFamily_IKD3F3    .         Conductivity                  : 
TLFamily_IKD4F3    .         Conductivity                  : 
TLFamily_IKD5F3    .         Conductivity                  : 
TLFamily_LL3       .         Lateral Log Resistivity       : 
TLFamily_MINV      .         Micro Gradient Resistivity    : 
TLFamily_MLL       .         Micro Resistivity             : 
TLFamily_MNOR      .         Micro Resistivity             : 
TLFamily_PHI_FINAL .         Porosity                      : 
TLFamily_RB        .         Mud Resistivity               : 
TLFamily_RHOB      .         Bulk Density                  : 
TLFamily_SP        .         Spontaneous Potential         : 
TLFamily_SW_AR     .         Water Saturation              : 
TLFamily_TEMP      .         Temperature                   : 
TLFamily_TNPH      .         Neutron Porosity              : 
TLFamily_VSH_GR    .         Shale Volume                  : 
~Curve Information
#_______________________________________________________________________________
#
#LOGNAME           .UNIT     LOG_ID                        : DESCRIPTION
#_______________________________________________________________________________
DEPTH              .M                                      : DEPTH {F}
AZIM               .deg                                    : Azimuth {F}
BSC                .mm                                     : Nominal Caliper {F}
CALI               .mm                                     : Caliper {F}
DEVI               .deg                                    : Deviatiom {F}
DTP                .US/M                                   : Sonic travel time {F}
GR                 .мкР/ч                                  : GAMMA RAYS {F}
GZ3                .OHMM                                   : APP.RESISTIVITY BY LATERAL A2.0M0.5N {F}
GZB                .OHMM                                   : APP.RESISTIVITY BY LATERAL N0.5M2.0A {F}
IKD1F3             .OHMM                                   : Induction zonde IKD1F3 {F}
IKD2F3             .OHMM                                   : Induction zonde IKD2F3 {F}
IKD3F3             .OHMM                                   : Induction zonde IKD3F3 {F}
IKD4F3             .OHMM                                   : Induction zonde IKD4F3 {F}
IKD5F3             .OHMM                                   : Induction zonde IKD5F3 {F}
LL3                .OHMM                                   : APPAR.RESIST. LATEROLOG 3 ELECTRODES {F}
MINV               .OHMM                                   : MICROLATERAL A0.025M0.025N {F}
MLL                .OHMM                                   : MICROLATEROLOG {F}
MNOR               .OHMM                                   : MICRONORMAL A0.05M {F}
PHI_FINAL          .m3/m3                                  : Porosity {F}
RB                 .OHMM                                   : Mud Resistivity {F}
RHOB               .G/C3                                   : BULK DENSITY BY DGGL {F}
SP                 .mV                                     : Spontaneous Potential {F}
SW_AR              .m3/m3                                  :  {F}
TEMP               .C                                      : Formation Temperature {F}
TNPH               .V/V                                    : Neutron porosity {F}
VSH_GR             .unitless                               : Shale volume fraction from Gamma Ray {F}
~Ascii
# ...
763.8      98.745     215.9      216.427    0.0807     259.147    4.6853     3.1008     8.4418     2.709800004959106 2.772200107574463 2.815000057220459 2.936000108718872 3.053600072860718 2.6432     1.5578     3.811      1.0269     0.1565064  0.2676     2.7774     51.6542    1          34.771     0.2628     0.03739771
763.9      99.8076    215.9      215.8942   0.0564     266.7525   4.5329     2.8242     8.7534     2.723999977111816 2.76360011100769 2.836999893188477 2.950599908828735 3.028000116348267 2.788      0.6689     3.7982     0.6177     0.1601968  0.2664     2.7863     51.4195    1          34.7711    0.2598     0.03047775
764        98.537     215.9      218.2444   0.0478     244.6778   4.4242     2.6076     9.0776     2.621599912643433 2.714799880981445 2.813199996948242 2.913800001144409 2.985199928283691 2.932      0.4625     3.3828     0.6216     0.1441138  0.2672     2.7838     51.1374    1          34.7731    0.2472     0.02578643
764.1      100.8744   215.9      218.8768   0.0476     259.1856   4.3342     2.493      9.3874     2.542999982833862 2.65339994430542 2.729599952697754 2.842200040817261 2.934200048446655 3.0932     1.3762     2.9122     0.8034     0.1568169  0.2642     2.7732     50.8452    0.9976568  34.775     0.2383     0.02204929
764.2      118.6934   215.9      217.1634   0.0727     257.3207   4.2206     2.434      9.5898     2.50219988822937 2.573600053787231 2.635200023651123 2.787400007247925 2.897599935531616 3.2614     0.8274     3.0546     0.7285     0.1603808  0.2656     2.7537     50.562     0.9479629  34.774     0.2294     0.01751493
764.3      140.506    215.9      221.1576   0.1025     240.5278   4.0492     2.404      9.7196     2.424200057983398 2.531800031661987 2.593600034713745 2.746000051498413 2.880000114440918 3.4392     0.7073     3.1558     0.9394     0.1568956  0.268      2.7198     50.2635    0.9416115  34.774     0.2177     0.01104117
764.4      172.776    215.9      225.2924   0.1427     243.8204   3.8057     2.3998     9.771      2.491400003433228 2.614599943161011 2.668400049209595 2.793200016021729 2.918200016021729 3.5882     2.0349     2.9494     2.1835     0.1702034  0.2676     2.6813     49.9484    0.8483164  34.774     0.2077     0.002554598
764.5      202.023    215.9      218.8014   0.1773     255.0485   3.5151     2.423      9.7202     2.706399917602539 2.799200057983398 2.855400085449219 2.934000015258789 3.032999992370605 3.6278     1.7978     2.8614     1.8951     0.1837717  0.2666     2.6594     49.6533    0.7810358  34.7731    0.2002     0         
764.6      217.3154   215.9      214.226    0.1856     266.5338   3.2541     2.4656     9.6032     2.850199937820435 3.006400108337402 3.062599897384644 3.105200052261353 3.168600082397461 3.7574     1.5993     2.8496     2.0172     0.1882899  0.2692     2.663      49.4099    0.747967   34.775     0.1856     0         
764.7      227.8876   215.9      212.7292   0.1955     225.96     3.0729     2.5212     9.4772     3.004400014877319 3.199599981307983 3.276000022888184 3.32699990272522 3.340199947357178 3.9578     2.032      3.5698     1.9451     0.1494287  0.2694     2.6846     49.2236    0.916384   34.774     0.1694     0         
764.8      219.815    215.9      213.0132   0.2225     182.5009   2.9664     2.5894     9.373      3.249799966812134 3.405400037765503 3.510799884796143 3.566200017929077 3.575799942016602 4.1772     1.1487     3.7386     1.8351     0.1050182  0.2676     2.7082     49.0809    1          34.7741    0.1593     0         
764.9      213.9308   215.9      213.1026   0.2455     190.4965   2.9028     2.6752     9.314      3.495800018310547 3.641000032424927 3.752000093460083 3.797199964523315 3.850600004196167 4.3236     2.1736     5.6538     2.7672     0.1055646  0.2698     2.7154     48.9547    1          34.776     0.1523     0         
765        218.8398   215.9      213.3456   0.2545     208.1725   2.8655     2.8        9.2874     3.760799884796143 3.867000102996826 4.017600059509277 4.089600086212158 4.125199794769287 4.4022     2.4592     8.5166     2.4202     0.1268955  0.269      2.6976     48.8371    1          34.7771    0.1483     0         
765.1      223.2626   215.9      213.4636   0.264      250.6927   2.8834     2.9434     9.2996     4.003399848937988 4.099400043487549 4.276999950408936 4.38539981842041 4.394400119781494 4.4392     1.6796     6.3684     1.9299     0.1687141  0.269      2.6714     48.7177    0.7628053  34.7791    0.1486     0         
765.2      225.2262   215.9      213.417    0.2749     222.3588   3.0321     3.104      9.3308     4.371200084686279 4.449399948120117 4.59060001373291 4.687600135803223 4.706200122833252 4.456      2.3362     5.3508     3.0357     0.1493738  0.269      2.6648     48.5993    0.8598127  34.781     0.1542     0         
765.3      226.7216   215.9      213.4758   0.2847     321.7398   3.3131     3.2796     9.3484     4.993199825286865 4.896200180053711 4.94379997253418 5.046999931335449 5.054999828338623 4.4414     3.0589     9.7174     3.7994     0.2110475  0.2696     2.6896     48.49      0.6096332  34.781     0.1657     0         
765.4      226.8286   215.9      213.2334   0.29       409.8456   3.5809     3.458      9.3312     5.439000129699707 5.295000076293945 5.351399898529053 5.390399932861328 5.401400089263916 4.3768     2.563      13.5546    3.3201     0.2235268  0.2722     2.7354     48.3805    0.5801746  34.781     0.1734     0         
765.5      226.066    215.9      212.9742   0.2933     390.0946   3.7156     3.639      9.2694     5.739799976348877 5.75439977645874 5.86299991607666 5.733399868011475 5.759600162506104 4.3572     2.6377     13.5768    2.2429     0.2114924  0.2728     2.7809     48.2647    0.6146772  34.781     0.1762     0         
765.6      223.1168   215.9      212.8526   0.2918     318.3058   3.7155     3.8252     9.171      6.324999809265137 6.192599773406982 6.231200218200684 6.087200164794922 6.042200088500977 4.3874     1.9762     14.5154    2.3676     0.180529   0.2716     2.8022     48.1587    0.7174199  34.7811    0.1798     0         
765.7      222.3484   215.9      212.5648   0.2929     258.684    3.664      4.0152     9.0598     6.467800140380859 6.39739990234375 6.526000022888184 6.361199855804443 6.242000102996826 4.4624     2.4464     15.016     2.7288     0.1447219  0.2698     2.7985     48.0843    0.8867618  34.7819    0.1805     0         
765.8      226.3484   215.9      212.4698   0.2985     215.6322   3.6532     4.207      8.9998     6.547200202941895 6.644800186157227 6.844600200653076 6.512199878692627 6.426000118255615 4.643      2.129      15.5574    3.3438     0.108737   0.2692     2.8031     48.0608    1          34.7801    0.1733     0         
765.9      228.9608   215.9      212.5176   0.3056     185.832    3.7307     4.4244     9.0214     7.08080005645752 6.957799911499023 6.993400096893311 6.598599910736084 6.564599990844727 4.7826     3.3497     14.053     3.6195     0.07482442 0.27       2.8206     48.0535    1          34.7811    0.1629     0.0000983 
766        228.9354   215.9      212.5948   0.3158     181.4033   3.8551     4.6512     9.1282     7.208799839019775 6.890399932861328 6.93720006942749 6.66540002822876 6.683199882507324 4.8316     2.6008     11.994     2.3857     0.07068522 0.269      2.8338     48.0104    1          34.7841    0.1622     0.004212019
766.1      228.9162   215.9      212.7412   0.3271     183.6027   3.9484     4.8816     9.2938     6.541200160980225 6.573599815368652 6.822400093078613 6.76200008392334 6.745800018310547 4.7468     2.0331     11.175     2.0714     0.07110962 0.2658     2.8363     47.8985    1          34.7859    0.1712     0.007430432
766.2      228.9728   215.9      212.5308   0.3391     232.7466   3.9632     5.1188     9.4524     6.272799968719482 6.557400226593018 7          7.013800144195557 6.842599868774414 4.596      1.6129     9.8144     2.25       0.1151604  0.2694     2.8335     47.7164    1          34.7851    0.1866     0.007951779
