~Version
 VERS              .         3.0                           : CWLS LOG ASCII STANDARD - VERSION 3.0
 WRAP              .         NO                            : ONE LINE PER DEPTH STEP
 DLM               .         SPACE                         : DELIMITING CHARACTER(SPACE TAB OR COMMA)
~Well Information
#_______________________________________________________________________________
#
#PARAMETER_NAME    .UNIT     VALUE                         : DESCRIPTION
#_______________________________________________________________________________
STRT               .M        0                             : First reference value
STOP               .M        868                           : Last reference value
STEP               .M        0.1                           : Step increment
NULL               .         -9999                         : Missing value
COMP               .                                       : Company
WELL               .         334                           : Well name
FLD                .         Каратобе                      : Field
LOC                .                                       : Location
SRVC               .         SCH                           : Service Company
CTRY               .                                       : Country
DATE               .         10/09/2023                    : Service Date
LATI               .         0                             : Latitude
LONG               .         0                             : Longitude
GDAT               .                                       : Geodetic Datum
ORIGINALWELLNAME   .         Каратобе 334                  : 
RWS                .         -999                          : Def_Rw
WST                .         -999                          : Def_Rwt
~Parameter Information Block
#_______________________________________________________________________________
#
#PARAMETER_NAME    .UNIT     VALUE                         : DESCRIPTION
#_______________________________________________________________________________
SET                .         Las                           : 
TLFamily_AZIM      .         Hole Azimuth                  : 
TLFamily_BSC       .         Bit Size                      : 
TLFamily_CALI      .         Caliper                       : 
TLFamily_DEPTH     .         Measured Depth                : 
TLFamily_DEVI      .         Hole Deviation                : 
TLFamily_DTP       .         Compressional Slowness        : 
TLFamily_GR        .         Russian Gamma Ray             : 
TLFamily_GZ3       .         Gradient 225                  : 
TLFamily_GZB       .         Gradient Inverted 225         : 
TLFamily_IKD1F3    .         Conductivity                  : 
TLFamily_IKD2F3    .         Conductivity                  : 
TLFamily_IKD3F3    .         Conductivity                  : 
TLFamily_IKD4F3    .         Conductivity                  : 
TLFamily_IKD5F3    .         Conductivity                  : 
TLFamily_LL3       .         Lateral Log Resistivity       : 
TLFamily_MINV      .         Micro Gradient Resistivity    : 
TLFamily_MLL       .         Micro Resistivity             : 
TLFamily_MNOR      .         Micro Resistivity             : 
TLFamily_PHI_FINAL .         Porosity                      : 
TLFamily_RB        .         Mud Resistivity               : 
TLFamily_RHOB      .         Bulk Density                  : 
TLFamily_SP        .         Spontaneous Potential         : 
TLFamily_SW_AR     .         Water Saturation              : 
TLFamily_TEMP      .         Temperature                   : 
TLFamily_TNPH      .         Neutron Porosity              : 
TLFamily_VSH_GR    .         Shale Volume                  : 
~Curve Information
#_______________________________________________________________________________
#
#LOGNAME           .UNIT     LOG_ID                        : DESCRIPTION
#_______________________________________________________________________________
DEPTH              .M                                      : DEPTH {F}
AZIM               .deg                                    : Azimuth {F}
BSC                .mm                                     : Nominal Caliper {F}
CALI               .mm                                     : Caliper {F}
DEVI               .deg                                    : Deviatiom {F}
DTP                .US/M                                   : Sonic travel time {F}
GR                 .мкР/ч                                  : GAMMA RAYS {F}
GZ3                .OHMM                                   : APP.RESISTIVITY BY LATERAL A2.0M0.5N {F}
GZB                .OHMM                                   : APP.RESISTIVITY BY LATERAL N0.5M2.0A {F}
IKD1F3             .OHMM                                   : Induction zonde IKD1F3 {F}
IKD2F3             .OHMM                                   : Induction zonde IKD2F3 {F}
IKD3F3             .OHMM                                   : Induction zonde IKD3F3 {F}
IKD4F3             .OHMM                                   : Induction zonde IKD4F3 {F}
IKD5F3             .OHMM                                   : Induction zonde IKD5F3 {F}
LL3                .OHMM                                   : APPAR.RESIST. LATEROLOG 3 ELECTRODES {F}
MINV               .OHMM                                   : MICROLATERAL A0.025M0.025N {F}
MLL                .OHMM                                   : MICROLATEROLOG {F}
MNOR               .OHMM                                   : MICRONORMAL A0.05M {F}
PHI_FINAL          .m3/m3                                  : Porosity {F}
RB                 .OHMM                                   : Mud Resistivity {F}
RHOB               .G/C3                                   : BULK DENSITY BY DGGL {F}
SP                 .mV                                     : Spontaneous Potential {F}
SW_AR              .m3/m3                                  :  {F}
TEMP               .C                                      : Formation Temperature {F}
TNPH               .V/V                                    : Neutron porosity {F}
VSH_GR             .unitless                               : Shale volume fraction from Gamma Ray {F}
~Ascii
# ...
716.3      196.5028   215.9      209.8646   0.5853     238.8858   7.3799     3.9752     2.4626     4.162799835205078 4.092400074005127 4.10200023651123 3.962399959564209 3.909800052642822 2.926      1.4987     7.4524     1.6005     0.1305293  0.2098     2.6723     43.791     1          34.2784    0.2758     0.2598905 
716.4      196.8958   215.9      209.7732   0.5949     208.2754   7.5844     4.0394     2.4282     4.200399875640869 4.148799896240234 4.211999893188477 4.060599803924561 3.996000051498413 2.8002     1.8642     8.3672     1.5912     0.09773042 0.2088     2.7104     43.9462    1          34.279     0.2889     0.2882372 
716.5      197.1904   215.9      209.751    0.6118     185.5276   7.5602     4.0392     2.3846     4.429200172424316 4.228799819946289 4.306600093841553 4.159800052642822 4.060999870300293 2.6994     1.866      13.2336    1.9351     0.09181803 0.207      2.743      44.1508    1          34.2794    0.3057     0.2847641 
716.6      197.484    215.9      209.8136   0.6396     203.4652   7.4759     3.9752     2.3474     4.443999767303467 4.336800098419189 4.275400161743164 4.157400131225586 4.082399845123291 2.6502     2.068      15.2394    2.2214     0.08550011 0.2026     2.7703     44.3501    1          34.2804    0.307      0.2729174 
716.7      198.05     215.9      210.0248   0.6925     226.4873   7.539      3.937      2.3358     4.612400054931641 4.420199871063232 4.286399841308594 4.123000144958496 4.060599803924561 2.7032     1.9524     12.3636    2.0456     0.08524363 0.201      2.7835     44.5072    1          34.2826    0.2726     0.2817482 
716.8      198.5542   215.9      210.413    0.7505     274.6237   7.8338     3.926      2.3572     4.673799991607666 4.301199913024902 4.171199798583984 4.044000148773193 3.898200035095215 2.8496     2.0918     9.6426     1.8871     0.1082948  0.2008     2.7743     44.6138    1          34.285     0.2322     0.3259982 
716.9      197.8578   215.9      210.7126   0.7407     294.1776   8.2582     3.9274     2.4136     4.321599960327148 4.039000034332275 3.899399995803833 3.859999895095825 3.660799980163574 2.8816     1.4835     5.5436     1.4589     0.1137583  0.2        2.7455     44.699     1          34.285     0.2208     0.3992931 
717        195.9876   215.9      210.6484   0.6875     291.2494   8.6295     3.9086     2.49       3.97760009765625 3.846800088882446 3.670599937438965 3.560800075531006 3.53439998626709 2.6678     1.261      4.6004     1.2483     0.1109142  0.2        2.7108     44.7848    1          34.2862    0.234      0.4741135 
717.1      192.6758   215.9      210.4504   0.6675     298.9578   8.7828     3.8528     2.5546     3.801000118255615 3.615200042724609 3.411400079727173 3.302799940109253 3.411999940872192 2.3804     1.289      4.9864     1.194      0.1200534  0.2        2.6827     44.8833    1          34.2888    0.249      0.5082932 
717.2      189.6716   215.9      210.2486   0.6736     313.1655   8.6259     3.725      2.5918     3.388400077819824 3.200000047683716 3.150799989700317 3.193599939346313 3.225399971008301 2.1784     1.3408     3.8996     1.2296     0.141932   0.2        2.6621     44.9947    1          34.2908    0.2608     0.4733351 
717.3      192.364    215.9      210.0808   0.6829     263.6314   8.2382     3.5234     2.5998     2.849600076675415 2.954799890518188 3.049999952316284 3.081199884414673 3.030999898910522 2.143      1.202      4.717      1.2637     0.1278665  0.2        2.6503     45.1019    1          34.2924    0.2602     0.395561  
717.4      197.834    215.9      210.034    0.6927     259.55     7.8013     3.3176     2.5812     2.878599882125854 3.117599964141846 3.156199932098389 3.012200117111206 2.921600103378296 2.2926     1.6909     7.5994     1.7926     0.1342753  0.2006     2.6518     45.2013    1          34.2926    0.2397     0.3208677 
717.5      199.9668   215.9      210.0726   0.7018     312.9039   7.4858     3.218      2.5508     3.359999895095825 3.276599884033203 3.190799951553345 2.93560004234314 2.832799911499023 2.4962     1.7605     7.3896     1.8051     0.1690198  0.2036     2.6658     45.285     1          34.292     0.2218     0.2742886 
717.6      199.948    215.9      210.3186   0.7109     337.9153   7.3864     3.2044     2.5144     3.10479998588562 2.927200078964233 2.849200010299683 2.741600036621094 2.660399913787842 2.6534     1.8439     4.2396     1.5192     0.1805967  0.2064     2.6823     45.3464    0.9411679  34.2932    0.2228     0.2607573 
717.7      199.9162   215.9      211.8138   0.7202     362.1422   7.5104     3.2722     2.4768     2.437000036239624 2.503799915313721 2.563600063323975 2.528599977493286 2.517600059509277 2.66       1.4984     2.4094     0.9489     0.1907058  0.2084     2.6841     45.3838    0.8900817  34.297     0.2316     0.2777188 
717.8      199.8368   215.9      214.899    0.7313     383.4623   7.832      3.3906     2.445      2.248600006103516 2.322400093078613 2.362400054931641 2.371000051498413 2.444000005722046 2.5322     1.054      1.7048     0.808      0.187747   0.21       2.6639     45.3828    0.9284949  34.3008    0.2137     0.3257123 
717.9      199.574    215.9      216.5162   0.7476     357.0533   8.3287     3.4456     2.4314     2.215800046920776 2.223599910736084 2.221999883651733 2.301599979400635 2.40120005607605 2.45       0.505      1.7676     0.5938     0.169826   0.2108     2.6389     45.3584    1          34.3024    0.189      0.4126822 
718        199.137    215.9      217.4968   0.7673     246.1269   8.9849     3.4352     2.4234     2.109800100326538 2.174999952316284 2.186599969863892 2.288000106811523 2.358799934387207 2.4348     0.5255     3.2112     0.6961     0.08384954 0.2154     2.6282     45.3269    1          34.303     0.1995     0.556579  
718.1      198.3042   215.9      219.127    0.7853     237.4025   9.7094     3.358      2.4156     2.257600069046021 2.291199922561646 2.30839991569519 2.335599899291992 2.369199991226196 2.419      1.3611     5.074      1.9106     0.06790576 0.2214     2.6319     45.3072    1          34.303     0.227      0.7644342 
718.2      197.3368   215.9      216.2734   0.8033     271.4384   10.269     3.2244     2.4116     2.594000101089478 2.505000114440918 2.470400094985962 2.40720009803772 2.40120005607605 2.4038     1.9921     5.2944     1.8163     0.0469975  0.2232     2.6466     45.2882    1          34.3043    0.2267     0.9701782 
718.3      196.622    215.9      213.3554   0.8244     293.3887   10.4814    3.0766     2.418      2.723599910736084 2.554399967193604 2.462800025939941 2.437999963760376 2.40939998626709 2.388      1.656      5.0418     1.6866     0.03110421 0.2244     2.6717     45.2409    1          34.306     0.2167     1         
718.4      195.8586   215.9      213.2798   0.8467     318.846    10.3276    2.9308     2.4214     2.435199975967407 2.373800039291382 2.344599962234497 2.39739990234375 2.381599903106689 2.3728     1.5742     3.491      1.4932     0.04082882 0.2262     2.7044     45.1501    1          34.306     0.2159     0.994424  
718.5      194.4374   215.9      212.9438   0.8713     322.7687   9.9153     2.7918     2.445      2.139600038528442 2.182600021362305 2.245199918746948 2.310800075531006 2.332200050354004 2.3568     0.9931     2.662      1.0743     0.05993624 0.2268     2.7324     45.0416    1          34.3068    0.2123     0.8349904 
718.6      192.8084   215.9      212.9592   0.8949     322.4558   9.4433     2.6642     2.5006     2.090800046920776 2.085000038146973 2.107599973678589 2.208400011062622 2.270800113677979 2.341      1.3691     2.7742     1.3414     0.08271533 0.227      2.7383     44.9404    1          34.3084    0.2102     0.6812212 
718.7      191.0472   215.9      213.641    0.9147     317.1483   9.1325     2.5556     2.5814     2.091799974441528 2.04640007019043 2.021399974822998 2.105200052261353 2.19980001449585 2.3258     1.0841     2.7836     1.0187     0.09974966 0.2308     2.7201     44.8689    1          34.3099    0.2136     0.5943168 
