~Version
 VERS              .         3.0                           : CWLS LOG ASCII STANDARD - VERSION 3.0
 WRAP              .         NO                            : ONE LINE PER DEPTH STEP
 DLM               .         SPACE                         : DELIMITING CHARACTER(SPACE TAB OR COMMA)
~Well Information
#_______________________________________________________________________________
#
#PARAMETER_NAME    .UNIT     VALUE                         : DESCRIPTION
#_______________________________________________________________________________
STRT               .M        0                             : First reference value
STOP               .M        868                           : Last reference value
STEP               .M        0.1                           : Step increment
NULL               .         -9999                         : Missing value
COMP               .                                       : Company
WELL               .         334                           : Well name
FLD                .         Каратобе                      : Field
LOC                .                                       : Location
SRVC               .         SCH                           : Service Company
CTRY               .                                       : Country
DATE               .         10/09/2023                    : Service Date
LATI               .         0                             : Latitude
LONG               .         0                             : Longitude
GDAT               .                                       : Geodetic Datum
ORIGINALWELLNAME   .         Каратобе 334                  : 
RWS                .         -999                          : Def_Rw
WST                .         -999                          : Def_Rwt
~Parameter Information Block
#_______________________________________________________________________________
#
#PARAMETER_NAME    .UNIT     VALUE                         : DESCRIPTION
#_______________________________________________________________________________
SET                .         Las                           : 
TLFamily_AZIM      .         Hole Azimuth                  : 
TLFamily_BSC       .         Bit Size                      : 
TLFamily_CALI      .         Caliper                       : 
TLFamily_DEPTH     .         Measured Depth                : 
TLFamily_DEVI      .         Hole Deviation                : 
TLFamily_DTP       .         Compressional Slowness        : 
TLFamily_GR        .         Russian Gamma Ray             : 
TLFamily_GZ3       .         Gradient 225                  : 
TLFamily_GZB       .         Gradient Inverted 225         : 
TLFamily_IKD1F3    .         Conductivity                  : 
TLFamily_IKD2F3    .         Conductivity                  : 
TLFamily_IKD3F3    .         Conductivity                  : 
TLFamily_IKD4F3    .         Conductivity                  : 
TLFamily_IKD5F3    .         Conductivity                  : 
TLFamily_LL3       .         Lateral Log Resistivity       : 
TLFamily_MINV      .         Micro Gradient Resistivity    : 
TLFamily_MLL       .         Micro Resistivity             : 
TLFamily_MNOR      .         Micro Resistivity             : 
TLFamily_PHI_FINAL .         Porosity                      : 
TLFamily_RB        .         Mud Resistivity               : 
TLFamily_RHOB      .         Bulk Density                  : 
TLFamily_SP        .         Spontaneous Potential         : 
TLFamily_SW_AR     .         Water Saturation              : 
TLFamily_TEMP      .         Temperature                   : 
TLFamily_TNPH      .         Neutron Porosity              : 
TLFamily_VSH_GR    .         Shale Volume                  : 
~Curve Information
#_______________________________________________________________________________
#
#LOGNAME           .UNIT     LOG_ID                        : DESCRIPTION
#_______________________________________________________________________________
DEPTH              .M                                      : DEPTH {F}
AZIM               .deg                                    : Azimuth {F}
BSC                .mm                                     : Nominal Caliper {F}
CALI               .mm                                     : Caliper {F}
DEVI               .deg                                    : Deviatiom {F}
DTP                .US/M                                   : Sonic travel time {F}
GR                 .мкР/ч                                  : GAMMA RAYS {F}
GZ3                .OHMM                                   : APP.RESISTIVITY BY LATERAL A2.0M0.5N {F}
GZB                .OHMM                                   : APP.RESISTIVITY BY LATERAL N0.5M2.0A {F}
IKD1F3             .OHMM                                   : Induction zonde IKD1F3 {F}
IKD2F3             .OHMM                                   : Induction zonde IKD2F3 {F}
IKD3F3             .OHMM                                   : Induction zonde IKD3F3 {F}
IKD4F3             .OHMM                                   : Induction zonde IKD4F3 {F}
IKD5F3             .OHMM                                   : Induction zonde IKD5F3 {F}
LL3                .OHMM                                   : APPAR.RESIST. LATEROLOG 3 ELECTRODES {F}
MINV               .OHMM                                   : MICROLATERAL A0.025M0.025N {F}
MLL                .OHMM                                   : MICROLATEROLOG {F}
MNOR               .OHMM                                   : MICRONORMAL A0.05M {F}
PHI_FINAL          .m3/m3                                  : Porosity {F}
RB                 .OHMM                                   : Mud Resistivity {F}
RHOB               .G/C3                                   : BULK DENSITY BY DGGL {F}
SP                 .mV                                     : Spontaneous Potential {F}
SW_AR              .m3/m3                                  :  {F}
TEMP               .C                                      : Formation Temperature {F}
TNPH               .V/V                                    : Neutron porosity {F}
VSH_GR             .unitless                               : Shale volume fraction from Gamma Ray {F}
~Ascii
# ...
378.8      156.7582   215.9      211.6346   1.1544     471.9497   11.2476    1.9546     2.9806     2.490999937057495 2.666599988937378 2.732399940490723 2.677599906921387 2.595799922943115 2.437      0.9        1.7774     0.6691     0.1146491  0.26       2.3835     40.3469    1          29.3809    0.2659     0.8378447 
378.9      156.0116   215.9      211.9312   1.1535     470.9379   11.2797    1.9832     3.0238     2.527199983596802 2.811000108718872 2.879199981689453 2.739799976348877 2.631799936294556 2.4376     0.7304     1.303      0.6023     0.1123492  0.2598     2.3924     40.0665    1          29.3819    0.279      0.8477222 
379        155.064    215.9      211.9948   1.1525     449.4205   11.0835    2.0258     3.1        2.388000011444092 2.761600017547607 2.836400032043457 2.773200035095215 2.672199964523315 2.378      0.6858     1.141      0.6284     0.118411   0.2586     2.3924     39.8687    1          29.3876    0.2729     0.7889653 
379.1      154.0324   215.9      211.8088   1.1504     436.9534   10.7704    2.0272     3.2368     2.274399995803833 2.6528000831604 2.775199890136719 2.782399892807007 2.701600074768066 2.387      0.8009     1.1866     0.6635     0.1370983  0.257      2.3924     39.7395    1          29.3899    0.2537     0.7027859 
379.2      152.8406   215.9      211.7426   1.1433     446.038    10.4875    1.995      3.4288     2.305999994277954 2.655400037765503 2.797800064086914 2.785399913787842 2.751600027084351 2.392      0.7267     1.1348     0.6499     0.1548542  0.2572     2.3927     39.6636    1          29.3919    0.26       0.6322677 
379.3      151.7518   215.9      211.8746   1.1404     457.1589   10.3317    1.9558     3.6402     2.518599987030029 2.820199966430664 2.884399890899658 2.804199934005737 2.82859992980957 2.395      0.7449     1.096      0.6705     0.1663107  0.2588     2.3887     39.6455    1          29.3929    0.2718     0.5961714 
379.4      150.9758   215.9      212.076    1.1518     465.3646   10.2557    1.9448     3.7914     2.784600019454956 2.982199907302856 2.955600023269653 2.884599924087524 2.903599977493286 2.393      0.6868     1.1348     0.6505     0.1752596  0.2628     2.3793     39.7054    1          29.3939    0.2868     0.5792302 
379.5      150.2086   215.9      212.6246   1.1642     472.224    10.1405    1.959      3.8918     2.869400024414063 3.02020001411438 3.014400005340576 3.020999908447266 2.99399995803833 2.4114     0.9221     1.2286     0.6984     0.1823424  0.2664     2.3767     39.8523    0.9816118  29.3959    0.2884     0.5543534 
379.6      149.477    215.9      213.5028   1.1707     471.9325   9.9014     2.0008     3.9204     2.905400037765503 3.160599946975708 3.160200119018555 3.171000003814697 3.135600090026855 2.478      0.6808     1.0938     0.767      0.1810799  0.268      2.404      40.0789    0.9740059  29.3988    0.2534     0.5056633 
379.7      148.7174   215.9      214.2474   1.1736     483.5722   9.527      2.0832     3.835      3.350600004196167 3.547800064086914 3.498199939727783 3.420200109481812 3.379600048065186 2.6288     1.3908     1.3532     2.7216     0.1701074  0.268      2.4704     40.3655    1          29.4056    0.205      0.4367849 
379.8      147.8362   215.9      214.515    1.1733     482.972    9.0822     2.2264     3.6918     4.038199901580811 4.017799854278564 3.876399993896484 3.748199939727783 3.68339991569519 2.8828     4.5015     5.1174     12.28      0.1525245  0.2678     2.5636     40.699     1          29.4051    0.1692     0.3653511 
379.9      146.9396   215.9      214.2588   1.1713     443.8901   8.7046     2.4056     3.5248     4.430799961090088 4.311200141906738 4.156799793243408 4.081999778747559 3.949599981307983 3.1338     6.9764     15.9132    14.7031    0.1310629  0.2654     2.6634     41.0637    1          29.4069    0.1489     0.3124694 
380        146.0318   215.9      213.7556   1.1685     412.6323   8.5403     2.622      3.3958     4.474400043487549 4.434199810028076 4.463200092315674 4.371399879455566 4.110400199890137 3.351      5.7965     19.874     11.4523    0.1071117  0.2582     2.7561     41.4392    1          29.4117    0.14       0.2914525 
380.1      145.2194   215.9      213.4898   1.1645     406.3816   8.6776     2.8644     3.278      4.634200096130371 4.519400119781494 4.610400199890137 4.47819995880127 4.164400100708008 3.427      6.4319     17.58      13.1683    0.08595726 0.255      2.8265     41.8077    1          29.4167    0.1337     0.3089364 
380.2      144.8542   215.9      213.2746   1.1531     378.2405   9.149      3.066      3.1814     4.807400226593018 4.541800022125244 4.512199878692627 4.368800163269043 4.124800205230713 3.2652     3.8029     7.3702     3.5037     0.07040206 0.2558     2.8528     42.1608    1          29.4198    0.1419     0.3754169 
380.3      144.6488   215.9      214.171    1.1351     350.1038   9.8575     3.2116     3.1298     4.6528000831604 4.34660005569458 4.180600166320801 4.027599811553955 3.972800016403198 3.0058     1.0755     3.2794     0.8893     0.04253326 0.258      2.8162     42.4973    1          29.4191    0.1734     0.4971364 
380.4      144.2008   215.9      217.297    1.136      343.8531   10.6258    3.2778     3.1256     4.077199935913086 3.894000053405762 3.725199937820435 3.665999889373779 3.710400104522705 2.7484     0.5081     3.4006     0.7228     0.02417579 0.2538     2.729      42.8065    1          29.4181    0.2167     0.6659136 
380.5      143.6946   215.9      221.331    1.162      357.9236   11.2046    3.2414     3.1282     3.413399934768677 3.408400058746338 3.338399887084961 3.40120005607605 3.44379997253418 2.6768     0.4237     3.2126     0.5628     0.04112374 0.2536     2.6256     43.0691    1          29.4237    0.263      0.8247778 
380.6      143.66     215.9      226.5078   1.1595     386.0689   11.3889    3.133      3.134      3.051800012588501 3.184400081634521 3.164799928665161 3.221199989318848 3.274199962615967 2.6612     0.4027     3.2986     0.5819     0.06694294 0.253      2.5336     43.2808    1          29.4259    0.2818     0.8821229 
380.7      143.993    215.9      230.2208   1.1082     389.19     11.1757    2.9842     3.1544     3.133599996566772 3.223000049591064 3.186399936676025 3.155800104141235 3.159199953079224 2.683      0.4316     3.1538     0.6337     0.0912771  0.243      2.4669     43.4594    1          29.4279    0.2742     0.8160999 
380.8      143.8534   215.9      227.0444   1.0744     380.2169   10.7645    2.8534     3.1548     3.296799898147583 3.264600038528442 3.247999906539917 3.153800010681152 3.081399917602539 2.686      0.5079     3.7458     0.6075     0.1258792  0.2542     2.4316     43.6285    1          29.4318    0.2652     0.7012465 
380.9      143.1632   215.9      224.2152   1.0871     387.1664   10.3869    2.7824     3.1516     3.188199996948242 3.213399887084961 3.197999954223633 3.110399961471558 3.021399974822998 2.6746     0.4998     4.371      0.6463     0.1488608  0.2672     2.4211     43.785     1          29.432     0.2403     0.608747  
381        142.6468   215.9      227.0108   1.0964     404.3752   10.1894    2.7452     3.1564     3.101799964904785 3.149600028991699 3.175400018692017 3.082600116729736 3.016200065612793 2.6264     0.6402     4.629      0.6321     0.1565234  0.268      2.4242     43.9145    1          29.4339    0.2237     0.5647967 
381.1      142.3546   215.9      226.9274   1.0918     414.8359   10.2277    2.741      3.1456     2.947999954223633 3.016400098800659 3.099400043487549 3.0725998878479 3.015599966049194 2.5582     0.6848     4.5852     0.603      0.1511076  0.267      2.4356     44.004     1          29.4378    0.2267     0.573096  
381.2      141.8394   215.9      224.9238   1.0855     379.4324   10.5033    2.7702     3.122      2.72160005569458 2.898200035095215 3.034800052642822 3.062999963760376 3.000999927520752 2.5996     0.7429     4.3006     0.744      0.1303769  0.2606     2.4545     44.0679    1          29.4418    0.2331     0.6360337 
