~Version
 VERS              .         3.0                           : CWLS LOG ASCII STANDARD - VERSION 3.0
 WRAP              .         NO                            : ONE LINE PER DEPTH STEP
 DLM               .         SPACE                         : DELIMITING CHARACTER(SPACE TAB OR COMMA)
~Well Information
#_______________________________________________________________________________
#
#PARAMETER_NAME    .UNIT     VALUE                         : DESCRIPTION
#_______________________________________________________________________________
STRT               .M        0                             : First reference value
STOP               .M        868                           : Last reference value
STEP               .M        0.1                           : Step increment
NULL               .         -9999                         : Missing value
COMP               .                                       : Company
WELL               .         334                           : Well name
FLD                .         Каратобе                      : Field
LOC                .                                       : Location
SRVC               .         SCH                           : Service Company
CTRY               .                                       : Country
DATE               .         10/09/2023                    : Service Date
LATI               .         0                             : Latitude
LONG               .         0                             : Longitude
GDAT               .                                       : Geodetic Datum
ORIGINALWELLNAME   .         Каратобе 334                  : 
RWS                .         -999                          : Def_Rw
WST                .         -999                          : Def_Rwt
~Parameter Information Block
#_______________________________________________________________________________
#
#PARAMETER_NAME    .UNIT     VALUE                         : DESCRIPTION
#_______________________________________________________________________________
SET                .         Las                           : 
TLFamily_AZIM      .         Hole Azimuth                  : 
TLFamily_BSC       .         Bit Size                      : 
TLFamily_CALI      .         Caliper                       : 
TLFamily_DEPTH     .         Measured Depth                : 
TLFamily_DEVI      .         Hole Deviation                : 
TLFamily_DTP       .         Compressional Slowness        : 
TLFamily_GR        .         Russian Gamma Ray             : 
TLFamily_GZ3       .         Gradient 225                  : 
TLFamily_GZB       .         Gradient Inverted 225         : 
TLFamily_IKD1F3    .         Conductivity                  : 
TLFamily_IKD2F3    .         Conductivity                  : 
TLFamily_IKD3F3    .         Conductivity                  : 
TLFamily_IKD4F3    .         Conductivity                  : 
TLFamily_IKD5F3    .         Conductivity                  : 
TLFamily_LL3       .         Lateral Log Resistivity       : 
TLFamily_MINV      .         Micro Gradient Resistivity    : 
TLFamily_MLL       .         Micro Resistivity             : 
TLFamily_MNOR      .         Micro Resistivity             : 
TLFamily_PHI_FINAL .         Porosity                      : 
TLFamily_RB        .         Mud Resistivity               : 
TLFamily_RHOB      .         Bulk Density                  : 
TLFamily_SP        .         Spontaneous Potential         : 
TLFamily_SW_AR     .         Water Saturation              : 
TLFamily_TEMP      .         Temperature                   : 
TLFamily_TNPH      .         Neutron Porosity              : 
TLFamily_VSH_GR    .         Shale Volume                  : 
~Curve Information
#_______________________________________________________________________________
#
#LOGNAME           .UNIT     LOG_ID                        : DESCRIPTION
#_______________________________________________________________________________
DEPTH              .M                                      : DEPTH {F}
AZIM               .deg                                    : Azimuth {F}
BSC                .mm                                     : Nominal Caliper {F}
CALI               .mm                                     : Caliper {F}
DEVI               .deg                                    : Deviatiom {F}
DTP                .US/M                                   : Sonic travel time {F}
GR                 .мкР/ч                                  : GAMMA RAYS {F}
GZ3                .OHMM                                   : APP.RESISTIVITY BY LATERAL A2.0M0.5N {F}
GZB                .OHMM                                   : APP.RESISTIVITY BY LATERAL N0.5M2.0A {F}
IKD1F3             .OHMM                                   : Induction zonde IKD1F3 {F}
IKD2F3             .OHMM                                   : Induction zonde IKD2F3 {F}
IKD3F3             .OHMM                                   : Induction zonde IKD3F3 {F}
IKD4F3             .OHMM                                   : Induction zonde IKD4F3 {F}
IKD5F3             .OHMM                                   : Induction zonde IKD5F3 {F}
LL3                .OHMM                                   : APPAR.RESIST. LATEROLOG 3 ELECTRODES {F}
MINV               .OHMM                                   : MICROLATERAL A0.025M0.025N {F}
MLL                .OHMM                                   : MICROLATEROLOG {F}
MNOR               .OHMM                                   : MICRONORMAL A0.05M {F}
PHI_FINAL          .m3/m3                                  : Porosity {F}
RB                 .OHMM                                   : Mud Resistivity {F}
RHOB               .G/C3                                   : BULK DENSITY BY DGGL {F}
SP                 .mV                                     : Spontaneous Potential {F}
SW_AR              .m3/m3                                  :  {F}
TEMP               .C                                      : Formation Temperature {F}
TNPH               .V/V                                    : Neutron porosity {F}
VSH_GR             .unitless                               : Shale volume fraction from Gamma Ray {F}
~Ascii
# ...
571.3      121.2568   215.9      209.5134   0.8795     368.7873   10.0869    1.1348     1.1234     1.406000018119812 1.401600003242493 1.354200005531311 1.323799967765808 1.324200034141541 1.1882     0.7683     1.195      0.667      0.1496112  0.2558     2.3565     41.4777    1          32.3804    0.2558     0.5515132 
571.4      120.9824   215.9      209.451    0.8811     363.9299   10.0385    1.1428     1.1144     1.432399988174438 1.426599979400635 1.367799997329712 1.333199977874756 1.33899998664856 1.1918     0.7736     1.1918     0.6823     0.1536425  0.255      2.3496     41.4621    1          32.3825    0.2759     0.5424282 
571.5      120.9382   215.9      209.4304   0.8807     367.4068   10.0137    1.1474     1.1004     1.452800035476685 1.432999968528748 1.371000051498413 1.344200015068054 1.34660005569458 1.186      0.7551     1.1772     0.6516     0.1623267  0.2552     2.339      41.4479    1          32.384     0.2953     0.5378236 
571.6      121.1852   215.9      209.4476   0.8753     376.337    9.9874     1.1544     1.0844     1.427600026130676 1.417600035667419 1.371600031852722 1.35259997844696 1.34440004825592 1.181      0.7458     1.1672     0.6417     0.1696913  0.256      2.3292     41.4387    1          32.386     0.2791     0.5329776 
571.7      121.0636   215.9      209.4638   0.8695     353.7522   9.9305     1.1602     1.077      1.418400049209595 1.42519998550415 1.375399947166443 1.350200057029724 1.341400027275085 1.176      0.7306     1.1622     0.6302     0.1583476  0.2556     2.3239     41.4368    1          32.386     0.2528     0.5226222 
571.8      120.19     215.9      209.4782   0.8624     328.7665   9.8709     1.1602     1.0714     1.455000042915344 1.444000005722046 1.378200054168701 1.345000028610229 1.3367999792099 1.17       0.7587     1.1802     0.6461     0.1490342  0.254      2.3267     41.44      1          32.386     0.2486     0.5119621 
571.9      119.5164   215.9      209.5086   0.8578     345.3579   9.8682     1.1546     1.0628     1.455399990081787 1.428400039672852 1.361400008201599 1.331799983978271 1.324599981307983 1.1598     0.7386     1.1662     0.6318     0.1521828  0.2538     2.3373     41.4497    1          32.388     0.257      0.5114836 
572        119.3396   215.9      209.554    0.8607     410.09     9.948      1.1416     1.0532     1.401999950408936 1.394000053405762 1.336199998855591 1.308599948883057 1.309000015258789 1.15       0.8062     1.2144     0.6588     0.1805367  0.2528     2.3478     41.4673    1          32.3885    0.26       0.5257884 
572.1      119.054    215.9      209.5676   0.8649     410.9517   10.1042    1.1232     1.049      1.37279999256134 1.375599980354309 1.323799967765808 1.297999978065491 1.299000024795532 1.1418     0.7447     1.1822     0.6422     0.1724998  0.252      2.3545     41.4906    1          32.388     0.2644     0.5547926 
572.2      118.4752   215.9      209.5652   0.8715     358.6824   10.3197    1.1        1.0446     1.363600015640259 1.363800048828125 1.317199945449829 1.291599988937378 1.287799954414368 1.123      0.7739     1.1176     0.6571     0.1349838  0.2522     2.3554     41.5129    1          32.3895    0.2667     0.5970896 
572.3      117.9408   215.9      209.5914   0.8773     348.5861   10.5646    1.0802     1.044      1.347599983215332 1.355800032615662 1.309999942779541 1.279999971389771 1.273800015449524 1.114      0.7636     1.0858     0.6824     0.1251639  0.253      2.3503     41.5285    1          32.3925    0.2497     0.6485726 
572.4      117.5646   215.9      209.5986   0.8771     350.9827   10.7803    1.0608     1.0516     1.356199979782104 1.358800053596497 1.309000015258789 1.271000027656555 1.266800045967102 1.1068     0.7485     1.1092     0.6535     0.120398   0.2528     2.3447     41.5407    1          32.393     0.2425     0.6971354 
572.5      117.1938   215.9      209.597    0.8767     344.7877   10.8925    1.043      1.07       1.361400008201599 1.355000019073486 1.30239999294281 1.266000032424927 1.255800008773804 1.092      0.7695     1.1012     0.6482     0.1202462  0.2522     2.3411     41.5622    1          32.3935    0.2581     0.7236577 
572.6      116.8482   215.9      209.6068   0.8787     353.6364   10.9002    1.0372     1.09       1.343600034713745 1.34060001373291 1.289199948310852 1.260599970817566 1.244799971580505 1.083      0.7621     1.0716     0.63       0.1207287  0.2532     2.341      41.6062    1          32.3965    0.2639     0.7255105 
572.7      116.6878   215.9      209.625    0.8809     353.2034   10.838     1.0278     1.11       1.331799983978271 1.331400036811829 1.277199983596802 1.253999948501587 1.236400008201599 1.079      0.7673     1.1016     0.6559     0.1186133  0.254      2.3485     41.6659    1          32.3995    0.2517     0.7106641 
572.8      117.2752   215.9      209.6418   0.8809     353.4864   10.735     1.0162     1.1288     1.340199947357178 1.332599997520447 1.273599982261658 1.249799966812134 1.238399982452393 1.0758     0.7572     1.1246     0.6356     0.1167139  0.254      2.359      41.7229    1          32.4015    0.2406     0.686676  
572.9      117.7074   215.9      209.6386   0.8789     358.8196   10.6017    1.0038     1.1394     1.34280002117157 1.328400015830994 1.270400047302246 1.249799966812134 1.240800023078918 1.0598     0.7389     1.0936     0.6294     0.1168861  0.2546     2.3677     41.754     1          32.4025    0.2361     0.6567045 
573        117.2746   215.9      209.6126   0.868      357.0576   10.4355    0.9988     1.1348     1.332800030708313 1.318199992179871 1.266000032424927 1.254400014877319 1.245399951934814 1.043      0.7244     1.098      0.6299     0.1193413  0.2566     2.372      41.7523    1          32.4035    0.2329     0.6209653 
573.1      116.7096   215.9      209.5878   0.8555     361.7906   10.2462    0.9986     1.123      1.334200024604797 1.324399948120117 1.277600049972534 1.262599945068359 1.253399968147278 1.0258     0.7608     1.1702     0.6795     0.1312146  0.2546     2.371      41.7248    1          32.4055    0.2339     0.5823572 
573.2      116.089    215.9      209.558    0.8516     368.7273   10.1221    1.0028     1.1084     1.365599989891052 1.351199984550476 1.296000003814697 1.27620005607605 1.266000032424927 1.0128     0.8262     1.2904     0.7057     0.1415838  0.2528     2.3691     41.6904    1          32.4065    0.2362     0.5582033 
573.3      115.7108   215.9      209.5208   0.8507     369.1303   10.1336    1.0126     1.096      1.392400026321411 1.373999953269958 1.313599944114685 1.289999961853027 1.27839994430542 0.9728     0.7655     1.2862     0.6873     0.1402449  0.2524     2.3685     41.672     1          32.4055    0.2257     0.5604043 
573.4      116.43     215.9      209.5074   0.8496     367.8784   10.2432    1.0244     1.0876     1.394400000572205 1.382200002670288 1.320000052452087 1.293599963188171 1.279800057411194 0.9376     0.8732     1.3928     0.7255     0.132831   0.2544     2.3698     41.691     1          32.4055    0.2147     0.5817627 
573.5      117.1336   215.9      209.5658   0.8473     363.0125   10.3835    1.03       1.088      1.396999955177307 1.382400035858154 1.318600058555603 1.289999961853027 1.279600024223328 0.9058     0.7816     1.3106     0.6562     0.1252548  0.2564     2.3707     41.7494    1          32.407     0.2318     0.610142  
573.6      116.5526   215.9      209.631    0.842      364.7359   10.5041    1.028      1.0964     1.397199988365173 1.376999974250793 1.309399962425232 1.277999997138977 1.281000018119812 0.8758     0.734      1.1924     0.6273     0.1235586  0.2584     2.3708     41.8333    1          32.409     0.26       0.6355026 
573.7      115.6506   215.9      209.6202   0.834      361.3148   10.5848    1.0172     1.0978     1.378200054168701 1.361199975013733 1.292199969291687 1.260200023651123 1.276000022888184 0.852      0.7057     1.1088     0.6124     0.1182168  0.2594     2.3711     41.9176    1          32.4105    0.2532     0.652989  
