~Version
 VERS              .         3.0                           : CWLS LOG ASCII STANDARD - VERSION 3.0
 WRAP              .         NO                            : ONE LINE PER DEPTH STEP
 DLM               .         SPACE                         : DELIMITING CHARACTER(SPACE TAB OR COMMA)
~Well Information
#_______________________________________________________________________________
#
#PARAMETER_NAME    .UNIT     VALUE                         : DESCRIPTION
#_______________________________________________________________________________
STRT               .M        0                             : First reference value
STOP               .M        868                           : Last reference value
STEP               .M        0.1                           : Step increment
NULL               .         -9999                         : Missing value
COMP               .                                       : Company
WELL               .         334                           : Well name
FLD                .         Каратобе                      : Field
LOC                .                                       : Location
SRVC               .         SCH                           : Service Company
CTRY               .                                       : Country
DATE               .         10/09/2023                    : Service Date
LATI               .         0                             : Latitude
LONG               .         0                             : Longitude
GDAT               .                                       : Geodetic Datum
ORIGINALWELLNAME   .         Каратобе 334                  : 
RWS                .         -999                          : Def_Rw
WST                .         -999                          : Def_Rwt
~Parameter Information Block
#_______________________________________________________________________________
#
#PARAMETER_NAME    .UNIT     VALUE                         : DESCRIPTION
#_______________________________________________________________________________
SET                .         Las                           : 
TLFamily_AZIM      .         Hole Azimuth                  : 
TLFamily_BSC       .         Bit Size                      : 
TLFamily_CALI      .         Caliper                       : 
TLFamily_DEPTH     .         Measured Depth                : 
TLFamily_DEVI      .         Hole Deviation                : 
TLFamily_DTP       .         Compressional Slowness        : 
TLFamily_GR        .         Russian Gamma Ray             : 
TLFamily_GZ3       .         Gradient 225                  : 
TLFamily_GZB       .         Gradient Inverted 225         : 
TLFamily_IKD1F3    .         Conductivity                  : 
TLFamily_IKD2F3    .         Conductivity                  : 
TLFamily_IKD3F3    .         Conductivity                  : 
TLFamily_IKD4F3    .         Conductivity                  : 
TLFamily_IKD5F3    .         Conductivity                  : 
TLFamily_LL3       .         Lateral Log Resistivity       : 
TLFamily_MINV      .         Micro Gradient Resistivity    : 
TLFamily_MLL       .         Micro Resistivity             : 
TLFamily_MNOR      .         Micro Resistivity             : 
TLFamily_PHI_FINAL .         Porosity                      : 
TLFamily_RB        .         Mud Resistivity               : 
TLFamily_RHOB      .         Bulk Density                  : 
TLFamily_SP        .         Spontaneous Potential         : 
TLFamily_SW_AR     .         Water Saturation              : 
TLFamily_TEMP      .         Temperature                   : 
TLFamily_TNPH      .         Neutron Porosity              : 
TLFamily_VSH_GR    .         Shale Volume                  : 
~Curve Information
#_______________________________________________________________________________
#
#LOGNAME           .UNIT     LOG_ID                        : DESCRIPTION
#_______________________________________________________________________________
DEPTH              .M                                      : DEPTH {F}
AZIM               .deg                                    : Azimuth {F}
BSC                .mm                                     : Nominal Caliper {F}
CALI               .mm                                     : Caliper {F}
DEVI               .deg                                    : Deviatiom {F}
DTP                .US/M                                   : Sonic travel time {F}
GR                 .мкР/ч                                  : GAMMA RAYS {F}
GZ3                .OHMM                                   : APP.RESISTIVITY BY LATERAL A2.0M0.5N {F}
GZB                .OHMM                                   : APP.RESISTIVITY BY LATERAL N0.5M2.0A {F}
IKD1F3             .OHMM                                   : Induction zonde IKD1F3 {F}
IKD2F3             .OHMM                                   : Induction zonde IKD2F3 {F}
IKD3F3             .OHMM                                   : Induction zonde IKD3F3 {F}
IKD4F3             .OHMM                                   : Induction zonde IKD4F3 {F}
IKD5F3             .OHMM                                   : Induction zonde IKD5F3 {F}
LL3                .OHMM                                   : APPAR.RESIST. LATEROLOG 3 ELECTRODES {F}
MINV               .OHMM                                   : MICROLATERAL A0.025M0.025N {F}
MLL                .OHMM                                   : MICROLATEROLOG {F}
MNOR               .OHMM                                   : MICRONORMAL A0.05M {F}
PHI_FINAL          .m3/m3                                  : Porosity {F}
RB                 .OHMM                                   : Mud Resistivity {F}
RHOB               .G/C3                                   : BULK DENSITY BY DGGL {F}
SP                 .mV                                     : Spontaneous Potential {F}
SW_AR              .m3/m3                                  :  {F}
TEMP               .C                                      : Formation Temperature {F}
TNPH               .V/V                                    : Neutron porosity {F}
VSH_GR             .unitless                               : Shale volume fraction from Gamma Ray {F}
~Ascii
# ...
331.3      127.2952   215.9      264.1764   0.1384     529.8694   11.2564    3.149      3.4676     2.500400066375732 2.809799909591675 2.95580005645752 3.063800096511841 3.063199996948242 2.301      0.3291     3.5118     0.4662     0.1177896  0.2502     2.3814     40.7046    1          28.588     0.2892     0.8405421 
331.4      139.8192   215.9      271.4224   0.154      475.1565   11.4428    3.0282     3.596      2.500799894332886 2.815399885177612 2.923399925231934 3.016599893569946 3.073199987411499 2.3044     0.494      4.1662     0.5513     0.1340117  0.2528     2.3209     40.935     1          28.588     0.301      0.8995685 
331.5      151.7842   215.9      254.7758   0.1722     390.7419   11.4551    2.9318     3.7082     2.637399911880493 2.867199897766113 2.940599918365479 3.0485999584198 3.129199981689453 2.3592     0.4148     5.6242     0.5573     0.1415326  0.2598     2.2932     41.1815    1          28.5895    0.2889     0.9035938 
331.6      161.1412   215.9      238.5504   0.1822     392.3153   11.3201    2.8838     3.822      2.622200012207031 2.838200092315674 2.94379997253418 3.093400001525879 3.13919997215271 2.3846     0.485      6.1894     0.5237     0.1423152  0.2588     2.3        41.431     1          28.5933    0.2822     0.8603038 
331.7      170.0178   215.9      243.0094   0.1885     436.7519   11.1381    2.914      3.909      2.633399963378906 2.848000049591064 2.986200094223022 3.13919997215271 3.138400077819824 2.3494     0.503      5.5838     0.6001     0.1382486  0.2582     2.3195     41.6565    1          28.5943    0.2609     0.8049335 
331.8      178.277    215.9      235.1606   0.1949     451.9371   11.0348    2.962      4.0102     2.82699990272522 3.040800094604492 3.105200052261353 3.233799934387207 3.198400020599365 2.4056     0.8667     5.679      0.8088     0.1357136  0.2596     2.3423     41.8402    1          28.5968    0.2494     0.7749647 
331.9      185.9698   215.9      223.2514   0.2033     437.082    11.0866    2.9744     4.1412     3.129600048065186 3.313199996948242 3.230999946594238 3.291599988937378 3.279400110244751 2.4784     0.8728     5.5398     0.8904     0.1231966  0.262      2.3699     41.9669    1          28.6013    0.2518     0.7898642 
332        191.8172   215.9      217.0212   0.222      417.7597   11.2648    2.9638     4.284      3.190399885177612 3.427799940109253 3.331000089645386 3.306999921798706 3.311199903488159 2.5392     0.9302     5.5194     0.8925     0.1044215  0.2624     2.4049     42.0433    1          28.6023    0.243      0.8431243 
332.1      196.1814   215.9      215.208    0.2487     438.111    11.4474    2.9798     4.3826     3.207600116729736 3.411799907684326 3.37719988822937 3.335000038146973 3.331399917602539 2.554      0.8884     5.4638     0.9307     0.08711982 0.2648     2.4434     42.0853    1          28.6036    0.2472     0.9010721 
332.2      197.6352   215.9      216.203    0.2658     469.4159   11.46      2.9822     4.4052     3.239399909973145 3.380199909210205 3.31220006942749 3.367399930953979 3.401400089263916 2.5642     0.9019     5.8576     1.0061     0.07702367 0.2684     2.4811     42.1156    1          28.6059    0.2616     0.9052021 
332.3      197.4404   215.9      217.1766   0.2678     508.0005   11.1563    2.9776     4.2866     3.27020001411438 3.384799957275391 3.353600025177002 3.38919997215271 3.525000095367432 2.575      1.0606     5.3928     1.0158     0.07210107 0.2686     2.5236     42.1367    1          28.6086    0.258      0.810321  
332.4      197.8654   215.9      216.0512   0.2716     499.9835   10.5376    2.983      4.0784     3.426599979400635 3.479599952697754 3.46399998664856 3.507600069046021 3.657000064849854 2.5966     0.9223     4.8552     1.2581     0.09353602 0.2614     2.5749     42.1461    1          28.6106    0.2474     0.6442778 
332.5      198.8812   215.9      214.291    0.2789     469.1544   9.8365     3.046      3.8178     3.67519998550415 3.669800043106079 3.69379997253418 3.702600002288818 3.807199954986572 2.681      3.6518     10.296     7.7515     0.110063   0.2546     2.6351     42.1404    1          28.6123    0.2349     0.4931014 
332.6      200.4738   215.9      213.0846   0.2793     492.6567   9.3834     3.1468     3.5348     3.858799934387207 4.003200054168701 3.963799953460693 3.933000087738037 3.992399930953979 2.8466     4.686      15.39      6.6673     0.1101526  0.2512     2.6925     42.1364    1          28.6143    0.2214     0.412559  
332.7      202.4632   215.9      213.171    0.2667     510.3199   9.3343     3.2654     3.2956     4.215000152587891 4.360199928283691 4.234600067138672 4.177800178527832 4.125999927520752 3.025      2.8527     14.354     2.8868     0.09982821 0.2424     2.7267     42.1547    1          28.6176    0.2091     0.4045374 
332.8      202.251    215.9      213.587    0.2656     489.2227   9.5357     3.3546     3.118      4.34499979019165 4.541600227355957 4.447999954223633 4.313600063323975 4.124599933624268 2.9872     1.2063     8.776      1.0247     0.09397659 0.235      2.7178     42.2096    1          28.6193    0.2072     0.4382901 
332.9      198.8458   215.9      214.2936   0.3076     457.9606   9.8101     3.404      3.0248     4.211599826812744 4.545400142669678 4.432799816131592 4.223800182342529 4.026000022888184 2.8678     0.5232     4.1794     0.7954     0.1007331  0.2308     2.661      42.2936    1          28.621     0.2183     0.4880683 
333        198.0684   215.9      219.393    0.3405     468.9058   10.0565    3.4024     3.0484     4.198999881744385 4.398799896240234 4.18179988861084 3.988199949264526 3.877599954605103 2.7058     0.3624     3.1318     0.5279     0.117548   0.2306     2.5736     42.3939    1          28.6233    0.2329     0.5368052 
333.1      202.2526   215.9      232.1744   0.3331     479.8424   10.2636    3.3202     3.1116     3.926800012588501 3.925800085067749 3.770400047302246 3.68560004234314 3.701200008392334 2.548      0.3897     3.1558     0.5296     0.1400382  0.2334     2.4787     42.495     1          28.624     0.2615     0.5809715 
333.2      204.6402   215.9      245.4684   0.3225     457.9606   10.4988    3.1836     3.1766     3.12719988822937 3.378799915313721 3.330600023269653 3.38700008392334 3.48580002784729 2.4284     0.5362     2.785      0.6518     0.1492716  0.235      2.4168     42.5946    1          28.6237    0.2842     0.6349592 
333.3      201.6462   215.9      251.4188   0.3171     440.7776   10.8257    3.0646     3.2284     2.809000015258789 3.113800048828125 3.155600070953369 3.269200086593628 3.360399961471558 2.3364     0.6312     2.6966     0.5624     0.1353015  0.2348     2.4033     42.6925    1          28.6246    0.2963     0.7173623 
333.4      199.4336   215.9      248.6002   0.3107     451.7142   11.2329    2.9824     3.2698     2.832600116729736 3.163599967956543 3.216200113296509 3.272200107574463 3.30839991569519 2.2914     0.5491     2.978      0.5699     0.1079219  0.234      2.4168     42.7881    1          28.628     0.2933     0.8333567 
333.5      200.3716   215.9      243.0506   0.3004     465.7804   11.6286    2.9268     3.2838     3.054199934005737 3.427799940109253 3.401599884033203 3.342000007629395 3.313600063323975 2.3424     0.5417     3.165      0.5729     0.0876084  0.234      2.4313     42.8731    1          28.628     0.2632     0.9621594 
333.6      201.338    215.9      233.611    0.2935     497.0382   11.8779    2.9062     3.2814     3.399199962615967 3.697999954223633 3.619999885559082 3.477400064468384 3.370800018310547 2.4096     0.6446     3.3934     0.6828     0.08180965 0.2336     2.4363     42.944     1          28.629     0.2562     1         
333.7      202.0104   215.9      223.1288   0.3098     511.0959   11.873     2.91       3.2972     3.470999956130981 3.768800020217896 3.716200113296509 3.567800045013428 3.421200037002563 2.4692     0.5867     3.0084     0.704      0.08365627 0.2322     2.4334     42.993     1          28.6313    0.2638     1         
