~Version
 VERS              .         3.0                           : CWLS LOG ASCII STANDARD - VERSION 3.0
 WRAP              .         NO                            : ONE LINE PER DEPTH STEP
 DLM               .         SPACE                         : DELIMITING CHARACTER(SPACE TAB OR COMMA)
~Well Information
#_______________________________________________________________________________
#
#PARAMETER_NAME    .UNIT     VALUE                         : DESCRIPTION
#_______________________________________________________________________________
STRT               .M        0                             : First reference value
STOP               .M        868                           : Last reference value
STEP               .M        0.1                           : Step increment
NULL               .         -9999                         : Missing value
COMP               .                                       : Company
WELL               .         334                           : Well name
FLD                .         Каратобе                      : Field
LOC                .                                       : Location
SRVC               .         SCH                           : Service Company
CTRY               .                                       : Country
DATE               .         10/09/2023                    : Service Date
LATI               .         0                             : Latitude
LONG               .         0                             : Longitude
GDAT               .                                       : Geodetic Datum
ORIGINALWELLNAME   .         Каратобе 334                  : 
RWS                .         -999                          : Def_Rw
WST                .         -999                          : Def_Rwt
~Parameter Information Block
#_______________________________________________________________________________
#
#PARAMETER_NAME    .UNIT     VALUE                         : DESCRIPTION
#_______________________________________________________________________________
SET                .         Las                           : 
TLFamily_AZIM      .         Hole Azimuth                  : 
TLFamily_BSC       .         Bit Size                      : 
TLFamily_CALI      .         Caliper                       : 
TLFamily_DEPTH     .         Measured Depth                : 
TLFamily_DEVI      .         Hole Deviation                : 
TLFamily_DTP       .         Compressional Slowness        : 
TLFamily_GR        .         Russian Gamma Ray             : 
TLFamily_GZ3       .         Gradient 225                  : 
TLFamily_GZB       .         Gradient Inverted 225         : 
TLFamily_IKD1F3    .         Conductivity                  : 
TLFamily_IKD2F3    .         Conductivity                  : 
TLFamily_IKD3F3    .         Conductivity                  : 
TLFamily_IKD4F3    .         Conductivity                  : 
TLFamily_IKD5F3    .         Conductivity                  : 
TLFamily_LL3       .         Lateral Log Resistivity       : 
TLFamily_MINV      .         Micro Gradient Resistivity    : 
TLFamily_MLL       .         Micro Resistivity             : 
TLFamily_MNOR      .         Micro Resistivity             : 
TLFamily_PHI_FINAL .         Porosity                      : 
TLFamily_RB        .         Mud Resistivity               : 
TLFamily_RHOB      .         Bulk Density                  : 
TLFamily_SP        .         Spontaneous Potential         : 
TLFamily_SW_AR     .         Water Saturation              : 
TLFamily_TEMP      .         Temperature                   : 
TLFamily_TNPH      .         Neutron Porosity              : 
TLFamily_VSH_GR    .         Shale Volume                  : 
~Curve Information
#_______________________________________________________________________________
#
#LOGNAME           .UNIT     LOG_ID                        : DESCRIPTION
#_______________________________________________________________________________
DEPTH              .M                                      : DEPTH {F}
AZIM               .deg                                    : Azimuth {F}
BSC                .mm                                     : Nominal Caliper {F}
CALI               .mm                                     : Caliper {F}
DEVI               .deg                                    : Deviatiom {F}
DTP                .US/M                                   : Sonic travel time {F}
GR                 .мкР/ч                                  : GAMMA RAYS {F}
GZ3                .OHMM                                   : APP.RESISTIVITY BY LATERAL A2.0M0.5N {F}
GZB                .OHMM                                   : APP.RESISTIVITY BY LATERAL N0.5M2.0A {F}
IKD1F3             .OHMM                                   : Induction zonde IKD1F3 {F}
IKD2F3             .OHMM                                   : Induction zonde IKD2F3 {F}
IKD3F3             .OHMM                                   : Induction zonde IKD3F3 {F}
IKD4F3             .OHMM                                   : Induction zonde IKD4F3 {F}
IKD5F3             .OHMM                                   : Induction zonde IKD5F3 {F}
LL3                .OHMM                                   : APPAR.RESIST. LATEROLOG 3 ELECTRODES {F}
MINV               .OHMM                                   : MICROLATERAL A0.025M0.025N {F}
MLL                .OHMM                                   : MICROLATEROLOG {F}
MNOR               .OHMM                                   : MICRONORMAL A0.05M {F}
PHI_FINAL          .m3/m3                                  : Porosity {F}
RB                 .OHMM                                   : Mud Resistivity {F}
RHOB               .G/C3                                   : BULK DENSITY BY DGGL {F}
SP                 .mV                                     : Spontaneous Potential {F}
SW_AR              .m3/m3                                  :  {F}
TEMP               .C                                      : Formation Temperature {F}
TNPH               .V/V                                    : Neutron porosity {F}
VSH_GR             .unitless                               : Shale volume fraction from Gamma Ray {F}
~Ascii
# ...
814        205.0446   215.9      214.664    0.8853     258.9755   7.2919     8.6062     6.2244     6.716800212860107 7.716000080108643 9.813799858093262 11.57419967651367 11.79780006408691 6.0582     2.6728     3.4568     2.9957     0.02296876 0.2516     2.8039     46.722     1          34.9477    0.2229     0.5544472 
814.1      204.7396   215.9      214.25     0.8938     286.2163   7.0726     8.6192     6.1036     6.357800006866455 7.409599781036377 9.484999656677246 11.08880043029785 11.40480041503906 6.238      2.0251     3.6692     1.8423     0.05587801 0.2454     2.7676     46.7715    1          34.9501    0.2252     0.4809736 
814.2      204.3292   215.9      214.4602   0.906      256.026    6.885      8.6814     6.0128     6.23859977722168 7.292399883270264 9.302399635314941 10.77820014953613 11.06859970092773 6.525      1.1395     3.1188     1.5542     0.05935432 0.2422     2.7244     46.7922    1          34.9496    0.2147     0.4248803 
814.3      203.7464   215.9      216.5868   0.9298     215.4307   6.8574     8.7496     5.927      6.242000102996826 7.052000045776367 9.085599899291992 10.54660034179688 10.72060012817383 6.7176     3.7689     2.9978     5.5924     0.06452095 0.238      2.7023     46.7951    1          34.9483    0.2034     0.4171125 
814.4      203.0456   215.9      218.4778   0.9589     215.7093   6.9371     8.8298     5.841      5.915599822998047 6.786600112915039 8.822199821472168 10.30920028686523 10.60000038146973 6.6262     1.9794     2.8818     2.5078     0.05814646 0.2336     2.7106     46.7855    1          34.948     0.1956     0.4398737 
814.5      202.532    215.9      219.1352   0.9556     186.0421   6.9735     8.9146     5.759      5.674799919128418 6.79419994354248 8.77400016784668 10.14820003509521 10.62360000610352 6.4046     1.7785     2.6538     1.8378     0.05029864 0.231      2.7362     46.7658    1          34.9487    0.1987     0.4506108 
814.6      202.0972   215.9      219.1974   0.9284     199.5338   6.972      8.8934     5.7062     5.623000144958496 6.864999771118164 8.861000061035156 10.24860000610352 10.73260021209717 6.2292     1.0566     2.8414     0.943      0.04661283 0.2268     2.7563     46.7199    1          34.9483    0.2095     0.450164  
814.7      201.2996   215.9      219.8694   0.9191     238.5514   7.0099     8.8322     5.6442     5.60319995880127 7.012800216674805 9.18340015411377 10.50419998168945 10.92679977416992 6.141      0.7555     2.9066     0.9487     0.04425277 0.2266     2.761      46.6562    1          34.948     0.2115     0.4615685 
814.8      200.3316   215.9      220.4082   0.9227     227.5119   7.1209     8.763      5.6004     6.017399787902832 7.408599853515625 9.625200271606445 10.95359992980957 11.31340026855469 6.1194     2.414      2.7618     2.7105     0.03995413 0.2292     2.7602     46.6002    1          34.948     0.21       0.4963924 
814.9      199.7718   215.9      220.0506   0.9218     153.2366   7.2341     8.712      5.6022     6.466800212860107 7.802599906921387 10.09780025482178 11.51640033721924 11.75819969177246 6.0282     2.7315     2.7382     2.4073     0.03596201 0.2314     2.7662     46.5699    1          34.948     0.2239     0.5342005 
815        199.4654   215.9      218.6042   0.918      95.544     7.1777     8.665      5.6212     6.206799983978271 7.868800163269043 10.43760013580322 11.75619983673096 11.98299980163574 5.9274     1.4257     2.9482     1.0713     0.03986353 0.2382     2.7723     46.5699    1          34.9466    0.2434     0.5150644 
815.1      198.9884   215.9      217.4022   0.9175     130.6646   6.8576     8.6508     5.6292     6.007199764251709 7.737199783325195 10.3129997253418 11.62119960784912 12.14459991455078 5.8486     0.5221     3.249      0.704      0.05443356 0.244      2.7688     46.5866    1          34.9467    0.253      0.4171684 
815.2      198.5218   215.9      217.188    0.9202     177.5792   6.3955     8.6312     5.6204     6.035999774932861 7.633600234985352 9.927800178527832 11.3129997253418 12.19139957427979 5.8348     0.9303     3.439      0.7393     0.0699169  0.2484     2.7627     46.6009    1          34.9477    0.2521     0.303408  
815.3      198.6384   215.9      217.581    0.9316     184.1814   6.0629     8.5924     5.5896     5.985400199890137 7.44159984588623 9.534799575805664 11.02820014953613 12.03419971466064 5.9348     0.8437     3.2984     0.9359     0.07562333 0.249      2.7642     46.6141    1          34.9487    0.2406     0.2379095 
815.4      199.0264   215.9      217.7798   0.9475     135.8778   5.9499     8.62       5.541      5.619999885559082 7.087399959564209 9.055000305175781 10.68859958648682 11.70160007476807 6.0626     1.2807     3.199      1.0254     0.07296672 0.2444     2.775      46.6234    1          34.9483    0.228      0.218285  
815.5      199.237    215.9      218.248    0.9562     118.549    6.0032     8.6744     5.46       5.513599872589111 6.949399948120117 8.951600074768066 10.4399995803833 11.30440044403076 6.3084     0.5624     2.847      0.8413     0.06569665 0.2422     2.7864     46.646     1          34.948     0.2096     0.2273874 
815.6      199.3076   215.9      218.2208   0.9598     162.274    6.0863     8.75       5.3502     5.643199920654297 7.049799919128418 8.745400428771973 10.15100002288818 10.94099998474121 6.632      0.5598     2.8228     0.7885     0.05960288 0.2428     2.7885     46.7029    1          34.948     0.1869     0.2421304 
815.7      199.128    215.9      217.2864   0.9633     190.072    6.0784     8.8474     5.2234     5.629600048065186 7.051599979400635 8.583000183105469 9.835399627685547 10.57759952545166 6.8594     0.7184     3.2174     1.2161     0.06013781 0.2414     2.778      46.7955    1          34.9466    0.1716     0.2406993 
815.8      198.8012   215.9      216.468    0.9707     192.0313   5.9704     8.9768     5.1086     5.710599899291992 7.034599781036377 8.470800399780273 9.663800239562988 10.3257999420166 6.9082     1.0743     3.3232     1.2919     0.0657303  0.238      2.7615     46.9195    1          34.9467    0.1641     0.2217538 
815.9      198.3988   215.9      216.273    0.9995     178.9511   5.8583     9.1142     5.0084     5.952600002288818 7.122000217437744 8.513400077819824 9.59220027923584 10.18299961090088 6.9334     1.4027     3.1966     1.4417     0.07156313 0.233      2.749      47.0545    1          34.947     0.165      0.2032611 
816        197.9508   215.9      216.645    1.03       170.1538   5.8899     9.2398     4.9184     6.01140022277832 7.144199848175049 8.416000366210938 9.491600036621094 10.03940010070801 7.0214     1.2658     3.9324     1.7613     0.07235847 0.2282     2.7458     47.1872    1          34.9463    0.1683     0.2083574 
816.1      197.45     215.9      216.7368   1.0265     171.0027   6.1043     9.3198     4.8494     6.201200008392334 7.178199768066406 8.355999946594238 9.359000205993652 9.777400016784668 7.0982     2.7734     5.6028     5.5822     0.06597918 0.2246     2.7461     47.3266    1          34.9467    0.1577     0.2454151 
816.2      196.6776   215.9      216.1644   1.006      169.8537   6.4627     9.2778     4.8214     6.527599811553955 7.293200016021729 8.348799705505371 9.178400039672852 9.607199668884277 6.6738     5.4099     10.8406    13.4811    0.05477868 0.2228     2.75       47.4719    1          34.9484    0.1504     0.318184  
816.3      194.7992   215.9      214.8894   0.9715     167.8944   6.8629     9.1098     4.816      6.547399997711182 7.286600112915039 8.232000350952148 8.890000343322754 9.559800148010254 6.0846     6.512      15.097     11.7452    0.03923307 0.222      2.7692     47.6371    1          34.9497    0.1626     0.4186509 
816.4      192.7002   215.9      213.6      0.9515     176.8461   7.1884     8.8358     4.8242     6.150199890136719 6.882800102233887 7.780799865722656 8.609600067138672 9.526399612426758 5.5666     5.254      14.8894    6.0339     0.02328552 0.2224     2.7942     47.8261    1          34.95      0.1817     0.5186487 
