~Version
 VERS              .         3.0                           : CWLS LOG ASCII STANDARD - VERSION 3.0
 WRAP              .         NO                            : ONE LINE PER DEPTH STEP
 DLM               .         SPACE                         : DELIMITING CHARACTER(SPACE TAB OR COMMA)
~Well Information
#_______________________________________________________________________________
#
#PARAMETER_NAME    .UNIT     VALUE                         : DESCRIPTION
#_______________________________________________________________________________
STRT               .M        0                             : First reference value
STOP               .M        868                           : Last reference value
STEP               .M        0.1                           : Step increment
NULL               .         -9999                         : Missing value
COMP               .                                       : Company
WELL               .         334                           : Well name
FLD                .         Каратобе                      : Field
LOC                .                                       : Location
SRVC               .         SCH                           : Service Company
CTRY               .                                       : Country
DATE               .         10/09/2023                    : Service Date
LATI               .         0                             : Latitude
LONG               .         0                             : Longitude
GDAT               .                                       : Geodetic Datum
ORIGINALWELLNAME   .         Каратобе 334                  : 
RWS                .         -999                          : Def_Rw
WST                .         -999                          : Def_Rwt
~Parameter Information Block
#_______________________________________________________________________________
#
#PARAMETER_NAME    .UNIT     VALUE                         : DESCRIPTION
#_______________________________________________________________________________
SET                .         Las                           : 
TLFamily_AZIM      .         Hole Azimuth                  : 
TLFamily_BSC       .         Bit Size                      : 
TLFamily_CALI      .         Caliper                       : 
TLFamily_DEPTH     .         Measured Depth                : 
TLFamily_DEVI      .         Hole Deviation                : 
TLFamily_DTP       .         Compressional Slowness        : 
TLFamily_GR        .         Russian Gamma Ray             : 
TLFamily_GZ3       .         Gradient 225                  : 
TLFamily_GZB       .         Gradient Inverted 225         : 
TLFamily_IKD1F3    .         Conductivity                  : 
TLFamily_IKD2F3    .         Conductivity                  : 
TLFamily_IKD3F3    .         Conductivity                  : 
TLFamily_IKD4F3    .         Conductivity                  : 
TLFamily_IKD5F3    .         Conductivity                  : 
TLFamily_LL3       .         Lateral Log Resistivity       : 
TLFamily_MINV      .         Micro Gradient Resistivity    : 
TLFamily_MLL       .         Micro Resistivity             : 
TLFamily_MNOR      .         Micro Resistivity             : 
TLFamily_PHI_FINAL .         Porosity                      : 
TLFamily_RB        .         Mud Resistivity               : 
TLFamily_RHOB      .         Bulk Density                  : 
TLFamily_SP        .         Spontaneous Potential         : 
TLFamily_SW_AR     .         Water Saturation              : 
TLFamily_TEMP      .         Temperature                   : 
TLFamily_TNPH      .         Neutron Porosity              : 
TLFamily_VSH_GR    .         Shale Volume                  : 
~Curve Information
#_______________________________________________________________________________
#
#LOGNAME           .UNIT     LOG_ID                        : DESCRIPTION
#_______________________________________________________________________________
DEPTH              .M                                      : DEPTH {F}
AZIM               .deg                                    : Azimuth {F}
BSC                .mm                                     : Nominal Caliper {F}
CALI               .mm                                     : Caliper {F}
DEVI               .deg                                    : Deviatiom {F}
DTP                .US/M                                   : Sonic travel time {F}
GR                 .мкР/ч                                  : GAMMA RAYS {F}
GZ3                .OHMM                                   : APP.RESISTIVITY BY LATERAL A2.0M0.5N {F}
GZB                .OHMM                                   : APP.RESISTIVITY BY LATERAL N0.5M2.0A {F}
IKD1F3             .OHMM                                   : Induction zonde IKD1F3 {F}
IKD2F3             .OHMM                                   : Induction zonde IKD2F3 {F}
IKD3F3             .OHMM                                   : Induction zonde IKD3F3 {F}
IKD4F3             .OHMM                                   : Induction zonde IKD4F3 {F}
IKD5F3             .OHMM                                   : Induction zonde IKD5F3 {F}
LL3                .OHMM                                   : APPAR.RESIST. LATEROLOG 3 ELECTRODES {F}
MINV               .OHMM                                   : MICROLATERAL A0.025M0.025N {F}
MLL                .OHMM                                   : MICROLATEROLOG {F}
MNOR               .OHMM                                   : MICRONORMAL A0.05M {F}
PHI_FINAL          .m3/m3                                  : Porosity {F}
RB                 .OHMM                                   : Mud Resistivity {F}
RHOB               .G/C3                                   : BULK DENSITY BY DGGL {F}
SP                 .mV                                     : Spontaneous Potential {F}
SW_AR              .m3/m3                                  :  {F}
TEMP               .C                                      : Formation Temperature {F}
TNPH               .V/V                                    : Neutron porosity {F}
VSH_GR             .unitless                               : Shale volume fraction from Gamma Ray {F}
~Ascii
# ...
621.3      192.7161   215.9      209.7004   0.7831     377.6618   12.18      0.5782     1.5784     0.9049999713897705 0.9110000133514404 0.8579999804496765 0.8514000177383423 0.875      0.8372     0.5825     0.7828     0.5486     0.08295134 0.2353     2.379      40.9611    1          33.0304    0.2467     0.8745311 
621.4      193.1316   215.9      209.6668   0.7796     381.9875   12.3658    0.6298     1.5562     0.9769999980926514 0.982200026512146 0.9269999861717224 0.9154000282287598 0.9348000288009644 0.915      0.7445     1.3088     0.6265     0.06867858 0.2366     2.4083     40.8478    1          33.0333    0.2663     0.9245735 
621.5      193.2947   215.9      209.9074   0.7714     374.6993   12.4144    0.6814     1.5382     1.124600052833557 1.105999946594238 1.038400053977966 1.012599945068359 1.01639997959137 0.9384     0.8089     2.2748     0.7358     0.0625177  0.2389     2.4414     40.7379    1          33.0353    0.3007     0.9380894 
621.6      193.533    215.9      210.9326   0.7608     334.1169   12.3799    0.719      1.5264     1.291399955749512 1.258999943733215 1.172999978065491 1.128200054168701 1.106799960136414 0.9486     0.7942     2.5828     0.7164     0.06044756 0.2416     2.4692     40.6665    1          33.0376    0.3229     0.9284764 
621.7      194.0469   215.9      212.7926   0.7483     305.4057   12.3633    0.7362     1.523      1.407600045204163 1.393399953842163 1.291000008583069 1.230999946594238 1.189800024032593 0.9298     0.837      2.866      0.7553     0.05517328 0.2436     2.4876     40.6347    1          33.0411    0.318      0.9238832 
621.8      194.5076   215.9      214.1872   0.7385     325.0495   12.3872    0.7412     1.5176     1.494400024414063 1.474799990653992 1.368600010871887 1.312199950218201 1.265799999237061 0.905      0.9815     2.7632     0.8941     0.04941729 0.2447     2.4965     40.6116    1          33.0421    0.3054     0.9305028 
621.9      194.698    215.9      213.6414   0.7382     333.431    12.4166    0.7412     1.5102     1.546200037002563 1.506600022315979 1.389999985694885 1.349400043487549 1.324399948120117 0.8934     1.0888     2.3504     0.9018     0.04570617 0.244      2.4966     40.5674    1          33.0429    0.2918     0.9387055 
622        194.745    215.9      211.8654   0.7425     342.1082   12.4201    0.7366     1.5056     1.555799961090088 1.505399942398071 1.385200023651123 1.350000023841858 1.356400012969971 0.916      0.8884     1.8184     0.7858     0.04441547 0.2447     2.4879     40.5047    1          33.0425    0.2718     0.9396862 
622.1      194.6206   215.9      210.4228   0.7505     343.6559   12.4023    0.73       1.5196     1.558599948883057 1.492200016975403 1.38320004940033 1.347200036048889 1.366000056266785 0.94       0.9325     1.7842     0.8162     0.04688127 0.2457     2.4758     40.457     1          33.0451    0.2626     0.9347075 
622.2      194.5776   215.9      209.945    0.7586     349.4521   12.4004    0.7264     1.5374     1.564800024032593 1.509400010108948 1.39520001411438 1.355599999427795 1.367599964141846 0.9576     0.9949     1.8964     0.8651     0.0514286  0.2454     2.4672     40.4685    1          33.0461    0.2747     0.9341775 
622.3      194.8045   215.9      209.937    0.7644     338.1426   12.4526    0.7288     1.5526     1.609400033950806 1.572999954223633 1.434000015258789 1.376399993896484 1.376799941062927 0.9626     0.9893     2.0872     0.8439     0.04941155 0.2467     2.4628     40.547     1          33.0468    0.2689     0.9488401 
622.4      195.2228   215.9      209.8948   0.7679     344.2089   12.5813    0.7322     1.5608     1.665799975395203 1.636600017547607 1.483199954032898 1.408800005912781 1.389000058174133 0.9536     1.0636     2.3352     0.9544     0.04056039 0.2487     2.4637     40.6652    1          33.0468    0.25       0.9859003 
622.5      195.8902   215.9      209.855    0.7694     344.3847   12.7317    0.7334     1.5678     1.678400039672852 1.672000050544739 1.527999997138977 1.440000057220459 1.394400000572205 0.9354     1.0522     2.2808     0.9157     0.03810664 0.2493     2.4717     40.7757    1          33.0515    0.2407     1         
622.6      196.4055   215.9      209.8946   0.7714     329.2424   12.8533    0.7358     1.5648     1.686400055885315 1.692600011825562 1.562600016593933 1.457800030708313 1.402999997138977 0.9126     1.0185     2.2738     0.9091     0.03537882 0.2484     2.4869     40.8445    1          33.0543    0.2364     1         
622.7      196.4331   215.9      209.998    0.7761     327.3517   12.9204    0.7398     1.552      1.692000031471252 1.690199971199036 1.571599960327148 1.46560001373291 1.417400002479553 0.8988     1.0573     2.2084     0.909      0.03220238 0.2494     2.5046     40.861     1          33.0562    0.2463     1         
622.8      196.2068   215.9      210.0402   0.7768     330.1384   12.929     0.744      1.5312     1.668400049209595 1.663800001144409 1.561800003051758 1.468999981880188 1.428400039672852 0.921      0.9117     1.82       0.8028     0.03161017 0.2504     2.5079     40.85      1          33.0572    0.2741     1         
622.9      195.7869   215.9      210.1558   0.7643     349.6493   12.8831    0.7504     1.508      1.636000037193298 1.632799983024597 1.544600009918213 1.476199984550476 1.436400055885315 0.953      0.8779     1.776      0.7694     0.04175876 0.2514     2.4946     40.8472    1          33.0583    0.3178     1         
623        195.4473   215.9      210.4492   0.7527     357.4477   12.7774    0.764      1.4882     1.637599945068359 1.632599949836731 1.548799991607666 1.495800018310547 1.450399994850159 0.9676     0.9399     2.2996     0.8858     0.04898289 0.252      2.4796     40.8845    1          33.0603    0.3343     1         
623.1      195.423    215.9      211.1256   0.7583     358.8796   12.6181    0.7844     1.4696     1.690400004386902 1.679800033569336 1.580600023269653 1.530200004577637 1.473999977111816 0.9602     1.0055     2.9312     0.9422     0.04756388 0.252      2.4701     40.9639    1          33.0622    0.3101     0.9967399 
623.2      195.1976   215.9      212.8472   0.7686     335.2787   12.5389    0.8068     1.4538     1.753200054168701 1.736999988555908 1.62119996547699 1.565600037574768 1.503399968147278 0.9522     1.0786     2.9228     0.9533     0.04851059 0.2541     2.4654     41.0662    1          33.0632    0.2889     0.973546  
623.3      194.3014   215.9      213.4974   0.771      334.9658   12.6564    0.8314     1.4446     1.773800015449524 1.761600017547607 1.649600028991699 1.597200036048889 1.530200004577637 0.9496     1.0734     2.6606     0.9567     0.04332138 0.2557     2.4636     41.1695    1          33.0642    0.2793     1         
623.4      193.6443   215.9      211.6704   0.7712     347.4029   12.9449    0.86       1.4446     1.773399949073792 1.76419997215271 1.664999961853027 1.620399951934814 1.556399941444397 0.9548     0.9712     2.3398     0.8859     0.04162812 0.2523     2.4651     41.2588    1          33.0653    0.272      1         
623.5      193.9298   215.9      210.4722   0.7755     345.1478   13.2642    0.8998     1.453      1.776999950408936 1.766199946403503 1.669800043106079 1.630599975585938 1.583400011062622 0.967      1.0077     2.4666     0.8735     0.03741565 0.2487     2.4771     41.3255    1          33.0677    0.2667     1         
623.6      194.3488   215.9      209.7352   0.7795     361.8035   13.4793    0.9584     1.4618     1.790199995040894 1.772199988365173 1.674200057983398 1.633399963378906 1.607200026512146 0.9722     0.9554     2.97       0.855      0.03390725 0.2488     2.4951     41.3642    1          33.0713    0.264      1         
623.7      194.3379   215.9      210.438    0.7784     380.3155   13.5314    1.0136     1.4662     1.811200022697449 1.77839994430542 1.678599953651428 1.635599970817566 1.61679995059967 0.9786     0.7411     3.2122     0.6919     0.03137685 0.2506     2.5092     41.37      1          33.073     0.2511     1         
