~Version
 VERS              .         3.0                           : CWLS LOG ASCII STANDARD - VERSION 3.0
 WRAP              .         NO                            : ONE LINE PER DEPTH STEP
 DLM               .         SPACE                         : DELIMITING CHARACTER(SPACE TAB OR COMMA)
~Well Information
#_______________________________________________________________________________
#
#PARAMETER_NAME    .UNIT     VALUE                         : DESCRIPTION
#_______________________________________________________________________________
STRT               .M        0                             : First reference value
STOP               .M        868                           : Last reference value
STEP               .M        0.1                           : Step increment
NULL               .         -9999                         : Missing value
COMP               .                                       : Company
WELL               .         334                           : Well name
FLD                .         Каратобе                      : Field
LOC                .                                       : Location
SRVC               .         SCH                           : Service Company
CTRY               .                                       : Country
DATE               .         10/09/2023                    : Service Date
LATI               .         0                             : Latitude
LONG               .         0                             : Longitude
GDAT               .                                       : Geodetic Datum
ORIGINALWELLNAME   .         Каратобе 334                  : 
RWS                .         -999                          : Def_Rw
WST                .         -999                          : Def_Rwt
~Parameter Information Block
#_______________________________________________________________________________
#
#PARAMETER_NAME    .UNIT     VALUE                         : DESCRIPTION
#_______________________________________________________________________________
SET                .         Las                           : 
TLFamily_AZIM      .         Hole Azimuth                  : 
TLFamily_BSC       .         Bit Size                      : 
TLFamily_CALI      .         Caliper                       : 
TLFamily_DEPTH     .         Measured Depth                : 
TLFamily_DEVI      .         Hole Deviation                : 
TLFamily_DTP       .         Compressional Slowness        : 
TLFamily_GR        .         Russian Gamma Ray             : 
TLFamily_GZ3       .         Gradient 225                  : 
TLFamily_GZB       .         Gradient Inverted 225         : 
TLFamily_IKD1F3    .         Conductivity                  : 
TLFamily_IKD2F3    .         Conductivity                  : 
TLFamily_IKD3F3    .         Conductivity                  : 
TLFamily_IKD4F3    .         Conductivity                  : 
TLFamily_IKD5F3    .         Conductivity                  : 
TLFamily_LL3       .         Lateral Log Resistivity       : 
TLFamily_MINV      .         Micro Gradient Resistivity    : 
TLFamily_MLL       .         Micro Resistivity             : 
TLFamily_MNOR      .         Micro Resistivity             : 
TLFamily_PHI_FINAL .         Porosity                      : 
TLFamily_RB        .         Mud Resistivity               : 
TLFamily_RHOB      .         Bulk Density                  : 
TLFamily_SP        .         Spontaneous Potential         : 
TLFamily_SW_AR     .         Water Saturation              : 
TLFamily_TEMP      .         Temperature                   : 
TLFamily_TNPH      .         Neutron Porosity              : 
TLFamily_VSH_GR    .         Shale Volume                  : 
~Curve Information
#_______________________________________________________________________________
#
#LOGNAME           .UNIT     LOG_ID                        : DESCRIPTION
#_______________________________________________________________________________
DEPTH              .M                                      : DEPTH {F}
AZIM               .deg                                    : Azimuth {F}
BSC                .mm                                     : Nominal Caliper {F}
CALI               .mm                                     : Caliper {F}
DEVI               .deg                                    : Deviatiom {F}
DTP                .US/M                                   : Sonic travel time {F}
GR                 .мкР/ч                                  : GAMMA RAYS {F}
GZ3                .OHMM                                   : APP.RESISTIVITY BY LATERAL A2.0M0.5N {F}
GZB                .OHMM                                   : APP.RESISTIVITY BY LATERAL N0.5M2.0A {F}
IKD1F3             .OHMM                                   : Induction zonde IKD1F3 {F}
IKD2F3             .OHMM                                   : Induction zonde IKD2F3 {F}
IKD3F3             .OHMM                                   : Induction zonde IKD3F3 {F}
IKD4F3             .OHMM                                   : Induction zonde IKD4F3 {F}
IKD5F3             .OHMM                                   : Induction zonde IKD5F3 {F}
LL3                .OHMM                                   : APPAR.RESIST. LATEROLOG 3 ELECTRODES {F}
MINV               .OHMM                                   : MICROLATERAL A0.025M0.025N {F}
MLL                .OHMM                                   : MICROLATEROLOG {F}
MNOR               .OHMM                                   : MICRONORMAL A0.05M {F}
PHI_FINAL          .m3/m3                                  : Porosity {F}
RB                 .OHMM                                   : Mud Resistivity {F}
RHOB               .G/C3                                   : BULK DENSITY BY DGGL {F}
SP                 .mV                                     : Spontaneous Potential {F}
SW_AR              .m3/m3                                  :  {F}
TEMP               .C                                      : Formation Temperature {F}
TNPH               .V/V                                    : Neutron porosity {F}
VSH_GR             .unitless                               : Shale volume fraction from Gamma Ray {F}
~Ascii
# ...
186.1      95.365     215.9      214.5638   0.7611     437.6908   9.051      4.1626     4.3522     3.276599884033203 3.743400096893311 4.039199829101563 4.38040018081665 4.464000225067139 3.9216     0.8223     2.5052     0.8073     0.09401051 0.241      2.444      41.6347    1          25.8515    0.2491     0.4700166 
186.2      95.1444    215.9      214.1996   0.7533     453.5362   9.2344     4.125      4.4272     3.088399887084961 3.677599906921387 4.001800060272217 4.302800178527832 4.344200134277344 3.8738     0.7982     2.542      0.8105     0.08062612 0.2412     2.4422     41.5228    1          25.854     0.2425     0.5095003 
186.3      94.901     215.9      213.8468   0.7471     462.012    9.5386     4.0592     4.5194     3.17140007019043 3.788399934768677 4.054999828338623 4.283999919891357 4.349800109863281 3.8458     0.812      2.8972     0.8019     0.07093085 0.242      2.4326     41.4391    1          25.854     0.2344     0.5813029 
186.4      94.816     215.9      213.6644   0.7462     452.9875   9.828      3.9684     4.605      3.272599935531616 3.819000005722046 4.045400142669678 4.26639986038208 4.375199794769287 3.8382     0.8563     2.939      0.792      0.06233267 0.2422     2.419      41.3831    1          25.8555    0.2307     0.6576737 
186.5      95.384     215.9      213.6532   0.7638     442.5439   9.9463     3.8732     4.6402     3.19379997253418 3.745599985122681 4.0524001121521 4.307000160217285 4.417200088500977 3.8746     0.8664     3.0938     0.8        0.06050864 0.2428     2.4082     41.3367    1          25.8599    0.2322     0.6913652 
186.6      95.8108    215.9      213.6684   0.7771     449.5149   9.8686     3.8016     4.6552     3.162199974060059 3.789200067520142 4.143400192260742 4.391600131988525 4.50059986114502 3.9432     0.8445     3.2424     0.8316     0.06684176 0.242      2.4066     41.2726    1          25.863     0.25       0.669068  
186.7      95.4532    215.9      213.7008   0.7667     458.7923   9.7954     3.787      4.67       3.268199920654297 3.95580005645752 4.330999851226807 4.524600028991699 4.573599815368652 3.9702     0.8321     3.1758     0.7738     0.07219186 0.2418     2.4128     41.1868    1          25.8634    0.2844     0.6486495 
186.8      95.2702    215.9      213.8432   0.7565     461.2103   9.8269     3.8032     4.7        3.378599882125854 4.097599983215332 4.493599891662598 4.672999858856201 4.642000198364258 3.9832     0.8013     2.9796     0.7274     0.0729882  0.2414     2.4152     41.1055    1          25.8655    0.3009     0.6573672 
186.9      95.9738    215.9      214.1222   0.7531     462.0163   9.9218     3.8228     4.7312     3.469799995422363 4.118599891662598 4.526999950408936 4.697800159454346 4.688799858093262 4.0102     0.7683     2.9252     0.7392     0.06801554 0.243      2.4067     41.0543    1          25.8688    0.282      0.6842641 
187        96.4904    215.9      214.3586   0.7509     464.8244   9.9707     3.8348     4.7682     3.414000034332275 4.079400062561035 4.475800037384033 4.618800163269043 4.712800025939941 4.0386     0.8055     3.2558     0.7194     0.06922552 0.2432     2.3916     41.0442    1          25.8712    0.2696     0.698503  
187.1      96.209     215.9      214.4238   0.7511     466.7536   9.9358     3.8434     4.8014     3.354599952697754 3.983000040054321 4.366600036621094 4.531400203704834 4.68779993057251 3.9796     0.8685     3.2176     0.7998     0.07743296 0.2444     2.3782     41.0734    1          25.8734    0.2876     0.688314  
187.2      95.9422    215.9      214.3508   0.7509     467.371    9.8922     3.8684     4.805      3.273999929428101 3.86680006980896 4.176199913024902 4.481599807739258 4.639999866485596 3.9358     0.8291     3.3372     0.7829     0.08183763 0.2458     2.3736     41.127     1          25.8736    0.2946     0.6757717 
187.3      95.8732    215.9      214.4224   0.7462     477.6645   9.9322     3.8822     4.8162     3.215199947357178 3.845599889755249 4.226399898529053 4.532800197601318 4.644800186157227 3.9122     0.8789     3.2876     0.7629     0.07658101 0.2452     2.377      41.199     1          25.875     0.2752     0.6872706 
187.4      95.704     215.9      214.5238   0.7407     491.3277   10.0418    3.882      4.833      3.329799890518188 4.005599975585938 4.413599967956543 4.624800205230713 4.644599914550781 3.918      0.8715     3.3536     0.7781     0.06622607 0.2462     2.3834     41.2891    1          25.8788    0.2506     0.7196784 
187.5      95.0424    215.9      214.6036   0.7353     490.8518   10.1281    3.8834     4.8466     3.538399934768677 4.221000194549561 4.56820011138916 4.728000164031982 4.631999969482422 3.924      0.8619     3.2804     0.8124     0.05850784 0.2476     2.3891     41.4003    1          25.8808    0.2384     0.7461537 
187.6      94.4554    215.9      214.7212   0.7295     475.8424   10.2015    3.9118     4.8322     3.627599954605103 4.275800228118896 4.560200214385986 4.731599807739258 4.635600090026855 3.934      0.8259     3.6566     0.7863     0.05011061 0.2496     2.3936     41.5397    1          25.8828    0.2128     0.7693571 
187.7      94.3672    215.9      214.8382   0.7222     459.7698   10.2968    3.9444     4.8024     3.581599950790405 4.201600074768066 4.454400062561035 4.682400226593018 4.651199817657471 3.9462     0.8346     3.9544     0.8127     0.04509738 0.2482     2.3976     41.687     1          25.8844    0.1893     0.8004553 
187.8      94.2162    215.9      215.0506   0.7153     452.4687   10.3894    3.9758     4.7414     3.547800064086914 4.083600044250488 4.417799949645996 4.676000118255615 4.741199970245361 3.964      0.7586     3.8336     0.8223     0.04291248 0.2492     2.4001     41.8109    1          25.8862    0.2024     0.831759  
187.9      93.5538    215.9      215.5876   0.7098     439.6715   10.4246    4.025      4.612      3.311599969863892 3.941200017929077 4.401199817657471 4.676799774169922 4.863399982452393 3.967      0.8094     4.1336     0.7843     0.04242172 0.2496     2.3993     41.8919    1          25.8892    0.2325     0.8439474 
188        92.9164    215.9      216.5898   0.7051     428.0404   10.374     4.075      4.3242     3.155600070953369 3.924999952316284 4.553999900817871 4.864200115203857 5.046999931335449 3.96       0.6918     4.2976     0.7773     0.04303314 0.2466     2.4009     41.9359    1          25.8922    0.2458     0.8264771 
188.1      92.775     215.9      217.993    0.7035     457.3947   10.2655    4.1252     3.987      3.27180004119873 4.157000064849854 4.850200176239014 5.143400192260742 5.184599876403809 3.9396     0.4449     5.1654     0.6492     0.04796724 0.2396     2.3965     41.976     1          25.8948    0.2317     0.7901185 
188.2      92.7154    215.9      219.4976   0.7022     489.3213   10.1741    4.175      3.6802     3.533600091934204 4.635799884796143 5.211800098419189 5.381999969482422 5.162199974060059 3.8978     0.4136     6.0068     0.4847     0.06409597 0.233      2.3642     42.0353    1          25.896     0.2358     0.7606203 
188.3      92.6366    215.9      221.1608   0.6993     484.1938   10.1097    4.2054     3.482      3.895800113677979 5.109000205993652 5.501200199127197 5.410600185394287 4.997600078582764 3.8442     0.2627     4.4646     0.3924     0.0895761  0.2286     2.3068     42.1066    1          25.8972    0.2611     0.7404366 
188.4      92.5708    215.9      224.263    0.6955     485.1928   9.9877     4.16       3.3794     3.999799966812134 5.120200157165527 5.351799964904785 5.073999881744385 4.733200073242188 3.7256     0.2235     4.3728     0.3507     0.1179503  0.2272     2.24       42.1778    1          25.9011    0.2593     0.7035148 
188.5      92.5732    215.9      233.9      0.6907     477.4501   9.7829     4.0266     3.4314     3.486999988555908 4.485199928283691 4.605400085449219 4.502399921417236 4.382999897003174 3.5354     0.4721     5.5942     0.3992     0.1454569  0.228      2.1864     42.2408    1          25.9044    0.2569     0.6452186 
