~Version
 VERS              .         3.0                           : CWLS LOG ASCII STANDARD - VERSION 3.0
 WRAP              .         NO                            : ONE LINE PER DEPTH STEP
 DLM               .         SPACE                         : DELIMITING CHARACTER(SPACE TAB OR COMMA)
~Well Information
#_______________________________________________________________________________
#
#PARAMETER_NAME    .UNIT     VALUE                         : DESCRIPTION
#_______________________________________________________________________________
STRT               .M        0                             : First reference value
STOP               .M        868                           : Last reference value
STEP               .M        0.1                           : Step increment
NULL               .         -9999                         : Missing value
COMP               .                                       : Company
WELL               .         334                           : Well name
FLD                .         Каратобе                      : Field
LOC                .                                       : Location
SRVC               .         SCH                           : Service Company
CTRY               .                                       : Country
DATE               .         10/09/2023                    : Service Date
LATI               .         0                             : Latitude
LONG               .         0                             : Longitude
GDAT               .                                       : Geodetic Datum
ORIGINALWELLNAME   .         Каратобе 334                  : 
RWS                .         -999                          : Def_Rw
WST                .         -999                          : Def_Rwt
~Parameter Information Block
#_______________________________________________________________________________
#
#PARAMETER_NAME    .UNIT     VALUE                         : DESCRIPTION
#_______________________________________________________________________________
SET                .         Las                           : 
TLFamily_AZIM      .         Hole Azimuth                  : 
TLFamily_BSC       .         Bit Size                      : 
TLFamily_CALI      .         Caliper                       : 
TLFamily_DEPTH     .         Measured Depth                : 
TLFamily_DEVI      .         Hole Deviation                : 
TLFamily_DTP       .         Compressional Slowness        : 
TLFamily_GR        .         Russian Gamma Ray             : 
TLFamily_GZ3       .         Gradient 225                  : 
TLFamily_GZB       .         Gradient Inverted 225         : 
TLFamily_IKD1F3    .         Conductivity                  : 
TLFamily_IKD2F3    .         Conductivity                  : 
TLFamily_IKD3F3    .         Conductivity                  : 
TLFamily_IKD4F3    .         Conductivity                  : 
TLFamily_IKD5F3    .         Conductivity                  : 
TLFamily_LL3       .         Lateral Log Resistivity       : 
TLFamily_MINV      .         Micro Gradient Resistivity    : 
TLFamily_MLL       .         Micro Resistivity             : 
TLFamily_MNOR      .         Micro Resistivity             : 
TLFamily_PHI_FINAL .         Porosity                      : 
TLFamily_RB        .         Mud Resistivity               : 
TLFamily_RHOB      .         Bulk Density                  : 
TLFamily_SP        .         Spontaneous Potential         : 
TLFamily_SW_AR     .         Water Saturation              : 
TLFamily_TEMP      .         Temperature                   : 
TLFamily_TNPH      .         Neutron Porosity              : 
TLFamily_VSH_GR    .         Shale Volume                  : 
~Curve Information
#_______________________________________________________________________________
#
#LOGNAME           .UNIT     LOG_ID                        : DESCRIPTION
#_______________________________________________________________________________
DEPTH              .M                                      : DEPTH {F}
AZIM               .deg                                    : Azimuth {F}
BSC                .mm                                     : Nominal Caliper {F}
CALI               .mm                                     : Caliper {F}
DEVI               .deg                                    : Deviatiom {F}
DTP                .US/M                                   : Sonic travel time {F}
GR                 .мкР/ч                                  : GAMMA RAYS {F}
GZ3                .OHMM                                   : APP.RESISTIVITY BY LATERAL A2.0M0.5N {F}
GZB                .OHMM                                   : APP.RESISTIVITY BY LATERAL N0.5M2.0A {F}
IKD1F3             .OHMM                                   : Induction zonde IKD1F3 {F}
IKD2F3             .OHMM                                   : Induction zonde IKD2F3 {F}
IKD3F3             .OHMM                                   : Induction zonde IKD3F3 {F}
IKD4F3             .OHMM                                   : Induction zonde IKD4F3 {F}
IKD5F3             .OHMM                                   : Induction zonde IKD5F3 {F}
LL3                .OHMM                                   : APPAR.RESIST. LATEROLOG 3 ELECTRODES {F}
MINV               .OHMM                                   : MICROLATERAL A0.025M0.025N {F}
MLL                .OHMM                                   : MICROLATEROLOG {F}
MNOR               .OHMM                                   : MICRONORMAL A0.05M {F}
PHI_FINAL          .m3/m3                                  : Porosity {F}
RB                 .OHMM                                   : Mud Resistivity {F}
RHOB               .G/C3                                   : BULK DENSITY BY DGGL {F}
SP                 .mV                                     : Spontaneous Potential {F}
SW_AR              .m3/m3                                  :  {F}
TEMP               .C                                      : Formation Temperature {F}
TNPH               .V/V                                    : Neutron porosity {F}
VSH_GR             .unitless                               : Shale volume fraction from Gamma Ray {F}
~Ascii
# ...
523.8      187.515    215.9      213.9396   0.9335     406.2615   11.3546    1.913      2.6782     2.418200016021729 2.411999940872192 2.377799987792969 2.443000078201294 2.572200059890747 1.8092     0.7065     3.3102     0.7743     0.09373424 0.2166     2.3961     43.6484    1          31.8396    0.2999     0.8427361 
523.9      187.1146   215.9      217.8038   0.9273     403.805    10.605     1.9542     2.554      2.505199909210205 2.469599962234497 2.461600065231323 2.54200005531311 2.650799989700317 1.8606     0.8922     3.4252     0.746      0.1827422  0.2152     2.2572     43.484     1          31.8424    0.3152     0.6574321 
524        186.6564   215.9      216.3476   0.9182     413.464    10.0241    2.0214     2.4606     2.596999883651733 2.569999933242798 2.57480001449585 2.680799961090088 2.717600107192993 1.9294     0.9542     4.152      1.2054     0.2704808  0.2162     2.1044     43.2734    0.7465188  31.8455    0.3579     0.5397505 
524.1      186.279    215.9      213.3866   0.9118     403.6935   9.8417     2.0924     2.4174     2.764600038528442 2.710400104522705 2.725399971008301 2.823199987411499 2.770400047302246 1.972      1.8338     4.1294     1.2525     0.314114   0.217      1.9892     43.0499    0.6352768  31.8477    0.3819     0.5068079 
524.2      186.1638   215.9      211.7874   0.9165     402.3259   10.1105    2.1524     2.3942     2.853399991989136 2.783999919891357 2.840199947357178 2.9028000831604 2.80019998550415 1.9626     0.9545     3.206      0.8353     0.3158176  0.2172     1.9445     42.8438    0.6334841  31.8471    0.3727     0.5559909 
524.3      186.0742   215.9      211.7692   0.9131     423.3931   10.6626    2.1734     2.3958     2.73580002784729 2.725199937820435 2.836800098419189 2.898400068283081 2.806999921798706 1.8912     0.8397     2.76       0.7107     0.2841172  0.2176     1.9743     42.663     0.7184129  31.8487    0.3189     0.6702498 
524.4      186.0914   215.9      211.6688   0.8724     383.7839   11.1553    2.1446     2.435      2.573800086975098 2.589799880981445 2.716599941253662 2.821399927139282 2.75219988822937 1.8046     0.8606     2.4504     0.7425     0.2018096  0.216      2.0716     42.5069    1          31.8507    0.2547     0.7893621 
524.5      186.3226   215.9      211.1408   0.8353     337.5081   11.3071    2.0896     2.5598     2.397599935531616 2.471400022506714 2.619800090789795 2.745199918746948 2.676599979400635 1.7388     0.8927     2.1534     0.7092     0.1477239  0.2164     2.2167     42.3803    1          31.851     0.2483     0.8297262 
524.6      187.406    215.9      210.4828   0.8431     348.286    11.0717    2.0218     2.8058     2.311800003051758 2.467999935150146 2.609800100326538 2.664000034332275 2.59660005569458 1.723      0.9572     2.2158     0.7689     0.1091918  0.218      2.3622     42.2978    1          31.851     0.2679     0.7679001 
524.7      188.2132   215.9      210.3618   0.8607     355.7457   10.6867    1.9494     3.15       2.418600082397461 2.550800085067749 2.625      2.616199970245361 2.525199890136719 1.7208     0.9361     2.2002     0.7193     0.09469206 0.218      2.4418     42.2658    1          31.8519    0.2701     0.6756784 
524.8      187.6268   215.9      210.3678   0.8469     352.4875   10.2922    1.8724     3.5132     2.430999994277954 2.561000108718872 2.624200105667114 2.56439995765686 2.45740008354187 1.6856     0.7809     1.9704     0.6545     0.09580418 0.218      2.4655     42.2768    1          31.8529    0.2554     0.5915398 
524.9      187.2952   215.9      210.3168   0.822      351.4028   9.9872     1.8058     3.7706     2.282399892807007 2.476000070571899 2.540800094604492 2.471800088882446 2.410200119018555 1.6388     0.7442     1.8502     0.6147     0.1108214  0.218      2.4565     42.3072    1          31.8582    0.2494     0.5329408 
525        188.783    215.9      210.2416   0.8165     354.2666   9.8102     1.773      3.936      2.229199886322021 2.4028000831604 2.467400074005127 2.433599948883057 2.436599969863892 1.6222     0.706      1.7812     0.5993     0.128913   0.218      2.4329     42.343     1          31.8573    0.2613     0.5012979 
525.1      190.3572   215.9      210.1774   0.8216     346.5754   9.7383     1.7864     4.0008     2.225199937820435 2.392600059509277 2.443399906158447 2.461800098419189 2.516999959945679 1.6556     0.7182     1.77       0.6286     0.1348204  0.2178     2.4111     42.3847    1          31.8553    0.2642     0.4889133 
525.2      190.1594   215.9      210.1422   0.8251     335.5531   9.723      1.8676     3.9296     2.301399946212769 2.479000091552734 2.538399934768677 2.579600095748901 2.661400079727173 1.7572     0.9792     2.0428     0.8255     0.1298022  0.2164     2.4106     42.4377    1          31.8576    0.2704     0.4863118 
525.3      189.5664   215.9      210.212    0.828      266.0322   9.7207     2.026      3.7876     2.600199937820435 2.749399900436401 2.842400074005127 2.842600107192993 2.881599903106689 1.9448     1.2186     3.3468     1.2295     0.1173379  0.214      2.4532     42.5022    1          31.8563    0.2901     0.4859219 
525.4      190.2274   215.9      210.5378   0.832      220.6224   9.6917     2.2788     3.6004     3.158400058746338 3.242399930953979 3.296600103378296 3.233400106430054 3.186599969863892 2.16       3.2121     7.56       3.036      0.09378204 0.2144     2.5323     42.5634    1          31.856     0.2849     0.481027  
525.5      191.25     215.9      211.2876   0.8369     227.1904   9.6001     2.5874     3.387      3.732199907302856 3.772200107574463 3.739799976348877 3.654599905014038 3.542999982833862 2.2844     3.6524     9.3998     2.809      0.06144341 0.2162     2.6295     42.6121    1          31.8595    0.2539     0.4658408 
525.6      191.4562   215.9      212.0698   0.8393     263.8929   9.4242     2.9132     3.1548     4.109200000762939 4.054599761962891 4.057000160217285 4.042600154876709 3.890799999237061 2.3372     2.5034     8.3144     2.33       0.03194642 0.2168     2.7257     42.6516    1          31.8635    0.2279     0.4378157 
525.7      191.226    215.9      212.2646   0.8405     295.8453   9.1879     3.2268     2.9364     4.228000164031982 4.104400157928467 4.183199882507324 4.275199890136719 4.119200229644775 2.3602     5.0028     12.1052    5.6192     0.01345486 0.2166     2.8059     42.6938    1          31.8649    0.218      0.4024066 
525.8      191.188    215.9      212.1128   0.8436     302.9534   8.979      3.5074     2.7332     4.36460018157959 4.177800178527832 4.280799865722656 4.337999820709229 4.204400062561035 2.398      5.5398     22.3832    6.2771     0.00999032 0.2188     2.8588     42.741     1          31.865     0.2115     0.3731136 
525.9      191.1546   215.9      211.888    0.8482     302.9534   8.8971     3.7676     2.5572     4.590000152587891 4.287399768829346 4.29640007019043 4.256400108337402 4.171800136566162 2.3652     5.1143     19.143     4.1679     0.00617191 0.2178     2.8924     42.79      1          31.8633    0.2005     0.3621177 
526        190.4016   215.9      211.9482   0.8527     324.3679   8.9941     3.982      2.42       4.626800060272217 4.211800098419189 4.145800113677979 4.031199932098389 3.976399898529053 2.2374     2.6619     8.6078     1.9419     0.01109689 0.2178     2.9113     42.8297    1          31.8648    0.1938     0.3751705 
526.1      189.3084   215.9      212.2882   0.8569     375.3253   9.2448     4.1042     2.3176     4.138599872589111 3.845400094985962 3.771199941635132 3.726200103759766 3.672600030899048 2.0372     1.4158     3.9772     1.1963     0.03642    0.2208     2.9027     42.8567    1          31.8668    0.2072     0.4107065 
526.2      189.5172   215.9      212.7528   0.8589     395.5736   9.587      4.1306     2.2576     3.50819993019104 3.431400060653687 3.371999979019165 3.382400035858154 3.339600086212158 1.9354     1.5842     3.6412     1.1389     0.04604076 0.2194     2.8584     42.87      1          31.8661    0.2419     0.4637027 
