~Version
 VERS              .         3.0                           : CWLS LOG ASCII STANDARD - VERSION 3.0
 WRAP              .         NO                            : ONE LINE PER DEPTH STEP
 DLM               .         SPACE                         : DELIMITING CHARACTER(SPACE TAB OR COMMA)
~Well Information
#_______________________________________________________________________________
#
#PARAMETER_NAME    .UNIT     VALUE                         : DESCRIPTION
#_______________________________________________________________________________
STRT               .M        0                             : First reference value
STOP               .M        868                           : Last reference value
STEP               .M        0.1                           : Step increment
NULL               .         -9999                         : Missing value
COMP               .                                       : Company
WELL               .         334                           : Well name
FLD                .         Каратобе                      : Field
LOC                .                                       : Location
SRVC               .         SCH                           : Service Company
CTRY               .                                       : Country
DATE               .         10/09/2023                    : Service Date
LATI               .         0                             : Latitude
LONG               .         0                             : Longitude
GDAT               .                                       : Geodetic Datum
ORIGINALWELLNAME   .         Каратобе 334                  : 
RWS                .         -999                          : Def_Rw
WST                .         -999                          : Def_Rwt
~Parameter Information Block
#_______________________________________________________________________________
#
#PARAMETER_NAME    .UNIT     VALUE                         : DESCRIPTION
#_______________________________________________________________________________
SET                .         Las                           : 
TLFamily_AZIM      .         Hole Azimuth                  : 
TLFamily_BSC       .         Bit Size                      : 
TLFamily_CALI      .         Caliper                       : 
TLFamily_DEPTH     .         Measured Depth                : 
TLFamily_DEVI      .         Hole Deviation                : 
TLFamily_DTP       .         Compressional Slowness        : 
TLFamily_GR        .         Russian Gamma Ray             : 
TLFamily_GZ3       .         Gradient 225                  : 
TLFamily_GZB       .         Gradient Inverted 225         : 
TLFamily_IKD1F3    .         Conductivity                  : 
TLFamily_IKD2F3    .         Conductivity                  : 
TLFamily_IKD3F3    .         Conductivity                  : 
TLFamily_IKD4F3    .         Conductivity                  : 
TLFamily_IKD5F3    .         Conductivity                  : 
TLFamily_LL3       .         Lateral Log Resistivity       : 
TLFamily_MINV      .         Micro Gradient Resistivity    : 
TLFamily_MLL       .         Micro Resistivity             : 
TLFamily_MNOR      .         Micro Resistivity             : 
TLFamily_PHI_FINAL .         Porosity                      : 
TLFamily_RB        .         Mud Resistivity               : 
TLFamily_RHOB      .         Bulk Density                  : 
TLFamily_SP        .         Spontaneous Potential         : 
TLFamily_SW_AR     .         Water Saturation              : 
TLFamily_TEMP      .         Temperature                   : 
TLFamily_TNPH      .         Neutron Porosity              : 
TLFamily_VSH_GR    .         Shale Volume                  : 
~Curve Information
#_______________________________________________________________________________
#
#LOGNAME           .UNIT     LOG_ID                        : DESCRIPTION
#_______________________________________________________________________________
DEPTH              .M                                      : DEPTH {F}
AZIM               .deg                                    : Azimuth {F}
BSC                .mm                                     : Nominal Caliper {F}
CALI               .mm                                     : Caliper {F}
DEVI               .deg                                    : Deviatiom {F}
DTP                .US/M                                   : Sonic travel time {F}
GR                 .мкР/ч                                  : GAMMA RAYS {F}
GZ3                .OHMM                                   : APP.RESISTIVITY BY LATERAL A2.0M0.5N {F}
GZB                .OHMM                                   : APP.RESISTIVITY BY LATERAL N0.5M2.0A {F}
IKD1F3             .OHMM                                   : Induction zonde IKD1F3 {F}
IKD2F3             .OHMM                                   : Induction zonde IKD2F3 {F}
IKD3F3             .OHMM                                   : Induction zonde IKD3F3 {F}
IKD4F3             .OHMM                                   : Induction zonde IKD4F3 {F}
IKD5F3             .OHMM                                   : Induction zonde IKD5F3 {F}
LL3                .OHMM                                   : APPAR.RESIST. LATEROLOG 3 ELECTRODES {F}
MINV               .OHMM                                   : MICROLATERAL A0.025M0.025N {F}
MLL                .OHMM                                   : MICROLATEROLOG {F}
MNOR               .OHMM                                   : MICRONORMAL A0.05M {F}
PHI_FINAL          .m3/m3                                  : Porosity {F}
RB                 .OHMM                                   : Mud Resistivity {F}
RHOB               .G/C3                                   : BULK DENSITY BY DGGL {F}
SP                 .mV                                     : Spontaneous Potential {F}
SW_AR              .m3/m3                                  :  {F}
TEMP               .C                                      : Formation Temperature {F}
TNPH               .V/V                                    : Neutron porosity {F}
VSH_GR             .unitless                               : Shale volume fraction from Gamma Ray {F}
~Ascii
# ...
283.7      137.1084   215.9      244.1438   0.9173     541.3719   9.311      15.449     3.3184     4.574999809265137 5.1697998046875 5.631199836730957 6.123400211334229 6.522600173950195 4.592      0.5077     4.7568     0.7389     0.1806114  0.2636     2.2951     41.4014    0.6996415  27.7547    0.274      0.566547  
283.8      136.6878   215.9      246.8524   0.8838     533.4621   9.8052     15.3996    3.2738     3.903599977493286 4.5447998046875 5.077799797058105 5.723800182342529 5.980800151824951 4.4688     0.8488     4.6226     0.9072     0.1523973  0.2614     2.2587     41.8816    0.8414487  27.7557    0.265      0.7038113 
283.9      136.8578   215.9      249.5698   0.9078     532.819    10.2341    15.5116    3.1622     3.838399887084961 4.343800067901611 4.835999965667725 5.376200199127197 5.515200138092041 4.4602     0.8615     5.8132     1.0367     0.1387715  0.2584     2.2392     42.3598    0.9250321  27.7587    0.269      0.8462433 
284        137.0176   215.9      235.505    0.9602     534.1266000000001 10.532     15.517     3.0494     4.028200149536133 4.356400012969971 4.697400093078613 5.013400077819824 5.123400211334229 4.4842     0.7734     5.4642     0.8141     0.1199062  0.2556     2.2535     42.8149    1          27.7607    0.2621     0.9600804 
284.1      136.7648   215.9      219.557    0.9589     481.7459   10.7022    15.3894    2.9478     3.961199998855591 4.181000232696533 4.435800075531006 4.605000019073486 4.757999897003174 4.487      0.6173     4.8436     0.6809     0.09790047 0.254      2.2986     43.234     1          27.7603    0.2425     1         
284.2      136.2132   215.9      216.6592   0.898      424.3406   10.7787    15.0476    2.8722     3.371400117874146 3.656199932098389 3.912800073623657 4.165999889373779 4.30019998550415 4.3468     0.7774     4.6418     0.858      0.08491085 0.254      2.3388     43.5851    1          27.762     0.2461     1         
284.3      134.941    215.9      217.5262   0.864      403.955    10.8032    14.4634    2.801      2.795200109481812 3.101999998092651 3.456000089645386 3.772599935531616 3.86680006980896 4.1552     0.554      4.7298     0.6936     0.08522252 0.2544     2.3449     43.8283    1          27.7644    0.2663     1         
284.4      133.3286   215.9      219.0382   0.8784     398.8318   10.8027    13.5146    2.7468     2.487799882888794 2.78600001335144 3.082799911499023 3.391000032424927 3.573400020599365 3.912      0.4721     4.7994     0.5173     0.09178716 0.2556     2.3276     43.9294    1          27.765     0.2734     1         
284.5      131.9944   215.9      219.0734   0.8813     393.7858   10.7784    12.1826    2.7306     2.367000102996826 2.625400066375732 2.829999923706055 3.061599969863892 3.270600080490112 3.6486     0.4579     4.3984     0.5117     0.1017977  0.2512     2.3017     43.8997    1          27.767     0.2856     1         
284.6      130.9656   215.9      219.2808   0.8556     432.9106   10.746     10.8658    2.7756     2.31439995765686 2.46779990196228 2.643800020217896 2.857000112533569 2.98799991607666 3.465      0.439      4.5522     0.612      0.1121803  0.242      2.2769     43.7919    1          27.768     0.3044     1         
284.7      130.1596   215.9      224.5382   0.8342     466.6293   10.7556    9.6256     2.8298     2.230600118637085 2.356600046157837 2.517400026321411 2.673199892044067 2.802799940109253 3.3558     0.3785     5.5932     0.5114     0.1190815  0.2518     2.2584     43.6835    1          27.77      0.3109     1         
284.8      129.6622   215.9      233.6766   0.8324     488.6825   10.8601    8.4738     2.8914     2.237400054931641 2.33899998664856 2.41919994354248 2.556600093841553 2.708800077438354 3.3184     0.4449     5.602      0.5089     0.1221479  0.2602     2.2483     43.6246    1          27.773     0.3081     1         
284.9      128.879    215.9      239.5154   0.8295     477.6302   11.0441    7.4584     2.9642     2.246799945831299 2.284600019454956 2.359600067138672 2.530400037765503 2.665999889373779 3.2428     0.4773     5.7392     0.6927     0.1219297  0.265      2.2449     43.6285    1          27.774     0.2959     1         
285        127.5264   215.9      246.3818   0.8222     474.8092   11.2514    6.6186     3.0396     2.082600116729736 2.198800086975098 2.31660008430481 2.516599893569946 2.646399974822998 3.208      0.6249     6.261      0.6689     0.1176597  0.2646     2.2521     43.6708    1          27.7747    0.2793     1         
285.1      126.3606   215.9      248.9204   0.816      469.6217   11.4163    5.9588     3.111      2.125600099563599 2.244199991226196 2.367399930953979 2.557199954986572 2.682199954986572 3.2554     0.6527     6.5086     0.5479     0.1099131  0.2626     2.2719     43.7284    1          27.7757    0.2694     1         
285.2      125.8238   215.9      241.6014   0.8145     464.3957   11.4866    5.5158     3.1764     2.385400056838989 2.391999959945679 2.485399961471558 2.656599998474121 2.770999908447266 3.441      0.5163     5.615      0.6043     0.1000785  0.2616     2.2987     43.7924    1          27.776     0.2617     1         
285.3      125.0864   215.9      233.8928   0.814      470.5992   11.4286    5.2034     3.2416     2.525799989700317 2.506400108337402 2.569600105285645 2.706000089645386 2.842200040817261 3.5686     0.6576     4.4936     0.5625     0.09269732 0.2642     2.3208     43.8724    1          27.776     0.2616     1         
285.4      123.516    215.9      232.5238   0.8109     477.553    11.2357    4.985      3.2964     2.548399925231934 2.518199920654297 2.575599908828735 2.739399909973145 2.879199981689453 3.6102     0.4419     4.2366     0.5597     0.09312852 0.2654     2.3259     43.9785    1          27.7774    0.2802     1         
285.5      122.029    215.9      236.8432   0.8073     467.1952   10.9719    4.8396     3.3346     2.50600004196167 2.456599950790405 2.549599885940552 2.753000020980835 2.920000076293945 3.5198     0.5942     4.3092     0.6356     0.09888259 0.2682     2.3131     44.1023    1          27.7801    0.2934     1         
285.6      121.368    215.9      235.8198   0.8085     446.1366   10.8164    4.6666     3.3522     2.430599927902222 2.441999912261963 2.516999959945679 2.72160005569458 2.956000089645386 3.492      0.5528     5.6138     0.5585     0.1028484  0.2726     2.2997     44.2118    1          27.7831    0.289      1         
285.7      120.8586   215.9      231.7044   0.8145     391.8566   10.9068    4.4636     3.3444     2.525000095367432 2.496200084686279 2.527199983596802 2.722599983215332 2.969799995422363 3.5002     0.4551     5.7812     0.5436     0.1008672  0.2704     2.3049     44.2724    1          27.7847    0.2868     1         
285.8      120.0576   215.9      228.6204   0.8182     361.9921   11.1445    4.2446     3.3242     2.581599950790405 2.549599885940552 2.562599897384644 2.714200019836426 2.955199956893921 3.5232     0.3037     5.267      0.6123     0.09355408 0.268      2.3294     44.2827    1          27.7864    0.2942     1         
285.9      119.1954   215.9      226.7506   0.8184     406.7245   11.375     4.0584     3.3202     2.648200035095215 2.608999967575073 2.609200000762939 2.708800077438354 2.928200006484985 3.5502     0.4428     4.5912     0.5273     0.08529703 0.2682     2.3571     44.2752    1          27.7905    0.3024     1         
286        118.7186   215.9      228.165    0.8205     449.1119   11.5647    3.8748     3.3392     2.759000062942505 2.642400026321411 2.627599954605103 2.726799964904785 2.909600019454956 3.5516     0.3745     4.5958     0.5683     0.07863994 0.2684     2.372      44.2956    1          27.7899    0.2872     1         
286.1      118.627    215.9      231.6452   0.8276     431.9889   11.7538    3.6856     3.3716     2.681600093841553 2.635799884796143 2.637200117111206 2.701800107955933 2.894000053405762 3.5116     0.3767     5.0512     0.4543     0.07970526 0.2652     2.3666     44.3652    1          27.789     0.2809     1         
