~VERSION INFORMATION
 VERS.                 2.0:   CWLS LOG ASCII STANDARD - VERSION 2.0
 WRAP.                  NO:   SINGLE LINE PER DEPTH STEP
~WELL INFORMATION
#MNEM.UNIT       DATA           DESCRIPTION MNEMONIC
#---------    -------------   --------------------------
 STRT.M         0.0000                        : START DEPTH
 STOP.M         849.0000                      : STOP DEPTH
 STEP.M         0.1000                        : STEP VALUE
 NULL.          -999.0000                     : NULL VALUE
 SRVC.          SCH                           : Service Company/Logging company
 DATE.          12.07.2023                    : LAS file Creation Date
 WELL    .      Каратобе 333                  : Well Name
 FLD     .      Karatobe                      : Field
 LATI    .      0                             : Latitude/Northing
 LONG    .      0                             : Longitude/Easting
 RWS     .      -999                          : Def_Rw
 WST     .      -999                          : Def_Rwt
~CURVE INFORMATION
#MNEM          UNIT     API CODE   Description
#---------- ---------- ----------  -----------
 DEPTH     .M                    : DEPTH
 AZIM      .deg                  : Azimuth
 DEVI      .deg                  : Deviatiom
 GZ3       .OHMM                 : APP.RESISTIVITY BY LATERAL A2.0M0.5N
 GZB       .OHMM                 : APP.RESISTIVITY BY LATERAL N0.5M2.0A
 SP        .mV                   : Spontaneous Potential
 RB        .OHMM                 : Mud Resistivity
 RHOB      .G/C3                 : BULK DENSITY BY DGGL
 GR        .uR/h                 : GAMMA RAYS
 RFTN      .CPM                  : NEUTRON-NEUTRON(T) FAR
 RNTN      .CPM                  : NEUTRON-NEUTRON(T) NEAR
 TNPH      .V/V                  : Neutron porosity
 LL3       .OHMM                 : APPAR.RESIST. LATEROLOG 3 ELECTRODES
 C1        .mm                   : CALIPER DIAMETER 1
 C2        .mm                   : CALIPER DIAMETER 2
 CALI      .mm                   : Caliper
 BSC       .mm                   : Nominal Caliper
 TP1       .MCS                  : Sonic Time 1
 TP2       .MCS                  : Sonic Time 2
 DTP       .uSec/m               : Sonic travel time
 MLL       .OHMM                 : MICROLATEROLOG
 MNOR      .OHMM                 : MICRONORMAL A0.05M
 MINV      .OHMM                 : MICROLATERAL A0.025M0.025N
 TEMP      .C                    : Formation Temperature
 IKD1F3    .OHMM                 : Induction zonde IKD1F3
 IKD2F3    .OHMM                 : Induction zonde IKD2F3
 IKD3F3    .OHMM                 : Induction zonde IKD3F3
 IKD4F3    .OHMM                 : Induction zonde IKD4F3
 IKD5F3    .OHMM                 : Induction zonde IKD5F3
~A Log data section
# ...
 658.0000   20.3312    0.2732   10.7476   13.1062   35.4141    0.1194    2.2605    8.3200    1.4280    0.9980    0.3378    5.7451  223.4263  213.6276  218.5270  215.9000  547.5200  643.2400  239.6100    2.8357    0.5018    1.5354   30.3533    3.7273    4.4171    6.0268    7.2339    7.3668 
 658.1000   21.7566    0.2784   10.7400   13.4380   35.4135    0.1192    2.2500    8.4010    1.4220    0.9830    0.3403    5.7316  223.6455  213.5048  218.5756  215.9000  547.5200  645.0100  239.6100    2.8519    0.5124    1.5486   30.3557    3.5699    4.3429    5.9625    7.0683    7.3282 
 658.2000   21.2108    0.2776   10.8080   13.8150   35.4751    0.1198    2.2440    8.4380    1.3910    0.9540    0.3319    5.8026  223.6612  213.0950  218.3781  215.9000  547.5200  645.0100  237.7800    2.8760    0.5736    1.6178   30.3580    3.6661    4.4318    5.9796    6.9683    7.2943 
 658.3000   18.3930    0.2690   10.9218   14.1624   35.4594    0.1200    2.2470    8.3120    1.4340    0.9290    0.3248    5.8956  223.7490  213.2505  218.4998  215.9000  547.9200  641.7100  237.7800    2.8926    0.7128    1.8664   30.3603    3.8103    4.5273    5.9971    6.8893    7.2756 
 658.4000   16.9730    0.2886   10.9964   14.4484   35.5272    0.1192    2.2670    8.0500    1.4770    0.9130    0.3328    5.9174  223.5661  213.4359  218.5014  215.9000  547.9200  641.7100  242.1100    2.9293    0.6706    1.7770   30.3627    3.7926    4.5048    5.9272    6.8079    7.2489 
 658.5000   18.7880    0.2908   11.0650   14.7806   35.5255    0.1174    2.3005    7.7910    1.4410    0.9050    0.3442    5.9680  222.9401  213.4432  218.1912  215.9000  546.2000  641.7100  240.4100    2.9204    0.6866    1.7240   30.3650    3.8206    4.4851    5.8289    6.7503    7.2688 
 658.6000   18.9084    0.2860   11.1694   15.1788   35.5858    0.1170    2.3205    7.7140    1.4070    0.8990    0.3362    6.0321  222.6331  213.4339  218.0335  215.9000  546.2000  641.7100  240.4100    2.9811    0.6152    1.7400   30.3673    3.8781    4.5158    5.8108    6.7119    7.3920 
 658.7000   17.6370    0.2858   11.3056   15.5250   35.5687    0.1170    2.3115    7.8530    1.4980    0.9010    0.3206    6.0287  222.5294  213.3940  217.9617  215.9000  546.2000  633.8500  236.3600    3.0099    0.6152    1.7266   30.3697    3.8731    4.5187    5.8064    6.7248    7.5889 
 658.8000   20.8046    0.2860   11.4196   15.7582   35.5677    0.1170    2.2875    8.0350    1.6290    0.9190    0.3276    5.9863  222.4846  213.2156  217.8501  215.9000  539.0100  633.8500  236.3600    3.1595    0.6082    1.7708   30.3720    3.8888    4.5242    5.7900    6.8529    7.7756 
 658.9000   21.8068    0.2884   11.5250   15.8600   35.5158    0.1178    2.2690    7.9980    1.5920    0.9450    0.3567    6.0404  222.5439  213.3295  217.9367  215.9000  539.0100  633.8500  237.0900    3.2276    0.6092    1.7526   30.3743    4.0296    4.6308    5.9613    7.1453    7.9596 
 659.0000   21.9514    0.2906   11.6068   15.8054   35.4627    0.1196    2.2530    7.7540    1.4080    0.9650    0.3706    6.1559  222.6258  213.4942  218.0600  215.9000  539.0100  638.3500  242.3300    3.4928    0.7742    1.9306   30.3767    4.2708    4.8857    6.2574    7.4469    8.1421 
 659.1000   22.3462    0.2910   11.5964   15.5976   35.4107    0.1248    2.2285    7.4370    1.3210    0.9760    0.3452    6.2285  222.6439  213.5014  218.0727  215.9000  539.0100  638.3500  239.3100    3.5518    0.6832    1.8266   30.3790    4.5995    5.1815    6.5870    7.6845    8.2693 
 659.2000   22.6116    0.2894   11.5292   15.3884   35.3347    0.1252    2.2120    7.1940    1.4810    0.9860    0.3126    6.2165  222.6548  213.7298  218.1927  215.9000  540.5000  642.9900  243.7400    3.6797    0.5118    1.5970   30.3813    4.7690    5.2192    6.6592    7.7630    8.2542 
 659.3000   23.1078    0.2954   11.4740   15.3136   35.3079    0.1242    2.2075    7.0910    1.7150    0.9900    0.3046    6.1744  222.5935  213.8744  218.2335  215.9000  540.5000  642.9900  243.7400    3.5035    0.4788    1.5274   30.3837    4.5059    4.9544    6.3728    7.5802    8.0953 
 659.4000   23.5434    0.2978   11.4272   15.3658   35.2408    0.1248    2.2030    7.1150    1.7760    0.9860    0.3154    6.0970  222.5502  213.7487  218.1494  215.9000  542.5200  642.9900  234.4900    3.4062    0.4448    1.4644   30.3860    4.0997    4.6573    6.0681    7.3439    7.9243 
 659.5000   23.7200    0.2924   11.3964   15.4890   35.2722    0.1266    2.2230    7.2690    1.7040    0.9850    0.3191    6.0467  222.6036  213.8517  218.2272  215.9000  542.5200  659.4500  234.4900    3.2784    0.3978    1.3628   30.3883    3.9235    4.4743    5.8824    7.1257    7.6553 
 659.6000   23.5016    0.2918   11.3462   15.6104   35.2598    0.1278    2.2975    7.5680    1.6770    0.9840    0.3103    6.1302  222.5893  213.5806  218.0850  215.9000  543.1100  659.4500  238.7800    3.2980    0.5098    1.4570   30.3907    3.9119    4.4379    5.8291    7.0221    7.4256 
 659.7000   23.7034    0.2936   11.2094   15.7244   35.3592    0.1264    2.3990    7.9170    1.6860    0.9860    0.2978    6.2861  222.6578  213.5787  218.1187  215.9000  543.1100  659.4500  238.7800    3.2455    0.8194    2.0220   30.3930    3.9632    4.5025    5.8879    6.9323    7.2345 
 659.8000   23.5162    0.2940   10.9668   15.8326   35.3919    0.1252    2.4630    8.1400    1.7130    0.9970    0.2924    6.4118  222.6681  214.1190  218.3935  215.9000  543.1100  660.4500  219.1300    3.1459    1.0564    2.3040   30.3953    3.9922    4.5436    5.8878    6.8354    7.0488 
 659.9000   22.7810    0.2932   10.6444   15.9516   35.4905    0.1290    2.4565    8.2320    1.7440    0.9860    0.3077    6.4809  222.5304  213.7181  218.1238  215.9000  543.1100  660.4500  237.1000    2.9906    0.9710    2.3586   30.3977    3.9047    4.4464    5.7834    6.7650    6.8929 
 660.0000   22.2202    0.2946   10.2498   16.1272   35.5259    0.1308    2.3940    8.3920    1.6860    0.9420    0.3438    6.2427  222.4952  213.5025  217.9989  215.9000  542.7100  660.4500  237.1000    2.9124    0.7248    2.0102   30.4000    3.5931    4.2773    5.6113    6.5878    6.7049 
 660.1000   23.0404    0.2974    9.8728   16.4402   35.6164    0.1318    2.3180    8.5640    1.5200    0.9090    0.3623    5.9998  222.4674  213.4142  217.9413  215.9000  542.7100  660.4500  248.3500    2.8855    0.7064    1.9604   30.4023    3.5215    4.1944    5.5925    6.5056    6.6495 
 660.2000   23.3748    0.2980    9.6302   16.8658   35.6989    0.1328    2.2680    8.5540    1.4620    0.9230    0.3429    6.1169  222.4411  213.3880  217.9150  215.9000  542.7100  658.5300  248.3500    2.9029    0.6400    1.8388   30.4047    3.5630    4.2066    5.6273    6.4911    6.6741 
 660.3000   23.0546    0.2932    9.5600   17.4046   35.8088    0.1330    2.2535    8.3100    1.6060    0.9730    0.3230    6.2159  222.4181  213.3783  217.8982  215.9000  543.9600  658.5300  256.2200    2.9009    0.6332    1.7796   30.4070    3.5474    4.2257    5.6639    6.5365    6.7727 
 660.4000   23.5400    0.2848    9.6562   17.9778   35.9259    0.1338    2.2520    8.0230    1.7400    1.0300    0.3167    6.3255  222.4479  213.3692  217.9086  215.9000  543.9600  661.1700  256.2200    2.9755    0.6122    1.7626   30.4093    3.6078    4.2746    5.7685    6.7615    6.9100 
 660.5000   23.9678    0.2854    9.8372   18.4666   36.0111    0.1340    2.2490    7.9990    1.7770    1.0580    0.3158    6.4553  222.4569  213.3502  217.9040  215.9000  544.7200  661.1700  251.1700    3.0810    0.5678    1.6784   30.4117    3.7677    4.4411    6.0367    7.1098    7.1388 
 660.6000   24.0230    0.2884   10.0872   18.9168   36.1151    0.1340    2.2645    8.3600    1.7750    1.0560    0.3166    6.6188  222.3734  213.4083  217.8908  215.9000  544.7200  661.1700  292.3300    3.3002    0.5910    1.6716   30.4140    4.0338    4.7706    6.4351    7.5021    7.5360 
 660.7000   23.5534    0.2858   10.3896   19.3212   36.1575    0.1324    2.2880    8.6030    1.7640    1.0460    0.3180    6.8719  222.2886  213.4280  217.8578  215.9000  544.7200  662.2500  290.8500    3.5008    0.6960    1.8494   30.4163    4.4769    5.1840    6.8998    7.9932    7.9843 
