~VERSION INFORMATION
 VERS.                 2.0:   CWLS LOG ASCII STANDARD - VERSION 2.0
 WRAP.                  NO:   SINGLE LINE PER DEPTH STEP
~WELL INFORMATION
#MNEM.UNIT       DATA           DESCRIPTION MNEMONIC
#---------    -------------   --------------------------
 STRT.M         0.0000                        : START DEPTH
 STOP.M         849.0000                      : STOP DEPTH
 STEP.M         0.1000                        : STEP VALUE
 NULL.          -999.0000                     : NULL VALUE
 SRVC.          SCH                           : Service Company/Logging company
 DATE.          12.07.2023                    : LAS file Creation Date
 WELL    .      Каратобе 333                  : Well Name
 FLD     .      Karatobe                      : Field
 LATI    .      0                             : Latitude/Northing
 LONG    .      0                             : Longitude/Easting
 RWS     .      -999                          : Def_Rw
 WST     .      -999                          : Def_Rwt
~CURVE INFORMATION
#MNEM          UNIT     API CODE   Description
#---------- ---------- ----------  -----------
 DEPTH     .M                    : DEPTH
 AZIM      .deg                  : Azimuth
 DEVI      .deg                  : Deviatiom
 GZ3       .OHMM                 : APP.RESISTIVITY BY LATERAL A2.0M0.5N
 GZB       .OHMM                 : APP.RESISTIVITY BY LATERAL N0.5M2.0A
 SP        .mV                   : Spontaneous Potential
 RB        .OHMM                 : Mud Resistivity
 RHOB      .G/C3                 : BULK DENSITY BY DGGL
 GR        .uR/h                 : GAMMA RAYS
 RFTN      .CPM                  : NEUTRON-NEUTRON(T) FAR
 RNTN      .CPM                  : NEUTRON-NEUTRON(T) NEAR
 TNPH      .V/V                  : Neutron porosity
 LL3       .OHMM                 : APPAR.RESIST. LATEROLOG 3 ELECTRODES
 C1        .mm                   : CALIPER DIAMETER 1
 C2        .mm                   : CALIPER DIAMETER 2
 CALI      .mm                   : Caliper
 BSC       .mm                   : Nominal Caliper
 TP1       .MCS                  : Sonic Time 1
 TP2       .MCS                  : Sonic Time 2
 DTP       .uSec/m               : Sonic travel time
 MLL       .OHMM                 : MICROLATEROLOG
 MNOR      .OHMM                 : MICRONORMAL A0.05M
 MINV      .OHMM                 : MICROLATERAL A0.025M0.025N
 TEMP      .C                    : Formation Temperature
 IKD1F3    .OHMM                 : Induction zonde IKD1F3
 IKD2F3    .OHMM                 : Induction zonde IKD2F3
 IKD3F3    .OHMM                 : Induction zonde IKD3F3
 IKD4F3    .OHMM                 : Induction zonde IKD4F3
 IKD5F3    .OHMM                 : Induction zonde IKD5F3
~A Log data section
# ...
 190.4000   57.0024    0.7698    6.3002    6.3470   38.1035    0.1530    2.2650   10.8720    1.6940    0.9160    0.3203    4.2021  229.0327  216.2997  222.6662  215.9000  521.6900  634.3800  207.8100    1.7850    0.2720    0.6932   19.4427    2.2222    2.6632    3.3023    3.5645    3.5304 
 190.5000   56.7944    0.7616    6.7916    6.9472   39.1068    0.1586    2.3385   11.0620    1.8090    0.9790    0.2847    4.6552  230.5182  216.5571  223.5376  215.9000  531.0300  636.5600  223.8300    1.8955    0.2976    0.7456   19.4450    2.6926    3.0763    3.6602    3.8664    3.6869 
 190.6000   56.5266    0.7504    7.1454    7.2914   40.3661    0.1552    2.4580   10.7930    1.8870    1.0670    0.2711    5.3131  227.9678  214.2229  221.0949  215.9000  531.0300  639.8400  229.3000    2.0584    1.1174    1.0134   19.4473    3.0778    3.3410    3.9699    4.0515    3.7704 
 190.7000   56.2580    0.7424    7.3138    7.3402   41.6612    0.1444    2.5155   10.2850    1.7580    1.1090    0.2915    5.5534  227.4157  214.4360  220.9259  215.9000  524.8500  643.1300  238.8400    2.1209    2.6644    4.3930   19.4497    2.6449    2.9728    3.6033    3.8059    3.6059 
 190.8000   56.2240    0.7386    7.1792    7.1348   42.9825    0.1380    2.4370    9.8660    1.4810    1.0360    0.3284    4.9093  244.7757  236.9183  240.8475  215.9000  524.8500  645.3100  244.3000    2.0363    1.0682    1.9900   19.4520    2.1572    2.4659    3.0510    3.4396    3.4247 
 190.9000   56.4754    0.7404    6.5918    6.6928   44.0442    0.1370    2.3060    9.7680    1.2280    0.8950    0.3521    4.0799  277.4791  262.1440  269.8120  215.9000  525.0000  645.3100  267.9700    1.8528    0.3908    0.8628   19.4543    1.9734    2.2169    2.6689    3.1116    3.2855 
 191.0000   56.9954    0.7338    5.8662    6.2982   45.0012    0.1346    2.2150    9.9200    1.1010    0.7930    0.3588    3.7332  273.4566  269.2909  271.3738  215.9000  531.5600  647.5000  267.9700    1.7727    0.2918    0.7102   19.4567    1.9415    2.1470    2.5225    2.8882    3.1550 
 191.1000   56.6668    0.7304    5.3750    6.1344   45.6960    0.1316    2.1625   10.0590    1.0620    0.7640    0.3544    3.7273  273.3951  283.5233  278.4596  215.9000  540.3100  672.1100  273.4400    1.7118    0.2784    0.6928   19.4590    1.9153    2.1404    2.5118    2.8124    2.9968 
 191.2000   56.0136    0.7340    5.2242    6.1152   46.3471    0.1294    2.1145   10.0830    1.0630    0.7600    0.3428    3.7293  275.1397  269.8217  272.4802  215.9000  551.2500  672.1100  278.9700    1.6973    0.2934    0.6450   19.4613    1.9579    2.1800    2.5383    2.7974    2.9070 
 191.3000   55.7732    0.7438    5.3568    6.1136   46.8155    0.1242    2.1080   10.1710    1.0920    0.7560    0.3363    3.8455  254.2441  273.8448  264.0440  215.9000  562.1900  670.8700  284.4300    1.6513    0.2876    0.7330   19.4637    2.0077    2.2029    2.5342    2.7864    2.9388 
 191.4000   56.0038    0.7444    5.7004    6.2122   47.2413    0.1190    2.1775   10.3080    1.1140    0.7480    0.3453    3.8751  237.5370  277.4795  257.5082  215.9000  566.5600  670.8700  276.2400    1.6177    0.2556    0.7276   19.4660    1.9346    2.1533    2.4941    2.7673    2.9654 
 191.5000   56.0448    0.7368    6.0610    6.3370   47.5569    0.1172    2.2525   10.4530    1.0900    0.7320    0.3637    3.8357  242.8784  301.9806  272.4291  215.9000  570.9400  671.1800  281.7100    1.6039    0.2450    0.6544   19.4683    1.8696    2.1021    2.4510    2.7555    2.9507 
 191.6000   55.5982    0.7262    6.3208    6.4324   47.8142    0.1154    2.2585   10.5810    1.0360    0.7160    0.3807    3.8967  245.0609  305.1596  275.1107  215.9000  581.8800  671.1800  263.8300    1.5855    0.2314    0.4588   19.4707    1.9338    2.1317    2.4816    2.7748    2.9639 
 191.7000   54.1472    0.7320    6.4928    6.4868   48.0254    0.1150    2.2215   10.6930    0.9750    0.7160    0.3929    4.0326  254.7859  270.3173  262.5516  215.9000  582.9700  670.5400  272.0300    1.6086    0.2426    0.7284   19.4730    1.9839    2.1881    2.4953    2.7893    2.9852 
 191.8000   54.7312    0.7308    6.5544    6.4984   48.1323    0.1174    2.1980   10.7830    0.9200    0.7370    0.3860    4.1095  246.3848  255.5773  250.9811  215.9000  584.0600  670.5400  295.7000    1.6003    0.2902    0.8158   19.4753    1.9592    2.1789    2.4926    2.8085    2.9983 
 191.9000   55.0354    0.7260    6.5348    6.5078   48.2575    0.1228    2.1950   10.7240    0.9440    0.7580    0.3629    4.0740  237.0649  251.2723  244.1691  215.9000  584.0600  670.5400  301.1700    1.6084    0.2348    0.7052   19.4777    1.9014    2.1290    2.4787    2.8427    3.0045 
 192.0000   54.0892    0.7362    6.4528    6.5460   48.2837    0.1248    2.1965   10.4200    1.0420    0.7630    0.3525    3.9913  240.9801  237.7003  239.3406  215.9000  584.0600  671.6900  300.7800    1.5888    0.2350    0.6898   19.4800    1.8973    2.1281    2.4912    2.8642    3.0153 
 192.1000   54.7792    0.7366    6.3212    6.6190   48.4130    0.1218    2.1960   10.2030    1.0920    0.7580    0.3586    4.0681  241.0352  226.6236  233.8289  215.9000  581.8800  671.6900  289.8500    1.5955    0.2584    0.6194   19.4823    1.9709    2.1925    2.5458    2.8893    3.0361 
 192.2000   54.9936    0.7368    6.1842    6.7542   48.4622    0.1186    2.1895   10.2660    1.0710    0.7530    0.3612    4.2021  236.8724  218.5669  227.7192  215.9000  579.6900  671.3200  329.5000    1.6210    0.3136    0.7466   19.4847    2.0254    2.2506    2.6014    2.9182    3.0251 
 192.3000   54.7138    0.7426    6.0394    6.9328   48.6390    0.1180    2.1840   10.5120    1.0690    0.7510    0.3554    4.2218  235.0290  220.6260  227.8275  215.9000  577.5000  671.3200  302.1600    1.6498    0.2894    0.8302   19.4870    2.0317    2.2719    2.6395    2.9373    3.0199 
 192.4000   54.5522    0.7432    5.8260    7.0716   48.7773    0.1188    2.1955   10.6820    1.1080    0.7550    0.3557    4.2513  234.6740  215.6558  225.1649  215.9000  575.3100  668.0500  271.7000    1.6608    0.2922    0.7876   19.4893    2.0373    2.2917    2.6817    2.9534    3.0380 
 192.5000   55.3962    0.7526    5.6080    7.2258   49.0338    0.1206    2.2195   10.7050    1.1360    0.7620    0.3661    4.2828  237.8245  215.3376  226.5811  215.9000  575.3100  668.0500  260.7600    1.6705    0.3256    0.7564   19.4917    2.0463    2.3208    2.7026    2.9731    3.0613 
 192.6000   55.0906    0.7662    5.4290    7.4524   49.2415    0.1210    2.2415   10.7710    1.1380    0.7690    0.3717    4.3124  234.4249  214.2574  224.3416  215.9000  575.3100  668.0500  250.6100    1.6712    0.3556    0.7400   19.4940    2.0605    2.3648    2.7521    3.0052    3.0860 
 192.7000   53.5616    0.7674    5.2998    7.6786   49.3710    0.1170    2.2615   11.0410    1.1630    0.7800    0.3679    4.3813  235.3719  215.4368  225.4043  215.9000  573.1300  670.6500  223.2700    1.6965    0.3652    0.8386   19.4963    2.1401    2.4482    2.8371    3.0569    3.1159 
 192.8000   54.5800    0.7702    5.2640    7.7182   49.2964    0.1112    2.2885   11.2870    1.2060    0.8080    0.3698    4.4995  242.3063  214.0870  228.1962  215.9000  579.6900  670.6500  218.9300    1.7329    0.4318    1.0344   19.4987    2.2759    2.5586    2.9499    3.1239    3.1705 
 192.9000   55.3924    0.7742    5.3314    7.7634   48.9537    0.1044    2.3230   11.3130    1.1980    0.8510    0.3877    4.5961  226.4510  213.9216  220.1863  215.9000  581.8800  673.9200  216.1900    1.8008    0.5010    1.1714   19.5010    2.3505    2.6389    3.0324    3.1844    3.2862 
 193.0000   55.4172    0.7782    5.4450    7.9982   48.4775    0.1006    2.3465   11.2330    1.1270    0.8830    0.4057    4.6453  226.3282  214.6439  220.4860  215.9000  584.0600  673.9200  216.1900    1.8752    0.5230    1.1926   19.5033    2.3617    2.6700    3.0501    3.2682    3.4592 
 193.1000   54.7220    0.7910    5.6322    8.4676   47.8818    0.0976    2.3390   11.1540    1.0950    0.8920    0.4002    4.6847  227.3925  216.3057  221.8486  215.9000  584.0600  678.5400  219.0600    1.9109    0.4772    1.0224   19.5057    2.3939    2.7002    3.1326    3.4316    3.6322 
