~VERSION INFORMATION
 VERS.                 2.0:   CWLS LOG ASCII STANDARD - VERSION 2.0
 WRAP.                  NO:   SINGLE LINE PER DEPTH STEP
~WELL INFORMATION
#MNEM.UNIT       DATA           DESCRIPTION MNEMONIC
#---------    -------------   --------------------------
 STRT.M         0.0000                        : START DEPTH
 STOP.M         849.0000                      : STOP DEPTH
 STEP.M         0.1000                        : STEP VALUE
 NULL.          -999.0000                     : NULL VALUE
 SRVC.          SCH                           : Service Company/Logging company
 DATE.          12.07.2023                    : LAS file Creation Date
 WELL    .      Каратобе 333                  : Well Name
 FLD     .      Karatobe                      : Field
 LATI    .      0                             : Latitude/Northing
 LONG    .      0                             : Longitude/Easting
 RWS     .      -999                          : Def_Rw
 WST     .      -999                          : Def_Rwt
~CURVE INFORMATION
#MNEM          UNIT     API CODE   Description
#---------- ---------- ----------  -----------
 DEPTH     .M                    : DEPTH
 AZIM      .deg                  : Azimuth
 DEVI      .deg                  : Deviatiom
 GZ3       .OHMM                 : APP.RESISTIVITY BY LATERAL A2.0M0.5N
 GZB       .OHMM                 : APP.RESISTIVITY BY LATERAL N0.5M2.0A
 SP        .mV                   : Spontaneous Potential
 RB        .OHMM                 : Mud Resistivity
 RHOB      .G/C3                 : BULK DENSITY BY DGGL
 GR        .uR/h                 : GAMMA RAYS
 RFTN      .CPM                  : NEUTRON-NEUTRON(T) FAR
 RNTN      .CPM                  : NEUTRON-NEUTRON(T) NEAR
 TNPH      .V/V                  : Neutron porosity
 LL3       .OHMM                 : APPAR.RESIST. LATEROLOG 3 ELECTRODES
 C1        .mm                   : CALIPER DIAMETER 1
 C2        .mm                   : CALIPER DIAMETER 2
 CALI      .mm                   : Caliper
 BSC       .mm                   : Nominal Caliper
 TP1       .MCS                  : Sonic Time 1
 TP2       .MCS                  : Sonic Time 2
 DTP       .uSec/m               : Sonic travel time
 MLL       .OHMM                 : MICROLATEROLOG
 MNOR      .OHMM                 : MICRONORMAL A0.05M
 MINV      .OHMM                 : MICROLATERAL A0.025M0.025N
 TEMP      .C                    : Formation Temperature
 IKD1F3    .OHMM                 : Induction zonde IKD1F3
 IKD2F3    .OHMM                 : Induction zonde IKD2F3
 IKD3F3    .OHMM                 : Induction zonde IKD3F3
 IKD4F3    .OHMM                 : Induction zonde IKD4F3
 IKD5F3    .OHMM                 : Induction zonde IKD5F3
~A Log data section
# ...
 518.0000   14.3004    0.3524    3.6214    4.4434   27.4471    0.0740    2.3665   11.5050    1.2230    0.8450    0.3595    2.8160  226.8322  218.8354  222.8343  215.9000  541.0300  648.9900  315.0500    1.4739    0.2664    1.1112   27.0867    1.6465    1.7745    2.0055    2.2157    2.3170 
 518.1000   13.0916    0.3462    3.8660    4.6038   27.7218    0.0716    2.3370   11.7740    1.2740    0.8420    0.3472    2.8566  227.3035  219.6870  223.4957  215.9000  541.0300  644.9700  315.0500    1.5403    0.2014    0.9802   27.0890    1.6509    1.7728    2.0158    2.2475    2.3537 
 518.2000   12.5736    0.3402    4.0868    4.6514   28.0269    0.0670    2.2960   11.8300    1.3510    0.8580    0.3396    3.0508  225.5105  217.3513  221.4309  215.9000  540.0000  644.9700  309.5300    1.6155    0.2734    1.0472   27.0913    1.7332    1.8452    2.0830    2.2842    2.3963 
 518.3000   11.7612    0.3414    4.2628    4.6242   28.2957    0.0668    2.3270   11.8550    1.3750    0.8920    0.3340    3.1399  224.5713  215.8664  220.2189  215.9000  540.0000  646.7300  309.5200    1.6833    0.4192    1.1014   27.0937    1.8701    1.9464    2.1663    2.3305    2.4362 
 518.4000   10.7134    0.3452    4.3392    4.5352   28.5891    0.0686    2.4090   11.8600    1.3640    0.9100    0.3303    3.0012  224.6693  216.0540  220.3621  215.9000  538.9400  646.7300  303.5100    1.7411    0.6006    2.0930   27.0960    1.9049    1.9780    2.1883    2.3495    2.4423 
 518.5000    9.7060    0.3484    4.2364    4.3526   28.9091    0.0698    2.4305   11.6600    1.3260    0.9050    0.3312    2.8527  224.9750  216.6806  220.8278  215.9000  538.9400  651.6800  329.0400    1.7286    0.4254    1.4526   27.0983    1.8532    1.9477    2.1648    2.3364    2.4272 
 518.6000    9.0264    0.3458    4.0704    4.1616   29.1929    0.0692    2.3740   11.2580    1.2820    0.8850    0.3300    2.8952  227.2086  218.3321  222.7704  215.9000  538.9400  651.6800  329.0400    1.7534    0.3682    1.2382   27.1007    1.8475    1.9340    2.1465    2.3138    2.4099 
 518.7000    8.3684    0.3410    3.9368    4.0296   29.4379    0.0714    2.3050   11.2870    1.3040    0.8500    0.3330    2.9724  226.3358  218.0855  222.2111  215.9000  547.3300  651.6800  316.9700    1.7283    0.3960    1.2920   27.1030    1.8651    1.9466    2.1389    2.2781    2.3836 
 518.8000    8.3484    0.3448    3.8072    3.9332   29.4851    0.0712    2.2555   11.7180    1.3410    0.8140    0.3524    2.8700  225.6142  217.7527  221.6835  215.9000  547.3300  647.7800  316.9500    1.7365    0.3304    1.5962   27.1053    1.8475    1.9471    2.1328    2.2419    2.3441 
 518.9000    8.8658    0.3508    3.6482    3.8854   29.4615    0.0710    2.2345   11.9460    1.2720    0.8040    0.3713    2.7880  225.2241  220.8313  223.0282  215.9000  549.5700  647.7800  283.9400    1.7074    0.3386    1.3570   27.1077    1.8354    1.9286    2.1214    2.2212    2.3097 
 519.0000    9.5952    0.3368    3.4870    3.8716   29.3579    0.0742    2.2405   11.7130    1.1700    0.8240    0.3643    2.7545  223.8819  219.4061  221.6445  215.9000  549.5700  646.4600  283.9300    1.6929    0.3548    1.2478   27.1100    1.8263    1.9093    2.0979    2.2040    2.2915 
 519.1000    8.1662    0.3418    3.3686    3.9020   29.3794    0.0758    2.2590   11.2220    1.1670    0.8620    0.3390    2.7341  223.8683  216.5248  220.1970  215.9000  547.8400  646.4600  269.9000    1.6788    0.3252    1.2016   27.1123    1.7976    1.8985    2.0787    2.1923    2.2758 
 519.2000    7.6030    0.3488    3.2990    3.9300   29.5169    0.0776    2.2680   11.0000    1.2490    0.8830    0.3280    2.7687  223.9244  216.6192  220.2718  215.9000  547.8400  646.4600  259.8400    1.6797    0.3284    1.1968   27.1147    1.8086    1.9030    2.0942    2.2033    2.2606 
 519.3000    7.4642    0.3492    3.2718    3.9430   29.7690    0.0796    2.2580   11.3070    1.2760    0.8670    0.3403    2.7809  223.9874  216.9653  220.4764  215.9000  547.8400  646.7200  262.4300    1.6991    0.3376    1.2476   27.1170    1.8441    1.9313    2.1284    2.2163    2.2540 
 519.4000    5.3128    0.3514    3.2560    3.9458   30.1060    0.0808    2.2410   11.9180    1.2240    0.8310    0.3495    2.7997  224.1285  217.5286  220.8290  215.9000  547.8400  646.7200  266.8300    1.7094    0.2920    1.1368   27.1193    1.8609    1.9564    2.1424    2.2222    2.2562 
 519.5000    7.9482    0.3504    3.2266    3.9356   30.4447    0.0842    2.2445   12.5070    1.2300    0.7980    0.3470    2.7477  226.8051  219.4259  223.1155  215.9000  549.3700  646.7200  269.4700    1.7156    0.3250    1.1900   27.1217    1.8476    1.9399    2.1267    2.2271    2.2567 
 519.6000    9.2472    0.3444    3.1912    3.9234   30.8616    0.0882    2.2785   12.9770    1.2970    0.7880    0.3435    2.7244  230.1587  225.2914  227.7250  215.9000  549.3700  646.7200  281.8300    1.7118    0.2554    0.8902   27.1240    1.8037    1.8981    2.1062    2.2284    2.2544 
 519.7000    8.0260    0.3366    3.1752    3.9186   31.2303    0.0850    2.3175   13.1380    1.3390    0.8120    0.3415    2.7316  228.9270  224.4096  226.6678  215.9000  549.3700  648.6300  281.8300    1.7271    0.1920    0.7900   27.1263    1.7917    1.8946    2.1091    2.2368    2.2596 
 519.8000    7.5114    0.3414    3.1866    3.9364   31.6224    0.0840    2.3555   12.9670    1.3320    0.8530    0.3426    2.8132  227.5916  221.5082  224.5495  215.9000  548.0900  648.6300  260.8500    1.7738    0.2004    0.7498   27.1287    1.8715    1.9546    2.1509    2.2621    2.2754 
 519.9000    6.6598    0.3382    3.2212    3.9514   31.9160    0.0848    2.3945   12.7430    1.2870    0.8810    0.3400    2.8659  227.0984  219.9977  223.5485  215.9000  548.0900  644.4300  251.1300    1.7994    0.2740    1.0210   27.1310    1.9601    2.0124    2.1968    2.2850    2.2874 
 520.0000    5.9412    0.3330    3.2714    3.9548   32.1901    0.0898    2.3975   12.6490    1.2770    0.8840    0.3307    2.8345  228.6730  222.4288  225.5509  215.9000  548.0900  644.4300  245.5300    1.8156    0.2744    1.0126   27.1333    1.9431    2.0065    2.2001    2.2859    2.2883 
 520.1000    5.7496    0.3328    3.3036    3.9366   32.4014    0.0926    2.3535   12.6370    1.3270    0.8650    0.3352    2.7772  227.7836  222.4715  225.1275  215.9000  549.1700  644.7100  242.2200    1.7759    0.2278    0.8362   27.1357    1.8738    1.9696    2.1656    2.2694    2.2824 
 520.2000    6.1924    0.3234    3.3354    3.9232   32.5618    0.0946    2.3145   12.6310    1.3130    0.8400    0.3586    2.7450  227.2496  222.6427  224.9457  215.9000  549.1700  644.7100  246.5600    1.7665    0.1964    0.7730   27.1380    1.8611    1.9542    2.1465    2.2547    2.2798 
 520.3000    5.3262    0.3258    3.3844    3.9210   32.6884    0.0966    2.3195   12.6550    1.1920    0.8290    0.3901    2.7154  225.9340  223.6443  224.7891  215.9000  547.8700  644.7100  246.5600    1.7680    0.2432    0.9870   27.1403    1.8740    1.9614    2.1434    2.2377    2.2711 
 520.4000    4.5418    0.3286    3.4510    3.9090   32.7426    0.0962    2.3385   12.6430    1.0250    0.8330    0.4040    2.6949  225.7395  225.0743  225.4064  215.9000  547.8700  641.4700  247.2100    1.7821    0.3618    1.2636   27.1427    1.8822    1.9702    2.1469    2.2241    2.2550 
 520.5000    4.5118    0.3250    3.5250    3.8916   32.8085    0.0960    2.3250   12.3330    0.9420    0.8420    0.3848    2.7020  225.9684  225.4451  225.7063  215.9000  544.3700  641.4700  247.2100    1.7798    0.4274    1.3430   27.1450    1.9048    1.9720    2.1475    2.2196    2.2476 
 520.6000    3.3948    0.3184    3.5720    3.8792   32.7862    0.0968    2.2840   11.7600    1.0210    0.8430    0.3631    2.6581  225.7156  221.7518  223.7337  215.9000  544.3700  634.9000  243.3800    1.7524    0.3012    1.3202   27.1473    1.8882    1.9571    2.1255    2.2070    2.2424 
 520.7000    3.3034    0.3178    3.5728    3.8610   32.7502    0.0986    2.2560   11.2610    1.1450    0.8290    0.3702    2.5641  227.3199  221.5369  224.4284  215.9000  539.8400  634.9000  243.3800    1.7593    0.1904    0.8666   27.1497    1.8400    1.9253    2.0979    2.2000    2.2431 
