~VERSION INFORMATION
 VERS.                 2.0:   CWLS LOG ASCII STANDARD - VERSION 2.0
 WRAP.                  NO:   SINGLE LINE PER DEPTH STEP
~WELL INFORMATION
#MNEM.UNIT       DATA           DESCRIPTION MNEMONIC
#---------    -------------   --------------------------
 STRT.M         0.0000                        : START DEPTH
 STOP.M         849.0000                      : STOP DEPTH
 STEP.M         0.1000                        : STEP VALUE
 NULL.          -999.0000                     : NULL VALUE
 SRVC.          SCH                           : Service Company/Logging company
 DATE.          12.07.2023                    : LAS file Creation Date
 WELL    .      Каратобе 333                  : Well Name
 FLD     .      Karatobe                      : Field
 LATI    .      0                             : Latitude/Northing
 LONG    .      0                             : Longitude/Easting
 RWS     .      -999                          : Def_Rw
 WST     .      -999                          : Def_Rwt
~CURVE INFORMATION
#MNEM          UNIT     API CODE   Description
#---------- ---------- ----------  -----------
 DEPTH     .M                    : DEPTH
 AZIM      .deg                  : Azimuth
 DEVI      .deg                  : Deviatiom
 GZ3       .OHMM                 : APP.RESISTIVITY BY LATERAL A2.0M0.5N
 GZB       .OHMM                 : APP.RESISTIVITY BY LATERAL N0.5M2.0A
 SP        .mV                   : Spontaneous Potential
 RB        .OHMM                 : Mud Resistivity
 RHOB      .G/C3                 : BULK DENSITY BY DGGL
 GR        .uR/h                 : GAMMA RAYS
 RFTN      .CPM                  : NEUTRON-NEUTRON(T) FAR
 RNTN      .CPM                  : NEUTRON-NEUTRON(T) NEAR
 TNPH      .V/V                  : Neutron porosity
 LL3       .OHMM                 : APPAR.RESIST. LATEROLOG 3 ELECTRODES
 C1        .mm                   : CALIPER DIAMETER 1
 C2        .mm                   : CALIPER DIAMETER 2
 CALI      .mm                   : Caliper
 BSC       .mm                   : Nominal Caliper
 TP1       .MCS                  : Sonic Time 1
 TP2       .MCS                  : Sonic Time 2
 DTP       .uSec/m               : Sonic travel time
 MLL       .OHMM                 : MICROLATEROLOG
 MNOR      .OHMM                 : MICRONORMAL A0.05M
 MINV      .OHMM                 : MICROLATERAL A0.025M0.025N
 TEMP      .C                    : Formation Temperature
 IKD1F3    .OHMM                 : Induction zonde IKD1F3
 IKD2F3    .OHMM                 : Induction zonde IKD2F3
 IKD3F3    .OHMM                 : Induction zonde IKD3F3
 IKD4F3    .OHMM                 : Induction zonde IKD4F3
 IKD5F3    .OHMM                 : Induction zonde IKD5F3
~A Log data section
# ...
 845.6000   28.6674    0.6474 -999.0000 -999.0000 -999.0000 -999.0000    2.2800 -999.0000   13.5200    1.2460    0.0667 -999.0000  277.5266  261.2293  269.3784  215.9000  294.6000  396.0700  255.1400    4.7097    0.0152    0.1878   34.7307 10000.0000   12.3849   10.9167   19.4130   32.0077 
 845.7000   29.6404    0.6644 -999.0000 -999.0000 -999.0000 -999.0000    2.2435 -999.0000   13.3270    1.0820    0.0687 -999.0000  291.8965  277.8441  284.8703  215.9000  294.6000  396.0700  254.7800    3.5008    0.0152    0.1618   34.7330 10000.0000 8002.7554   11.7969   17.1312   28.5152 
 845.8000   29.7042    0.6816 -999.0000 -999.0000 -999.0000 -999.0000    2.2500 -999.0000   12.4230    0.9810    0.0733 -999.0000  297.5616  283.1610  290.3613  215.9000  294.6000  396.0700  253.7000    1.6484    0.0152    0.1558   34.7353 10000.0000 10000.0000   17.1854   18.4515   28.1902 
 845.9000   29.2820    0.6914 -999.0000 -999.0000 -999.0000 -999.0000    2.2765 -999.0000   11.1200    0.9390    0.0791 -999.0000  288.3588  276.6008  282.4798  215.9000  294.6000  396.0700  253.6900    1.3909    0.0152    0.2510   34.7377 10000.0000 10000.0000    8.2104   30.8602   30.0007 
 846.0000   29.6518    0.7018 -999.0000 -999.0000 -999.0000 -999.0000    2.3170 -999.0000    9.7600    0.9130    0.0829 -999.0000  284.6611  270.6963  277.6787  215.9000  294.6000  396.0700  253.6900    1.4015    0.0152    0.5662   34.7400 10000.0000 10000.0000 8001.1299   58.6400   36.2088 
 846.1000   30.4034    0.7048 -999.0000 -999.0000 -999.0000 -999.0000    2.3430 -999.0000    8.6200    0.8990    0.0845 -999.0000  280.7992  268.1705  274.4849  215.9000  294.6000  396.0700  253.6900    1.3133    0.0152    0.4486   34.7423 10000.0000 10000.0000 10000.0000  118.2017   57.0858 
 846.2000   30.9764    0.7058 -999.0000 -999.0000 -999.0000 -999.0000    2.3235 -999.0000    7.7750    0.8910    0.0874 -999.0000  276.3141  271.3946  273.8548  215.9000  294.6000  396.0700  253.6900    1.1024    0.0152    0.3274   34.7447 10000.0000 10000.0000 10000.0000  151.2026   84.2711 
 846.3000   30.0368    0.7300 -999.0000 -999.0000 -999.0000 -999.0000    2.2790 -999.0000    7.2550    0.8650    0.0919 -999.0000  281.1817  269.1813  275.1815  215.9000  294.6000  396.0700  253.6900    1.0012    0.0152    0.3626   34.7470 10000.0000 10000.0000 10000.0000  154.3169  120.0713 
 846.4000   28.3152    0.7392 -999.0000 -999.0000 -999.0000 -999.0000    2.2490 -999.0000    6.9340    0.8080    0.0970 -999.0000  274.2156  264.0518  269.1337  215.9000  294.6000  396.0700  253.6900    0.4272    0.0152    0.4936   34.7493 10000.0000 10000.0000 10000.0000 8030.7734  136.1866 
 846.5000   27.9764    0.7376 -999.0000 -999.0000 -999.0000 -999.0000    2.2375 -999.0000    6.8280    0.7620    0.1034 -999.0000  279.3916  264.3106  271.8511  215.9000  294.6000  396.0700  253.6900    0.2937    0.0152    0.5142   34.7517 10000.0000 10000.0000 10000.0000 10000.0000  155.1629 
 846.6000   28.0534    0.7298 -999.0000 -999.0000 -999.0000 -999.0000    2.2390 -999.0000    6.8780    0.7620    0.1084 -999.0000  278.4754  264.6493  271.5623  215.9000  294.6000  396.0700  253.6900    0.3181    0.0152    0.5232   34.7540 10000.0000 10000.0000 10000.0000 10000.0000 1072.3661 
 846.7000   25.9278    0.7136 -999.0000 -999.0000 -999.0000 -999.0000    2.2515 -999.0000    7.0980    0.7950    0.1049 -999.0000  279.6169  258.6664  269.1412  215.9000  294.6000  396.0700  253.6900    0.2923    0.0152    0.5052   34.7563 10000.0000 10000.0000 10000.0000 10000.0000 8260.1230 
 846.8000   24.0600    0.7100 -999.0000 -999.0000 -999.0000 -999.0000    2.2605 -999.0000    7.7890    0.8550    0.0941 -999.0000  281.1817  262.1774  271.6796  215.9000  294.6000  396.0700  253.6900    0.2837    0.0152    0.3736   34.7587 10000.0000 10000.0000 10000.0000 10000.0000 10000.0000 
 846.9000   21.5902    0.7004 -999.0000 -999.0000 -999.0000 -999.0000    2.2665 -999.0000    9.1800    0.9500    0.0870 -999.0000  272.2272  260.2929  266.2605  215.9000  294.6000  396.0700  253.6900    0.2996    0.0152    0.3260   34.7610 10000.0000 10000.0000 10000.0000 10000.0000 10000.0000 
 847.0000   19.2600    0.6916 -999.0000 -999.0000 -999.0000 -999.0000    2.1650 -999.0000   10.3170    1.0290    0.0859 -999.0000  270.9038  260.2492  265.5765  215.9000  294.6000  396.0700  253.6900    0.2722    0.0152    0.3452   34.7633 10000.0000 10000.0000 10000.0000 10000.0000 10000.0000 
 847.1000   18.3198    0.6948 -999.0000 -999.0000 -999.0000 -999.0000    2.0620 -999.0000   10.5390    1.0550    0.0852 -999.0000  268.0140  260.0575  264.0358  215.9000  294.6000  396.0700  253.6900    0.2820    0.0152    0.3470   34.7657 10000.0000 10000.0000 10000.0000 10000.0000 10000.0000 
 847.2000   17.4218    0.6864 -999.0000 -999.0000 -999.0000 -999.0000    2.0760 -999.0000   10.6320    1.0640    0.0832 -999.0000  260.7817  263.0726  261.9276  215.9000  294.6000  396.0700  253.6900    0.3925    0.0152    0.2212   34.7680 10000.0000 10000.0000 10000.0000 10000.0000 10000.0000 
 847.3000   16.1040    0.7112 -999.0000 -999.0000 -999.0000 -999.0000    2.0935 -999.0000   11.0000    1.0730    0.0828 -999.0000  269.7840  260.4683  265.1261  215.9000  294.6000  396.0700  253.6900    0.3588    0.0152    0.1940   34.7703 10000.0000 10000.0000 10000.0000 10000.0000 10000.0000 
 847.4000   15.2110    0.7412 -999.0000 -999.0000 -999.0000 -999.0000    2.1045 -999.0000   11.1310    1.0730    0.0828 -999.0000  262.0069  250.3035  256.1548  215.9000  294.6000  396.0700  253.6900    0.3278    0.0152    0.2214   34.7727 10000.0000 10000.0000 10000.0000 10000.0000 10000.0000 
 847.5000   15.1684    0.7334 -999.0000 -999.0000 -999.0000 -999.0000 -999.0000 -999.0000   10.9600    1.0660    0.0853 -999.0000  264.1071  236.8038  250.4559  215.9000  294.6000  396.0700  253.6900    0.3238    0.0152    0.2144   34.7750 10000.0000 10000.0000 10000.0000 10000.0000 10000.0000 
 847.6000   14.6000    0.7412 -999.0000 -999.0000 -999.0000 -999.0000 -999.0000 -999.0000   10.6070    1.0730    0.0851 -999.0000  244.5725  249.3832  246.9779  215.9000  294.6000  396.0700  253.6900    0.3153    0.0152    0.2102   34.7773 10000.0000 10000.0000 10000.0000 10000.0000 10000.0000 
 847.7000   13.5422    0.7480 -999.0000 -999.0000 -999.0000 -999.0000 -999.0000 -999.0000   10.8630    1.0700    0.0858 -999.0000  215.8762  243.2750  229.5761  215.9000  294.6000  396.0700  253.6900    0.3055    0.0152    0.2196   34.7797 10000.0000 10000.0000 10000.0000 10000.0000 10000.0000 
 847.8000   12.6502    0.7474 -999.0000 -999.0000 -999.0000 -999.0000 -999.0000 -999.0000   10.7400    1.0560    0.0831 -999.0000  185.3898  234.8963  210.1435  215.9000  294.6000  396.0700  253.6900    0.3347    0.0152    0.1900   34.7820 10000.0000 10000.0000 10000.0000 10000.0000 10000.0000 
 847.9000   12.3528    0.7422 -999.0000 -999.0000 -999.0000 -999.0000 -999.0000 -999.0000   11.6740    1.0870    0.0787 -999.0000  190.2113  225.3270  207.7692  215.9000  294.6000  396.0700  253.6900    0.3574    0.0152    0.2268   34.7843 -999.0000 -999.0000 -999.0000 -999.0000 -999.0000 
 848.0000   12.5472    0.7314 -999.0000 -999.0000 -999.0000 -999.0000 -999.0000 -999.0000   13.0380    1.0970    0.0775 -999.0000  182.0891  205.2454  193.6677  215.9000  294.6000  396.0700  253.6900    0.3371    0.0152    0.2068   34.7867 -999.0000 -999.0000 -999.0000 -999.0000 -999.0000 
 848.1000   12.2968    0.7074 -999.0000 -999.0000 -999.0000 -999.0000 -999.0000 -999.0000   13.3530    1.1070    0.0783 -999.0000  166.2487  175.9979  171.1233  215.9000  294.6000  396.0700  253.6900    0.3252    0.0152    0.2030   34.7890 -999.0000 -999.0000 -999.0000 -999.0000 -999.0000 
 848.2000   12.0128    0.6948 -999.0000 -999.0000 -999.0000 -999.0000 -999.0000 -999.0000   13.3950    1.1470    0.0780 -999.0000  155.4871  170.3847  162.9359  215.9000  294.6000  396.0700  253.6900    0.3238    0.0152    0.2240   34.7913 -999.0000 -999.0000 -999.0000 -999.0000 -999.0000 
 848.3000   12.0386    0.6778 -999.0000 -999.0000 -999.0000 -999.0000 -999.0000 -999.0000   13.3640    1.1710 -999.0000 -999.0000  142.8825  161.4756  152.1790  215.9000  294.6000  396.0700  253.6900 -999.0000    0.0152    0.2226   34.7937 -999.0000 -999.0000 -999.0000 -999.0000 -999.0000 
