~VERSION INFORMATION
 VERS.                 2.0:   CWLS LOG ASCII STANDARD - VERSION 2.0
 WRAP.                  NO:   SINGLE LINE PER DEPTH STEP
~WELL INFORMATION
#MNEM.UNIT       DATA           DESCRIPTION MNEMONIC
#---------    -------------   --------------------------
 STRT.M         0.0000                        : START DEPTH
 STOP.M         849.0000                      : STOP DEPTH
 STEP.M         0.1000                        : STEP VALUE
 NULL.          -999.0000                     : NULL VALUE
 SRVC.          SCH                           : Service Company/Logging company
 DATE.          12.07.2023                    : LAS file Creation Date
 WELL    .      Каратобе 333                  : Well Name
 FLD     .      Karatobe                      : Field
 LATI    .      0                             : Latitude/Northing
 LONG    .      0                             : Longitude/Easting
 RWS     .      -999                          : Def_Rw
 WST     .      -999                          : Def_Rwt
~CURVE INFORMATION
#MNEM          UNIT     API CODE   Description
#---------- ---------- ----------  -----------
 DEPTH     .M                    : DEPTH
 AZIM      .deg                  : Azimuth
 DEVI      .deg                  : Deviatiom
 GZ3       .OHMM                 : APP.RESISTIVITY BY LATERAL A2.0M0.5N
 GZB       .OHMM                 : APP.RESISTIVITY BY LATERAL N0.5M2.0A
 SP        .mV                   : Spontaneous Potential
 RB        .OHMM                 : Mud Resistivity
 RHOB      .G/C3                 : BULK DENSITY BY DGGL
 GR        .uR/h                 : GAMMA RAYS
 RFTN      .CPM                  : NEUTRON-NEUTRON(T) FAR
 RNTN      .CPM                  : NEUTRON-NEUTRON(T) NEAR
 TNPH      .V/V                  : Neutron porosity
 LL3       .OHMM                 : APPAR.RESIST. LATEROLOG 3 ELECTRODES
 C1        .mm                   : CALIPER DIAMETER 1
 C2        .mm                   : CALIPER DIAMETER 2
 CALI      .mm                   : Caliper
 BSC       .mm                   : Nominal Caliper
 TP1       .MCS                  : Sonic Time 1
 TP2       .MCS                  : Sonic Time 2
 DTP       .uSec/m               : Sonic travel time
 MLL       .OHMM                 : MICROLATEROLOG
 MNOR      .OHMM                 : MICRONORMAL A0.05M
 MINV      .OHMM                 : MICROLATERAL A0.025M0.025N
 TEMP      .C                    : Formation Temperature
 IKD1F3    .OHMM                 : Induction zonde IKD1F3
 IKD2F3    .OHMM                 : Induction zonde IKD2F3
 IKD3F3    .OHMM                 : Induction zonde IKD3F3
 IKD4F3    .OHMM                 : Induction zonde IKD4F3
 IKD5F3    .OHMM                 : Induction zonde IKD5F3
~A Log data section
# ...
 705.6000  107.4216    0.1586    1.9628    2.1894   36.8637    0.1156    2.5150    7.8680    1.2430    0.7690    0.3121    0.9832  281.4981  237.6499  259.5740  215.9000  524.6300  660.8700  298.8300    0.6705    0.0152    0.4514   31.4640    1.0008    1.1663    1.2866    1.3304    1.3212 
 705.7000  109.3420    0.1642    1.7638    2.0758   36.6414    0.1152    2.4085    7.5320    1.1330    0.7530    0.3338    0.7369  333.6297  273.0108  303.3203  215.9000  526.7900  651.8400  300.1500    0.6275    0.0152    0.4006   31.4663    0.8668    1.0410    1.1647    1.2447    1.2742 
 705.8000  111.9452    0.1594    1.6354    2.0074   36.4454    0.1158    2.2630    7.7960    0.9870    0.7180    0.3563    0.5813  358.3235  315.0497  336.6871  215.9000  528.9600  651.8400  300.1500    0.5974    0.0152    0.3524   31.4687    0.7789    0.9529    1.0875    1.1740    1.2277 
 705.9000  116.9258    0.1660    1.5890    1.9936   36.2266    0.1160    2.1610    8.7010    0.8910    0.6730    0.3793    0.6424  373.0069  340.7985  356.9032  215.9000  531.1200  643.6100  300.4700    0.5882    0.0152    0.2350   31.4710    0.7918    0.9524    1.0784    1.1565    1.2053 
 706.0000  119.6948    0.1752    1.5846    1.9850   36.1505    0.1176    2.1520    9.6590    0.8200    0.6380    0.3909    0.7271  376.1558  357.5111  366.8339  215.9000  533.2900  643.6100  300.4700    0.5840    0.0152    0.1848   31.4733    0.8279    0.9939    1.1048    1.1674    1.1996 
 706.1000  120.4212    0.1786    1.5906    1.9830   36.1659    0.1172    2.2250   10.0630    0.7980    0.6240    0.3915    0.7665  366.8982  364.6760  365.7871  215.9000  535.4600  643.6100  329.0900    0.5884    0.0152    0.2006   31.4757    0.8404    1.0273    1.1397    1.1947    1.1947 
 706.2000  122.5774    0.1870    1.6056    2.0142   36.3571    0.1178    2.3240    9.8010    0.8060    0.6280    0.3930    0.8118  336.3336  356.7834  346.5585  215.9000  537.6200  641.0200  329.0900    0.5948    0.0152    0.3676   31.4780    0.8664    1.0511    1.1732    1.2371    1.2147 
 706.3000  124.1954    0.1962    1.6258    2.0580   36.6292    0.1180    2.3800    9.0370    0.8030    0.6440    0.3911    0.8453  333.0237  356.2697  344.6467  215.9000  539.7900  641.0200  323.6700    0.6078    0.0152    0.4440   31.4803    0.8719    1.0624    1.1954    1.2666    1.2562 
 706.4000  124.3156    0.2036    1.6676    2.1318   36.9434    0.1172    2.3565    8.4490    0.8190    0.6570    0.3794    0.8748  341.5447  339.7310  340.6378  215.9000  539.7900  641.1200  318.2500    0.6378    0.0152    0.5354   31.4827    0.8620    1.0677    1.1984    1.2846    1.3006 
 706.5000  123.2482    0.2058    1.7322    2.2056   37.2151    0.1170    2.2840    8.2820    0.8960    0.6620    0.3625    0.9359  337.3890  323.1278  330.2580  215.9000  533.0300  641.1200  312.8300    0.6718    0.0152    0.4816   31.4850    0.8956    1.0926    1.2462    1.3321    1.3484 
 706.6000  123.8790    0.2148    1.7980    2.2704   37.3663    0.1162    2.2365    8.2290    1.0150    0.6650    0.3411    1.0206  338.9272  308.1651  323.5466  215.9000  533.0300  638.9800  346.0200    0.7294    0.0152    0.2998   31.4873    0.9496    1.1495    1.3143    1.3911    1.3970 
 706.7000  121.9946    0.2210    1.8606    2.3174   37.4378    0.1168    2.2980    8.1910    1.1540    0.6780    0.3274    1.1092  306.3399  295.1659  300.7529  215.9000  533.0300  638.9800  340.6100    0.7726    0.0152    0.1998   31.4897    1.0162    1.2296    1.3899    1.4494    1.4517 
 706.8000  119.3600    0.2180    1.9090    2.3508   37.3993    0.1170    2.4425    8.2030    1.2430    0.7080    0.3339    1.1979  279.9534  295.0364  287.4949  215.9000  524.2800  635.2500  312.6300    0.8288    0.0152    0.5018   31.4920    1.0923    1.3053    1.4701    1.5149    1.5115 
 706.9000  120.3610    0.2234    1.9324    2.3482   37.3855    0.1162    2.5565    8.3160    1.2220    0.7420    0.3506    1.1841  286.3100  342.4223  314.3662  215.9000  524.2800  635.2500  307.2100    0.8590    0.3768    1.1122   31.4943    1.1402    1.3401    1.4992    1.5521    1.5353 
 707.0000  118.5750    0.2274    1.9440    2.3252   37.3314    0.1144    2.5875    8.4460    1.1400    0.7600    0.3686    1.1447  280.0293  295.2919  287.6610  215.9000  518.7700  635.2500  281.2200    0.9063    0.1736    1.2242   31.4967    1.1272    1.3316    1.4944    1.5585    1.5471 
 707.1000  117.3530    0.2288    1.9588    2.3336   37.3463    0.1140    2.5455    8.4270    1.0520    0.7690    0.3815    1.1683  256.5394  276.0135  266.2760  215.9000  518.7700  628.5500  275.8000    0.9329    0.0322    0.7110   31.4990    1.1476    1.3378    1.4932    1.5551    1.5595 
 707.2000  118.2246    0.2282    1.9780    2.3482   37.3377    0.1124    2.4815    8.2550    0.9940    0.7780    0.3787    1.2156  270.8742  276.1124  273.4933  215.9000  515.1300  628.5500  270.3900    0.9718    0.0152    0.3328   31.5013    1.2090    1.3592    1.4973    1.5478    1.5662 
 707.3000  116.9730    0.2296    2.0004    2.3574   37.3956    0.1104    2.4450    8.1850    1.0050    0.7800    0.3720    1.2018  269.0332  270.4910  269.7621  215.9000  515.1300  635.2200  258.4800    0.9887    0.0152    0.4172   31.5037    1.2020    1.3494    1.4865    1.5455    1.5644 
 707.4000  115.4878    0.2348    2.0362    2.3734   37.4503    0.1092    2.4305    8.5180    1.0360    0.7790    0.3716    1.1959  263.1196  269.3211  266.2204  215.9000  536.9600  635.2200  253.0700    1.0194    0.0152    0.4156   31.5060    1.1794    1.3458    1.4729    1.5417    1.5565 
 707.5000  114.9238    0.2440    2.0824    2.3834   37.5473    0.1082    2.4255    9.2840    1.0610    0.7800    0.3740    1.2353  256.1192  251.9767  254.0484  215.9000  536.9600  635.6400  253.3200    1.0515    0.0152    0.3644   31.5083    1.2605    1.3786    1.4999    1.5739    1.5763 
 707.6000  115.9264    0.2572    2.1328    2.3642   37.6592    0.1064    2.4375    9.8160    1.0770    0.7770    0.3657    1.2215  254.9195  257.2905  256.1050  215.9000  536.9600  635.6400  270.2200    1.0800    0.0152    0.2420   31.5107    1.2873    1.4078    1.5273    1.5957    1.5933 
 707.7000  116.0686    0.2504    2.1870    2.3590   37.7794    0.1052    2.4520    9.7950    1.1310    0.7840    0.3390    1.2314  264.0924  264.1738  264.1331  215.9000  528.9700  635.6400  264.8800    1.1148    0.0152    0.6164   31.5130    1.2880    1.4332    1.5537    1.6073    1.6026 
 707.8000  116.7418    0.2488    2.2348    2.3742   37.9347    0.1050    2.4655    9.2550    1.2820    0.8050    0.3200    1.3062  258.3936  242.3856  250.3896  215.9000  528.9700  635.6400  264.8900    1.1179    0.0152    0.6370   31.5153    1.3697    1.4685    1.6010    1.6435    1.6263 
 707.9000  118.6644    0.2706    2.2456    2.3764   38.0618    0.1026    2.4815    8.6420    1.4110    0.8220    0.3216    1.2767  267.5607  248.8025  258.1816  215.9000  528.9700  636.9300  277.4300    1.1247    0.0152    0.3898   31.5177    1.3526    1.4704    1.5998    1.6505    1.6411 
 708.0000  122.1370    0.2480    2.2484    2.3784   38.2270    0.1004    2.4620    8.4880    1.4140    0.8280    0.3308    1.2570  266.2142  254.8612  260.5377  215.9000  525.3400  636.9300  277.4300    1.1080    0.0152    0.3874   31.5200    1.3032    1.4638    1.5828    1.6351    1.6534 
 708.1000  119.8480    0.2786    2.2522    2.3662   38.3316    0.1016    2.3915    8.9960    1.3480    0.8340    0.3405    1.3417  275.1952  242.9876  259.0914  215.9000  525.3400  636.9300  291.1800    1.0992    0.0152    0.5218   31.5223    1.3438    1.4801    1.5944    1.6537    1.6444 
 708.2000  116.6260    0.3208    2.2130    2.3006   38.4758    0.1028    2.3235   10.1680    1.2540    0.8440    0.3427    1.3240  272.8181  233.5901  253.2041  215.9000  525.3400  622.5900  274.4300    1.0818    0.0152    0.4728   31.5247    1.3720    1.4972    1.6140    1.6476    1.6199 
 708.3000  116.0662    0.3098    2.1366    2.1914   38.5770    0.1038    2.3095   12.0410    1.1920    0.8490    0.3317    1.2196  256.4320  248.8828  252.6574  215.9000  521.7900  622.5900  283.5600    1.0450    0.0152    0.3098   31.5270    1.3511    1.4992    1.6010    1.5974    1.5943 
