~VERSION INFORMATION
 VERS.                 2.0:   CWLS LOG ASCII STANDARD - VERSION 2.0
 WRAP.                  NO:   SINGLE LINE PER DEPTH STEP
~WELL INFORMATION
#MNEM.UNIT       DATA           DESCRIPTION MNEMONIC
#---------    -------------   --------------------------
 STRT.M         0.0000                        : START DEPTH
 STOP.M         849.0000                      : STOP DEPTH
 STEP.M         0.1000                        : STEP VALUE
 NULL.          -999.0000                     : NULL VALUE
 SRVC.          SCH                           : Service Company/Logging company
 DATE.          12.07.2023                    : LAS file Creation Date
 WELL    .      Каратобе 333                  : Well Name
 FLD     .      Karatobe                      : Field
 LATI    .      0                             : Latitude/Northing
 LONG    .      0                             : Longitude/Easting
 RWS     .      -999                          : Def_Rw
 WST     .      -999                          : Def_Rwt
~CURVE INFORMATION
#MNEM          UNIT     API CODE   Description
#---------- ---------- ----------  -----------
 DEPTH     .M                    : DEPTH
 AZIM      .deg                  : Azimuth
 DEVI      .deg                  : Deviatiom
 GZ3       .OHMM                 : APP.RESISTIVITY BY LATERAL A2.0M0.5N
 GZB       .OHMM                 : APP.RESISTIVITY BY LATERAL N0.5M2.0A
 SP        .mV                   : Spontaneous Potential
 RB        .OHMM                 : Mud Resistivity
 RHOB      .G/C3                 : BULK DENSITY BY DGGL
 GR        .uR/h                 : GAMMA RAYS
 RFTN      .CPM                  : NEUTRON-NEUTRON(T) FAR
 RNTN      .CPM                  : NEUTRON-NEUTRON(T) NEAR
 TNPH      .V/V                  : Neutron porosity
 LL3       .OHMM                 : APPAR.RESIST. LATEROLOG 3 ELECTRODES
 C1        .mm                   : CALIPER DIAMETER 1
 C2        .mm                   : CALIPER DIAMETER 2
 CALI      .mm                   : Caliper
 BSC       .mm                   : Nominal Caliper
 TP1       .MCS                  : Sonic Time 1
 TP2       .MCS                  : Sonic Time 2
 DTP       .uSec/m               : Sonic travel time
 MLL       .OHMM                 : MICROLATEROLOG
 MNOR      .OHMM                 : MICRONORMAL A0.05M
 MINV      .OHMM                 : MICROLATERAL A0.025M0.025N
 TEMP      .C                    : Formation Temperature
 IKD1F3    .OHMM                 : Induction zonde IKD1F3
 IKD2F3    .OHMM                 : Induction zonde IKD2F3
 IKD3F3    .OHMM                 : Induction zonde IKD3F3
 IKD4F3    .OHMM                 : Induction zonde IKD4F3
 IKD5F3    .OHMM                 : Induction zonde IKD5F3
~A Log data section
# ...
 378.0000   25.0064    0.4164    3.4640    3.9014   17.1094    0.0862    2.2165    8.3090    1.5770    0.9730    0.3333    2.8401  224.0059  216.0683  220.0371  215.9000  541.1000  653.5600  305.9100    1.4032    0.2508    0.8328   23.8200    1.7001    1.8926    2.1490    2.3558    2.4531 
 378.1000   25.2844    0.4178    3.5114    3.9520   17.3752    0.0874    2.2225    8.7010    1.5440    0.9790    0.3301    2.8378  223.9416  216.2366  220.0891  215.9000  537.8900  653.5600  306.4600    1.4432    0.2826    0.9206   23.8223    1.8443    2.0220    2.2955    2.4487    2.5086 
 378.2000   25.6184    0.4212    3.5668    3.9866   17.6532    0.0872    2.2375    9.2710    1.5410    0.9880    0.3244    2.8082  223.9388  216.0239  219.9814  215.9000  537.8900  651.5200  302.2800    1.5040    0.3152    0.9624   23.8247    1.8588    2.0814    2.3578    2.4953    2.5338 
 378.3000   25.6738    0.4172    3.6076    4.0002   17.9497    0.0862    2.2650    9.7350    1.5750    0.9850    0.3252    2.8014  223.9533  215.9956  219.9749  215.9000  537.8900  651.5200  297.2100    1.5257    0.3068    0.9638   23.8270    1.8699    2.0789    2.3628    2.5285    2.5710 
 378.4000   25.8410    0.4136    3.6446    4.0236   18.2187    0.0852    2.2860    9.9030    1.5680    0.9690    0.3267    2.7863  224.0221  215.9108  219.9665  215.9000  541.0800  651.5200  292.7000    1.5669    0.2944    0.9166   23.8293    1.8557    2.0587    2.3494    2.5285    2.6023 
 378.5000   26.3352    0.4162    3.7000    4.0618   18.5147    0.0850    2.2815    9.9220    1.5360    0.9570    0.3226    2.7969  224.0534  215.9090  219.9816  215.9000  541.0800  651.5300  298.6500    1.5784    0.2834    0.9042   23.8317    1.8482    2.0465    2.3360    2.5271    2.6212 
 378.6000   27.2608    0.4226    3.7392    4.0876   18.6939    0.0842    2.2690   10.0670    1.5480    0.9580    0.3262    2.8242  224.0833  215.9000  219.9912  215.9000  541.4900  651.5300  291.2400    1.6320    0.3004    0.9384   23.8340    1.8870    2.0613    2.3637    2.5527    2.6267 
 378.7000   27.0496    0.4288    3.7636    4.0880   18.8776    0.0840    2.2610   10.2500    1.5260    0.9530    0.3434    2.8158  224.0735  215.7963  219.9349  215.9000  541.4900  651.3200  291.2400    1.6437    0.3092    0.9718   23.8363    1.9291    2.1033    2.3962    2.5782    2.6270 
 378.8000   26.5692    0.4340    3.7728    4.0646   18.9356    0.0840    2.2465   10.3760    1.4170    0.9380    0.3561    2.7658  224.0368  215.5920  219.8144  215.9000  539.8000  651.3200  296.2400    1.6797    0.3102    0.9500   23.8387    1.9800    2.1358    2.4263    2.6053    2.6342 
 378.9000   26.2270    0.4390    3.7532    4.0350   19.0269    0.0848    2.2130   10.3370    1.3460    0.9320    0.3522    2.7067  223.9957  215.6188  219.8073  215.9000  539.8000  650.2600  289.0800    1.6584    0.2982    0.9374   23.8410    1.9643    2.1319    2.4030    2.5960    2.6096 
 379.0000   25.2058    0.4432    3.7064    3.9746   19.0509    0.0842    2.1660   10.0910    1.3810    0.9360    0.3416    2.6627  224.0525  215.8676  219.9605  215.9000  539.8000  650.2600  288.9700    1.6670    0.2960    0.9352   23.8433    1.9260    2.1015    2.3733    2.5577    2.5823 
 379.1000   25.6300    0.4448    3.6760    3.9386   19.0998    0.0840    2.1370    9.7340    1.4510    0.9390    0.3316    2.6461  224.1063  215.9397  220.0230  215.9000  543.1500  650.2600  281.1700    1.6324    0.2882    0.9158   23.8457    1.9069    2.0854    2.3503    2.5190    2.5710 
 379.2000   26.3264    0.4458    3.7006    3.9434   19.1345    0.0856    2.1485    9.4610    1.5170    0.9450    0.3207    2.6363  224.1480  215.9766  220.0623  215.9000  543.1500  651.7600  289.1800    1.6373    0.2806    0.9126   23.8480    1.9111    2.0688    2.3153    2.4806    2.5560 
 379.3000   26.0502    0.4492    3.7432    3.9692   19.1535    0.0876    2.1945    9.3030    1.5930    0.9510    0.3113    2.6639  224.1830  216.0071  220.0950  215.9000  539.8000  651.7600  284.0700    1.6007    0.2784    0.8922   23.8503    1.8621    2.0320    2.3011    2.4695    2.5380 
 379.4000   25.6880    0.4516    3.7648    3.9702   19.1895    0.0856    2.2475    9.0590    1.6600    0.9520    0.2995    2.7333  224.2483  215.9930  220.1202  215.9000  539.8000  653.1000  284.0700    1.6117    0.2774    0.8862   23.8527    1.8414    2.0332    2.3135    2.4782    2.5326 
 379.5000   25.7246    0.4512    3.7616    3.9466   19.1711    0.0834    2.2700    8.8060    1.7590    0.9520    0.2912    2.7896  224.1647  216.0180  220.0914  215.9000  545.9200  653.1000  276.1000    1.5970    0.2788    0.9148   23.8550    1.9112    2.0988    2.3497    2.5057    2.5499 
 379.6000   25.8068    0.4462    3.7624    3.9218   19.2055    0.0838    2.2535    8.6930    1.8450    0.9500    0.2981    2.7565  223.9474  215.9992  219.9738  215.9000  545.9200  654.5000  276.1200    1.6189    0.2792    0.9060   23.8573    1.9780    2.1439    2.3906    2.5307    2.5574 
 379.7000   25.4298    0.4378    3.7318    3.8826   19.1880    0.0832    2.2360    8.7880    1.7960    0.9490    0.3160    2.7049  223.9018  215.9964  219.9496  215.9000  545.9200  654.5000  275.1000    1.6230    0.2920    0.9140   23.8597    1.9199    2.1081    2.3665    2.5158    2.5326 
 379.8000   24.5808    0.4376    3.6560    3.8260   19.2163    0.0838    2.2355    9.0640    1.6380    0.9540    0.3249    2.6931  224.1505  216.0408  220.0961  215.9000  543.8900  654.5000  274.5800    1.6350    0.2816    0.9058   23.8620    1.8870    2.0603    2.3322    2.4837    2.5197 
 379.9000   24.4842    0.4444    3.5998    3.8052   19.1807    0.0840    2.2325    9.4530    1.5390    0.9630    0.3180    2.7006  224.5488  216.0904  220.3196  215.9000  543.8900  655.8300  278.8100    1.6423    0.2790    0.8878   23.8643    1.8843    2.0403    2.2910    2.4584    2.5186 
 380.0000   24.9414    0.4564    3.5852    3.8430   19.1368    0.0864    2.2195    9.8720    1.5660    0.9650    0.3124    2.7104  224.6163  216.1668  220.3916  215.9000  542.8500  655.8300  276.1600    1.6463    0.2848    0.9224   23.8667    1.8617    2.0152    2.2721    2.4443    2.5202 
 380.1000   25.0660    0.4614    3.5968    3.8874   19.0400    0.0886    2.2015   10.2190    1.6040    0.9500    0.3149    2.7427  224.6680  216.3378  220.5033  215.9000  542.8500  657.5600  276.1600    1.6767    0.2670    0.9280   23.8690    1.8399    2.0095    2.2808    2.4616    2.5190 
 380.2000   23.6964    0.4604    3.6192    3.9176   18.8909    0.0906    2.1860   10.3310    1.5890    0.9290    0.3277    2.8121  224.5892  216.3369  220.4626  215.9000  544.0900  657.5600  267.7600    1.7055    0.2758    0.9310   23.8713    1.9126    2.0711    2.3395    2.5078    2.5343 
 380.3000   22.2242    0.4544    3.6584    3.9318   18.7348    0.0934    2.1860   10.0550    1.5060    0.9220    0.3470    2.8235  224.2552  216.1778  220.2165  215.9000  544.0900  659.8600  271.5300    1.7571    0.3024    0.9184   23.8737    2.0339    2.1562    2.4078    2.5527    2.5565 
 380.4000   21.3748    0.4418    3.6846    3.9156   18.5246    0.0964    2.2020    9.5630    1.3790    0.9230    0.3523    2.7687  223.9837  216.1421  220.0629  215.9000  544.0900  659.8600  279.9200    1.7687    0.3202    0.9046   23.8760    2.0348    2.1769    2.4240    2.5518    2.5518 
 380.5000   21.3818    0.4414    3.6666    3.8630   18.3722    0.0994    2.2185    9.1670    1.3270    0.9260    0.3381    2.6998  223.9474  216.2411  220.0942  215.9000  545.7600  659.8600  283.2500    1.7544    0.2880    0.8900   23.8783    1.9698    2.1216    2.3781    2.5185    2.5187 
 380.6000   21.0766    0.4404    3.6154    3.7982   18.1927    0.1024    2.2380    9.0940    1.4030    0.9300    0.3299    2.6458  223.8890  216.2445  220.0663  215.9000  545.7600  661.5500  267.9500    1.6975    0.2544    0.8478   23.8807    1.9053    2.0469    2.3086    2.4608    2.4886 
 380.7000   20.5046    0.4344    3.5656    3.7754   18.0999    0.1062    2.2620    9.3350    1.4610    0.9240    0.3377    2.6040  223.9030  216.3178  220.1104  215.9000  545.6900  661.5500  271.4600    1.6404    0.2474    0.8524   23.8830    1.8324    1.9843    2.2331    2.3882    2.4555 
