~VERSION INFORMATION
 VERS.                 2.0:   CWLS LOG ASCII STANDARD - VERSION 2.0
 WRAP.                  NO:   SINGLE LINE PER DEPTH STEP
~WELL INFORMATION
#MNEM.UNIT       DATA           DESCRIPTION MNEMONIC
#---------    -------------   --------------------------
 STRT.M         0.0000                        : START DEPTH
 STOP.M         849.0000                      : STOP DEPTH
 STEP.M         0.1000                        : STEP VALUE
 NULL.          -999.0000                     : NULL VALUE
 SRVC.          SCH                           : Service Company/Logging company
 DATE.          12.07.2023                    : LAS file Creation Date
 WELL    .      Каратобе 333                  : Well Name
 FLD     .      Karatobe                      : Field
 LATI    .      0                             : Latitude/Northing
 LONG    .      0                             : Longitude/Easting
 RWS     .      -999                          : Def_Rw
 WST     .      -999                          : Def_Rwt
~CURVE INFORMATION
#MNEM          UNIT     API CODE   Description
#---------- ---------- ----------  -----------
 DEPTH     .M                    : DEPTH
 AZIM      .deg                  : Azimuth
 DEVI      .deg                  : Deviatiom
 GZ3       .OHMM                 : APP.RESISTIVITY BY LATERAL A2.0M0.5N
 GZB       .OHMM                 : APP.RESISTIVITY BY LATERAL N0.5M2.0A
 SP        .mV                   : Spontaneous Potential
 RB        .OHMM                 : Mud Resistivity
 RHOB      .G/C3                 : BULK DENSITY BY DGGL
 GR        .uR/h                 : GAMMA RAYS
 RFTN      .CPM                  : NEUTRON-NEUTRON(T) FAR
 RNTN      .CPM                  : NEUTRON-NEUTRON(T) NEAR
 TNPH      .V/V                  : Neutron porosity
 LL3       .OHMM                 : APPAR.RESIST. LATEROLOG 3 ELECTRODES
 C1        .mm                   : CALIPER DIAMETER 1
 C2        .mm                   : CALIPER DIAMETER 2
 CALI      .mm                   : Caliper
 BSC       .mm                   : Nominal Caliper
 TP1       .MCS                  : Sonic Time 1
 TP2       .MCS                  : Sonic Time 2
 DTP       .uSec/m               : Sonic travel time
 MLL       .OHMM                 : MICROLATEROLOG
 MNOR      .OHMM                 : MICRONORMAL A0.05M
 MINV      .OHMM                 : MICROLATERAL A0.025M0.025N
 TEMP      .C                    : Formation Temperature
 IKD1F3    .OHMM                 : Induction zonde IKD1F3
 IKD2F3    .OHMM                 : Induction zonde IKD2F3
 IKD3F3    .OHMM                 : Induction zonde IKD3F3
 IKD4F3    .OHMM                 : Induction zonde IKD4F3
 IKD5F3    .OHMM                 : Induction zonde IKD5F3
~A Log data section
# ...
 798.0000   45.3018    0.5066    4.9320    6.1236   41.8180    0.1622    2.4265    7.7030    3.7380    1.3830    0.2279    4.2690  225.1145  217.6301  221.3723  215.9000  388.8700  518.4400  316.2600    2.5087    1.0172    1.3984   33.6200    2.4186    2.5177    2.7926    2.9846    3.0707 
 798.1000    1.8102    0.4958    4.9730    6.1172   41.9136    0.1610    2.4675    7.8270    3.8090    1.4210    0.2229    4.2907  225.2956  220.6562  222.9759  215.9000  388.3200  521.5500  316.2600    2.7544    0.8474    1.6850   33.6223    2.4437    2.5453    2.8461    3.0596    3.1271 
 798.2000    2.4476    0.4758    4.9588    5.9736   41.9110    0.1554    2.5230    7.8530    3.7790    1.4440    0.2140    4.3301  225.4623  231.3541  228.4082  215.9000  388.3200  521.5500  327.1900    2.8830    1.3056    2.7112   33.6247    2.6382    2.6446    3.0089    3.1723    3.1028 
 798.3000    2.5254    0.4648    4.8394    5.7468   41.9533    0.1476    2.6120    7.7640    3.7140    1.4390    0.2004    4.3301  225.9217  216.7116  221.3166  215.9000  388.4300  521.5500  333.5500    2.9890    1.2008    2.7726   33.6270    2.8970    2.8948    3.2092    3.2045    3.0969 
 798.4000    2.4026    0.4510    4.7550    5.6142   41.9496    0.1380    2.6615    7.5490    3.6500    1.4050    0.1888    4.2493  227.4484  217.6015  222.5245  215.9000  388.4300  519.8900  339.0200    2.8927    0.8430    2.2426   33.6293    3.2565    3.0451    3.1687    3.1488    3.0976 
 798.5000  207.5448    0.4400    4.7026    5.5970   41.9872    0.1392    2.6180    7.2890    3.6210    1.3400    0.1895    4.0957  230.0637  229.5973  229.8305  215.9000  388.7900  519.8900  316.6100    2.4286    0.1658    1.2312   33.6317    2.8916    2.6761    2.8585    3.0052    3.0237 
 798.6000  339.2628    0.4300    4.5874    5.5500   42.0038    0.1512    2.5680    7.0950    3.5980    1.2280    0.2038    3.4397  234.4015  254.2118  244.3066  215.9000  388.7900  523.0200  311.1400    2.3374    0.0152    0.4482   33.6340    1.9995    2.1648    2.5084    2.8057    2.8718 
 798.7000  359.4874    0.4168    4.5210    5.5564   42.0112    0.1508    2.5940    7.0620    3.4180    1.1030    0.2242    3.1186  243.8731  272.1066  257.9894  215.9000  389.0100  523.0200  300.0300    2.2611    0.0152    0.2448   33.6363    2.0216    2.1274    2.4432    2.7395    2.8030 
 798.8000  359.5682    0.4284    4.6238    5.6642   42.0360    0.1452    2.6280    7.1740    3.0760    1.0500    0.2376    3.5185  234.0690  260.0882  247.0786  215.9000  389.0100  522.8600  294.5800    2.5993    0.0168    0.4914   33.6387    2.5563    2.4491    2.6466    2.7837    2.8719 
 798.9000  201.1434    0.4400    4.7496    5.8188   42.0327    0.1344    2.5920    7.3050    2.8360    1.0750    0.2348    3.7706  226.7576  268.7194  247.7385  215.9000  389.0100  522.8600  323.9200    2.4637    0.1868    0.5218   33.6410    2.7073    2.6187    2.7863    2.8218    2.9178 
 799.0000   34.3892    0.4452    4.8044    5.9294   42.0773    0.1312    2.5575    7.4320    2.9130    1.1160    0.2257    3.6958  226.0617  274.7568  250.4092  215.9000  391.3900  522.6100  323.9200    2.6489    0.1324    0.5418   33.6433    2.4827    2.4455    2.7471    2.9426    2.9534 
 799.1000    1.0782    0.4500    4.8512    6.0018   42.0530    0.1134    2.6025    7.6620    3.1510    1.1230    0.2225    3.6367  225.1958  285.2687  255.2318  215.9000  391.3900  522.6100  323.9200    2.4687    0.0338    0.4706   33.6457    2.2895    2.3070    2.7059    3.0500    3.0361 
 799.2000    0.7210    0.4390    4.9426    6.0510   42.0919    0.1034    2.6355    8.0290    3.3060    1.1220    0.2241    3.7785  225.4010  276.1031  250.7520  215.9000  390.9100  522.6100  333.0800    2.8029    0.0152    0.2710   33.6480    2.4287    2.4949    2.8711    3.1412    3.1917 
 799.3000  129.6166    0.4264    5.0430    6.1000   42.0650    0.1020    2.6110    8.2010    3.3650    1.1410    0.2247    4.0760  225.6671  269.6852  247.6757  215.9000  390.9100  519.0400  333.0800    3.1023    0.0320    0.3084   33.6503    2.9742    2.8574    3.1626    3.2860    3.3331 
 799.4000  265.3734    0.4256    5.0526    6.1012   42.1118    0.1004    2.6140    8.0120    3.4110    1.1760    0.2241    4.1962  225.0803  266.3937  245.7370  215.9000  389.0400  519.0400  332.8000    3.3123    0.1338    0.5010   33.6527    3.0380    2.9511    3.2531    3.3264    3.3498 
 799.5000   90.1674    0.4468    5.0396    6.0894   42.0970    0.0968    2.6490    7.7780    3.4260    1.2110    0.2291    4.1390  224.4929  263.3298  243.9113  215.9000  389.0400  521.3600  328.6600    3.5683    0.0438    0.3968   33.6550    2.7942    2.7645    3.1809    3.3257    3.3738 
 799.6000  181.9742    0.4520    5.0362    6.1086   42.1276    0.0936    2.6345    7.8710    3.3050    1.2400    0.2376    4.1292  224.4796  259.4482  241.9634  215.9000  388.4800  521.3600  327.7700    3.3639    0.0152    0.3272   33.6573    2.7864    2.6440    3.0420    3.3086    3.4164 
 799.7000  330.0876    0.4448    5.0472    6.0756   42.1106    0.0890    2.5780    8.3500    3.1190    1.2530    0.2397    4.1469  224.1661  269.1015  246.6333  215.9000  388.4800  516.6900  335.5800    3.4278    0.0152    0.3526   33.6597    2.6674    2.6186    2.9806    3.2565    3.4383 
 799.8000  346.6440    0.4414    5.0964    6.0908   42.0971    0.0896    2.5585    8.9450    3.0550    1.2490    0.2341    4.0642  225.2955  261.9827  243.6386  215.9000  388.4800  516.6900  335.0300    3.3696    0.0248    0.4442   33.6620    2.5956    2.6183    3.0241    3.2699    3.4374 
 799.9000  130.0180    0.4354    5.1576    6.1194   42.0787    0.0948    2.5700    9.2680    3.1400    1.2390    0.2285    4.2789  225.6425  256.0292  240.8354  215.9000  391.6400  529.4500  334.6300    3.5045    0.0744    0.7314   33.6643    2.6789    2.5872    3.0296    3.2967    3.4104 
 800.0000  170.6404    0.4372    5.1828    6.1178   42.0618    0.0968    2.5785    8.9710    3.2270    1.2270    0.2311    4.2198  226.3392  263.0751  244.7072  215.9000  391.6400  529.4500  334.6300    3.3625    0.1134    0.9092   33.6667    2.5822    2.5065    2.9825    3.2916    3.4221 
 800.1000  325.4748    0.4500    5.1900    6.0928   42.1174    0.0986    2.6145    8.2700    3.1320    1.2170    0.2369    4.1666  226.6776  260.3918  243.5352  215.9000  398.2900  529.4500  328.0400    3.3243    0.0634    0.4698   33.6690    2.4954    2.4745    2.9404    3.2870    3.4641 
 800.2000  358.1354    0.4586    5.2134    6.0926   42.1537    0.0990    2.6475    7.8960    2.9620    1.2140    0.2319    4.1922  226.1192  256.5091  241.3146  215.9000  398.2900  528.7500  328.0400    3.3035    0.0276    0.3514   33.6713    2.5695    2.5063    2.9696    3.3149    3.5123 
 800.3000  357.5434    0.4464    5.2014    6.0404   42.2577    0.1006    2.5915    8.0230    3.0120    1.2050    0.2225    4.1765  225.9392  273.4601  249.6997  215.9000  403.0400  528.7500  329.2400    3.1109    0.1326    0.4022   33.6737    2.5705    2.5368    3.0217    3.3503    3.5485 
 800.4000  356.9340    0.4350    5.1674    5.9870   42.2789    0.1026    2.5000    8.0510    3.1760    1.1810    0.2235    4.1154  226.6819  278.9687  252.8258  215.9000  403.0400  521.9100  320.3300    3.3910    0.1834    0.4814   33.6760    2.5896    2.6113    3.0590    3.3918    3.5962 
 800.5000  356.4176    0.4370    5.1480    5.9706   42.3441    0.1078    2.4980    7.7710    3.1370    1.1560    0.2347    4.1568  231.3257  273.0241  252.1753  215.9000  398.9700  521.9100  325.0100    2.9945    0.0500    0.3916   33.6783    2.7601    2.7241    3.1463    3.4389    3.6626 
 800.6000  355.9180    0.4116    5.1570    5.9666   42.3377    0.1122    2.5715    7.5420    2.9000    1.1500    0.2426    4.1784  237.8478  276.1616  257.0043  215.9000  394.9000  531.0300  330.8000    3.0982    0.0152    0.4130   33.6807    2.7907    2.7338    3.1362    3.4438    3.6610 
 800.7000  356.2076    0.3954    5.0816    5.8852   42.3818    0.1154    2.6140    7.6240    2.6850    1.1480    0.2421    3.9992  237.4662  293.1633  265.3152  215.9000  390.8200  531.0300  332.2100    2.6797    0.0152    0.2778   33.6830    2.5876    2.6454    3.0345    3.3861    3.5925 
