~VERSION INFORMATION
 VERS.                 2.0:   CWLS LOG ASCII STANDARD - VERSION 2.0
 WRAP.                  NO:   SINGLE LINE PER DEPTH STEP
~WELL INFORMATION
#MNEM.UNIT       DATA           DESCRIPTION MNEMONIC
#---------    -------------   --------------------------
 STRT.M         0.0000                        : START DEPTH
 STOP.M         849.0000                      : STOP DEPTH
 STEP.M         0.1000                        : STEP VALUE
 NULL.          -999.0000                     : NULL VALUE
 SRVC.          SCH                           : Service Company/Logging company
 DATE.          12.07.2023                    : LAS file Creation Date
 WELL    .      Каратобе 333                  : Well Name
 FLD     .      Karatobe                      : Field
 LATI    .      0                             : Latitude/Northing
 LONG    .      0                             : Longitude/Easting
 RWS     .      -999                          : Def_Rw
 WST     .      -999                          : Def_Rwt
~CURVE INFORMATION
#MNEM          UNIT     API CODE   Description
#---------- ---------- ----------  -----------
 DEPTH     .M                    : DEPTH
 AZIM      .deg                  : Azimuth
 DEVI      .deg                  : Deviatiom
 GZ3       .OHMM                 : APP.RESISTIVITY BY LATERAL A2.0M0.5N
 GZB       .OHMM                 : APP.RESISTIVITY BY LATERAL N0.5M2.0A
 SP        .mV                   : Spontaneous Potential
 RB        .OHMM                 : Mud Resistivity
 RHOB      .G/C3                 : BULK DENSITY BY DGGL
 GR        .uR/h                 : GAMMA RAYS
 RFTN      .CPM                  : NEUTRON-NEUTRON(T) FAR
 RNTN      .CPM                  : NEUTRON-NEUTRON(T) NEAR
 TNPH      .V/V                  : Neutron porosity
 LL3       .OHMM                 : APPAR.RESIST. LATEROLOG 3 ELECTRODES
 C1        .mm                   : CALIPER DIAMETER 1
 C2        .mm                   : CALIPER DIAMETER 2
 CALI      .mm                   : Caliper
 BSC       .mm                   : Nominal Caliper
 TP1       .MCS                  : Sonic Time 1
 TP2       .MCS                  : Sonic Time 2
 DTP       .uSec/m               : Sonic travel time
 MLL       .OHMM                 : MICROLATEROLOG
 MNOR      .OHMM                 : MICRONORMAL A0.05M
 MINV      .OHMM                 : MICROLATERAL A0.025M0.025N
 TEMP      .C                    : Formation Temperature
 IKD1F3    .OHMM                 : Induction zonde IKD1F3
 IKD2F3    .OHMM                 : Induction zonde IKD2F3
 IKD3F3    .OHMM                 : Induction zonde IKD3F3
 IKD4F3    .OHMM                 : Induction zonde IKD4F3
 IKD5F3    .OHMM                 : Induction zonde IKD5F3
~A Log data section
# ...
 142.8000 -999.0000 -999.0000    0.0062    0.0280 -999.0000 -999.0000 -999.0000    5.0460    3.0790    1.1230    0.2206 -999.0000  239.2679  223.1661  231.2165  222.4000  308.3900  413.3800  311.7200 -999.0000 -999.0000 -999.0000   18.3320 -999.0000 -999.0000 -999.0000 -999.0000 -999.0000 
 142.9000 -999.0000 -999.0000    0.0060    0.0294 -999.0000 -999.0000 -999.0000    4.7530    3.0460    1.1240    0.2202 -999.0000  237.7891  222.8169  230.3025  222.4000  310.0000  413.3800  300.7800 -999.0000 -999.0000 -999.0000   18.3343 -999.0000 -999.0000 -999.0000 -999.0000 -999.0000 
 143.0000 -999.0000 -999.0000    0.0076    0.0292 -999.0000 -999.0000 -999.0000    4.6020    3.0760    1.1050    0.2130 -999.0000  233.9925  223.3553  228.6734  222.4000  310.0000  413.3900  268.5500 -999.0000 -999.0000 -999.0000   18.3367 -999.0000 -999.0000 -999.0000 -999.0000 -999.0000 
 143.1000 -999.0000 -999.0000    0.0080    0.0306 -999.0000 -999.0000 -999.0000    4.7730    3.2180    1.0900    0.2011 -999.0000  236.6125  229.9425  233.2770  222.4000  310.0000  413.3900  268.5500 -999.0000 -999.0000 -999.0000   18.3390 -999.0000 -999.0000 -999.0000 -999.0000 -999.0000 
 143.2000 -999.0000 -999.0000    0.0064    0.0310 -999.0000 -999.0000 -999.0000    5.0620    3.4020    1.0920    0.1918 -999.0000  238.3763  233.1857  235.7805  222.4000  310.2600  413.3900  268.7000 -999.0000 -999.0000 -999.0000   18.3413 -999.0000 -999.0000 -999.0000 -999.0000 -999.0000 
 143.3000 -999.0000    0.9408    0.0076    0.0294 -999.0000 -999.0000 -999.0000    5.3600    3.5300    1.1000    0.1861 -999.0000  239.2268  233.4491  236.3375  222.4000  310.2600  414.8800  268.7000 -999.0000 -999.0000 -999.0000   18.3437 -999.0000 -999.0000 -999.0000 -999.0000 -999.0000 
 143.4000 -999.0000    0.9386    0.0088    0.0314 -999.0000 -999.0000 -999.0000    5.5410    3.6150    1.0920    0.1814 -999.0000  239.2549  232.9632  236.1090  222.4000  310.5500  414.8800  277.3600 -999.0000 -999.0000 -999.0000   18.3460 -999.0000 -999.0000 -999.0000 -999.0000 -999.0000 
 143.5000 -999.0000    0.9308    0.0074    0.0288 -999.0000 -999.0000 -999.0000    5.4830    3.6620    1.0670    0.1772 -999.0000  239.3488  232.5669  235.9574  222.4000  310.5500  409.0600  260.9600 -999.0000 -999.0000 -999.0000   18.3483 -999.0000 -999.0000 -999.0000 -999.0000 -999.0000 
 143.6000 -999.0000    0.9306    0.0086    0.0312 -999.0000 -999.0000 -999.0000    5.3180    3.5820    1.0450    0.1768 -999.0000  239.2406  232.6980  235.9693  222.4000  311.0200  409.0600  260.9600 -999.0000 -999.0000 -999.0000   18.3507 -999.0000 -999.0000 -999.0000 -999.0000 -999.0000 
 143.7000   75.9052    0.9286    0.0074    0.0288 -999.0000 -999.0000 -999.0000    5.1840    3.2700    1.0320    0.1873 -999.0000  239.3364  232.6382  235.9873  222.4000  311.0200  409.0600  263.7500 -999.0000 -999.0000 -999.0000   18.3530 -999.0000 -999.0000 -999.0000 -999.0000 -999.0000 
 143.8000  280.1580    0.8752    0.0062    0.0336 -999.0000 -999.0000 -999.0000    5.2460    2.7050    1.0040    0.2192 -999.0000  239.3327  233.1134  236.2231  222.4000  311.0200  409.0600  266.1100 -999.0000 -999.0000 -999.0000   18.3553 -999.0000 -999.0000 -999.0000 -999.0000 -999.0000 
 143.9000  324.7286    0.8684    0.0076    0.0278 -999.0000 -999.0000 -999.0000    5.4520    2.0170    0.9360    0.2779 -999.0000  239.2603  233.4056  236.3334  222.4000  310.7400  411.0600  262.4800 -999.0000 -999.0000 -999.0000   18.3577 -999.0000 -999.0000 -999.0000 -999.0000 -999.0000 
 144.0000  323.0618    0.8908    0.0072    0.0316 -999.0000 -999.0000 -999.0000    5.6310    1.4410    0.8390    0.3377 -999.0000  239.1994  232.7067  235.9531  222.4000  310.7400  411.2500  258.4500 -999.0000 -999.0000 -999.0000   18.3600 -999.0000 -999.0000 -999.0000 -999.0000 -999.0000 
 144.1000  326.3352    0.9088    0.0070    0.0306 -999.0000 -999.0000 -999.0000    5.7380    1.1530    0.7500    0.3558 -999.0000  239.1848  232.9331  236.0594  222.4000  310.1400  411.2500  258.4800 -999.0000 -999.0000 -999.0000   18.3623 -999.0000 -999.0000 -999.0000 -999.0000 -999.0000 
 144.2000  330.2932    0.9200    0.0070    0.0308 -999.0000 -999.0000 -999.0000    5.7720    1.1630    0.7070    0.3338 -999.0000  239.1018  232.9105  236.0061  222.4000  310.1400  411.2500  258.4800 -999.0000 -999.0000 -999.0000   18.3647 -999.0000 -999.0000 -999.0000 -999.0000 -999.0000 
 144.3000  333.8970    0.9140    0.0070    0.0302 -999.0000 -999.0000 -999.0000    5.6940    1.4010    0.7190    0.3004 -999.0000  239.0987  232.3685  235.7332  222.4000  310.4000  411.2500  257.8200 -999.0000 -999.0000 -999.0000   18.3670 -999.0000 -999.0000 -999.0000 -999.0000 -999.0000 
 144.4000  339.0444    0.8968    0.0070    0.0308 -999.0000 -999.0000 -999.0000    5.5370    1.7460    0.7710    0.2743 -999.0000  239.0881  232.2955  235.6922  222.4000  310.4000  417.6100  261.5300 -999.0000 -999.0000 -999.0000   18.3693 -999.0000 -999.0000 -999.0000 -999.0000 -999.0000 
 144.5000  347.0012    0.8970    0.0070    0.0318 -999.0000 -999.0000 -999.0000    5.3800    2.0560    0.8400    0.2565 -999.0000  239.0912  232.1663  235.6283  222.4000  310.4000  413.4400  260.8200 -999.0000 -999.0000 -999.0000   18.3717 -999.0000 -999.0000 -999.0000 -999.0000 -999.0000 
 144.6000  354.0362    0.9020    0.0054    0.0296 -999.0000 -999.0000 -999.0000    5.2750    2.2600    0.9090    0.2428 -999.0000  239.0360  232.1725  235.6043  222.4000  312.1000  416.7200  246.2900 -999.0000 -999.0000 -999.0000   18.3740 -999.0000 -999.0000 -999.0000 -999.0000 -999.0000 
 144.7000  232.6902    0.9046    0.0066    0.0314 -999.0000 -999.0000 -999.0000    5.2400    2.3480    0.9630    0.2342 -999.0000  239.0921  232.1388  235.6159  222.4000  312.1000  420.0000  245.1100 -999.0000 -999.0000 -999.0000   18.3763 -999.0000 -999.0000 -999.0000 -999.0000 -999.0000 
 144.8000   81.7562    0.9010    0.0070    0.0288 -999.0000 -999.0000 -999.0000    5.2050    2.2980    0.9910    0.2352 -999.0000  239.1110  232.2681  235.6896  222.4000  309.6100  411.2500  245.1100 -999.0000 -999.0000 -999.0000   18.3787 -999.0000 -999.0000 -999.0000 -999.0000 -999.0000 
 144.9000  126.8380    0.9024    0.0070    0.0328 -999.0000 -999.0000 -999.0000    5.1400    2.1020    0.9810    0.2480 -999.0000  239.1150  232.0826  235.5992  222.4000  309.6100  411.2500  245.1100 -999.0000 -999.0000 -999.0000   18.3810 -999.0000 -999.0000 -999.0000 -999.0000 -999.0000 
 145.0000  160.0930    0.9030    0.0070    0.0276 -999.0000 -999.0000 -999.0000    5.1130    1.8170    0.9310    0.2698 -999.0000  239.1445  231.4115  235.2776  222.4000  307.6700  411.2500  250.7800 -999.0000 -999.0000 -999.0000   18.3833 -999.0000 -999.0000 -999.0000 -999.0000 -999.0000 
 145.1000  154.3940    0.9038    0.0054    0.0300 -999.0000 -999.0000 -999.0000    5.0770    1.5440    0.8610    0.2921 -999.0000  239.1013  230.7965  234.9494  222.4000  307.6700  412.9800  251.2700 -999.0000 -999.0000 -999.0000   18.3857 -999.0000 -999.0000 -999.0000 -999.0000 -999.0000 
 145.2000  123.9762    0.9072    0.0066    0.0286 -999.0000 -999.0000 -999.0000    4.9700    1.3570    0.7930    0.3076 -999.0000  239.2353  228.9971  234.1167  222.4000  307.6700  412.9800  252.7700 -999.0000 -999.0000 -999.0000   18.3880 -999.0000 -999.0000 -999.0000 -999.0000 -999.0000 
 145.3000  111.3236    0.9216    0.0070    0.0304 -999.0000 -999.0000 -999.0000    4.8350    1.2540    0.7430    0.3157 -999.0000  239.2050  228.6649  233.9354  222.4000  307.4800  412.9800  252.7700 -999.0000 -999.0000 -999.0000   18.3903 -999.0000 -999.0000 -999.0000 -999.0000 -999.0000 
 145.4000   78.5072    0.9314    0.0070    0.0294 -999.0000 -999.0000 -999.0000    4.8580    1.2030    0.7170    0.3226 -999.0000  239.2401  227.9915  233.6158  222.4000  307.4800  412.5200  252.1300 -999.0000 -999.0000 -999.0000   18.3927 -999.0000 -999.0000 -999.0000 -999.0000 -999.0000 
 145.5000   44.0318    0.9314    0.0054    0.0274 -999.0000 -999.0000 -999.0000    5.2120    1.1630    0.7080    0.3374 -999.0000  239.2938  226.2817  232.7878  222.4000  307.4700  412.5200  268.0200 -999.0000 -999.0000 -999.0000   18.3950 -999.0000 -999.0000 -999.0000 -999.0000 -999.0000 
