~VERSION INFORMATION
 VERS.                 2.0:   CWLS LOG ASCII STANDARD - VERSION 2.0
 WRAP.                  NO:   SINGLE LINE PER DEPTH STEP
~WELL INFORMATION
#MNEM.UNIT       DATA           DESCRIPTION MNEMONIC
#---------    -------------   --------------------------
 STRT.M         0.0000                        : START DEPTH
 STOP.M         849.0000                      : STOP DEPTH
 STEP.M         0.1000                        : STEP VALUE
 NULL.          -999.0000                     : NULL VALUE
 SRVC.          SCH                           : Service Company/Logging company
 DATE.          12.07.2023                    : LAS file Creation Date
 WELL    .      Каратобе 333                  : Well Name
 FLD     .      Karatobe                      : Field
 LATI    .      0                             : Latitude/Northing
 LONG    .      0                             : Longitude/Easting
 RWS     .      -999                          : Def_Rw
 WST     .      -999                          : Def_Rwt
~CURVE INFORMATION
#MNEM          UNIT     API CODE   Description
#---------- ---------- ----------  -----------
 DEPTH     .M                    : DEPTH
 AZIM      .deg                  : Azimuth
 DEVI      .deg                  : Deviatiom
 GZ3       .OHMM                 : APP.RESISTIVITY BY LATERAL A2.0M0.5N
 GZB       .OHMM                 : APP.RESISTIVITY BY LATERAL N0.5M2.0A
 SP        .mV                   : Spontaneous Potential
 RB        .OHMM                 : Mud Resistivity
 RHOB      .G/C3                 : BULK DENSITY BY DGGL
 GR        .uR/h                 : GAMMA RAYS
 RFTN      .CPM                  : NEUTRON-NEUTRON(T) FAR
 RNTN      .CPM                  : NEUTRON-NEUTRON(T) NEAR
 TNPH      .V/V                  : Neutron porosity
 LL3       .OHMM                 : APPAR.RESIST. LATEROLOG 3 ELECTRODES
 C1        .mm                   : CALIPER DIAMETER 1
 C2        .mm                   : CALIPER DIAMETER 2
 CALI      .mm                   : Caliper
 BSC       .mm                   : Nominal Caliper
 TP1       .MCS                  : Sonic Time 1
 TP2       .MCS                  : Sonic Time 2
 DTP       .uSec/m               : Sonic travel time
 MLL       .OHMM                 : MICROLATEROLOG
 MNOR      .OHMM                 : MICRONORMAL A0.05M
 MINV      .OHMM                 : MICROLATERAL A0.025M0.025N
 TEMP      .C                    : Formation Temperature
 IKD1F3    .OHMM                 : Induction zonde IKD1F3
 IKD2F3    .OHMM                 : Induction zonde IKD2F3
 IKD3F3    .OHMM                 : Induction zonde IKD3F3
 IKD4F3    .OHMM                 : Induction zonde IKD4F3
 IKD5F3    .OHMM                 : Induction zonde IKD5F3
~A Log data section
# ...
 610.4000  112.0018    0.3234    0.9544    1.2746   30.4719    0.0990    2.1630    6.2790    1.7530    1.0090    0.3162    0.7464  223.0150  214.2894  218.6526  215.9000  552.8500  653.7400  241.7700    0.7073    0.0556    0.8378   29.2427    0.7120    0.7237    0.7579    0.7838    0.7953 
 610.5000  111.6408    0.3256    0.9320    1.2786   30.4730    0.0990    2.1675    6.1560    1.6900    1.0210    0.3135    0.7491  222.9967  214.1059  218.5509  215.9000  552.8500  657.0000  241.7700    0.6873    0.0830    0.8412   29.2450    0.7042    0.7127    0.7432    0.7647    0.7854 
 610.6000  111.4664    0.3252    0.9112    1.2896   30.4763    0.0998    2.2065    6.1430    1.7030    1.0150    0.3142    0.7357  222.9131  214.0529  218.4834  215.9000  555.9500  657.0000  239.6800    0.6867    0.0672    0.7580   29.2473    0.6951    0.7038    0.7316    0.7522    0.7747 
 610.7000  111.5988    0.3226    0.8974    1.3056   30.4800    0.1000    2.2380    6.0790    1.7080    0.9980    0.3242    0.7302  222.9313  214.1435  218.5370  215.9000  555.9500  659.8800  239.3400    0.6638    0.0532    0.7898   29.2497    0.6839    0.6944    0.7228    0.7446    0.7669 
 610.8000  110.7088    0.3268    0.8878    1.3194   30.4852    0.1000    2.2495    5.7270    1.6410    0.9860    0.3322    0.7428  223.0968  214.0720  218.5849  215.9000  555.9500  659.8800  239.9300    0.6675    0.0536    0.8310   29.2520    0.6740    0.6895    0.7194    0.7409    0.7631 
 610.9000  109.8842    0.3288    0.8780    1.3252   30.4575    0.0992    2.2505    5.3820    1.5890    0.9860    0.3349    0.7428  223.1822  214.0287  218.6059  215.9000  560.2300  662.7600  243.2100    0.6541    0.0526    0.7724   29.2543    0.6723    0.6894    0.7169    0.7377    0.7601 
 611.0000  109.2216    0.3306    0.8712    1.3396   30.4778    0.0990    2.2325    5.3400    1.5960    0.9930    0.3415    0.7428  223.1554  213.9623  218.5588  215.9000  560.2300  662.7600  247.3100    0.6621    0.0682    0.7768   29.2567    0.6725    0.6860    0.7118    0.7342    0.7591 
 611.1000  108.7234    0.3350    0.8676    1.3566   30.4751    0.0990    2.2065    5.5820    1.5860    0.9970    0.3517    0.7393  223.1494  213.9577  218.5531  215.9000  564.6200  662.7600  247.3100    0.6507    0.0522    0.7444   29.2590    0.6675    0.6768    0.7036    0.7314    0.7595 
 611.2000  108.8302    0.3352    0.8646    1.3824   30.5235    0.1006    2.2080    5.9160    1.5230    1.0040    0.3560    0.7330  223.2181  213.9728  218.5954  215.9000  564.6200  652.0000  255.7600    0.6508    0.0472    0.7366   29.2613    0.6564    0.6659    0.6953    0.7274    0.7561 
 611.3000  108.7440    0.3326    0.8608    1.4160   30.5445    0.1010    2.2385    6.0660    1.4690    1.0280    0.3460    0.7365  223.1534  213.9612  218.5568  215.9000  567.9100  652.0000  255.7600    0.6424    0.0576    0.7610   29.2637    0.6506    0.6592    0.6884    0.7263    0.7550 
 611.4000  108.2716    0.3304    0.8568    1.4486   30.5833    0.1018    2.2695    5.8450    1.5200    1.0470    0.3340    0.7499  223.1339  213.8767  218.5048  215.9000  567.9100  663.4900  252.2100    0.6452    0.0490    0.7590   29.2660    0.6490    0.6582    0.6882    0.7283    0.7537 
 611.5000  107.7084    0.3308    0.8528    1.4686   30.6093    0.1012    2.2825    5.5990    1.6250    1.0400    0.3306    0.7803  223.1618  213.9044  218.5326  215.9000  570.2600  663.4900  252.2100    0.6418    0.0342    0.7546   29.2683    0.6507    0.6588    0.6913    0.7333    0.7533 
 611.6000  108.1278    0.3326    0.8416    1.4808   30.6092    0.1002    2.2760    5.4940    1.6770    1.0200    0.3213    0.8153  223.0969  213.8526  218.4743  215.9000  570.2600  663.4900  260.3600    0.6377    0.0336    0.7428   29.2707    0.6497    0.6600    0.6958    0.7392    0.7518 
 611.7000  108.3762    0.3338    0.8278    1.4966   30.6168    0.1000    2.2505    5.4060    1.7420    1.0210    0.3127    0.8251  223.0962  213.8398  218.4680  215.9000  570.2600  666.6000  252.6300    0.6298    0.0438    0.7856   29.2730    0.6459    0.6590    0.7000    0.7421    0.7506 
 611.8000  108.1290    0.3332    0.8098    1.5160   30.5867    0.1000    2.2170    5.2600    1.7940    1.0400    0.3147    0.8246  223.0980  213.8372  218.4676  215.9000  570.2600  666.6000  259.8400    0.6237    0.0478    0.7514   29.2753    0.6386    0.6556    0.7015    0.7385    0.7475 
 611.9000  107.4568    0.3306    0.7916    1.5632   30.6198    0.1000    2.2025    5.1020    1.7770    1.0480    0.3151    0.8221  223.1055  213.8720  218.4887  215.9000  575.3200  666.6000  259.8400    0.6164    0.0258    0.7776   29.2777    0.6323    0.6536    0.6985    0.7312    0.7438 
 612.0000  107.1556    0.3380    0.7832    1.6148   30.6749    0.0992    2.2120    5.0250    1.7710    1.0380    0.3121    0.8482  223.1843  214.2672  218.7253  215.9000  575.3200  666.6000  256.3100    0.6205    0.0378    0.7878   29.2800    0.6325    0.6566    0.6961    0.7297    0.7433 
 612.1000  107.9076    0.3376    0.7876    1.6882   30.8356    0.0998    2.2170    5.0420    1.7670    1.0320    0.3184    0.8783  223.2867  214.4249  218.8558  215.9000  575.3200  664.5900  256.3000    0.6187    0.0454    0.7880   29.2823    0.6379    0.6640    0.7048    0.7331    0.7463 
 612.2000  108.5818    0.3314    0.8050    1.8040   31.0606    0.0992    2.2095    5.0560    1.6880    1.0340    0.3336    0.9206  223.2849  214.4581  218.8715  215.9000  572.9000  664.5900  245.3500    0.6405    0.0246    0.7416   29.2847    0.6473    0.6754    0.7143    0.7400    0.7550 
 612.3000  108.6122    0.3276    0.8386    2.0138   31.3793    0.0998    2.2075    5.1510    1.5690    1.0250    0.3395    0.9571  223.2283  214.5141  218.8712  215.9000  570.9400  664.7300  218.4600    0.6467    0.0288    0.7356   29.2870    0.6618    0.6941    0.7302    0.7571    0.7791 
 612.4000  108.8564    0.3286    0.8908    2.2968   31.8291    0.0992    2.2135    5.5420    1.5070    1.0060    0.3306    1.0098  223.3752  214.4503  218.9127  215.9000  568.7500  664.7300  210.2300    0.6877    0.0416    0.7938   29.2893    0.6847    0.7201    0.7568    0.7895    0.8161 
 612.5000  108.7110    0.3306    0.9588    2.5016   32.4093    0.1006    2.2270    6.4220    1.5160    0.9960    0.3130    1.0827  223.3876  214.5314  218.9591  215.9000  562.1900  666.4700  238.9600    0.7253    0.0658    0.7896   29.2917    0.7265    0.7564    0.7993    0.8421    0.8626 
 612.6000  108.6996    0.3310    1.0130    2.5860   33.1484    0.0986    2.2680    7.7400    1.5690    0.9920    0.2969    1.1743  223.7721  215.4403  219.6067  215.9000  566.5600  666.4700  233.0800    0.8091    0.0760    0.8178   29.2940    0.7897    0.8217    0.8718    0.9082    0.9225 
 612.7000  109.3060    0.3302    1.0678    2.6364   33.8927    0.1028    2.3255    9.3430    1.6090    0.9680    0.2969    1.2634  226.4047  223.3618  224.8837  215.9000  566.5600  666.4700  233.0800    0.8908    0.0668    0.6844   29.2963    0.9031    0.9241    0.9677    0.9886    0.9998 
 612.8000  110.1350    0.3292    1.1118    2.6396   34.5856    0.1056    2.3595   11.0260    1.5590    0.9310    0.3137    1.3200  227.2510  234.3161  230.7835  215.9000  564.3800  666.4700  240.8600    0.9734    0.1298    0.8370   29.2987    1.0178    1.0161    1.0599    1.0781    1.0835 
 612.9000  110.7162    0.3290    1.1336    2.5524   35.1135    0.0956    2.3600   12.4260    1.4430    0.8860    0.3388    1.2875  233.7561  255.9408  244.8480  215.9000  562.1900  663.0600  240.8600    1.0526    0.0830    1.2368   29.3010    1.0343    1.0607    1.1231    1.1581    1.1554 
 613.0000  110.9126    0.3290    1.1442    2.4582   35.5258    0.0922    2.3370   13.2230    1.2930    0.8460    0.3675    1.3540  248.4737  281.9358  265.2048  215.9000  562.1900  663.0600  228.2200    1.1190    0.0256    0.4826   29.3033    1.0833    1.1223    1.1846    1.2359    1.2371 
 613.1000  110.8072    0.3290    1.1828    2.4272   35.8659    0.0976    2.2980   13.3980    1.1200    0.8310    0.3809    1.5357  265.7511  263.1162  264.4341  215.9000  562.1900  663.0600  228.2200    1.2331    0.0152    0.5256   29.3057    1.2405    1.2378    1.2811    1.3245    1.3332 
