~VERSION INFORMATION
 VERS.                 2.0:   CWLS LOG ASCII STANDARD - VERSION 2.0
 WRAP.                  NO:   SINGLE LINE PER DEPTH STEP
~WELL INFORMATION
#MNEM.UNIT       DATA           DESCRIPTION MNEMONIC
#---------    -------------   --------------------------
 STRT.M         0.0000                        : START DEPTH
 STOP.M         849.0000                      : STOP DEPTH
 STEP.M         0.1000                        : STEP VALUE
 NULL.          -999.0000                     : NULL VALUE
 SRVC.          SCH                           : Service Company/Logging company
 DATE.          12.07.2023                    : LAS file Creation Date
 WELL    .      Каратобе 333                  : Well Name
 FLD     .      Karatobe                      : Field
 LATI    .      0                             : Latitude/Northing
 LONG    .      0                             : Longitude/Easting
 RWS     .      -999                          : Def_Rw
 WST     .      -999                          : Def_Rwt
~CURVE INFORMATION
#MNEM          UNIT     API CODE   Description
#---------- ---------- ----------  -----------
 DEPTH     .M                    : DEPTH
 AZIM      .deg                  : Azimuth
 DEVI      .deg                  : Deviatiom
 GZ3       .OHMM                 : APP.RESISTIVITY BY LATERAL A2.0M0.5N
 GZB       .OHMM                 : APP.RESISTIVITY BY LATERAL N0.5M2.0A
 SP        .mV                   : Spontaneous Potential
 RB        .OHMM                 : Mud Resistivity
 RHOB      .G/C3                 : BULK DENSITY BY DGGL
 GR        .uR/h                 : GAMMA RAYS
 RFTN      .CPM                  : NEUTRON-NEUTRON(T) FAR
 RNTN      .CPM                  : NEUTRON-NEUTRON(T) NEAR
 TNPH      .V/V                  : Neutron porosity
 LL3       .OHMM                 : APPAR.RESIST. LATEROLOG 3 ELECTRODES
 C1        .mm                   : CALIPER DIAMETER 1
 C2        .mm                   : CALIPER DIAMETER 2
 CALI      .mm                   : Caliper
 BSC       .mm                   : Nominal Caliper
 TP1       .MCS                  : Sonic Time 1
 TP2       .MCS                  : Sonic Time 2
 DTP       .uSec/m               : Sonic travel time
 MLL       .OHMM                 : MICROLATEROLOG
 MNOR      .OHMM                 : MICRONORMAL A0.05M
 MINV      .OHMM                 : MICROLATERAL A0.025M0.025N
 TEMP      .C                    : Formation Temperature
 IKD1F3    .OHMM                 : Induction zonde IKD1F3
 IKD2F3    .OHMM                 : Induction zonde IKD2F3
 IKD3F3    .OHMM                 : Induction zonde IKD3F3
 IKD4F3    .OHMM                 : Induction zonde IKD4F3
 IKD5F3    .OHMM                 : Induction zonde IKD5F3
~A Log data section
# ...
 235.2000   58.6604    0.6196    6.1352   15.5732   30.8268    0.0852    2.2310   11.1940    1.0660    0.7470    0.3763    5.6559  224.8737  219.5186  222.1957  215.9000  563.4700  667.1900  231.6100    2.3702    0.2828    0.6620   20.4880    2.8549    3.1954    3.8841    4.3694    4.5423 
 235.3000   58.0978    0.6232    6.1398   15.9080   30.3866    0.0882    2.2650   11.3360    1.0170    0.7330    0.3847    5.6598  226.5571  220.5677  223.5624  215.9000  563.4700  667.1900  237.0700    2.3603    0.3116    0.6566   20.4903    2.8551    3.2195    3.9150    4.4092    4.6227 
 235.4000   57.3524    0.6304    6.1796   16.2160   29.8429    0.0906    2.2995   11.2590    1.0100    0.7360    0.3831    5.6973  230.7804  222.7959  226.7881  215.9000  563.4700  667.1900  219.6700    2.4037    0.3000    0.7198   20.4927    2.8608    3.2322    3.9367    4.4590    4.6873 
 235.5000   56.7626    0.6424    6.2522   16.5720   29.3887    0.0910    2.3010   11.0840    1.0200    0.7610    0.3659    5.7386  230.6629  223.7371  227.1995  215.9000  560.0000  662.8100  225.1400    2.4182    0.2608    0.7094   20.4950    2.9225    3.2766    3.9978    4.5476    4.7420 
 235.6000   57.0492    0.6474    6.2800   16.9268   28.9561    0.0918    2.2715   11.0380    1.0740    0.7920    0.3504    5.7938  231.0867  222.0731  226.5795  215.9000  560.0000  662.8100  225.1400    2.4447    0.2778    0.7222   20.4973    2.9934    3.3671    4.0877    4.6384    4.7886 
 235.7000   57.5480    0.6496    6.2654   17.2666   28.6160    0.0912    2.2510   11.1500    1.1280    0.8080    0.3717    5.8371  232.1492  221.8977  227.0239  215.9000  563.0600  658.4400  232.9700    2.4833    0.2930    0.6934   20.4997    3.0909    3.4663    4.1947    4.7325    4.8716 
 235.8000   57.7424    0.6564    6.2730   17.6316   28.2821    0.0934    2.2435   11.3310    1.0530    0.7980    0.4102    5.8686  231.2670  221.8897  226.5784  215.9000  563.0600  658.4400  227.5000    2.5504    0.2872    0.7314   20.5020    3.1505    3.4973    4.2460    4.8486    4.9939 
 235.9000   57.2580    0.6540    6.3560   18.0500   27.8707    0.0948    2.2165   11.4100    0.9440    0.7770    0.4132    5.8667  236.3304  222.8192  229.5753  215.9000  564.0000  656.2500  245.8600    2.5808    0.2988    0.7166   20.5043    3.0907    3.4519    4.2519    4.9820    5.1308 
 236.0000   57.4190    0.6522    6.4592   18.3368   27.4400    0.0934    2.1875   11.2210    0.9860    0.7740    0.3904    5.9593  230.8877  221.2603  226.0745  215.9000  564.0000  656.2500  245.8600    2.6653    0.2838    0.7668   20.5067    3.0773    3.4908    4.3889    5.1895    5.3300 
 236.1000   57.6838    0.6552    6.6088   18.5230   26.9092    0.0898    2.2030   10.7900    1.1140    0.8090    0.3694    6.1326  229.3473  219.8109  224.5795  215.9000  564.0000  656.2500  239.7000    2.7528    0.3256    0.7986   20.5090    3.3806    3.7917    4.7817    5.5488    5.6118 
 236.2000   57.3984    0.6616    6.7730   18.7090   26.4461    0.0866    2.2480   10.2960    1.2220    0.8680    0.3534    6.4143  227.4149  218.7483  223.0812  215.9000  565.8400  656.2500  239.6900    3.0222    0.4388    0.9438   20.5113    3.9155    4.2765    5.3961    6.0753    5.9815 
 236.3000   57.2574    0.6606    6.9540   18.8862   25.9107    0.0892    2.2745    9.8650    1.3190    0.9050    0.3383    6.7197  229.2509  219.1039  224.1779  215.9000  565.8400  657.3400  259.2800    3.3141    0.5986    1.4062   20.5137    4.2681    4.6737    5.9738    6.6028    6.3352 
 236.4000   57.2798    0.6584    7.1294   18.9802   25.4302    0.0892    2.2820    9.5770    1.4030    0.9070    0.3320    6.9856  232.7810  221.0633  226.9226  215.9000  562.8500  658.4400  259.2900    3.7453    0.6050    1.2682   20.5160    4.4828    4.9255    6.3450    7.0294    6.6353 
 236.5000   57.8698    0.6580    7.3064   19.0358   24.8817    0.0906    2.3030    9.5320    1.4310    0.9090    0.3415    7.1156  233.8200  223.3466  228.5833  215.9000  562.8500  660.6300  259.2900    4.0003    0.4526    0.9510   20.5183    4.7734    5.1646    6.6181    7.3529    6.9287 
 236.6000   59.3254    0.6668    7.5572   19.3236   24.3973    0.0910    2.3400    9.6890    1.3740    0.9110    0.3555    7.2614  233.4639  224.0368  228.7504  215.9000  563.0700  662.8100  257.0300    4.3347    0.4746    0.9214   20.5207    4.9663    5.4136    6.8637    7.5174    7.1641 
 236.7000   59.1386    0.6522    7.8654   19.8410   23.9800    0.0902    2.3700    9.8350    1.2900    0.9030    0.3598    7.3717  233.1890  221.1156  227.1528  215.9000  563.0700  662.8100  257.0300    4.6282    0.5356    1.1916   20.5230    5.2359    5.6724    7.1809    7.6509    7.3517 
 236.8000   58.6900    0.6456    8.2314   20.6834   23.6577    0.0900    2.3865    9.7720    1.2370    0.9000    0.3550    7.4860  229.3313  220.0846  224.7084  215.9000  563.0700  662.8100  238.4600    4.9964    0.5360    1.2322   20.5253    5.5725    5.8825    7.4216    7.7946    7.5708 
 236.9000   58.5700    0.6578    8.7646   21.9444   23.4660    0.0916    2.3905    9.6470    1.2140    0.9040    0.3482    7.6120  226.2797  218.7050  222.4924  215.9000  564.1100  669.9700  238.4600    5.3231    0.5476    1.2532   20.5277    5.5110    5.8803    7.4471    7.9078    7.8793 
 237.0000   58.9576    0.6634    9.4870   23.5748   23.2853    0.0944    2.3575    9.6490    1.2260    0.8960    0.3448    7.7401  226.3248  221.7575  224.0416  215.9000  564.1100  669.9700  230.6300    5.3605    0.4576    1.0600   20.5300    5.3118    5.8113    7.4851    8.1883    8.3018 
 237.1000   60.0242    0.6712   10.3718   25.3230   23.2150    0.0942    2.2955    9.6850    1.2770    0.8660    0.3484    7.9863  226.9157  222.4222  224.6689  215.9000  563.0000  669.9700  230.6300    5.6075    0.4470    0.8260   20.5323    5.5461    6.1067    7.9287    8.7976    8.8465 
 237.2000   60.5876    0.6746   11.3510   26.9190   23.0758    0.0924    2.2625    9.3790    1.3160    0.8350    0.3522    8.4670  226.1874  225.5515  225.8690  215.9000  563.0000  667.6200  230.6300    5.9258    0.5174    1.0736   20.5347    6.5341    7.0311    9.1571    9.7590    9.5843 
 237.3000   60.0656    0.6646   12.3516   28.1132   23.0086    0.0888    2.2740    8.6460    1.3270    0.8340    0.3518    9.0777  226.3799  233.1918  229.7858  215.9000  571.6300  667.6200  226.0300    7.1900    0.4886    0.6750   20.5370    8.1480    8.3075   10.6499   10.8676   10.3751 
 237.4000   57.3774    0.6628   13.2880   28.7468   22.8843    0.0872    2.2780    7.8420    1.3120    0.8650    0.3537    9.5111  227.0586  228.0395  227.5486  215.9000  571.6300  666.9500  228.7700    7.6344    0.6036    0.9122   20.5393    8.7952    8.8022   11.3966   11.6746   11.0526 
 237.5000   58.3710    0.6678   14.0984   28.9500   22.8456    0.0886    2.2455    7.3840    1.2690    0.9030    0.3557    9.5406  226.5927  228.8480  227.7203  215.9000  571.8400  666.9500  238.9800    9.4948    0.7224    1.3962   20.5417    7.9969    8.3019   11.0495   11.8442   11.4615 
 237.6000   59.7532    0.6722   14.7006   28.6678   22.8308    0.0890    2.2010    7.2970    1.2540    0.9140    0.3445    9.4658  226.6305  229.1358  227.8827  215.9000  571.8400  663.2800  244.4500    7.9585    0.5962    0.9862   20.5440    7.6612    7.8085   10.2602   11.7013   11.4184 
 237.7000   58.5754    0.6666   15.1768   28.0238   22.8581    0.0882    2.1770    7.3140    1.3070    0.8920    0.3248    9.3791  229.2186  223.5621  226.3903  215.9000  571.8400  663.2800  249.3600    9.2313    0.7368    1.2438   20.5463    7.6894    7.7025   10.0563   11.4385   11.1766 
 237.8000   58.9136    0.6618   15.5904   27.2892   22.9451    0.0880    2.1850    7.3060    1.3740    0.8750    0.3150    9.3298  234.2426  225.0572  229.6495  215.9000  571.2800  658.2000  249.3600    7.7050    0.7892    1.4112   20.5487    7.6102    7.7815    9.9561   10.8128   10.7741 
 237.9000   59.0438    0.6642   16.0230   26.6018   23.0152    0.0872    2.2055    7.4740    1.3920    0.8760    0.3215    9.2432  237.5800  233.6123  235.5966  215.9000  571.2800  658.2000  249.3600    8.5515    0.5360    0.7954   20.5510    7.5476    7.4476    9.3822   10.2014   10.2247 
