~VERSION INFORMATION
 VERS.                 2.0:   CWLS LOG ASCII STANDARD - VERSION 2.0
 WRAP.                  NO:   SINGLE LINE PER DEPTH STEP
~WELL INFORMATION
#MNEM.UNIT       DATA           DESCRIPTION MNEMONIC
#---------    -------------   --------------------------
 STRT.M         0.0000                        : START DEPTH
 STOP.M         849.0000                      : STOP DEPTH
 STEP.M         0.1000                        : STEP VALUE
 NULL.          -999.0000                     : NULL VALUE
 SRVC.          SCH                           : Service Company/Logging company
 DATE.          12.07.2023                    : LAS file Creation Date
 WELL    .      Каратобе 333                  : Well Name
 FLD     .      Karatobe                      : Field
 LATI    .      0                             : Latitude/Northing
 LONG    .      0                             : Longitude/Easting
 RWS     .      -999                          : Def_Rw
 WST     .      -999                          : Def_Rwt
~CURVE INFORMATION
#MNEM          UNIT     API CODE   Description
#---------- ---------- ----------  -----------
 DEPTH     .M                    : DEPTH
 AZIM      .deg                  : Azimuth
 DEVI      .deg                  : Deviatiom
 GZ3       .OHMM                 : APP.RESISTIVITY BY LATERAL A2.0M0.5N
 GZB       .OHMM                 : APP.RESISTIVITY BY LATERAL N0.5M2.0A
 SP        .mV                   : Spontaneous Potential
 RB        .OHMM                 : Mud Resistivity
 RHOB      .G/C3                 : BULK DENSITY BY DGGL
 GR        .uR/h                 : GAMMA RAYS
 RFTN      .CPM                  : NEUTRON-NEUTRON(T) FAR
 RNTN      .CPM                  : NEUTRON-NEUTRON(T) NEAR
 TNPH      .V/V                  : Neutron porosity
 LL3       .OHMM                 : APPAR.RESIST. LATEROLOG 3 ELECTRODES
 C1        .mm                   : CALIPER DIAMETER 1
 C2        .mm                   : CALIPER DIAMETER 2
 CALI      .mm                   : Caliper
 BSC       .mm                   : Nominal Caliper
 TP1       .MCS                  : Sonic Time 1
 TP2       .MCS                  : Sonic Time 2
 DTP       .uSec/m               : Sonic travel time
 MLL       .OHMM                 : MICROLATEROLOG
 MNOR      .OHMM                 : MICRONORMAL A0.05M
 MINV      .OHMM                 : MICROLATERAL A0.025M0.025N
 TEMP      .C                    : Formation Temperature
 IKD1F3    .OHMM                 : Induction zonde IKD1F3
 IKD2F3    .OHMM                 : Induction zonde IKD2F3
 IKD3F3    .OHMM                 : Induction zonde IKD3F3
 IKD4F3    .OHMM                 : Induction zonde IKD4F3
 IKD5F3    .OHMM                 : Induction zonde IKD5F3
~A Log data section
# ...
 470.4000   71.1464    0.4300    5.0704    7.1258   23.0057    0.0852    2.3375   11.5120    1.1980    0.9010    0.3441    4.0052  236.8296  231.3374  234.0840  215.9000  551.2500  632.3700  257.1300    2.4212    0.2302    0.7610   25.9760    2.5473    2.6637    3.0046    3.2002    3.2835 
 470.5000   71.0602    0.4332    5.0198    7.1462   22.9579    0.0858    2.3380   11.5060    1.3280    0.9090    0.3446    4.0192  247.8699  231.1058  239.4883  215.9000  542.5000  632.3700  252.3100    2.4142    0.2452    0.7578   25.9783    2.5762    2.6860    2.9955    3.1756    3.2702 
 470.6000   69.9672    0.4340    5.0102    7.2112   22.8971    0.0908    2.3305   11.9210    1.3260    0.9020    0.3546    4.0446  258.2902  244.0488  251.1695  215.9000  542.5000  626.0700  252.3100    2.4313    0.2234    0.7840   25.9807    2.5713    2.6541    2.9639    3.1697    3.2850 
 470.7000   70.5296    0.4372    5.0388    7.3332   22.9460    0.0952    2.3150   12.3740    1.3030    0.8880    0.3493    4.0627  248.0153  249.6130  248.8141  215.9000  542.5000  626.0700  243.9700    2.3872    0.2244    0.8064   25.9830    2.4712    2.5805    2.9177    3.1674    3.3181 
 470.8000   72.0530    0.4380    5.0892    7.4784   22.9988    0.0968    2.3035   12.3260    1.4270    0.8800    0.3343    4.1285  230.8709  239.3625  235.1163  215.9000  546.8800  621.0800  231.1800    2.3850    0.2414    0.8116   25.9853    2.4039    2.5416    2.9191    3.2256    3.3722 
 470.9000   72.9652    0.4380    5.1320    7.5560   23.1552    0.0962    2.3225   11.5880    1.6220    0.8880    0.3180    4.2545  232.0161  223.4154  227.7162  215.9000  546.8800  621.0800  231.1800    2.3892    0.2596    0.7880   25.9877    2.4464    2.5861    3.0055    3.3318    3.4434 
 471.0000   71.9886    0.4444    5.1648    7.5464   23.2882    0.0912    2.3710   10.3560    1.7750    0.9300    0.3082    4.3582  227.7924  223.8696  225.8310  215.9000  540.3100  618.8400  205.5500    2.4737    0.3240    0.9644   25.9900    2.5775    2.7237    3.1286    3.4296    3.5245 
 471.1000   71.3704    0.4340    5.1974    7.4874   23.4143    0.0908    2.4045    9.3340    1.8300    0.9960    0.3100    4.3681  226.7843  220.9821  223.8832  215.9000  540.3100  618.8400  194.6100    2.5536    0.4416    1.1100   25.9923    2.7587    2.8477    3.2515    3.5320    3.6110 
 471.2000   71.0732    0.4326    5.1768    7.3964   23.4609    0.0926    2.3965    8.9080    1.7570    1.0410    0.3169    4.2385  228.1076  222.0896  225.0986  215.9000  540.3100  618.8400  194.9300    2.5802    0.4736    1.2198   25.9947    2.7361    2.8228    3.2413    3.5675    3.6265 
 471.3000   70.7784    0.4386    5.0804    7.2626   23.3806    0.0938    2.3740    9.2500    1.6260    1.0440    0.3263    4.1483  233.3061  230.4927  231.8994  215.9000  540.3100  617.7100  194.9300    2.5335    0.3608    0.9842   25.9970    2.6148    2.7491    3.1954    3.5637    3.6063 
 471.4000   70.3444    0.4416    4.9660    7.1252   23.2582    0.0948    2.3785   10.0780    1.4960    1.0200    0.3438    4.0768  229.1876  233.4162  231.3019  215.9000  538.1300  617.7100  191.8700    2.4907    0.3594    0.9728   25.9993    2.5966    2.7539    3.1821    3.5401    3.5870 
 471.5000   72.0694    0.4444    4.8718    6.9996   23.0229    0.0958    2.4115   10.8160    1.3680    0.9830    0.3670    3.9486  229.2813  234.9652  232.1232  215.9000  538.1300  617.7300  202.8100    2.4405    0.3574    0.9532   26.0017    2.6210    2.7798    3.1861    3.4853    3.5929 
 471.6000   72.8912    0.4466    4.8116    6.9590   22.7862    0.1000    2.4175   11.1100    1.2550    0.9370    0.3722    3.7963  236.9319  235.6408  236.2859  215.9000  538.1300  617.7300  224.6900    2.4215    0.3584    0.9722   26.0040    2.5569    2.7274    3.1459    3.4481    3.5869 
 471.7000   72.5526    0.4478    4.7618    6.9574   22.3974    0.1026    2.3600   10.9890    1.2500    0.9080    0.3555    3.7293  246.8652  236.3951  241.6301  215.9000  538.1300  621.7000  208.9200    2.3799    0.2744    0.9166   26.0063    2.4609    2.6465    3.1033    3.4650    3.5759 
 471.8000   71.5930    0.4472    4.7048    6.9652   21.9158    0.1014    2.2955   10.5190    1.3690    0.9130    0.3416    3.8022  239.2383  245.8389  242.5382  215.9000  538.1300  621.7000  208.9200    2.3876    0.2180    0.7818   26.0087    2.4638    2.6735    3.1602    3.5441    3.6132 
 471.9000   70.9448    0.4518    4.6706    7.0030   21.2880    0.0986    2.2805    9.8580    1.4660    0.9300    0.3364    3.9007  230.2424  235.0309  232.6371  215.9000  540.3100  621.7000  185.5200    2.3846    0.2572    0.7816   26.0110    2.6501    2.8755    3.3770    3.7094    3.7000 
 472.0000   70.7816    0.4674    4.6626    7.0696   20.5931    0.0988    2.2875    9.4310    1.4980    0.9460    0.3318    3.8652  227.9974  226.1758  227.0866  215.9000  540.3100  627.3900  185.5200    2.4793    0.4068    1.1242   26.0133    2.8765    3.1202    3.6004    3.8906    3.7927 
 472.1000   70.9384    0.4758    4.6548    7.1216   19.9401    0.1006    2.2865    9.4220    1.5220    0.9590    0.3264    3.7844  230.7735  230.1584  230.4659  215.9000  540.3100  627.3900  196.3200    2.5252    0.4204    1.1800   26.0157    2.9733    3.2215    3.7384    4.0028    3.8677 
 472.2000   71.1994    0.4250    4.6754    7.1766   19.3135    0.1042    2.2890    9.7450    1.5260    0.9620    0.3240    3.7982  235.4089  237.2440  236.3260  215.9000  549.0600  626.6600  196.3200    2.6117    0.3936    1.2570   26.0180    2.9882    3.2379    3.7872    4.0749    3.9654 
 472.3000   71.2996    0.4360    4.8010    7.3176   18.8138    0.1082    2.3050   10.1410    1.4950    0.9600    0.3256    3.9145  236.8799  241.5084  239.1942  215.9000  550.1600  626.6600  196.3200    2.6404    0.3314    1.0516   26.0203    3.0325    3.3049    3.8490    4.1498    4.1080 
 472.4000   70.1270    0.4516    5.0334    7.5068   18.3210    0.1090    2.3055   10.4880    1.4690    0.9490    0.3286    4.0720  236.0676  235.0506  235.5596  215.9000  551.2500  624.6000  193.5000    2.6840    0.3660    1.1310   26.0227    3.1144    3.4306    3.9981    4.2864    4.2668 
 472.5000   69.4726    0.4452    5.3272    7.7156   17.9526    0.1098    2.2760   10.8180    1.4560    0.9230    0.3313    4.2690  237.5326  230.7271  234.1303  215.9000  551.2500  624.6000  198.9700    2.7187    0.4054    1.1130   26.0250    3.2231    3.6153    4.2436    4.5062    4.4048 
 472.6000   73.0214    0.4350    5.6280    7.8716   17.6428    0.1092    2.2565   11.2230    1.4540    0.9020    0.3310    4.4562  234.1915  227.4555  230.8235  215.9000  551.2500  621.9500  199.0200    2.7678    0.4426    1.1736   26.0273    3.4660    3.8847    4.5640    4.7702    4.5538 
 472.7000   72.5254    0.4418    5.8960    7.9608   17.4671    0.1090    2.2720   11.5540    1.4770    0.8980    0.3273    4.5882  228.4916  220.4229  224.4573  215.9000  551.2500  621.9500  199.0200    2.8066    0.5366    1.4024   26.0297    3.7184    4.1657    4.8481    4.9758    4.6792 
 472.8000   71.8588    0.4544    6.1032    7.9392   17.3905    0.1082    2.2935   11.6050    1.5250    0.9050    0.3281    4.6394  225.8628  218.8192  222.3414  215.9000  551.2500  621.9500  208.9300    2.7985    0.5382    1.3910   26.0320    3.8510    4.3063    4.9625    5.0497    4.7610 
 472.9000   72.0568    0.4658    6.2564    7.8388   17.3595    0.1080    2.2940   11.3880    1.5250    0.9160    0.3457    4.6276  225.4102  218.8974  222.1534  215.9000  553.4400  626.1000  208.9300    2.7104    0.5396    1.3822   26.0343    3.8062    4.2637    4.8774    4.9914    4.7999 
 473.0000   71.7884    0.4752    6.3778    7.7272   17.4011    0.1072    2.2820   10.9280    1.3910    0.9310    0.3724    4.6473  225.4858  218.9801  222.2334  215.9000  551.2500  626.1000  203.4700    2.6045    0.4844    1.3696   26.0367    3.5780    4.0896    4.7043    4.8679    4.8125 
 473.1000   70.7080    0.4770    6.4930    7.6354   17.4276    0.1038    2.2665   10.3760    1.2090    0.9420    0.3786    4.6747  225.5003  219.4478  222.4740  215.9000  551.2500  629.2000  217.7000    2.4374    0.4894    1.3484   26.0390    3.3250    3.9134    4.5439    4.7896    4.8325 
