~VERSION INFORMATION
 VERS.                 2.0:   CWLS LOG ASCII STANDARD - VERSION 2.0
 WRAP.                  NO:   SINGLE LINE PER DEPTH STEP
~WELL INFORMATION
#MNEM.UNIT       DATA           DESCRIPTION MNEMONIC
#---------    -------------   --------------------------
 STRT.M         0.0000                        : START DEPTH
 STOP.M         849.0000                      : STOP DEPTH
 STEP.M         0.1000                        : STEP VALUE
 NULL.          -999.0000                     : NULL VALUE
 SRVC.          SCH                           : Service Company/Logging company
 DATE.          12.07.2023                    : LAS file Creation Date
 WELL    .      Каратобе 333                  : Well Name
 FLD     .      Karatobe                      : Field
 LATI    .      0                             : Latitude/Northing
 LONG    .      0                             : Longitude/Easting
 RWS     .      -999                          : Def_Rw
 WST     .      -999                          : Def_Rwt
~CURVE INFORMATION
#MNEM          UNIT     API CODE   Description
#---------- ---------- ----------  -----------
 DEPTH     .M                    : DEPTH
 AZIM      .deg                  : Azimuth
 DEVI      .deg                  : Deviatiom
 GZ3       .OHMM                 : APP.RESISTIVITY BY LATERAL A2.0M0.5N
 GZB       .OHMM                 : APP.RESISTIVITY BY LATERAL N0.5M2.0A
 SP        .mV                   : Spontaneous Potential
 RB        .OHMM                 : Mud Resistivity
 RHOB      .G/C3                 : BULK DENSITY BY DGGL
 GR        .uR/h                 : GAMMA RAYS
 RFTN      .CPM                  : NEUTRON-NEUTRON(T) FAR
 RNTN      .CPM                  : NEUTRON-NEUTRON(T) NEAR
 TNPH      .V/V                  : Neutron porosity
 LL3       .OHMM                 : APPAR.RESIST. LATEROLOG 3 ELECTRODES
 C1        .mm                   : CALIPER DIAMETER 1
 C2        .mm                   : CALIPER DIAMETER 2
 CALI      .mm                   : Caliper
 BSC       .mm                   : Nominal Caliper
 TP1       .MCS                  : Sonic Time 1
 TP2       .MCS                  : Sonic Time 2
 DTP       .uSec/m               : Sonic travel time
 MLL       .OHMM                 : MICROLATEROLOG
 MNOR      .OHMM                 : MICRONORMAL A0.05M
 MINV      .OHMM                 : MICROLATERAL A0.025M0.025N
 TEMP      .C                    : Formation Temperature
 IKD1F3    .OHMM                 : Induction zonde IKD1F3
 IKD2F3    .OHMM                 : Induction zonde IKD2F3
 IKD3F3    .OHMM                 : Induction zonde IKD3F3
 IKD4F3    .OHMM                 : Induction zonde IKD4F3
 IKD5F3    .OHMM                 : Induction zonde IKD5F3
~A Log data section
# ...
 422.8000   19.0794    0.3924    5.4382    4.5502   28.4173    0.0914    2.1215    9.1460    1.1190    0.7380    0.3498    3.0083  229.0111  221.4536  225.2319  215.9000  557.0000  732.4200  397.2600    1.7970    0.3246    0.4990   24.8653    2.0031    2.1121    2.3168    2.4346    2.4424 
 422.9000   18.7192    0.3978    5.2580    4.4960   28.3349    0.0910    2.1500    9.1480    1.0810    0.7390    0.3592    2.9393  229.1180  219.1950  224.1565  215.9000  556.9700  732.4200  404.5000    1.7693    0.3342    0.4390   24.8677    2.0016    2.0971    2.2749    2.3599    2.3538 
 423.0000   18.6020    0.4038    5.0600    4.4640   28.3430    0.0894    2.1690    9.2240    1.0170    0.7400    0.3623    2.7916  228.7470  219.8914  224.3192  215.9000  556.9700  735.0500  404.5100    1.6407    0.2938    0.6682   24.8700    1.9021    1.9830    2.1678    2.2493    2.2616 
 423.1000   19.9562    0.4226    4.8672    4.4718   28.2967    0.0922    2.0990    9.2040    0.9510    0.7380    0.3664    2.6044  230.9426  227.7365  229.3395  215.9000  559.0000  735.0500  416.2600    1.5469    0.2624    0.5780   24.8723    1.7055    1.8138    2.0158    2.1169    2.1662 
 423.2000   20.6858    0.4230    4.6530    4.4918   28.3370    0.0970    1.9760    8.8920    0.8660    0.7330    0.3734    2.5059  233.2768  230.9721  232.1240  215.9000  559.0000  729.9900  416.2600    1.4333    0.1780    0.5664   24.8747    1.5623    1.6946    1.8872    2.0161    2.0949 
 423.3000   20.7758    0.4220    4.4650    4.5152   28.3984    0.0980    1.8655    8.1690    0.7860    0.7110    0.3865    2.6143  232.4473  223.7942  228.1207  215.9000  559.0000  729.9900  412.5500    1.4128    0.1582    0.6594   24.8770    1.5376    1.6747    1.8586    1.9864    2.0584 
 423.4000   20.5052    0.4524    4.3674    4.5432   28.5380    0.0980    1.7875    7.1940    0.7180    0.6650    0.4115    2.8014  231.9983  220.3205  226.1589  215.9000  556.8500  729.9900  423.8100    1.4219    0.2830    0.8074   24.8793    1.6105    1.7384    1.9182    2.0131    2.0500 
 423.5000   20.3100    0.4568    4.3296    4.5122   28.7733    0.0980    1.7485    6.7200    0.6590    0.6160    0.4411    2.9246  227.6078  219.3692  223.4881  215.9000  556.8500  725.2000  417.2000    1.4716    0.3726    1.1238   24.8817    1.7109    1.8394    2.0075    2.0643    2.0629 
 423.6000   18.5172    0.4544    4.2488    4.4054   29.0407    0.1012    1.7630    7.1330    0.6140    0.5840    0.4560    2.9590  224.6850  218.8869  221.7864  215.9000  556.9800  725.2000  426.0800    1.5216    0.3368    0.9870   24.8840    1.7684    1.9000    2.0727    2.1237    2.1005 
 423.7000   18.0634    0.4564    4.0852    4.2770   29.4019    0.1068    1.8440    8.0620    0.6210    0.5800    0.4480    2.8908  225.2065  218.2195  221.7130  215.9000  556.9800  723.6200  426.0800    1.5324    0.3394    1.0910   24.8863    1.7475    1.8744    2.0705    2.1589    2.1448 
 423.8000   21.4712    0.4650    3.9162    4.1518   29.6493    0.1112    1.9850    9.0740    0.7120    0.6090    0.4270    2.7777  229.7251  216.8820  223.3036  215.9000  559.7400  723.6200  438.5600    1.5746    0.2608    0.8036   24.8887    1.6748    1.8031    2.0316    2.1653    2.1853 
 423.9000   23.7192    0.4686    3.7150    4.0142   29.8643    0.1216    2.1330    9.9470    0.8470    0.6700    0.4084    2.7711  230.9657  214.4332  222.6999  215.9000  559.7400  722.0800  438.5600    1.5918    0.2426    0.7500   24.8910    1.6579    1.7831    2.0225    2.1799    2.2285 
 424.0000   24.5680    0.4666    3.5554    3.9004   29.8952    0.1304    2.2310   10.5890    0.9620    0.7390    0.3867    2.8837  230.1849  215.0740  222.6295  215.9000  559.7400  722.0800  438.6400    1.7031    0.2536    0.6570   24.8933    1.7665    1.8576    2.0856    2.2324    2.2794 
 424.1000   24.8162    0.4596    3.4788    3.8214   29.9334    0.1416    2.2800   10.9530    1.0780    0.7940    0.3617    3.0025  231.4259  215.2660  223.3464  215.9000  560.2600  722.0800  445.2100    1.7796    0.2890    0.7128   24.8957    1.9234    1.9705    2.1786    2.3056    2.3319 
 424.2000   25.3078    0.4460    3.4646    3.7510   29.9554    0.1456    2.3205   10.9980    1.2070    0.8360    0.3479    3.1008  231.9218  217.2588  224.5903  215.9000  560.2600  720.0800  440.1300    1.9013    0.2708    0.6394   24.8980    1.9950    2.0456    2.2287    2.3689    2.3571 
 424.3000   27.0606    0.4502    3.4608    3.6970   30.0569    0.1508    2.3535   10.8080    1.2780    0.8590    0.3507    3.1753  231.3729  219.6614  225.5171  215.9000  559.3300  720.0800  427.4900    1.9285    0.2762    0.6744   24.9003    2.0270    2.0768    2.2689    2.4269    2.3928 
 424.4000   27.7004    0.4568    3.4592    3.6478   30.1959    0.1568    2.3520   10.5920    1.2420    0.8650    0.3556    3.1809  232.0913  219.8388  225.9646  215.9000  559.3300  719.8400  427.4900    1.9461    0.3032    0.7394   24.9027    2.0261    2.0852    2.2725    2.4350    2.4191 
 424.5000   27.1196    0.4516    3.4566    3.6052   30.2942    0.1620    2.3285   10.3300    1.1730    0.8650    0.3481    3.0983  231.8048  219.7356  225.7702  215.9000  559.6200  719.8400  432.8700    1.9157    0.2732    0.6936   24.9050    1.9850    2.0655    2.2606    2.4094    2.4242 
 424.6000   26.2584    0.4476    3.4520    3.5914   30.3536    0.1678    2.3140    9.9950    1.1650    0.8600    0.3397    2.9701  231.6743  218.5254  225.0999  215.9000  559.6200  721.6100  420.8900    1.8928    0.1978    0.5974   24.9073    1.9496    2.0295    2.2423    2.3743    2.4032 
 424.7000   27.6270    0.4510    3.4398    3.6108   30.2581    0.1658    2.3085    9.7320    1.1830    0.8390    0.3510    2.8953  233.5303  218.0474  225.7893  215.9000  559.6200  721.6100  420.5600    1.8692    0.1852    0.6090   24.9097    1.9358    2.0050    2.2101    2.3333    2.3744 
 424.8000   29.0434    0.4520    3.4450    3.6656   30.1066    0.1530    2.2935    9.8080    1.1170    0.8050    0.3650    2.8802  233.5816  218.1995  225.8906  215.9000  562.3100  721.1400  416.6000    1.8399    0.1982    0.5922   24.9120    1.9394    2.0026    2.2006    2.3059    2.3539 
 424.9000   29.0762    0.4416    3.4990    3.7588   29.7931    0.1540    2.2700   10.3150    1.0310    0.7780    0.3513    2.8947  232.5574  218.3150  225.4367  215.9000  562.3100  721.1400  409.7000    1.8161    0.2388    0.6628   24.9143    1.9285    2.0067    2.1813    2.2855    2.3230 
 425.0000   27.6024    0.4302    3.5848    3.8734   29.4216    0.1622    2.2525   10.9140    1.0780    0.7690    0.3314    2.9243  231.6245  216.9598  224.2926  215.9000  559.0000  721.1400  405.8700    1.7851    0.2690    0.7940   24.9167    1.9055    2.0061    2.1903    2.2793    2.3048 
 425.1000   27.6368    0.4248    3.6950    4.0074   28.9224    0.1664    2.2470   11.3140    1.1650    0.7610    0.3354    2.9442  230.0005  218.5934  224.2969  215.9000  559.0000  715.3000  405.8700    1.7549    0.2990    0.7516   24.9190    1.9005    2.0207    2.1918    2.2832    2.2936 
 425.2000   29.4148    0.4240    3.8244    4.1414   28.4010    0.1622    2.2360   11.6740    1.1160    0.7460    0.3554    2.9395  229.2806  220.4718  224.8758  215.9000  559.6700  715.3000  404.5500    1.7614    0.2852    0.7604   24.9213    1.9288    2.0322    2.2015    2.2851    2.2938 
 425.3000   32.5958    0.4208    3.9638    4.2784   27.8701    0.1602    2.2005   12.0190    0.9910    0.7350    0.3715    2.9295  229.3794  219.5026  224.4415  215.9000  559.6700  713.4500  399.5500    1.7594    0.2794    0.7550   24.9237    1.9149    2.0211    2.2106    2.2897    2.2964 
 425.4000   33.6188    0.4136    4.0976    4.3964   27.3333    0.1576    2.1485   12.1390    0.9160    0.7240    0.3829    2.9437  229.9026  220.7699  225.3367  215.9000  559.6700  713.4500  401.8700    1.7808    0.2768    0.7816   24.9260    1.9231    2.0124    2.2143    2.3012    2.3126 
 425.5000   31.5532    0.4088    4.2232    4.4598   26.8308    0.1530    2.0950   11.8690    0.8790    0.7030    0.4014    2.9779  230.2568  220.9586  225.6077  215.9000  561.6900  711.9300  401.2700    1.7711    0.2890    0.8506   24.9283    1.9244    2.0163    2.2195    2.3278    2.3476 
