~VERSION INFORMATION
 VERS.                 2.0:   CWLS LOG ASCII STANDARD - VERSION 2.0
 WRAP.                  NO:   SINGLE LINE PER DEPTH STEP
~WELL INFORMATION
#MNEM.UNIT       DATA           DESCRIPTION MNEMONIC
#---------    -------------   --------------------------
 STRT.M         0.0000                        : START DEPTH
 STOP.M         849.0000                      : STOP DEPTH
 STEP.M         0.1000                        : STEP VALUE
 NULL.          -999.0000                     : NULL VALUE
 SRVC.          SCH                           : Service Company/Logging company
 DATE.          12.07.2023                    : LAS file Creation Date
 WELL    .      Каратобе 333                  : Well Name
 FLD     .      Karatobe                      : Field
 LATI    .      0                             : Latitude/Northing
 LONG    .      0                             : Longitude/Easting
 RWS     .      -999                          : Def_Rw
 WST     .      -999                          : Def_Rwt
~CURVE INFORMATION
#MNEM          UNIT     API CODE   Description
#---------- ---------- ----------  -----------
 DEPTH     .M                    : DEPTH
 AZIM      .deg                  : Azimuth
 DEVI      .deg                  : Deviatiom
 GZ3       .OHMM                 : APP.RESISTIVITY BY LATERAL A2.0M0.5N
 GZB       .OHMM                 : APP.RESISTIVITY BY LATERAL N0.5M2.0A
 SP        .mV                   : Spontaneous Potential
 RB        .OHMM                 : Mud Resistivity
 RHOB      .G/C3                 : BULK DENSITY BY DGGL
 GR        .uR/h                 : GAMMA RAYS
 RFTN      .CPM                  : NEUTRON-NEUTRON(T) FAR
 RNTN      .CPM                  : NEUTRON-NEUTRON(T) NEAR
 TNPH      .V/V                  : Neutron porosity
 LL3       .OHMM                 : APPAR.RESIST. LATEROLOG 3 ELECTRODES
 C1        .mm                   : CALIPER DIAMETER 1
 C2        .mm                   : CALIPER DIAMETER 2
 CALI      .mm                   : Caliper
 BSC       .mm                   : Nominal Caliper
 TP1       .MCS                  : Sonic Time 1
 TP2       .MCS                  : Sonic Time 2
 DTP       .uSec/m               : Sonic travel time
 MLL       .OHMM                 : MICROLATEROLOG
 MNOR      .OHMM                 : MICRONORMAL A0.05M
 MINV      .OHMM                 : MICROLATERAL A0.025M0.025N
 TEMP      .C                    : Formation Temperature
 IKD1F3    .OHMM                 : Induction zonde IKD1F3
 IKD2F3    .OHMM                 : Induction zonde IKD2F3
 IKD3F3    .OHMM                 : Induction zonde IKD3F3
 IKD4F3    .OHMM                 : Induction zonde IKD4F3
 IKD5F3    .OHMM                 : Induction zonde IKD5F3
~A Log data section
# ...
 565.6000  352.6550    0.2072    2.5586    1.9688   26.1181    0.1364    2.1895   12.6310    1.4020    0.9310    0.3435    1.5308  223.2790  214.9347  219.1064  215.9000  573.1900  668.0500  234.3500    1.2743    0.2826    1.2260   28.1973    1.3052    1.3317    1.4223    1.4854    1.5177 
 565.7000  353.3966    0.2030    2.5548    1.9690   26.2555    0.1418    2.1920   12.5470    1.4090    0.9200    0.3375    1.5432  222.5206  214.9135  218.7170  215.9000  572.6600  668.0500  233.4600    1.2693    0.2568    1.1744   28.1997    1.2854    1.3142    1.4047    1.4679    1.4974 
 565.8000  353.2864    0.2004    2.5364    1.9514   26.2945    0.1430    2.2030   12.2790    1.4490    0.9220    0.3390    1.5753  222.4951  214.8310  218.6626  215.9000  572.6600  667.3200  233.4600    1.2493    0.2578    1.1438   28.2020    1.2799    1.3100    1.3993    1.4569    1.4815 
 565.9000  351.6392    0.2112    2.5112    1.9334   26.2404    0.1422    2.2270   12.1210    1.4260    0.9290    0.3311    1.5961  222.4564  214.8641  218.6602  215.9000  572.1100  667.3200  237.1800    1.2478    0.3098    1.3200   28.2043    1.2799    1.3068    1.3952    1.4490    1.4692 
 566.0000  352.5550    0.2124    2.4748    1.9092   26.1398    0.1420    2.2600   12.0760    1.4520    0.9340    0.3190    1.5625  222.4221  214.9152  218.6682  215.9000  572.1100  667.0900  237.2300    1.2200    0.3054    1.3370   28.2067    1.2625    1.2882    1.3794    1.4376    1.4550 
 566.1000  354.3614    0.2032    2.4118    1.8696   25.9886    0.1436    2.2760   11.9300    1.5050    0.9310    0.3176    1.4910  222.4054  214.8636  218.6345  215.9000  572.1100  667.0900  237.8700    1.2090    0.2572    1.1636   28.2090    1.2260    1.2580    1.3562    1.4225    1.4358 
 566.2000  352.9918    0.1994    2.3420    1.8274   25.8705    0.1456    2.2655   11.4860    1.5150    0.9190    0.3227    1.4681  222.4143  214.7117  218.5630  215.9000  571.2800  665.5400  237.8700    1.1904    0.2110    1.1724   28.2113    1.2074    1.2396    1.3378    1.4060    1.4174 
 566.3000  350.9282    0.2006    2.2808    1.7814   25.6847    0.1452    2.2430   10.6600    1.5150    0.9020    0.3306    1.4717  222.4620  214.7602  218.6111  215.9000  571.2800  665.5400  239.3200    1.1866    0.1966    1.1626   28.2137    1.2107    1.2381    1.3276    1.3886    1.4015 
 566.4000  349.8354    0.1986    2.2218    1.7448   25.5231    0.1442    2.2205    9.9870    1.4910    0.8890    0.3341    1.4531  222.4592  214.8155  218.6373  215.9000  570.2200  665.5400  239.3200    1.1673    0.2376    1.1442   28.2160    1.2051    1.2320    1.3163    1.3714    1.3806 
 566.5000  349.1968    0.1908    2.1556    1.7124   25.3205    0.1448    2.2060    9.8340    1.4710    0.8990    0.3260    1.4111  222.4379  214.8192  218.6281  215.9000  570.2200  664.6700  239.7300    1.1439    0.2354    1.0986   28.2183    1.1810    1.2105    1.2976    1.3526    1.3547 
 566.6000  348.0736    0.1802    2.0916    1.6948   25.1812    0.1458    2.2145    9.9200    1.5210    0.9230    0.3147    1.3743  222.4730  214.8897  218.6813  215.9000  569.6100  664.6700  239.7300    1.1304    0.1930    1.0616   28.2207    1.1572    1.1901    1.2781    1.3307    1.3346 
 566.7000  349.0652    0.1716    2.0430    1.6848   25.0795    0.1468    2.2365    9.9730    1.6040    0.9350    0.3030    1.3696  222.4720  214.8516  218.6614  215.9000  569.6100  664.1100  237.1400    1.1074    0.1712    0.9974   28.2230    1.1484    1.1809    1.2610    1.3087    1.3205 
 566.8000  351.1224    0.1692    2.0116    1.6814   25.0465    0.1494    2.2285    9.8510    1.7110    0.9320    0.2937    1.3670  222.4640  214.7778  218.6213  215.9000  569.4900  664.1100  238.4700    1.1095    0.1786    0.9934   28.2253    1.1412    1.1676    1.2440    1.2942    1.3101 
 566.9000  352.5558    0.1714    1.9884    1.6834   25.1044    0.1540    2.1865    9.5960    1.8080    0.9300    0.2957    1.3386  222.4668  214.7900  218.6280  215.9000  569.4900  664.1100  236.6400    1.0714    0.1724    1.0520   28.2277    1.1132    1.1466    1.2266    1.2817    1.2982 
 567.0000  350.3578    0.1696    1.9736    1.6904   25.2027    0.1574    2.1695    9.4830    1.7930    0.9350    0.3103    1.3240  222.4104  214.7575  218.5844  215.9000  569.4900  665.0400  238.0300    1.0935    0.1558    0.9972   28.2300    1.0995    1.1389    1.2223    1.2761    1.2911 
 567.1000  350.1076    0.1674    1.9646    1.7072   25.3940    0.1604    2.2050    9.6330    1.6570    0.9450    0.3272    1.3424  222.4084  214.7912  218.5998  215.9000  569.4900  665.0400  237.4500    1.0699    0.1634    0.9728   28.2323    1.1196    1.1477    1.2281    1.2771    1.2905 
 567.2000  348.8156    0.1646    1.9590    1.7198   25.5566    0.1642    2.2470    9.9430    1.5130    0.9530    0.3366    1.3718  222.4411  214.8161  218.6286  215.9000  570.2900  665.0400  237.4500    1.1200    0.1694    1.0390   28.2347    1.1316    1.1570    1.2290    1.2761    1.2909 
 567.3000  346.6476    0.1624    1.9604    1.7388   25.7539    0.1658    2.2465   10.3430    1.4400    0.9510    0.3392    1.3892  222.4551  214.8516  218.6534  215.9000  570.2900  665.0400  235.6500    1.0876    0.1638    1.0416   28.2370    1.1335    1.1592    1.2299    1.2766    1.2963 
 567.4000  346.7696    0.1620    1.9786    1.7646   25.8668    0.1668    2.1985   10.6550    1.4260    0.9390    0.3438    1.3929  222.4128  214.7565  218.5851  215.9000  570.2900  666.2500  235.6500    1.1243    0.1814    1.0964   28.2393    1.1322    1.1553    1.2279    1.2803    1.3005 
 567.5000  348.1804    0.1588    1.9910    1.7748   25.9417    0.1718    2.1455   10.7630    1.4110    0.9280    0.3534    1.4051  222.4314  214.7521  218.5918  215.9000  570.8600  666.2500  238.2800    1.0918    0.1734    1.0422   28.2417    1.1241    1.1517    1.2284    1.2855    1.3011 
 567.6000  348.8970    0.1564    1.9850    1.7664   25.9234    0.1754    2.1395   10.6660    1.3660    0.9240    0.3671    1.4432  222.4467  214.8326  218.6401  215.9000  570.8600  668.4100  236.1100    1.1379    0.1598    0.9954   28.2440    1.1311    1.1617    1.2376    1.2885    1.3022 
 567.7000  348.4290    0.1528    1.9766    1.7624   25.8108    0.1704    2.1825   10.5240    1.2880    0.9290    0.3721    1.4985  222.3901  214.8347  218.6124  215.9000  570.8600  668.4100  237.6500    1.1208    0.2084    1.0368   28.2463    1.1656    1.1800    1.2465    1.2894    1.3039 
 567.8000  347.3814    0.1440    1.9558    1.7532   25.6589    0.1698    2.2300   10.4770    1.2620    0.9400    0.3540    1.4599  222.3975  214.9770  218.6873  215.9000  572.3400  668.4100  236.2500    1.1236    0.2348    1.2970   28.2487    1.1605    1.1728    1.2359    1.2806    1.2974 
 567.9000  347.9014    0.1380    1.9110    1.7286   25.4401    0.1724    2.2525   10.4030    1.3710    0.9470    0.3414    1.3492  222.4549  215.0686  218.7622  215.9000  572.3400  667.8400  236.5500    1.0918    0.1718    1.0166   28.2510    1.1130    1.1378    1.2030    1.2598    1.2805 
 568.0000  348.7960    0.1362    1.8746    1.7158   25.2969    0.1762    2.2560   10.3430    1.4450    0.9470    0.3429    1.3104  222.4405  215.0852  218.7629  215.9000  571.9300  667.8400  236.5500    1.0791    0.1424    0.9934   28.2533    1.0878    1.1112    1.1815    1.2413    1.2656 
 568.1000  350.5226    0.1368    1.8640    1.7132   25.1537    0.1770    2.2500   10.4640    1.4220    0.9490    0.3420    1.3202  222.4025  215.1055  218.7545  215.9000  571.9300  667.8400  238.8800    1.0762    0.1384    0.9866   28.2557    1.0877    1.1048    1.1763    1.2277    1.2559 
 568.2000  355.2468    0.1346    1.8646    1.7170   25.1116    0.1794    2.2345   10.5900    1.4150    0.9500    0.3438    1.3362  222.4317  215.0990  218.7658  215.9000  571.9300  667.2500  238.8800    1.0621    0.1494    0.9642   28.2580    1.0845    1.1044    1.1713    1.2185    1.2482 
 568.3000  355.6006    0.1252    1.8682    1.7188   25.0605    0.1816    2.2105   10.5200    1.4050    0.9450    0.3504    1.3498  222.4863  215.0105  218.7484  215.9000  572.2200  667.2500  236.8600    1.0560    0.1586    0.9984   28.2603    1.0791    1.1011    1.1688    1.2182    1.2391 
