~VERSION INFORMATION
 VERS.                 2.0:   CWLS LOG ASCII STANDARD - VERSION 2.0
 WRAP.                  NO:   SINGLE LINE PER DEPTH STEP
~WELL INFORMATION
#MNEM.UNIT       DATA           DESCRIPTION MNEMONIC
#---------    -------------   --------------------------
 STRT.M         0.0000                        : START DEPTH
 STOP.M         849.0000                      : STOP DEPTH
 STEP.M         0.1000                        : STEP VALUE
 NULL.          -999.0000                     : NULL VALUE
 SRVC.          SCH                           : Service Company/Logging company
 DATE.          12.07.2023                    : LAS file Creation Date
 WELL    .      Каратобе 333                  : Well Name
 FLD     .      Karatobe                      : Field
 LATI    .      0                             : Latitude/Northing
 LONG    .      0                             : Longitude/Easting
 RWS     .      -999                          : Def_Rw
 WST     .      -999                          : Def_Rwt
~CURVE INFORMATION
#MNEM          UNIT     API CODE   Description
#---------- ---------- ----------  -----------
 DEPTH     .M                    : DEPTH
 AZIM      .deg                  : Azimuth
 DEVI      .deg                  : Deviatiom
 GZ3       .OHMM                 : APP.RESISTIVITY BY LATERAL A2.0M0.5N
 GZB       .OHMM                 : APP.RESISTIVITY BY LATERAL N0.5M2.0A
 SP        .mV                   : Spontaneous Potential
 RB        .OHMM                 : Mud Resistivity
 RHOB      .G/C3                 : BULK DENSITY BY DGGL
 GR        .uR/h                 : GAMMA RAYS
 RFTN      .CPM                  : NEUTRON-NEUTRON(T) FAR
 RNTN      .CPM                  : NEUTRON-NEUTRON(T) NEAR
 TNPH      .V/V                  : Neutron porosity
 LL3       .OHMM                 : APPAR.RESIST. LATEROLOG 3 ELECTRODES
 C1        .mm                   : CALIPER DIAMETER 1
 C2        .mm                   : CALIPER DIAMETER 2
 CALI      .mm                   : Caliper
 BSC       .mm                   : Nominal Caliper
 TP1       .MCS                  : Sonic Time 1
 TP2       .MCS                  : Sonic Time 2
 DTP       .uSec/m               : Sonic travel time
 MLL       .OHMM                 : MICROLATEROLOG
 MNOR      .OHMM                 : MICRONORMAL A0.05M
 MINV      .OHMM                 : MICROLATERAL A0.025M0.025N
 TEMP      .C                    : Formation Temperature
 IKD1F3    .OHMM                 : Induction zonde IKD1F3
 IKD2F3    .OHMM                 : Induction zonde IKD2F3
 IKD3F3    .OHMM                 : Induction zonde IKD3F3
 IKD4F3    .OHMM                 : Induction zonde IKD4F3
 IKD5F3    .OHMM                 : Induction zonde IKD5F3
~A Log data section
# ...
 330.4000   69.3510    0.4516   10.6854   12.3440   10.9272    0.0948    2.1475   18.4150    1.3360    0.8510    0.3447    5.6973  234.6144  219.7309  227.1727  215.9000  549.4200  654.0600  240.8700    3.1290    0.5094    1.0332   22.7093    6.1455    7.8577   10.0904   10.7279   10.5559 
 330.5000   65.5792    0.4460   10.9884   12.0620   10.8313    0.0974    2.1725   18.1700    1.3010    0.8540    0.3413    5.6894  232.7573  219.2381  225.9982  215.9000  548.9400  660.6300  236.1700    3.2921    0.5970    1.3038   22.7117    6.1346    8.0542   10.2963   10.7731   10.5916 
 330.6000   62.5380    0.4418   11.3082   11.6594   10.7641    0.0996    2.1830   17.0480    1.3390    0.8600    0.3368    5.3604  239.3526  219.2623  229.3079  215.9000  548.9400  662.8100  252.9400    3.1961    0.4856    0.9286   22.7140    5.2064    7.1167    9.6277   10.8296   10.2583 
 330.7000   63.0382    0.4362   11.5934   11.1190   10.6978    0.0984    2.1670   16.0180    1.3960    0.8630    0.3340    5.2205  241.4386  220.0535  230.7460  215.9000  547.0000  662.8100  250.3200    3.1862    0.5226    1.1094   22.7163    5.0598    6.7820    9.3405   10.9096   10.0592 
 330.8000   62.1674    0.4342   11.9106   10.5508   10.6622    0.0964    2.1525   15.6510    1.4350    0.8700    0.3330    5.3860  239.1558  220.7301  229.9425  215.9000  547.0000  656.2500  254.9300    3.1631    0.6552    1.2480   22.7187    5.4732    7.2836    9.5359   10.7827   10.1408 
 330.9000   60.2142    0.4380   12.2648   10.0802   10.6733    0.0960    2.1660   15.9130    1.4300    0.8850    0.3342    5.5180  236.9711  219.3761  228.1736  215.9000  547.0000  658.4400  250.7400    3.3482    0.7042    1.3178   22.7210    5.8970    7.5963    9.7758   10.6466   10.1159 
 331.0000   58.2704    0.4406   12.6682    9.7518   10.6299    0.0976    2.1895   16.4460    1.3960    0.9040    0.3434    5.3663  239.5845  222.5020  231.0433  215.9000  548.1600  656.2500  256.4100    3.3430    0.6676    1.4574   22.7233    5.4548    6.9453    9.3475   10.4840    9.8523 
 331.1000   56.7706    0.4290   13.0678    9.4856   10.6035    0.0980    2.1810   16.9240    1.3520    0.9100    0.3610    5.1023  241.6405  227.5212  234.5813  215.9000  548.1600  657.3900  270.7300    3.2905    0.6252    1.2962   22.7257    4.7817    6.2261    8.7440   10.2992    9.7287 
 331.2000   54.5126    0.4228   13.5206    9.2684   10.4854    0.0948    2.1555   17.3960    1.3030    0.8970    0.3767    5.1102  240.8103  231.4906  236.1504  215.9000  547.8700  648.2200  267.3400    3.2393    0.5028    1.0488   22.7280    4.8408    6.3200    8.7935   10.4143    9.8001 
 331.3000   52.1100    0.4180   14.1628    9.1086   10.3895    0.0908    2.1640   17.8240    1.2680    0.8870    0.3759    5.3308  232.2138  222.6496  227.4312  215.9000  547.8700  645.3100  265.5500    3.3427    0.5502    1.1478   22.7303    5.5239    7.0916    9.6482   10.7342    9.8868 
 331.4000   50.0218    0.4130   14.8408    8.9142   10.1871    0.0876    2.2045   17.8750    1.2980    0.9070    0.3651    5.4451  228.0739  219.6168  223.8449  215.9000  549.6900  647.5000  261.6100    3.5190    0.6828    1.3394   22.7327    5.9777    7.6984   10.5278   10.9043    9.8200 
 331.5000   48.3750    0.4112   15.2360    8.6010    9.9609    0.0854    2.2400   17.6040    1.3720    0.9510    0.3492    5.3348  225.9193  218.4985  222.2089  215.9000  549.6900  649.6900  261.6100    3.5529    0.6880    1.3644   22.7350    5.7611    7.5149   10.4526   10.6733    9.6312 
 331.6000   46.0096    0.4134   15.3122    8.2426    9.6509    0.0842    2.2490   17.2840    1.4620    0.9830    0.3332    5.1142  223.9860  218.4182  221.2021  215.9000  549.6900  654.0600  279.2000    3.4455    0.6822    1.3794   22.7373    5.2846    6.9518    9.4062   10.0862    9.4534 
 331.7000   44.2264    0.4156   15.2342    7.9260    9.3089    0.0848    2.2260   17.2720    1.5320    0.9960    0.3310    4.8778  225.0644  219.1801  222.1223  215.9000  550.8500  654.0600  284.6700    3.2666    0.5966    1.2320   22.7397    4.8795    6.4239    8.5099    9.4121    9.1626 
 331.8000   42.8410    0.4176   15.1084    7.6626    8.9717    0.0842    2.1870   18.1470    1.5160    1.0000    0.3393    4.6414  225.3654  218.9867  222.1765  215.9000  550.8500  646.8600  289.5300    3.1581    0.5120    1.1292   22.7420    4.7132    6.1205    8.0534    8.9427    8.7328 
 331.9000   41.0068    0.4148   14.9860    7.4416    8.6217    0.0840    2.1785   19.8640    1.4500    0.9840    0.3376    4.5074  225.2951  218.1548  221.7249  215.9000  555.3300  646.8600  273.1300    3.1653    0.5090    1.1002   22.7443    4.9001    6.1360    7.9438    8.5657    8.2959 
 332.0000   39.2494    0.4196   14.9260    7.2510    8.3513    0.0848    2.2175   21.0730    1.4370    0.9580    0.3217    4.4385  225.4702  216.0573  220.7633  215.9000  555.3300  647.4900  278.5900    3.1852    0.5578    1.1986   22.7467    5.0587    6.2148    7.7521    8.1449    8.0286 
 332.1000   37.6536    0.4234   15.0682    7.1292    8.0254    0.0874    2.2615   21.3040    1.5000    0.9450    0.3073    4.3478  226.6874  214.9225  220.8050  215.9000  555.1000  647.4900  270.2200    3.1851    0.5300    1.1656   22.7490    4.9023    5.9224    7.2190    7.7988    7.8562 
 332.2000   36.0032    0.4216   15.4900    7.0752    7.7335    0.0904    2.2680   20.6250    1.5780    0.9380    0.3026    4.1942  229.1237  216.3847  222.7546  215.9000  555.1000  644.7900  273.0600    3.1010    0.5226    1.0766   22.7513    4.3844    5.3091    6.6450    7.6251    7.7119 
 332.3000   34.0234    0.4226   16.0148    6.9790    7.3302    0.0878    2.2420   19.4130    1.6170    0.9160    0.3087    4.0740  233.5305  217.5307  225.5301  215.9000  555.1000  644.7900  250.8800    3.1293    0.4664    1.0956   22.7537    4.1053    5.0662    6.5400    7.5791    7.6739 
 332.4000   32.8912    0.4398   16.5196    6.8266    6.9395    0.0830    2.2135   18.0010    1.5990    0.8920    0.3188    4.2336  232.8199  218.3942  225.6066  215.9000  551.0000  642.9300  243.6100    3.2295    0.4234    0.7098   22.7560    4.6390    5.4720    6.9510    7.7669    7.7496 
 332.5000   31.9326    0.4384   17.0286    6.6620    6.4925    0.0812    2.1930   16.5780    1.5620    0.8840    0.3263    4.4286  225.7214  218.3680  222.0447  215.9000  551.0000  642.9300  244.5200    3.4822    0.6018    1.1118   22.7583    5.3649    6.0025    7.5297    7.9754    7.7912 
 332.6000   30.8108    0.4018   17.4542    6.4586    6.0556    0.0802    2.1745   15.3740    1.5490    0.8940    0.3277    4.4030  225.6379  218.1190  221.8784  215.9000  548.2100  642.9300  249.9900    3.5541    0.6634    1.2674   22.7607    5.0608    5.9079    7.4654    7.8411    7.5966 
 332.7000   29.6470    0.4586   17.5630    6.1576    5.6318    0.0784    2.1665   15.0130    1.5740    0.9120    0.3204    4.2454  226.1094  219.3329  222.7207  215.9000  548.2100  640.9200  260.9300    3.4524    0.6048    1.1686   22.7630    4.5341    5.3683    6.8830    7.5120    7.2660 
 332.8000   29.4108    0.4622   17.3796    5.8458    5.1681    0.0772    2.1775   15.6990    1.6450    0.9350    0.3108    4.1233  226.4729  216.8917  221.6823  215.9000  547.3600  640.9200  258.0400    3.1809    0.6268    1.2604   22.7653    4.1238    4.9048    6.2393    6.9869    6.7214 
 332.9000   27.7772    0.4174   16.9560    5.5464    4.7453    0.0746    2.1955   16.5070    1.7270    0.9590    0.3097    4.0149  226.3711  216.8459  221.6085  215.9000  547.3600  639.6500  240.0300    2.8741    0.6538    1.3452   22.7677    3.7999    4.5786    5.7117    6.3467    6.1910 
 333.0000   24.5610    0.4030   16.2820    5.2662    4.2530    0.0724    2.2085   16.9330    1.7470    0.9760    0.3133    3.9066  225.2942  216.4956  220.8949  215.9000  549.7700  639.6500  228.8100    2.6882    0.6710    1.3174   22.7700    3.5953    4.2754    5.2106    5.6074    5.6235 
 333.1000   26.6982    0.4244   15.3994    5.0254    3.8667    0.0720    2.2095   17.1540    1.7320    0.9820    0.3122    3.7667  223.7402  216.0446  219.8924  215.9000  549.7700  638.8400  230.3900    2.4391    0.6886    1.4966   22.7723    3.3401    3.8230    4.5947    5.0268    5.1329 
