~VERSION INFORMATION
 VERS.                 2.0:   CWLS LOG ASCII STANDARD - VERSION 2.0
 WRAP.                  NO:   SINGLE LINE PER DEPTH STEP
~WELL INFORMATION
#MNEM.UNIT       DATA           DESCRIPTION MNEMONIC
#---------    -------------   --------------------------
 STRT.M         0.0000                        : START DEPTH
 STOP.M         849.0000                      : STOP DEPTH
 STEP.M         0.1000                        : STEP VALUE
 NULL.          -999.0000                     : NULL VALUE
 SRVC.          SCH                           : Service Company/Logging company
 DATE.          12.07.2023                    : LAS file Creation Date
 WELL    .      Каратобе 333                  : Well Name
 FLD     .      Karatobe                      : Field
 LATI    .      0                             : Latitude/Northing
 LONG    .      0                             : Longitude/Easting
 RWS     .      -999                          : Def_Rw
 WST     .      -999                          : Def_Rwt
~CURVE INFORMATION
#MNEM          UNIT     API CODE   Description
#---------- ---------- ----------  -----------
 DEPTH     .M                    : DEPTH
 AZIM      .deg                  : Azimuth
 DEVI      .deg                  : Deviatiom
 GZ3       .OHMM                 : APP.RESISTIVITY BY LATERAL A2.0M0.5N
 GZB       .OHMM                 : APP.RESISTIVITY BY LATERAL N0.5M2.0A
 SP        .mV                   : Spontaneous Potential
 RB        .OHMM                 : Mud Resistivity
 RHOB      .G/C3                 : BULK DENSITY BY DGGL
 GR        .uR/h                 : GAMMA RAYS
 RFTN      .CPM                  : NEUTRON-NEUTRON(T) FAR
 RNTN      .CPM                  : NEUTRON-NEUTRON(T) NEAR
 TNPH      .V/V                  : Neutron porosity
 LL3       .OHMM                 : APPAR.RESIST. LATEROLOG 3 ELECTRODES
 C1        .mm                   : CALIPER DIAMETER 1
 C2        .mm                   : CALIPER DIAMETER 2
 CALI      .mm                   : Caliper
 BSC       .mm                   : Nominal Caliper
 TP1       .MCS                  : Sonic Time 1
 TP2       .MCS                  : Sonic Time 2
 DTP       .uSec/m               : Sonic travel time
 MLL       .OHMM                 : MICROLATEROLOG
 MNOR      .OHMM                 : MICRONORMAL A0.05M
 MINV      .OHMM                 : MICROLATERAL A0.025M0.025N
 TEMP      .C                    : Formation Temperature
 IKD1F3    .OHMM                 : Induction zonde IKD1F3
 IKD2F3    .OHMM                 : Induction zonde IKD2F3
 IKD3F3    .OHMM                 : Induction zonde IKD3F3
 IKD4F3    .OHMM                 : Induction zonde IKD4F3
 IKD5F3    .OHMM                 : Induction zonde IKD5F3
~A Log data section
# ...
 753.2000   54.6810    0.4666    4.0972    6.5252   35.1552    0.1002    2.4490    6.4280    2.2880    0.9710    0.2467    2.8881  262.0297  240.0781  251.0534  215.9000  436.3200  571.8300  353.8700    1.6581    0.0168    0.6336   32.5747    1.9076    2.1120    2.3938    2.6362    2.7196 
 753.3000   53.4118    0.4700    4.0940    6.6070   35.2641    0.0984    2.5025    6.7640    2.3910    0.9430    0.2492    2.8881  270.5609  228.0643  249.3122  215.9000  436.3200  561.6300  353.8700    1.6956    0.0152    0.7176   32.5770    1.8746    2.0949    2.4298    2.6478    2.6874 
 753.4000   52.2968    0.4688    4.0368    6.6462   35.4023    0.0972    2.5635    7.1320    2.3490    0.9470    0.2485    2.9610  264.4048  234.5782  249.4919  215.9000  426.5600  562.1900  350.5700    1.6868    0.0632    1.2206   32.5793    2.0083    2.1880    2.5119    2.6794    2.6973 
 753.5000   50.8432    0.4648    3.9006    6.6872   35.4550    0.0962    2.6120    7.2740    2.3020    0.9800    0.2439    3.0024  273.5964  240.7743  257.1849  215.9000  428.7500  562.1900  351.2200    1.6468    0.0288    0.8668   32.5817    2.0945    2.3018    2.5839    2.6850    2.6908 
 753.6000   48.8722    0.4696    3.7084    6.7696   35.5403    0.1000    2.6160    7.2650    2.3000    0.9950    0.2455    2.9137  259.3965  248.3900  253.8932  215.9000  426.5600  562.1900  346.4100    1.6148    0.0156    0.5102   32.5840    2.0307    2.2720    2.5365    2.6443    2.6138 
 753.7000   46.9714    0.4846    3.4912    6.9144   35.5448    0.1018    2.5665    7.2710    2.2550    0.9790    0.2598    2.7955  260.7241  251.3162  256.0197  215.9000  424.3800  551.2500  354.9100    1.5661    0.0152    0.5900   32.5863    1.9295    2.1362    2.4308    2.5773    2.5172 
 753.8000   45.2160    0.4872    3.3190    7.3356   35.5766    0.1020    2.5070    7.4320    2.1080    0.9530    0.2826    2.7088  265.4978  252.4731  258.9855  215.9000  409.0600  551.2500  353.0500    1.5915    0.0360    0.7914   32.5887    1.8520    2.0614    2.3543    2.4685    2.4456 
 753.9000   43.8724    0.4766    3.2766    8.0842   35.5824    0.1036    2.4715    7.6280    1.9470    0.9340    0.3088    2.7482  271.4145  249.2943  260.3549  215.9000  406.8800  549.0600  363.9800    1.5894    0.0204    0.5210   32.5910    1.8853    2.0726    2.3027    2.3785    2.4172 
 754.0000   43.3230    0.4740    3.3444    8.9758   35.6254    0.1032    2.4465    7.5660    1.8640    0.9310    0.3368    2.7936  265.5923  257.7473  261.6703  215.9000  407.5700  546.8800  335.8200    1.6705    0.1472    1.1734   32.5933    1.9066    2.0576    2.2663    2.3593    2.4302 
 754.1000   42.8504    0.5340    3.4668    9.8676   35.6996    0.1014    2.4235    7.0170    1.8500    0.9480    0.3479    2.8251  259.7161  245.3123  252.5146  215.9000  392.4300  533.7500  341.2900    1.7558    0.0482    0.6752   32.5957    1.8053    2.0017    2.2575    2.4060    2.4607 
 754.2000   41.7214    0.5690    3.6706   10.7194   35.7915    0.0994    2.4255    5.9870    1.9660    0.9960    0.3251    3.1383  247.7858  238.9500  243.3675  215.9000  392.4300  532.6600  338.7600    2.0644    0.1152    0.5562   32.5980    1.8928    2.1011    2.4252    2.5773    2.6091 
 754.3000   40.4648    0.5116    3.9358   11.3008   35.9545    0.0990    2.4450    4.7980    2.3590    1.1070    0.2804    3.6328  233.0291  223.6455  228.3377  215.9000  389.6400  531.5600  338.7500    2.4441    0.9586    1.9370   32.6003    2.3528    2.5175    2.7991    2.8824    2.8892 
 754.4000   40.4174    0.4344    4.2222   11.5056   36.0900    0.0974    2.4550    4.0330    3.0790    1.2490    0.2358    4.0839  231.6960  220.8574  226.2763  215.9000  389.6400  529.3800  313.2600    3.0631    1.3016    2.4830   32.6027    2.9295    3.0585    3.2907    3.2558    3.2256 
 754.5000   39.5736    0.3766    4.5008   11.3934   36.2734    0.0946    2.4765    3.8490    4.1220    1.3720    0.2053    4.3754  229.2806  220.1610  224.7213  215.9000  394.8300  527.1900  339.0600    3.6513    1.2034    2.8788   32.6050    3.3316    3.3410    3.6128    3.6402    3.5360 
 754.6000   38.2636    0.3604    4.7800   11.0206   36.3703    0.0892    2.5285    3.8800    5.2180    1.4640    0.1886    4.6079  227.3280  219.9616  223.6452  215.9000  394.8300  527.1900  333.6000    4.1832    1.2062    2.2202   32.6073    3.4916    3.3847    3.7105    3.9467    3.8132 
 754.7000   36.7408    0.4046    5.0840   10.4840   36.5056    0.0840    2.5560    3.8010    6.0600    1.5450    0.1755    4.8423  226.7353  220.1408  223.4376  215.9000  394.8300  522.8100  339.0600    5.0137    1.9680    2.4524   32.6097    3.5246    3.4836    3.8717    4.1394    4.1029 
 754.8000   33.4864    0.6216    5.3964    9.8710   36.5851    0.0798    2.5375    3.5710    6.7180    1.6390    0.1650    5.1023  226.2654  219.7019  222.9836  215.9000  390.2400  522.8100  317.2100    5.4107    2.0906    2.5154   32.6120    3.9389    3.7699    4.1464    4.3124    4.2590 
 754.9000   30.3086    0.6730    5.6894    9.2468   36.7030    0.0774    2.5225    3.3000    7.1940    1.7290    0.1603    5.2658  227.0525  220.0364  223.5440  215.9000  390.2400  522.8100  355.4700    6.6092    3.4662    4.2930   32.6143    4.3482    4.0305    4.4731    4.4987    4.3531 
 755.0000   29.2644    0.5218    5.9150    8.6452   36.7937    0.0754    2.5190    3.1590    7.3880    1.7810    0.1615    5.3013  227.2039  221.2762  224.2400  215.9000  387.9300  516.2500  355.4700    5.9132    2.9446    4.1312   32.6167    4.4090    4.1581    4.5625    4.4914    4.3806 
 755.1000   31.4728    0.4968    6.1082    8.1548   36.8892    0.0734    2.4985    3.2390    7.2270    1.7780    0.1630    5.2166  227.0467  221.3286  224.1872  215.9000  387.9300  516.2500  348.2600    5.8312    1.9736    2.3918   32.6190    4.4569    4.1462    4.4009    4.4924    4.3776 
 755.2000   35.1656    0.4984    6.2620    7.8348   36.9825    0.0714    2.4885    3.4710    6.9460    1.7560    0.1652    5.0767  226.8642  221.5721  224.2181  215.9000  378.7400  509.6900  353.3100    4.3910    2.2996    2.4446   32.6213    4.1696    3.9140    4.2623    4.4668    4.3108 
 755.3000   35.1064    0.4860    6.3214    7.6908   37.0282    0.0622    2.5485    3.7890    6.4510    1.7400    0.1694    4.9369  226.8922  221.9213  224.4063  215.9000  378.7400  509.6900  350.5800    4.3841    2.2978    3.2042   32.6237    3.6435    3.7536    4.2234    4.3546    4.1530 
 755.4000   32.2042    0.4654    6.3090    7.6578   37.0738    0.0704    2.6140    4.1440    5.7640    1.7140    0.1754    4.8226  226.3287  222.7457  224.5372  215.9000  375.2200  509.6900  354.8000    3.5899    2.8852    3.3044   32.6260    3.8036    3.8755    4.4023    4.3034    4.0531 
 755.5000   31.8630    0.4738    6.2432    7.7150   37.0450    0.0810    2.5875    4.4200    5.1250    1.6460    0.1856    4.6512  225.8824  224.2755  225.0790  215.9000  375.2200  507.5000  349.3400    3.6312    1.2426    2.4026   32.6283    3.9021    3.8984    4.2737    4.1093    3.9236 
 755.6000   32.1396    0.4890    6.1104    7.8124   37.0675    0.0846    2.5085    4.5980    4.5950    1.5410    0.2023    4.1883  227.6055  222.2724  224.9394  215.9000  375.2200  507.5000  330.9000    3.0770    0.8724    1.9250   32.6307    3.5780    3.5866    3.9671    3.8529    3.7938 
 755.7000   32.6768    0.5064    5.9842    7.8946   37.0324    0.0850    2.4630    4.6290    4.1210    1.4180    0.2174    3.7667  228.6159  226.4201  227.5180  215.9000  366.2000  498.7500  330.9000    3.0629    0.8642    2.2130   32.6330    3.1232    3.2719    3.7329    3.6892    3.6524 
 755.8000   33.3822    0.5364    5.8960    7.9924   37.0568    0.0850    2.4705    4.5310    3.7720    1.3330    0.2231    3.6643  233.1515  223.9477  228.5496  215.9000  366.2000  498.7500  319.9700    2.8672    0.7404    1.3746   32.6353    2.9971    3.2109    3.7006    3.6984    3.5684 
 755.9000   30.8720    0.5118    5.8488    8.1082   37.0211    0.0850    2.4945    4.3970    3.6740    1.3150    0.2222    3.7608  225.4153  219.5521  222.4837  215.9000  354.0900  498.7500  331.4400    3.1350    0.9224    2.5598   32.6377    3.1555    3.4336    3.8978    3.8037    3.6022 
