~VERSION INFORMATION
 VERS.                 2.0:   CWLS LOG ASCII STANDARD - VERSION 2.0
 WRAP.                  NO:   SINGLE LINE PER DEPTH STEP
~WELL INFORMATION
#MNEM.UNIT       DATA           DESCRIPTION MNEMONIC
#---------    -------------   --------------------------
 STRT.M         0.0000                        : START DEPTH
 STOP.M         849.0000                      : STOP DEPTH
 STEP.M         0.1000                        : STEP VALUE
 NULL.          -999.0000                     : NULL VALUE
 SRVC.          SCH                           : Service Company/Logging company
 DATE.          12.07.2023                    : LAS file Creation Date
 WELL    .      Каратобе 333                  : Well Name
 FLD     .      Karatobe                      : Field
 LATI    .      0                             : Latitude/Northing
 LONG    .      0                             : Longitude/Easting
 RWS     .      -999                          : Def_Rw
 WST     .      -999                          : Def_Rwt
~CURVE INFORMATION
#MNEM          UNIT     API CODE   Description
#---------- ---------- ----------  -----------
 DEPTH     .M                    : DEPTH
 AZIM      .deg                  : Azimuth
 DEVI      .deg                  : Deviatiom
 GZ3       .OHMM                 : APP.RESISTIVITY BY LATERAL A2.0M0.5N
 GZB       .OHMM                 : APP.RESISTIVITY BY LATERAL N0.5M2.0A
 SP        .mV                   : Spontaneous Potential
 RB        .OHMM                 : Mud Resistivity
 RHOB      .G/C3                 : BULK DENSITY BY DGGL
 GR        .uR/h                 : GAMMA RAYS
 RFTN      .CPM                  : NEUTRON-NEUTRON(T) FAR
 RNTN      .CPM                  : NEUTRON-NEUTRON(T) NEAR
 TNPH      .V/V                  : Neutron porosity
 LL3       .OHMM                 : APPAR.RESIST. LATEROLOG 3 ELECTRODES
 C1        .mm                   : CALIPER DIAMETER 1
 C2        .mm                   : CALIPER DIAMETER 2
 CALI      .mm                   : Caliper
 BSC       .mm                   : Nominal Caliper
 TP1       .MCS                  : Sonic Time 1
 TP2       .MCS                  : Sonic Time 2
 DTP       .uSec/m               : Sonic travel time
 MLL       .OHMM                 : MICROLATEROLOG
 MNOR      .OHMM                 : MICRONORMAL A0.05M
 MINV      .OHMM                 : MICROLATERAL A0.025M0.025N
 TEMP      .C                    : Formation Temperature
 IKD1F3    .OHMM                 : Induction zonde IKD1F3
 IKD2F3    .OHMM                 : Induction zonde IKD2F3
 IKD3F3    .OHMM                 : Induction zonde IKD3F3
 IKD4F3    .OHMM                 : Induction zonde IKD4F3
 IKD5F3    .OHMM                 : Induction zonde IKD5F3
~A Log data section
# ...
 282.8000   60.3068    0.5490   25.5790   19.9288   12.4073    0.0892    2.1145    6.2340    1.6290    0.9830    0.3281    8.7684  228.7617  216.7635  222.7622  215.9000  555.6900  670.6300  259.7000   12.0806    0.6740    1.2726   21.5987   13.6343   16.8577   34.1973   47.8445   32.0836 
 282.9000   60.0140    0.5480   26.0656   19.1590   12.0646    0.0898    2.1150    5.8980    1.5590    0.9850    0.3437    8.6207  228.9665  217.1062  223.0368  215.9000  555.6900  662.8100  266.5000   10.4959    0.5638    1.1276   21.6010   11.6940   14.7322   26.1849   35.0288   29.9241 
 283.0000   59.5378    0.5480   26.5832   18.5872   11.8101    0.0908    2.1315    5.6330    1.4740    0.9720    0.3490    8.4434  227.9072  215.2317  221.5695  215.9000  555.6900  665.0000  254.1400    8.8913    0.5680    1.1880   21.6033    9.8747   12.7014   21.1797   27.3596   26.3091 
 283.1000   59.0144    0.5448   27.1604   18.1332   11.4959    0.0902    2.1640    5.4400    1.4830    0.9630    0.3397    8.2405  227.0138  213.9723  220.4935  215.9000  551.6300  667.1900  257.9400    7.6171    0.5496    1.0726   21.6057    8.7380   10.8950   18.3691   23.8504   23.1629 
 283.2000   58.5508    0.5408   27.7564   17.7780   11.2286    0.0908    2.1940    5.3530    1.5780    0.9670    0.3268    8.1597  226.4120  214.1650  220.2885  215.9000  551.6300  667.1900  257.9400    6.6041    0.6008    1.1500   21.6080    8.7615   10.3718   17.2842   22.8499   21.5876 
 283.3000   58.3778    0.5384   28.4400   17.4622   10.8643    0.0894    2.1995    5.3960    1.6650    0.9880    0.3190    8.1656  226.4087  216.4689  221.4388  215.9000  551.3600  667.1900  256.9700    6.1552    0.6216    1.1500   21.6103    9.2130   11.1635   17.4121   22.4272   20.9434 
 283.4000   59.1922    0.5412   29.1250   17.1288   10.5173    0.0890    2.1795    5.4840    1.7040    1.0170    0.3203    8.2641  226.1728  217.5407  221.8568  215.9000  551.3600  671.1700  256.9700    5.5767    0.6048    1.1278   21.6127    9.6886   12.3303   18.4611   22.3977   20.5167 
 283.5000   58.8794    0.5396   29.6570   16.6698   10.1423    0.0898    2.1535    5.4630    1.7020    1.0280    0.3357    8.2956  226.5051  218.5139  222.5100  215.9000  553.7600  671.1700  257.5900    5.2616    0.5810    1.1040   21.6150    9.6783   12.6233   18.7793   21.9310   19.9964 
 283.6000   58.2466    0.5302   30.0072   16.1160    9.8138    0.0900    2.1450    5.3120    1.6130    1.0160    0.3559    8.2267  226.5328  219.1479  222.8408  215.9000  553.7600  671.4900  261.8000    4.7548    0.5746    1.1110   21.6173    8.5664   11.6455   17.2083   20.3054   19.4153 
 283.7000   57.8370    0.5152   30.1428   15.5372    9.5206    0.0884    2.1590    5.3950    1.4880    1.0090    0.3705    8.0356  226.6761  219.4561  223.0661  215.9000  553.7600  671.4900  291.7300    4.3924    0.5862    1.1572   21.6197    7.3839   10.1424   15.1398   18.3534   18.6939 
 283.8000   57.6596    0.5264   30.1586   14.9810    9.1652    0.0864    2.1825    5.6710    1.3940    1.0230    0.3732    7.8189  226.3646  219.6495  223.0070  215.9000  552.2300  671.4900  292.9000    4.0017    0.5724    1.1480   21.6220    6.6047    9.0008   13.4396   16.7848   17.9610 
 283.9000   58.0866    0.5236   30.1212   14.4998    8.7790    0.0868    2.1955    5.7600    1.3810    1.0370    0.3647    7.7283  224.8168  219.6933  222.2546  215.9000  552.2300  672.6600  287.3500    3.7493    0.5434    1.1318   21.6243    6.1915    8.4740   12.5304   15.7918   17.3088 
 284.0000   58.8056    0.5180   30.0912   14.1190    8.2759    0.0854    2.1860    5.3550    1.4720    1.0420    0.3522    7.7243  223.7628  219.7415  221.7522  215.9000  553.0800  672.6600  267.8000    3.5193    0.5588    1.1154   21.6267    5.9179    8.1895   12.0458   15.3324   16.7277 
 284.1000   59.4170    0.5218   30.0052   13.7710    7.8534    0.0834    2.1635    4.6310    1.6090    1.0400    0.3347    7.6475  223.4003  219.1446  221.2729  215.9000  553.0800  672.0900  273.2700    3.3960    0.5842    1.1720   21.6290    5.7362    7.9558   11.9705   15.2182   16.2161 
 284.2000   58.8056    0.5222   29.7002   13.3340    7.4234    0.0822    2.1675    4.0980    1.7360    1.0510    0.3149    7.6593  222.9480  218.8308  220.8894  215.9000  550.1700  672.0900  288.9000    3.3117    0.5644    1.1262   21.6313    5.6823    7.9404   11.9613   15.0137   15.6789 
 284.3000   59.6312    0.5260   29.1626   12.8076    7.0955    0.0812    2.2175    4.0710    1.8440    1.0870    0.2982    7.5963  222.6269  218.6336  220.6302  215.9000  550.1700  669.7700  288.9000    3.2930    0.5974    1.1118   21.6337    5.7460    7.9707   11.7785   14.7133   15.2866 
 284.4000   60.4638    0.5286   28.5084   12.3174    6.7342    0.0842    2.2730    4.3800    1.9370    1.1100    0.2871    7.4761  223.2821  217.4882  220.3847  215.9000  550.1700  669.7700  289.5700    3.2136    0.5848    1.0704   21.6360    5.5530    7.7136   11.3665   14.2100   14.7662 
 284.5000   60.5858    0.5234   27.7940   11.8892    6.4141    0.0858    2.2800    4.6290    2.0070    1.0920    0.2867    7.2062  225.8435  220.9903  223.4169  215.9000  551.4200  665.4200  299.5300    3.1602    0.4520    1.1248   21.6383    5.1969    7.2631   10.9081   13.5565   14.0515 
 284.6000   61.7936    0.5244   27.0210   11.4516    6.1299    0.0828    2.2335    4.7170    2.0400    1.0590    0.3000    6.9639  230.4869  228.1440  229.3154  215.9000  551.4200  665.4200  293.5200    3.0447    0.4026    0.9338   21.6407    4.9859    6.9630   10.4286   12.9421   13.3706 
 284.7000   61.8538    0.5266   26.3672   11.0302    5.8730    0.0796    2.1800    4.8230    2.0110    1.0310    0.3177    6.9029  227.9464  219.4351  223.6903  215.9000  551.1900  665.4200  294.3200    2.9951    0.5414    1.1028   21.6430    4.9712    6.8739   10.1312   12.3639   12.7191 
 284.8000   61.4162    0.5262   25.7918   10.6142    5.6819    0.0806    2.1755    4.9950    1.9270    1.0240    0.3228    6.8044  225.8099  217.4292  221.6195  215.9000  551.1900  661.3000  294.3200    2.8833    0.5436    1.1948   21.6453    4.8907    6.7132    9.7396   11.7188   11.9374 
 284.9000   61.6132    0.5228   24.9078   10.1686    5.4351    0.0818    2.2195    5.1400    1.8910    1.0590    0.3088    6.5128  224.9328  219.7780  222.3550  215.9000  550.2300  661.3000  298.1600    2.7932    0.4560    1.0584   21.6477    4.5518    6.2875    9.0930   10.9827   11.0380 
 285.0000   62.1940    0.5252   23.6470    9.6988    5.2753    0.0852    2.2600    5.2240    2.0000    1.1130    0.2920    6.2252  225.0206  221.8554  223.4385  215.9000  550.2300  658.1500  301.0900    2.5738    0.4218    0.9668   21.6500    4.1589    5.7460    8.3077   10.1640   10.2132 
 285.1000   62.6194    0.5316   22.2808    9.3096    5.0881    0.0884    2.2745    5.3340    2.1500    1.1400    0.2877    5.9336  226.0455  220.8896  223.4680  215.9000  548.9400  658.1500  298.9500    2.4149    0.3286    0.9162   21.6523    3.8337    5.3051    7.6180    9.3307    9.5481 
 285.2000   63.0340    0.5370   21.0204    9.0544    5.0424    0.0890    2.2765    5.6160    2.1890    1.1370    0.2911    5.6854  225.7351  219.5793  222.6572  215.9000  548.9400  655.2100  297.5100    2.2488    0.3622    0.9318   21.6547    3.6253    5.0056    7.0315    8.6657    9.0146 
 285.3000   63.7686    0.5284   19.9460    8.8754    5.0068    0.0890    2.2705    6.0400    2.1470    1.1260    0.2905    5.5751  225.0151  219.1609  222.0880  215.9000  548.9400  655.2100  304.7800    2.1669    0.3106    0.8724   21.6570    3.5478    4.8134    6.6339    8.2202    8.6130 
 285.4000   63.6878    0.5292   19.1494    8.7508    5.0760    0.0890    2.2570    6.1020    2.1440    1.1210    0.2859    5.5436  225.5036  218.3863  221.9450  215.9000  549.0000  655.2100  299.0000    2.0916    0.3134    0.7608   21.6593    3.4865    4.7003    6.4616    8.0026    8.4039 
 285.5000   64.9598    0.5332   18.5636    8.6160    5.1874    0.0882    2.2575    5.7070    2.1720    1.1190    0.2863    5.5712  222.7001  217.8259  220.2635  215.9000  549.0000  652.0400  299.0000    2.0363    0.4262    0.9874   21.6617    3.4176    4.6310    6.4477    8.0029    8.3335 
