~Version
 VERS              .         3.0                           : CWLS LOG ASCII STANDARD - VERSION 3.0
 WRAP              .         NO                            : ONE LINE PER DEPTH STEP
 DLM               .         SPACE                         : DELIMITING CHARACTER(SPACE TAB OR COMMA)
~Well Information
#_______________________________________________________________________________
#
#PARAMETER_NAME    .UNIT     VALUE                         : DESCRIPTION
#_______________________________________________________________________________
STRT               .м        0.1                           : First reference value
STOP               .м        905                           : Last reference value
STEP               .м        0.1                           : Step increment
NULL               .         -9999                         : Missing value
COMP               .         ICPetroleum                   : Company
WELL               .         304                           : Well name
FLD                .         Karatobe                      : Field
LOC                .                                       : Location
SRVC               .                                       : Service Company
CTRY               .         KZ                            : Country
DATE               .         Нет поля ДАТА_ИССЛЕДОВАНИЯ    : Service Date
LATI               .         0                             : Latitude
LONG               .         0                             : Longitude
GDAT               .         WGS 84                        : Geodetic Datum
CNTY               .         WEST_SIBERIA                  : 
COORDIN            .                                       : Grid System
COUNT              .         KAZAKHSTAN                    : Country
COUNTRY            .         Kazakhstan                    : 
COUNTRY            .         Kazakhstan                    : 
EREF               .m        142.1                         : 
KB                 .         141.8                         : KB Elevation
ORIGINALWELLNAME   .         304                           : 
PROV               .                                       : Province
RWS                .         -999                          : Def_Rw
UWI                .         1_304                         : Unique Well Identifier (UWI)
WST                .         -999                          : Def_Rwt
X                  .km       466783.1                      : 
XCOORD             .                                       : X or East-West Coordinate
Y                  .km       5308023.95                    : 
YCOORD             .                                       : Y or North-South Coordinate
~Parameter Information Block
#_______________________________________________________________________________
#
#PARAMETER_NAME    .UNIT     VALUE                         : DESCRIPTION
#_______________________________________________________________________________
SET                .         Las                           : 
DFL                .см3/мин  -999.250                      : Водоотдача промывочной жидкости
GSDD               .         NPHI                          : NPHI,0,DEPT,,,,,0
TDD                .м        720.0                         : Полная глубина по бурению
TDL                .м        706.0                         : Полная глубина по каротажу
TLFamily_DEPT      .         Measured Depth                : 
TLFamily_PHI_FINAL .         Porosity                      : 
TLFamily_SW_AR     .         Water Saturation              : 
TLFamily_VSH_FINAL .         Shale Volume                  : 
~Curve Information
#_______________________________________________________________________________
#
#LOGNAME           .UNIT     LOG_ID                        : DESCRIPTION
#_______________________________________________________________________________
DEPT               .м                                      : Колонка глубины {F}
PHI_FINAL          .m3/m3                                  : Porosity {F}
SW_AR              .m3/m3                                  :  {F}
VSH_FINAL          .unitless                               : Vshale {F}
~Ascii
# ...
379.8      0.08539067 1          0.8089094 
379.9      0.07979678 1          0.8222514 
380        0.07280914 1          0.8473074 
380.1      0.08954199 1          0.8156177 
380.2      0.07799739 1          0.8455142 
380.3      0.05605709 1          0.9015385 
380.4      0.06775872 1          0.8805363 
380.5      0.06077794 1          0.9106753 
380.6      0.05168568 1          0.9287503 
380.7      0.04672591 1          0.955405  
380.8      0.04722324 1          0.9345546 
380.9      0.02936728 1          0.9677113 
381        0.04215352 1          0.9088767 
381.1      0.06919487 1          0.8297411 
381.2      0.08627352 1          0.8229172 
381.3      0.146995   1          0.7188244 
381.4      0.1994211  1          0.610807  
381.5      0.1992615  1          0.6400833 
381.6      0.1833269  1          0.6873633 
381.7      0.210025   1          0.5971385 
381.8      0.2068006  1          0.5501449 
381.9      0.1963524  1          0.5297919 
382        0.1871971  1          0.5123702 
382.1      0.1871359  1          0.4941563 
382.2      0.1790371  1          0.4784678 
382.3      0.1676669  1          0.4881445 
382.4      0.1442059  1          0.5435922 
382.5      0.1442194  1          0.5603056 
382.6      0.1393582  1          0.5766207 
382.7      0.1244145  1          0.6285131 
382.8      0.1005457  1          0.7015475 
382.9      0.0823303  1          0.7565324 
383        0.08469979 1          0.7723328 
383.1      0.09660845 1          0.7856555 
383.2      0.09558421 1          0.8385521 
383.3      0.1393158  1          0.7493413 
383.4      0.1412229  1          0.7609593 
383.5      0.1653093  1          0.6883147 
383.6      0.1460694  1          0.7274935 
383.7      0.1459993  1          0.7153236 
383.8      0.1572065  1          0.6867335 
383.9      0.1589584  1          0.6720471 
384        0.1727318  1          0.6242155 
384.1      0.1588672  1          0.6554118 
384.2      0.1365435  1          0.6971179 
384.3      0.1344847  1          0.6849217 
384.4      0.1392138  1          0.6961332 
384.5      0.171523   1          0.6210007 
384.6      0.145559   1          0.6609914 
384.7      0.1538458  1          0.6458766 
384.8      0.1317697  1          0.7076436 
384.9      0.161253   1          0.6203637 
385        0.1550291  1          0.6082768 
385.1      0.124657   1          0.6706758 
385.2      0.1161468  1          0.6838674 
385.3      0.1006124  1          0.7035208 
385.4      0.1215288  1          0.6467401 
385.5      0.1265954  1          0.6818113 
385.6      0.1149877  1          0.7267652 
385.7      0.0959976  1          0.7245807 
385.8      0.07969562 1          0.758279  
385.9      0.1024415  1          0.7055476 
386        0.08679739 1          0.7588146 
386.1      0.05760667 1          0.8613839 
386.2      0.08203758 1          0.8284764 
386.3      0.08971574 1          0.8391124 
386.4      0.08641347 1          0.8582145 
386.5      0.1270035  1          0.7477804 
386.6      0.1370825  1          0.6917805 
386.7      0.1301417  1          0.6729292 
386.8      0.1364865  1          0.6364758 
386.9      0.1429162  1          0.5967971 
387        0.1340437  1          0.5971313 
387.1      0.1468331  1          0.5699235 
387.2      0.1275806  1          0.6247146 
387.3      0.1092149  1          0.6772999 
387.4      0.1034421  1          0.6982448 
387.5      0.07820565 1          0.7735212 
387.6      0.07826449 1          0.784062  
387.7      0.06050698 1          0.8082181 
387.8      0.03534407 1          0.8527501 
387.9      0.0260723  1          0.8657631 
388        0.06210522 1          0.7633755 
388.1      0.08045177 1          0.7310777 
388.2      0.09166445 1          0.7325029 
388.3      0.07502129 1          0.7795194 
388.4      0.03977998 1          0.8544949 
388.5      0.01257166 1          0.9499837 
388.6      0.005020695 1          1         
388.7      0.003465915 1          1         
388.8      0.003855357 1          1         
388.9      0.006737983 1          1         
389        0.008138275 1          1         
389.1      0.008495303 1          1         
389.2      0.01636968 1          0.9682384 
389.3      0.04922905 1          0.8981112 
389.4      0.04362797 1          0.9120536 
389.5      0.03854822 1          0.9249119 
389.6      0.01596931 1          1         
389.7      0.01519681 1          1         
389.8      0.009453712 1          1         
389.9      0.009335263 1          1         
390        0.01422042 1          1         
390.1      0.01815809 1          1         
390.2      0.01895852 1          1         
390.3      0.02147559 1          1         
390.4      0.0225143  1          1         
390.5      0.02156229 1          1         
390.6      0.02011025 1          1         
390.7      0.01803784 1          0.9992804 
390.8      0.02227176 1          0.9540845 
390.9      0.01875987 1          0.9674705 
391        0.01927674 1          0.9566888 
391.1      0.01635639 1          0.968438  
391.2      0.02209323 1          0.9235869 
391.3      0.02692658 1          0.8994651 
391.4      0.04643471 1          0.8282275 
391.5      0.02176841 1          0.9381676 
391.6      0.0352788  1          0.8451183 
391.7      0.03064551 1          0.8824533 
391.8      0.02292636 1          0.9231958 
391.9      0.01248226 1          1         
392        0.01276648 1          1         
392.1      0.01384395 1          1         
392.2      0.01410896 1          1         
392.3      0.01537948 1          1         
392.4      0.01525609 1          1         
392.5      0.0177315  1          1         
392.6      0.01689802 1          1         
392.7      0.01156878 1          1         
392.8      0.009379931 1          1         
392.9      0.01173653 1          1         
393        0.007440226 1          1         
393.1      0.008444352 1          1         
393.2      0.009558165 1          1         
393.3      0.01152062 1          1         
393.4      0.02122133 1          0.9329201 
393.5      0.01604686 1          0.9912615 
393.6      0.02542406 1          0.9280842 
393.7      0.0286493  1          0.9098437 
393.8      0.02099121 1          0.934799  
393.9      0.0235306  1          0.9161234 
394        0.02181899 1          0.9431784 
394.1      0.01070942 1          1         
394.2      0.01054277 1          1         
394.3      0.04829825 1          0.8694867 
394.4      0.06628035 1          0.8390995 
394.5      0.03037494 1          1         
394.6      0.03429518 1          0.9946391 
394.7      0.03192778 1          0.986982  
394.8      0.03006855 1          0.9888271 
394.9      0.0289459  1          0.996802  
395        0.04478602 1          0.9240824 
395.1      0.05800911 1          0.9006318 
395.2      0.06444007 1          0.8896465 
395.3      0.0949415  1          0.8330945 
395.4      0.1043866  1          0.7817487 
395.5      0.05741538 1          0.8860902 
395.6      0.03915003 1          0.932317  
395.7      0.0297533  1          0.9607657 
395.8      0.02979194 1          0.9342181 
395.9      0.01366482 1          0.9726742 
396        0.01969181 1          0.961875  
396.1      0.02582957 1          0.9222012 
396.2      0.02086624 1          0.9503578 
396.3      0.02082034 1          0.9709441 
396.4      0.04486975 1          0.8972428 
396.5      0.03530255 1          0.9384732 
396.6      0.0188649  1          1         
396.7      0.02522718 1          0.9429715 
396.8      0.04869829 1          0.8439277 
396.9      0.06906453 1          0.7928545 
397        0.06279504 1          0.7899539 
397.1      0.079177   1          0.7579013 
397.2      0.041029   1          0.8745342 
397.3      0.08200663 1          0.7769585 
397.4      0.08094008 1          0.7960281 
397.5      0.06331128 1          0.8469627 
397.6      0.109344   1          0.7404407 
397.7      0.09247229 1          0.7616256 
397.8      0.0929928  1          0.7569749 
397.9      0.0880454  1          0.7581684 
