~Version
 VERS              .         3.0                           : CWLS LOG ASCII STANDARD - VERSION 3.0
 WRAP              .         NO                            : ONE LINE PER DEPTH STEP
 DLM               .         SPACE                         : DELIMITING CHARACTER(SPACE TAB OR COMMA)
~Well Information
#_______________________________________________________________________________
#
#PARAMETER_NAME    .UNIT     VALUE                         : DESCRIPTION
#_______________________________________________________________________________
STRT               .м        0.1                           : First reference value
STOP               .м        905                           : Last reference value
STEP               .м        0.1                           : Step increment
NULL               .         -9999                         : Missing value
COMP               .         ICPetroleum                   : Company
WELL               .         304                           : Well name
FLD                .         Karatobe                      : Field
LOC                .                                       : Location
SRVC               .                                       : Service Company
CTRY               .         KZ                            : Country
DATE               .         Нет поля ДАТА_ИССЛЕДОВАНИЯ    : Service Date
LATI               .         0                             : Latitude
LONG               .         0                             : Longitude
GDAT               .         WGS 84                        : Geodetic Datum
CNTY               .         WEST_SIBERIA                  : 
COORDIN            .                                       : Grid System
COUNT              .         KAZAKHSTAN                    : Country
COUNTRY            .         Kazakhstan                    : 
COUNTRY            .         Kazakhstan                    : 
EREF               .m        142.1                         : 
KB                 .         141.8                         : KB Elevation
ORIGINALWELLNAME   .         304                           : 
PROV               .                                       : Province
RWS                .         -999                          : Def_Rw
UWI                .         1_304                         : Unique Well Identifier (UWI)
WST                .         -999                          : Def_Rwt
X                  .km       466783.1                      : 
XCOORD             .                                       : X or East-West Coordinate
Y                  .km       5308023.95                    : 
YCOORD             .                                       : Y or North-South Coordinate
~Parameter Information Block
#_______________________________________________________________________________
#
#PARAMETER_NAME    .UNIT     VALUE                         : DESCRIPTION
#_______________________________________________________________________________
SET                .         Las                           : 
DFL                .см3/мин  -999.250                      : Водоотдача промывочной жидкости
GSDD               .         NPHI                          : NPHI,0,DEPT,,,,,0
TDD                .м        720.0                         : Полная глубина по бурению
TDL                .м        706.0                         : Полная глубина по каротажу
TLFamily_DEPT      .         Measured Depth                : 
TLFamily_PHI_FINAL .         Porosity                      : 
TLFamily_SW_AR     .         Water Saturation              : 
TLFamily_VSH_FINAL .         Shale Volume                  : 
~Curve Information
#_______________________________________________________________________________
#
#LOGNAME           .UNIT     LOG_ID                        : DESCRIPTION
#_______________________________________________________________________________
DEPT               .м                                      : Колонка глубины {F}
PHI_FINAL          .m3/m3                                  : Porosity {F}
SW_AR              .m3/m3                                  :  {F}
VSH_FINAL          .unitless                               : Vshale {F}
~Ascii
# ...
561.8      0.239539   1          0.5077016 
561.9      0.2931191  1          0.4332828 
562        0.3228337  0.9528899  0.4097477 
562.1      0.3426888  0.8319988  0.3666662 
562.2      0.3419976  0.8127058  0.3123811 
562.3      0.3214384  0.8668847  0.2553122 
562.4      0.2915387  0.9743057  0.2431248 
562.5      0.2501224  1          0.2674658 
562.6      0.2095465  1          0.3490551 
562.7      0.1515263  1          0.4979287 
562.8      0.07431599 1          0.6788143 
562.9      0.0500655  1          0.730986  
563        0.03419356 1          0.7730181 
563.1      0.04946818 1          0.7263854 
563.2      0.03139419 1          0.7761786 
563.3      0.02846829 1          0.7792289 
563.4      0.01872152 1          0.8585885 
563.5      0.02137596 1          0.838116  
563.6      0.02618249 1          0.8263042 
563.7      0.02522375 1          0.8287528 
563.8      0.02504538 1          0.8208989 
563.9      0.03870216 1          0.7589328 
564        0.05619674 1          0.7171648 
564.1      0.04718332 1          0.7270945 
564.2      0.0231303  1          0.7896676 
564.3      0.0118216  1          0.8256317 
564.4      0.0003018608 1          0.9253636 
564.5      0          1          0.8469841 
564.6      0          1          0.77131   
564.7      0          1          0.6594052 
564.8      0.002379182 1          0.5116155 
564.9      0.01703647 1          0.423601  
565        0.04028498 1          0.354904  
565.1      0.06542607 1          0.3593476 
565.2      0.1004355  1          0.3809908 
565.3      0.151364   1          0.3550187 
565.4      0.1846742  1          0.3463765 
565.5      0.1980456  1          0.357542  
565.6      0.2045729  1          0.3598736 
565.7      0.203168   1          0.3724183 
565.8      0.1988167  1          0.3944215 
565.9      0.2013248  1          0.3918092 
566        0.2049888  1          0.3902825 
566.1      0.2121117  1          0.3706852 
566.2      0.2145644  1          0.3807663 
566.3      0.2144577  1          0.3632049 
566.4      0.215686   1          0.36215   
566.5      0.2101467  1          0.3819345 
566.6      0.2148152  1          0.3850539 
566.7      0.2183918  1          0.3897968 
566.8      0.2219466  1          0.3916233 
566.9      0.2268012  1          0.3946716 
567        0.2291427  1          0.3916566 
567.1      0.2363873  1          0.3733034 
567.2      0.2338097  1          0.3654496 
567.3      0.2322419  1          0.3568599 
567.4      0.2158498  1          0.3905162 
567.5      0.2089516  1          0.3989789 
567.6      0.2129724  1          0.4070371 
567.7      0.2303318  1          0.4141028 
567.8      0.2415799  1          0.4547046 
567.9      0.2404466  1          0.4996044 
568        0.2544044  1          0.4829732 
568.1      0.2206704  1          0.5562521 
568.2      0.1828742  1          0.6111828 
568.3      0.1567625  1          0.6211734 
568.4      0.1089706  1          0.6698725 
568.5      0.09098645 1          0.667222  
568.6      0.06475402 1          0.7029368 
568.7      0.03461351 1          0.7601295 
568.8      0.01777022 1          0.8374657 
568.9      0.01789973 1          0.8311095 
569        0.01532559 1          0.856908  
569.1      0.007589713 1          0.9100079 
569.2      0.00242567 1          0.9786251 
569.3      0.004302952 1          0.9413357 
569.4      0.00538201 1          0.9185721 
569.5      0.004800066 1          0.9511979 
569.6      0.004105482 1          0.956017  
569.7      0.003863985 1          0.9742122 
569.8      0.003363635 1          1         
569.9      0.002984855 1          1         
570        0.00374243 1          1         
570.1      0.003590907 1          1         
570.2      0.003893933 1          1         
570.3      0.004442466 1          0.9750209 
570.4      0.01231227 1          0.9204492 
570.5      0.03510951 1          0.8003389 
570.6      0.05852909 1          0.7503093 
570.7      0.07729927 1          0.6978107 
570.8      0.1118158  1          0.6169077 
570.9      0.1229668  1          0.5784031 
571        0.1443007  1          0.5222293 
571.1      0.1703312  1          0.4705198 
571.2      0.183687   1          0.4443801 
571.3      0.1739972  1          0.4769905 
571.4      0.1843401  1          0.462576  
571.5      0.191096   1          0.4477848 
571.6      0.2276214  1          0.349542  
571.7      0.2407328  1          0.3158578 
571.8      0.2403043  1          0.3063695 
571.9      0.237741   1          0.3073227 
572        0.2381088  1          0.307176  
572.1      0.2136489  1          0.3521389 
572.2      0.2105195  1          0.3592714 
572.3      0.1748918  1          0.459407  
572.4      0.1670796  1          0.4756452 
572.5      0.1499723  1          0.532657  
572.6      0.1325863  1          0.592615  
572.7      0.1098528  1          0.6556911 
572.8      0.1039186  1          0.6671357 
572.9      0.09291254 1          0.7065258 
573        0.1035958  1          0.6872912 
573.1      0.1106176  1          0.6826413 
573.2      0.0730777  1          0.7746338 
573.3      0.09664386 1          0.7314018 
573.4      0.119643   1          0.6831941 
573.5      0.1412309  1          0.6520009 
573.6      0.1476695  1          0.667179  
573.7      0.1877062  1          0.6166456 
573.8      0.2343018  1          0.5439281 
573.9      0.2471973  1          0.5126837 
574        0.2372508  1          0.521403  
574.1      0.2099973  1          0.5467059 
574.2      0.179215   1          0.5528672 
574.3      0.1406139  1          0.5847279 
574.4      0.1073058  1          0.6085696 
574.5      0.07910378 1          0.6557986 
574.6      0.07781972 1          0.6563252 
574.7      0.05126895 1          0.7293651 
574.8      0.03123727 1          0.8011047 
574.9      0.04315557 1          0.7651333 
575        0.03853991 1          0.7806772 
575.1      0.06633747 1          0.716664  
575.2      0.05691747 1          0.7366109 
575.3      0.04122399 1          0.7800661 
575.4      0.04884199 1          0.7664464 
575.5      0.02838576 1          0.8336512 
575.6      0.03646144 1          0.796369  
575.7      0.06869426 1          0.7055048 
575.8      0.08770918 1          0.6481193 
575.9      0.07490851 1          0.6873068 
576        0.08270206 1          0.6662526 
576.1      0.08880259 1          0.6604823 
576.2      0.1020326  1          0.6587122 
576.3      0.08074922 1          0.7218871 
576.4      0.08941349 1          0.7311131 
576.5      0.0834911  1          0.7539892 
576.6      0.02310472 1          0.9297181 
576.7      0.007661182 1          1         
576.8      0.006282213 1          0.987995  
576.9      0.003580558 1          1         
577        0.00750787 1          0.9538816 
577.1      0.01311827 1          0.9210138 
577.2      0.01942701 1          0.8780475 
577.3      0.01761781 1          0.9119994 
577.4      0.01418168 1          0.9419459 
577.5      0.01723368 1          0.9187163 
577.6      0.01222132 1          0.9696637 
577.7      0.01350047 1          0.9665469 
577.8      0.01045805 1          1         
577.9      0.0171023  1          0.9371434 
578        0.02076601 1          0.8948802 
578.1      0.01660952 1          0.9082919 
578.2      0.01602045 1          0.9114907 
578.3      0.009746276 1          0.9694169 
578.4      0.01511583 1          0.9137091 
578.5      0.02514259 1          0.8296593 
578.6      0.04188924 1          0.7628632 
578.7      0.03236758 1          0.7927269 
578.8      0.02110334 1          0.8526207 
578.9      0.01812953 1          0.8840117 
579        0.02241956 1          0.8494606 
579.1      0.04789683 1          0.7530605 
579.2      0.02926152 1          0.8226073 
579.3      0.02625873 1          0.8247675 
579.4      0.01122325 1          0.9262827 
579.5      0.01125955 1          0.9318138 
579.6      0.02136332 1          0.8575789 
579.7      0.02211765 1          0.8553304 
579.8      0.03233436 1          0.8147365 
579.9      0.02669515 1          0.8388687 
