~Version
 VERS              .         3.0                           : CWLS LOG ASCII STANDARD - VERSION 3.0
 WRAP              .         NO                            : ONE LINE PER DEPTH STEP
 DLM               .         SPACE                         : DELIMITING CHARACTER(SPACE TAB OR COMMA)
~Well Information
#_______________________________________________________________________________
#
#PARAMETER_NAME    .UNIT     VALUE                         : DESCRIPTION
#_______________________________________________________________________________
STRT               .м        0.1                           : First reference value
STOP               .м        905                           : Last reference value
STEP               .м        0.1                           : Step increment
NULL               .         -9999                         : Missing value
COMP               .         ICPetroleum                   : Company
WELL               .         304                           : Well name
FLD                .         Karatobe                      : Field
LOC                .                                       : Location
SRVC               .                                       : Service Company
CTRY               .         KZ                            : Country
DATE               .         Нет поля ДАТА_ИССЛЕДОВАНИЯ    : Service Date
LATI               .         0                             : Latitude
LONG               .         0                             : Longitude
GDAT               .         WGS 84                        : Geodetic Datum
CNTY               .         WEST_SIBERIA                  : 
COORDIN            .                                       : Grid System
COUNT              .         KAZAKHSTAN                    : Country
COUNTRY            .         Kazakhstan                    : 
COUNTRY            .         Kazakhstan                    : 
EREF               .m        142.1                         : 
KB                 .         141.8                         : KB Elevation
ORIGINALWELLNAME   .         304                           : 
PROV               .                                       : Province
RWS                .         -999                          : Def_Rw
UWI                .         1_304                         : Unique Well Identifier (UWI)
WST                .         -999                          : Def_Rwt
X                  .km       466783.1                      : 
XCOORD             .                                       : X or East-West Coordinate
Y                  .km       5308023.95                    : 
YCOORD             .                                       : Y or North-South Coordinate
~Parameter Information Block
#_______________________________________________________________________________
#
#PARAMETER_NAME    .UNIT     VALUE                         : DESCRIPTION
#_______________________________________________________________________________
SET                .         Las                           : 
DFL                .см3/мин  -999.250                      : Водоотдача промывочной жидкости
GSDD               .         NPHI                          : NPHI,0,DEPT,,,,,0
TDD                .м        720.0                         : Полная глубина по бурению
TDL                .м        706.0                         : Полная глубина по каротажу
TLFamily_DEPT      .         Measured Depth                : 
TLFamily_PHI_FINAL .         Porosity                      : 
TLFamily_SW_AR     .         Water Saturation              : 
TLFamily_VSH_FINAL .         Shale Volume                  : 
~Curve Information
#_______________________________________________________________________________
#
#LOGNAME           .UNIT     LOG_ID                        : DESCRIPTION
#_______________________________________________________________________________
DEPT               .м                                      : Колонка глубины {F}
PHI_FINAL          .m3/m3                                  : Porosity {F}
SW_AR              .m3/m3                                  :  {F}
VSH_FINAL          .unitless                               : Vshale {F}
~Ascii
# ...
707.4      0.1410041  1          0.351547  
707.5      0.1413421  1          0.3358722 
707.6      0.1494695  1          0.3271638 
707.7      0.1554848  1          0.3216543 
707.8      0.1651942  1          0.3106753 
707.9      0.1734849  1          0.3005566 
708        0.1706163  1          0.3045264 
708.1      0.1637211  1          0.3055958 
708.2      0.152961   1          0.3181723 
708.3      0.1413576  1          0.3154001 
708.4      0.12705    1          0.3219536 
708.5      0.1160038  1          0.3365861 
708.6      0.1144711  1          0.3398593 
708.7      0.1112321  1          0.3490478 
708.8      0.1246073  1          0.3240527 
708.9      0.1161123  1          0.3407829 
709        0.1253781  1          0.3161909 
709.1      0.1133067  1          0.3228524 
709.2      0.09770741 1          0.3177755 
709.3      0.06356417 1          0.3369944 
709.4      0.03803042 1          0.3522778 
709.5      0.04072838 1          0.3544745 
709.6      0.06876136 1          0.355733  
709.7      0.1095417  1          0.3545793 
709.8      0.1371881  1          0.3455228 
709.9      0.1454223  1          0.333532  
710        0.1532678  1          0.3379139 
710.1      0.1416818  1          0.3541602 
710.2      0.1408797  1          0.3497758 
710.3      0.134784   1          0.3488399 
710.4      0.1260053  1          0.3663107 
710.5      0.1310863  1          0.3600503 
710.6      0.1374608  1          0.3532184 
710.7      0.1273863  1          0.3778095 
710.8      0.1258891  1          0.372843  
710.9      0.1351256  1          0.3432517 
711        0.1304567  1          0.3466612 
711.1      0.1211856  1          0.3534276 
711.2      0.1174827  1          0.33863   
711.3      0.08867808 1          0.3443863 
711.4      0.06535679 1          0.3538462 
711.5      0.06776132 1          0.3319088 
711.6      0.06753229 1          0.3319088 
711.7      0.08631507 1          0.3102831 
711.8      0.1186908  1          0.2882273 
711.9      0.129419   1          0.2865262 
712        0.1437677  1          0.2930725 
712.1      0.1492172  1          0.3131317 
712.2      0.1545865  1          0.3159931 
712.3      0.1482939  1          0.3520689 
712.4      0.1411067  1          0.346247  
712.5      0.1425218  1          0.321754  
712.6      0.1453783  1          0.3048179 
712.7      0.1329125  1          0.3045264 
712.8      0.1196861  1          0.3036529 
712.9      0.1092202  1          0.3099891 
713        0.1097601  1          0.2995921 
713.1      0.09816939 1          0.3134272 
713.2      0.1048749  1          0.2931679 
713.3      0.1008863  1          0.311755  
713.4      0.1235202  1          0.3080328 
713.5      0.1407738  1          0.3175772 
713.6      0.1549835  1          0.3388348 
713.7      0.1615099  1          0.3405775 
713.8      0.1616262  1          0.3626961 
713.9      0.1659055  1          0.3658845 
714        0.1755448  1          0.3508171 
714.1      0.1770831  1          0.3464541 
714.2      0.1582186  1          0.3806323 
714.3      0.1730007  1          0.3500881 
714.4      0.1812133  1          0.3246538 
714.5      0.1706354  1          0.3168837 
714.6      0.1654848  1          0.3057904 
714.7      0.1548598  1          0.314117  
714.8      0.1498596  1          0.3151038 
714.9      0.1510443  1          0.3212554 
715        0.1500599  1          0.3374029 
715.1      0.1591347  1          0.324253  
715.2      0.161254   1          0.3244533 
715.3      0.128997   1          0.3281705 
715.4      0.0873504  1          0.3442831 
715.5      0.08090542 1          0.3330244 
715.6      0.075992   1          0.3488399 
715.7      0.06576887 1          0.3536369 
715.8      0.05537209 1          0.3709091 
715.9      0.0508744  1          0.3630143 
716        0.08586871 1          0.330593  
716.1      0.09578763 1          0.3132302 
716.2      0.1034964  1          0.3300876 
716.3      0.1214973  1          0.3135256 
716.4      0.1303747  1          0.3069594 
716.5      0.1465303  1          0.2909778 
716.6      0.1276782  1          0.3187679 
716.7      0.08910325 1          0.3397568 
716.8      0.05350112 1          0.369837  
716.9      0.04743141 1          0.371768  
717        0.0583114  1          0.374243  
717.1      0.0821675  1          0.3676977 
717.2      0.1018935  1          0.3612132 
717.3      0.09487429 1          0.3731658 
717.4      0.08441429 1          0.3780262 
717.5      0.06656113 1          0.399256  
717.6      0.05276634 1          0.411753  
717.7      0.05962577 1          0.3995909 
717.8      0.06656803 1          0.4031736 
717.9      0.06933793 1          0.3917044 
718        0.07270434 1          0.3637573 
718.1      0.07151851 1          0.3665239 
718.2      0.07666579 1          0.3655649 
718.3      0.06888475 1          0.3910418 
718.4      0.08220196 1          0.3757539 
718.5      0.0753902  1          0.3997026 
718.6      0.06210873 1          0.4062101 
718.7      0.06045157 1          0.3981405 
718.8      0.06869903 1          0.3972494 
718.9      0.05410653 1          0.4076765 
719        0.0503424  1          0.4002613 
719.1      0.03997758 1          0.4307263 
719.2      0.05343105 1          0.3981405 
719.3      0.06458986 1          0.4038472 
719.4      0.0556356  1          0.4145969 
719.5      0.03361784 1          0.4261984 
719.6      0.05233903 1          0.4081284 
719.7      0.05946499 1          0.3940281 
719.8      0.05612122 1          0.3971381 
719.9      0.06905195 1          0.3811763 
720        0.07872134 1          0.3684457 
720.1      0.08464461 1          0.3445928 
720.2      0.1025966  1          0.3436641 
720.3      0.0898735  1          0.3221533 
720.4      0.08377381 1          0.3319088 
720.5      0.0940887  1          0.3501922 
720.6      0.08816583 1          0.3579409 
720.7      0.1058633  1          0.3365861 
720.8      0.1220744  1          0.3107734 
720.9      0.1451662  1          0.289933  
721        0.1497386  1          0.3177755 
721.1      0.1430406  1          0.3246538 
721.2      0.1383767  1          0.324253  
721.3      0.1304628  1          0.3237524 
721.4      0.1307624  1          0.2855831 
721.5      0.1393342  1          0.2822939 
721.6      0.1479692  1          0.2860545 
721.7      0.1631652  1          0.2960363 
721.8      0.1775917  1          0.2957489 
721.9      0.1628238  1          0.3214548 
722        0.1543641  1          0.3339384 
722.1      0.1623074  1          0.3405775 
722.2      0.1648066  1          0.3607901 
722.3      0.1772768  1          0.3553133 
722.4      0.1873238  1          0.3632265 
722.5      0.1956192  1          0.3432517 
722.6      0.1975694  1          0.3340401 
722.7      0.1829124  1          0.3458331 
722.8      0.1611223  1          0.3629082 
722.9      0.1436244  1          0.3701584 
723        0.1137991  1          0.4248106 
723.1      0.1107984  1          0.4216973 
723.2      0.1044732  1          0.4214672 
723.3      0.09371424 1          0.4004849 
723.4      0.06778196 1          0.4045216 
723.5      0.05032836 1          0.4092591 
723.6      0.03868372 1          0.4281687 
723.7      0.02904657 1          0.4641624 
723.8      0.05055652 1          0.4489917 
723.9      0.07921302 1          0.4181388 
724        0.1016341  1          0.3866404 
724.1      0.1257581  1          0.3449027 
724.2      0.136653   1          0.3266611 
724.3      0.1347442  1          0.3227525 
724.4      0.1256451  1          0.3211557 
724.5      0.1272293  1          0.3249544 
724.6      0.1271492  1          0.3227525 
724.7      0.1224297  1          0.3299865 
724.8      0.1306815  1          0.3215545 
724.9      0.1145804  1          0.3591003 
725        0.1237572  1          0.3404749 
725.1      0.1303041  1          0.3265605 
725.2      0.1257316  1          0.3345485 
725.3      0.1199685  1          0.331605  
725.4      0.1028957  1          0.3394493 
725.5      0.09624316 1          0.3317062 
