~Version
 VERS              .         3.0                           : CWLS LOG ASCII STANDARD - VERSION 3.0
 WRAP              .         NO                            : ONE LINE PER DEPTH STEP
 DLM               .         SPACE                         : DELIMITING CHARACTER(SPACE TAB OR COMMA)
~Well Information
#_______________________________________________________________________________
#
#PARAMETER_NAME    .UNIT     VALUE                         : DESCRIPTION
#_______________________________________________________________________________
STRT               .м        0.1                           : First reference value
STOP               .м        905                           : Last reference value
STEP               .м        0.1                           : Step increment
NULL               .         -9999                         : Missing value
COMP               .         ICPetroleum                   : Company
WELL               .         304                           : Well name
FLD                .         Karatobe                      : Field
LOC                .                                       : Location
SRVC               .                                       : Service Company
CTRY               .         KZ                            : Country
DATE               .         Нет поля ДАТА_ИССЛЕДОВАНИЯ    : Service Date
LATI               .         0                             : Latitude
LONG               .         0                             : Longitude
GDAT               .         WGS 84                        : Geodetic Datum
CNTY               .         WEST_SIBERIA                  : 
COORDIN            .                                       : Grid System
COUNT              .         KAZAKHSTAN                    : Country
COUNTRY            .         Kazakhstan                    : 
COUNTRY            .         Kazakhstan                    : 
EREF               .m        142.1                         : 
KB                 .         141.8                         : KB Elevation
ORIGINALWELLNAME   .         304                           : 
PROV               .                                       : Province
RWS                .         -999                          : Def_Rw
UWI                .         1_304                         : Unique Well Identifier (UWI)
WST                .         -999                          : Def_Rwt
X                  .km       466783.1                      : 
XCOORD             .                                       : X or East-West Coordinate
Y                  .km       5308023.95                    : 
YCOORD             .                                       : Y or North-South Coordinate
~Parameter Information Block
#_______________________________________________________________________________
#
#PARAMETER_NAME    .UNIT     VALUE                         : DESCRIPTION
#_______________________________________________________________________________
SET                .         Las                           : 
DFL                .см3/мин  -999.250                      : Водоотдача промывочной жидкости
GSDD               .         NPHI                          : NPHI,0,DEPT,,,,,0
TDD                .м        720.0                         : Полная глубина по бурению
TDL                .м        706.0                         : Полная глубина по каротажу
TLFamily_DEPT      .         Measured Depth                : 
TLFamily_PHI_FINAL .         Porosity                      : 
TLFamily_SW_AR     .         Water Saturation              : 
TLFamily_VSH_FINAL .         Shale Volume                  : 
~Curve Information
#_______________________________________________________________________________
#
#LOGNAME           .UNIT     LOG_ID                        : DESCRIPTION
#_______________________________________________________________________________
DEPT               .м                                      : Колонка глубины {F}
PHI_FINAL          .m3/m3                                  : Porosity {F}
SW_AR              .m3/m3                                  :  {F}
VSH_FINAL          .unitless                               : Vshale {F}
~Ascii
# ...
853        0.09793691 1          0.278929  
853.1      0.1138287  1          0.2779045 
853.2      0.1298849  1          0.2742862 
853.3      0.1135764  1          0.2937405 
853.4      0.1060778  1          0.2896485 
853.5      0.1101145  1          0.2862431 
853.6      0.1034792  1          0.2835135 
853.7      0.09313116 1          0.3157954 
853.8      0.09417527 1          0.3172799 
853.9      0.09326725 1          0.3130333 
854        0.05986951 1          0.3480091 
854.1      0.07930696 1          0.3325171 
854.2      0.06217241 1          0.3584677 
854.3      0.04863344 1          0.3502963 
854.4      0.03786582 1          0.3705873 
854.5      0.03947978 1          0.348736  
854.6      0.04282262 1          0.3388348 
854.7      0.05605583 1          0.3237524 
854.8      0.06094116 1          0.3161909 
854.9      0.06579961 1          0.2968034 
855        0.05978145 1          0.2810766 
855.1      0.0544196  1          0.2862431 
855.2      0.07146713 1          0.2911679 
855.3      0.07893633 1          0.2858659 
855.4      0.08257015 1          0.2839833 
855.5      0.06656022 1          0.3120497 
855.6      0.07523157 1          0.3211557 
855.7      0.07194304 1          0.3166856 
855.8      0.06262715 1          0.315005  
855.9      0.06921638 1          0.2990141 
856        0.05536278 1          0.3077399 
856.1      0.04710978 1          0.3007496 
856.2      0.05406169 1          0.2727156 
856.3      0.06772783 1          0.2648332 
856.4      0.0772042  1          0.2816381 
856.5      0.07213509 1          0.2729925 
856.6      0.0822968  1          0.2397021 
856.7      0.06655347 1          0.2594852 
856.8      0.05024326 1          0.2686698 
856.9      0.06419039 1          0.24364   
857        0.06326522 1          0.2319933 
857.1      0.06999699 1          0.2236255 
857.2      0.0666796  1          0.2095696 
857.3      0.06833602 1          0.2027576 
857.4      0.06868414 1          0.2128836 
857.5      0.06241962 1          0.2205831 
857.6      0.07167214 1          0.2126343 
857.7      0.06364536 1          0.2371787 
857.8      0.06207684 1          0.2303612 
857.9      0.05685674 1          0.2307902 
858        0.04390732 1          0.2357047 
858.1      0.03877719 1          0.2493762 
858.2      0.04043587 1          0.2493762 
858.3      0.04154202 1          0.2460158 
858.4      0.07712418 1          0.2204145 
858.5      0.07382838 1          0.2029207 
858.6      0.06333718 1          0.2181443 
858.7      0.07596193 1          0.2183961 
858.8      0.0914064  1          0.2163015 
858.9      0.09013017 1          0.2296754 
859        0.09334398 1          0.2410992 
859.1      0.09313085 1          0.2363979 
859.2      0.1045441  1          0.2308761 
859.3      0.09734022 1          0.2512417 
859.4      0.1073254  1          0.2368315 
859.5      0.1097253  1          0.2421492 
859.6      0.09753906 1          0.2485786 
859.7      0.09614754 1          0.2544536 
859.8      0.105366   1          0.2585835 
859.9      0.1276628  1          0.2672053 
860        0.1290576  1          0.2654709 
860.1      0.1254485  1          0.2836075 
860.2      0.1270837  1          0.2947918 
860.3      0.1255227  1          0.3035559 
860.4      0.1225835  1          0.3152025 
860.5      0.1391571  1          0.3045264 
860.6      0.1776085  0.9713109  0.3146102 
860.7      0.1924331  0.8819006  0.317379  
860.8      0.1814435  0.9571436  0.3130333 
860.9      0.1573895  1          0.3231523 
861        0.1008874  1          0.3130333 
861.1      0.08654742 1          0.3223529 
861.2      0.059929   1          0.3052067 
861.3      0.05789042 1          0.2869038 
861.4      0.06000164 1          0.2583132 
861.5      0.05033185 1          0.2579532 
861.6      0.06360433 1          0.2415365 
861.7      0.07407156 1          0.2296754 
861.8      0.07909659 1          0.227367  
861.9      0.09136096 1          0.1943433 
862        0.08901632 1          0.1933009 
862.1      0.05994622 1          0.1909831 
862.2      0.05870002 1          0.2043912 
862.3      0.05519221 1          0.1951466 
862.4      0.02303742 1          0.204473  
862.5      0.0158469  1          0.2029207 
862.6      0.04120718 1          0.1986956 
862.7      0.05958658 1          0.1822056 
862.8      0.05773479 1          0.170502  
862.9      0.061263   1          0.1756616 
863        0.06769536 1          0.1888342 
863.1      0.07701746 1          0.1713455 
863.2      0.07286333 1          0.1857461 
863.3      0.07830154 1          0.1803273 
863.4      0.06277    1          0.1913819 
863.5      0.05689895 1          0.1993434 
863.6      0.07181732 1          0.1992624 
863.7      0.06282049 1          0.1987765 
863.8      0.04135134 1          0.1822056 
863.9      0.02057141 1          0.1988575 
864        0.01602667 1          0.2043094 
864.1      0.01736059 1          0.1982102 
864.2      0.002017392 1          0.1919409 
864.3      0.006336547 1          0.1897881 
864.4      0.00209925 1          0.1916214 
864.5      0.001166091 1          0.1901065 
864.6      0.003234988 1          0.184642  
864.7      0.01463292 1          0.1639563 
864.8      0.01360181 1          0.1725749 
864.9      0.01887474 1          0.1723442 
865        0.02801296 1          0.1663819 
865.1      0.03373036 1          0.1658503 
865.2      0.02982604 1          0.1782224 
865.3      0.02643284 1          0.1815004 
865.4      0.02183375 1          0.1788452 
865.5      0.01852096 1          0.170502  
865.6      0.009420761 1          0.1742703 
865.7      0.006630784 1          0.1725749 
865.8      0.009368266 1          0.1706553 
865.9      0.009982469 1          0.1834616 
866        0.02763619 1          0.1694306 
866.1      0.0425313  1          0.1674468 
866.2      0.0557837  1          0.185904  
866.3      0.08441579 1          0.1950662 
866.4      0.1328465  1          0.1860619 
866.5      0.148076   1          0.2066044 
866.6      0.1567955  1          0.2291616 
866.7      0.1580982  1          0.2463686 
866.8      0.1477032  1          0.2685782 
866.9      0.1191497  1          0.3050123 
867        0.1057231  1          0.3246538 
867.1      0.1187796  1          0.3130333 
867.2      0.1198001  1          0.3161909 
867.3      0.1287175  1          0.3136242 
867.4      0.1311026  1          0.319364  
867.5      0.1262031  1          0.3213551 
867.6      0.1173459  1          0.3188672 
867.7      0.079924   1          0.3229524 
867.8      0.05071094 1          0.3259577 
867.9      0.08238949 1          0.3133287 
868        0.07011714 1          0.3373008 
868.1      0.0542185  1          0.2968034 
868.2      0.08171911 1          0.2661093 
868.3      0.09442762 1          0.2468983 
868.4      0.05842337 1          0.2495536 
868.5      0.05728722 1          0.2494649 
868.6      0.07802188 1          0.2252381 
868.7      0.06368165 1          0.2257483 
868.8      0.06046738 1          0.221089  
868.9      0.0760665  1          0.2147149 
869        0.08304948 1          0.2331128 
869.1      0.07153149 1          0.2369183 
869.2      0.09004273 1          0.2314774 
869.3      0.09332765 1          0.2404876 
869.4      0.08872935 1          0.2557971 
869.5      0.09313864 1          0.2780906 
869.6      0.07813043 1          0.2991104 
869.7      0.07368163 1          0.3013292 
869.8      0.05288438 1          0.3125414 
869.9      0.0608559  1          0.3161909 
870        0.05131339 1          0.3100871 
870.1      0.03600632 1          0.314117  
870.2      0.03897645 1          0.3019094 
870.3      0.03800127 1          0.2995921 
870.4      0.04458078 1          0.2597559 
870.5      0.03845562 1          0.2360512 
870.6      0.04830933 1          0.2145482 
870.7      0.05476096 1          0.220246  
870.8      0.04543202 1          0.2284773 
870.9      0.04821184 1          0.2293328 
871        0.04766133 1          0.2314774 
871.1      0.04681408 1          0.213632  
