~Version
 VERS              .         3.0                           : CWLS LOG ASCII STANDARD - VERSION 3.0
 WRAP              .         NO                            : ONE LINE PER DEPTH STEP
 DLM               .         SPACE                         : DELIMITING CHARACTER(SPACE TAB OR COMMA)
~Well Information
#_______________________________________________________________________________
#
#PARAMETER_NAME    .UNIT     VALUE                         : DESCRIPTION
#_______________________________________________________________________________
STRT               .м        0.1                           : First reference value
STOP               .м        905                           : Last reference value
STEP               .м        0.1                           : Step increment
NULL               .         -9999                         : Missing value
COMP               .         ICPetroleum                   : Company
WELL               .         304                           : Well name
FLD                .         Karatobe                      : Field
LOC                .                                       : Location
SRVC               .                                       : Service Company
CTRY               .         KZ                            : Country
DATE               .         Нет поля ДАТА_ИССЛЕДОВАНИЯ    : Service Date
LATI               .         0                             : Latitude
LONG               .         0                             : Longitude
GDAT               .         WGS 84                        : Geodetic Datum
CNTY               .         WEST_SIBERIA                  : 
COORDIN            .                                       : Grid System
COUNT              .         KAZAKHSTAN                    : Country
COUNTRY            .         Kazakhstan                    : 
COUNTRY            .         Kazakhstan                    : 
EREF               .m        142.1                         : 
KB                 .         141.8                         : KB Elevation
ORIGINALWELLNAME   .         304                           : 
PROV               .                                       : Province
RWS                .         -999                          : Def_Rw
UWI                .         1_304                         : Unique Well Identifier (UWI)
WST                .         -999                          : Def_Rwt
X                  .km       466783.1                      : 
XCOORD             .                                       : X or East-West Coordinate
Y                  .km       5308023.95                    : 
YCOORD             .                                       : Y or North-South Coordinate
~Parameter Information Block
#_______________________________________________________________________________
#
#PARAMETER_NAME    .UNIT     VALUE                         : DESCRIPTION
#_______________________________________________________________________________
SET                .         Las                           : 
DFL                .см3/мин  -999.250                      : Водоотдача промывочной жидкости
GSDD               .         NPHI                          : NPHI,0,DEPT,,,,,0
TDD                .м        720.0                         : Полная глубина по бурению
TDL                .м        706.0                         : Полная глубина по каротажу
TLFamily_DEPT      .         Measured Depth                : 
TLFamily_PHI_FINAL .         Porosity                      : 
TLFamily_SW_AR     .         Water Saturation              : 
TLFamily_VSH_FINAL .         Shale Volume                  : 
~Curve Information
#_______________________________________________________________________________
#
#LOGNAME           .UNIT     LOG_ID                        : DESCRIPTION
#_______________________________________________________________________________
DEPT               .м                                      : Колонка глубины {F}
PHI_FINAL          .m3/m3                                  : Porosity {F}
SW_AR              .m3/m3                                  :  {F}
VSH_FINAL          .unitless                               : Vshale {F}
~Ascii
# ...
798.4      0.1704771  0.7403877  0.1374722 
798.5      0.1698998  0.7851774  0.1402713 
798.6      0.1683129  0.8241889  0.1385468 
798.7      0.1750468  0.8086453  0.130935  
798.8      0.1782552  0.8125696  0.1441748 
798.9      0.1824587  0.8091528  0.1549656 
799        0.1916369  0.7695439  0.1394083 
799.1      0.1864318  0.8031119  0.1562293 
799.2      0.1911719  0.7909791  0.1622957 
799.3      0.1985101  0.7665979  0.1516365 
799.4      0.1913469  0.8130569  0.1646373 
799.5      0.1875625  0.837376   0.1650161 
799.6      0.1876406  0.8400269  0.1704254 
799.7      0.1844421  0.8478537  0.1652434 
799.8      0.1775785  0.8826104  0.1537793 
799.9      0.1543248  1          0.1592905 
800        0.1265747  1          0.1561549 
800.1      0.0993154  1          0.1602652 
800.2      0.07870325 1          0.1718062 
800.3      0.08205253 1          0.1688957 
800.4      0.1048506  1          0.1554113 
800.5      0.1295511  1          0.1583178 
800.6      0.1544413  1          0.162748  
800.7      0.1629393  1          0.1708852 
800.8      0.1679157  0.9743803  0.1723442 
800.9      0.1535472  1          0.1884373 
801        0.1395645  1          0.1878028 
801.1      0.1217932  1          0.1739616 
801.2      0.1103369  1          0.1641832 
801.3      0.1112781  1          0.1684377 
801.4      0.1337881  1          0.1564527 
801.5      0.1489275  1          0.1646373 
801.6      0.1565483  1          0.1580189 
801.7      0.1519325  1          0.172498  
801.8      0.1609251  1          0.1686666 
801.9      0.1552371  1          0.1648646 
802        0.1380851  1          0.1755068 
802.1      0.1224313  1          0.1796247 
802.2      0.1201874  1          0.1751201 
802.3      0.1370858  1          0.1622203 
802.4      0.1561121  1          0.1670662 
802.5      0.1625783  0.9876451  0.1673707 
802.6      0.1639294  0.9924591  0.1688957 
802.7      0.1585568  1          0.1815787 
802.8      0.1476928  1          0.1797807 
802.9      0.1360956  1          0.1810309 
803        0.1335891  1          0.1905844 
803.1      0.1470958  1          0.1825193 
803.2      0.1467373  1          0.202513  
803.3      0.1441939  1          0.218816  
803.4      0.1465366  1          0.2199934 
803.5      0.1594589  1          0.1960316 
803.6      0.1568646  1          0.1969181 
803.7      0.1451183  1          0.2002355 
803.8      0.1208065  1          0.213965  
803.9      0.1007117  1          0.2193203 
804        0.09515792 1          0.2204988 
804.1      0.1072094  1          0.2178088 
804.2      0.1249521  1          0.2219332 
804.3      0.1461652  1          0.2091568 
804.4      0.1595228  1          0.1908236 
804.5      0.1564131  1          0.185904  
804.6      0.1484126  1          0.189311  
804.7      0.1410063  1          0.1991004 
804.8      0.1474613  1          0.1934611 
804.9      0.1581858  1          0.186299  
805        0.1724001  0.9935723  0.1767465 
805.1      0.1787729  0.9395025  0.1706553 
805.2      0.1856994  0.8884897  0.1545204 
805.3      0.1841839  0.8944693  0.1563038 
805.4      0.1730181  0.9685049  0.1669901 
805.5      0.1689648  1          0.1665339 
805.6      0.1696278  1          0.1644859 
805.7      0.1761125  0.9830261  0.1653951 
805.8      0.177983   0.9799371  0.1716526 
805.9      0.1799018  0.9683422  0.1648646 
806        0.185737   0.9283876  0.1561549 
806.1      0.1807652  0.9578581  0.162371  
806.2      0.1803504  0.9598642  0.1667619 
806.3      0.1765853  0.9839994  0.1650918 
806.4      0.1832364  0.9436703  0.1475254 
806.5      0.1744042  1          0.1568251 
806.6      0.166195   1          0.1595153 
806.7      0.166405   1          0.1542238 
806.8      0.1753776  0.9783987  0.1508262 
806.9      0.1686145  1          0.1542238 
807        0.1720315  0.9889281  0.1442474 
807.1      0.1746069  0.9748917  0.1459928 
807.2      0.1791654  0.9549509  0.1540756 
807.3      0.180217   0.9528106  0.1574963 
807.4      0.1850568  0.9207154  0.1531873 
807.5      0.1830383  0.9305298  0.1543721 
807.6      0.1837508  0.9190813  0.1540756 
807.7      0.1698878  1          0.1551884 
807.8      0.1613092  1          0.1476717 
807.9      0.1588682  1          0.1409918 
808        0.1611367  1          0.1446104 
808.1      0.1753655  0.9708484  0.1401274 
808.2      0.1851742  0.9050626  0.13826   
808.3      0.1935241  0.8496792  0.1364001 
808.4      0.2001279  0.8021814  0.1378301 
808.5      0.1998432  0.7936423  0.139121  
808.6      0.1891844  0.8500738  0.1511943 
808.7      0.1661053  1          0.1500172 
808.8      0.1393272  1          0.1476717 
808.9      0.1248047  1          0.1486232 
809        0.1260618  1          0.1455559 
809.1      0.1339639  1          0.1448285 
809.2      0.1397861  1          0.1527437 
809.3      0.1478948  1          0.1568997 
809.4      0.1590124  1          0.1618437 
809.5      0.1739473  1          0.1641832 
809.6      0.1813928  0.9332763  0.161317  
809.7      0.1898671  0.887108   0.1520791 
809.8      0.1856659  0.9185305  0.1446104 
809.9      0.1771691  0.966994   0.1537053 
810        0.1725913  0.9938254  0.1451193 
810.1      0.1551592  1          0.1515628 
810.2      0.146837   1          0.1490629 
810.3      0.1434318  1          0.1439571 
810.4      0.1353465  1          0.1555599 
810.5      0.1369518  1          0.148843  
810.6      0.1361904  1          0.146722  
810.7      0.1467875  1          0.1244196 
810.8      0.1520576  1          0.1256734 
810.9      0.1667323  0.9677455  0.1247675 
811        0.1791238  0.8383605  0.1176535 
811.1      0.1833887  0.7729564  0.1273505 
811.2      0.1844178  0.7575939  0.134832  
811.3      0.1774824  0.8077619  0.125046  
811.4      0.1609216  0.9233366  0.1258129 
811.5      0.153155   0.9841221  0.1308644 
811.6      0.1621896  0.9292411  0.1383317 
811.7      0.1801999  0.8248348  0.1443925 
811.8      0.1893043  0.7731181  0.1535572 
811.9      0.2047652  0.7040277  0.1495032 
812        0.2097404  0.6976244  0.1446831 
812.1      0.2048788  0.7297257  0.1551884 
812.2      0.1917752  0.7932629  0.1659262 
812.3      0.1956153  0.7727768  0.1586169 
812.4      0.1936489  0.7843473  0.1649403 
812.5      0.1970356  0.7850913  0.1673707 
812.6      0.1930575  0.814984   0.1776004 
812.7      0.1952277  0.7772045  0.1908236 
812.8      0.1943962  0.7541465  0.2039006 
812.9      0.1902681  0.7679207  0.2103135 
813        0.1925053  0.7646035  0.2124682 
813.1      0.2019701  0.7234229  0.2034921 
813.2      0.1969481  0.7450742  0.2118873 
813.3      0.198337   0.7465375  0.2079202 
813.4      0.1897368  0.8117373  0.2150486 
813.5      0.1869355  0.855514   0.2123022 
813.6      0.1838175  0.884276   0.2159671 
813.7      0.181323   0.8878035  0.2210046 
813.8      0.1786296  0.8863189  0.2288193 
813.9      0.1835977  0.8400786  0.2334577 
814        0.1948777  0.7691109  0.2102308 
814.1      0.1970747  0.7570659  0.2177249 
814.2      0.19072    0.7954021  0.2305327 
814.3      0.1872694  0.8266217  0.2410992 
814.4      0.1695581  0.9541045  0.2606594 
814.5      0.1624517  1          0.2565149 
814.6      0.164859   1          0.2397894 
814.7      0.1532456  1          0.252043  
814.8      0.153316   1          0.2541852 
814.9      0.1553187  1          0.2532024 
815        0.1540494  1          0.2638325 
815.1      0.1574456  0.9959072  0.2561559 
815.2      0.1652125  0.9331834  0.2428503 
815.3      0.1661976  0.9332466  0.2323375 
815.4      0.1632501  0.9602608  0.2380476 
815.5      0.1724305  0.9072232  0.2294184 
815.6      0.1739356  0.9108629  0.247782  
815.7      0.1895896  0.8214505  0.2465451 
815.8      0.205921   0.7381009  0.2418865 
815.9      0.221743   0.681326   0.234753  
816        0.2250503  0.6869717  0.2225249 
816.1      0.217458   0.7205417  0.2294184 
816.2      0.2079917  0.7632847  0.2334577 
816.3      0.2030176  0.789963   0.2253231 
816.4      0.2075764  0.7813122  0.2005602 
816.5      0.2115755  0.7681348  0.185825  
