~Version
 VERS              .         3.0                           : CWLS LOG ASCII STANDARD - VERSION 3.0
 WRAP              .         NO                            : ONE LINE PER DEPTH STEP
 DLM               .         SPACE                         : DELIMITING CHARACTER(SPACE TAB OR COMMA)
~Well Information
#_______________________________________________________________________________
#
#PARAMETER_NAME    .UNIT     VALUE                         : DESCRIPTION
#_______________________________________________________________________________
STRT               .м        0.1                           : First reference value
STOP               .м        905                           : Last reference value
STEP               .м        0.1                           : Step increment
NULL               .         -9999                         : Missing value
COMP               .         ICPetroleum                   : Company
WELL               .         304                           : Well name
FLD                .         Karatobe                      : Field
LOC                .                                       : Location
SRVC               .                                       : Service Company
CTRY               .         KZ                            : Country
DATE               .         Нет поля ДАТА_ИССЛЕДОВАНИЯ    : Service Date
LATI               .         0                             : Latitude
LONG               .         0                             : Longitude
GDAT               .         WGS 84                        : Geodetic Datum
CNTY               .         WEST_SIBERIA                  : 
COORDIN            .                                       : Grid System
COUNT              .         KAZAKHSTAN                    : Country
COUNTRY            .         Kazakhstan                    : 
COUNTRY            .         Kazakhstan                    : 
EREF               .m        142.1                         : 
KB                 .         141.8                         : KB Elevation
ORIGINALWELLNAME   .         304                           : 
PROV               .                                       : Province
RWS                .         -999                          : Def_Rw
UWI                .         1_304                         : Unique Well Identifier (UWI)
WST                .         -999                          : Def_Rwt
X                  .km       466783.1                      : 
XCOORD             .                                       : X or East-West Coordinate
Y                  .km       5308023.95                    : 
YCOORD             .                                       : Y or North-South Coordinate
~Parameter Information Block
#_______________________________________________________________________________
#
#PARAMETER_NAME    .UNIT     VALUE                         : DESCRIPTION
#_______________________________________________________________________________
SET                .         Las                           : 
DFL                .см3/мин  -999.250                      : Водоотдача промывочной жидкости
GSDD               .         NPHI                          : NPHI,0,DEPT,,,,,0
TDD                .м        720.0                         : Полная глубина по бурению
TDL                .м        706.0                         : Полная глубина по каротажу
TLFamily_DEPT      .         Measured Depth                : 
TLFamily_PHI_FINAL .         Porosity                      : 
TLFamily_SW_AR     .         Water Saturation              : 
TLFamily_VSH_FINAL .         Shale Volume                  : 
~Curve Information
#_______________________________________________________________________________
#
#LOGNAME           .UNIT     LOG_ID                        : DESCRIPTION
#_______________________________________________________________________________
DEPT               .м                                      : Колонка глубины {F}
PHI_FINAL          .m3/m3                                  : Porosity {F}
SW_AR              .m3/m3                                  :  {F}
VSH_FINAL          .unitless                               : Vshale {F}
~Ascii
# ...
325.3      0.1482729  1          0.651028  
325.4      0.1313544  1          0.6917059 
325.5      0.1092875  1          0.7373496 
325.6      0.06297614 1          0.8348644 
325.7      0.03096746 1          0.9260534 
325.8      0.0205373  1          0.9890212 
325.9      0.02014653 1          1         
326        0.02154899 1          1         
326.1      0.02212328 1          1         
326.2      0.05319281 1          0.8871024 
326.3      0.07863627 1          0.7991626 
326.4      0.08775659 1          0.7705271 
326.5      0.06784905 1          0.821371  
326.6      0.03199252 1          0.9224307 
326.7      0.03690808 1          0.8868933 
326.8      0.02993848 1          0.8873662 
326.9      0.02520655 1          0.8690353 
327        0.005512488 1          0.9203829 
327.1      0.002265445 1          0.9622949 
327.2      0.0004824356 1          1         
327.3      0.0009157986 1          1         
327.4      0.003780486 1          1         
327.5      0.007709676 1          1         
327.6      0.02143938 1          1         
327.7      0.02737728 1          1         
327.8      0.02433178 1          1         
327.9      0.01081185 1          1         
328        0.01391943 1          0.9437929 
328.1      0.03255728 1          0.8255026 
328.2      0.05427074 1          0.7454491 
328.3      0.06115227 1          0.7140968 
328.4      0.07145283 1          0.6766049 
328.5      0.1210895  1          0.5529751 
328.6      0.1758353  1          0.4285696 
328.7      0.2046966  1          0.393675  
328.8      0.218199   1          0.386568  
328.9      0.2277474  1          0.3849583 
329        0.222512   1          0.4048276 
329.1      0.2288699  1          0.3943844 
329.2      0.2332676  0.9949592  0.3841662 
329.3      0.2395995  0.9663473  0.3587016 
329.4      0.2513326  0.9246969  0.3186353 
329.5      0.2506763  0.9293159  0.2975044 
329.6      0.2322285  1          0.3308187 
329.7      0.2062175  1          0.387289  
329.8      0.21671    1          0.3601942 
329.9      0.207894   1          0.3902935 
330        0.2234673  1          0.3878927 
330.1      0.2265257  1          0.4012588 
330.2      0.2153939  1          0.4427589 
330.3      0.173349   1          0.5584878 
330.4      0.1491609  1          0.6229464 
330.5      0.09149485 1          0.7497314 
330.6      0.03916205 1          0.9120106 
330.7      0.01407403 1          1         
330.8      0.008277575 1          1         
330.9      0.003113567 1          1         
331        0          1          1         
331.1      0.000426995 1          0.9283639 
331.2      0          1          0.9704831 
331.3      0.000235299 1          0.9117648 
331.4      0.00150465 1          0.8856414 
331.5      0.002182889 1          0.8057465 
331.6      0.0013631  1          0.826988  
331.7      0.01629435 1          0.7189618 
331.8      0.02411265 1          0.7030959 
331.9      0.05126956 1          0.624365  
332        0.07494614 1          0.5654122 
332.1      0.07970555 1          0.5735052 
332.2      0.08821069 1          0.568872  
332.3      0.1300503  1          0.4936226 
332.4      0.1615593  1          0.4713277 
332.5      0.1888571  1          0.4285204 
332.6      0.2233443  0.9275143  0.3851444 
332.7      0.2024489  1          0.442074  
332.8      0.2111932  1          0.4196197 
332.9      0.2047842  1          0.4369352 
333        0.2090176  1          0.4486673 
333.1      0.2178275  1          0.4473703 
333.2      0.2084152  1          0.4764229 
333.3      0.1948081  1          0.5002866 
333.4      0.18941    1          0.528384  
333.5      0.1808987  1          0.5907885 
333.6      0.1480631  1          0.6892852 
333.7      0.104639   1          0.8195611 
333.8      0.06067114 1          0.9728338 
333.9      0.06548479 1          0.9340203 
334        0.04281487 1          1         
334.1      0.03831772 1          1         
334.2      0.03210842 1          0.976254  
334.3      0.02227935 1          0.976761  
334.4      0.01570455 1          0.9977403 
334.5      0.01494274 1          1         
334.6      0.01449601 1          1         
334.7      0.03231937 1          0.907444  
334.8      0.01977663 1          0.9240579 
334.9      0.02850997 1          0.8476037 
335        0.03271909 1          0.8104782 
335.1      0.02765763 1          0.8038736 
335.2      0.01363858 1          0.8483511 
335.3      0.008633994 1          0.9080293 
335.4      0.01516179 1          0.8894188 
335.5      0.06475274 1          0.7310528 
335.6      0.0472594  1          0.7567974 
335.7      0.04657607 1          0.740226  
335.8      0.06573179 1          0.6538528 
335.9      0.05987728 1          0.6525261 
336        0.08678368 1          0.6158113 
336.1      0.07657616 1          0.7080715 
336.2      0.1169539  1          0.6772984 
336.3      0.1315224  1          0.6997868 
336.4      0.1093248  1          0.7826287 
336.5      0.1120734  1          0.7580454 
336.6      0.1092575  1          0.7430897 
336.7      0.05238372 1          0.8651119 
336.8      0.03280186 1          0.905742  
336.9      0.02231563 1          0.9467508 
337        0.03500699 1          0.8587133 
337.1      0.01787549 1          0.9362698 
337.2      0.01652386 1          0.9337437 
337.3      0.01280684 1          0.9825404 
337.4      0.01395315 1          1         
337.5      0.01518314 1          1         
337.6      0.008113133 1          1         
337.7      0.006817357 1          0.9654329 
337.8      0.003525978 1          0.9690441 
337.9      0          1          1         
338        0.0006822596 1          0.9590253 
338.1      0.005769257 1          0.8963754 
338.2      0.001093836 1          0.94707   
338.3      0          1          0.9961144 
338.4      0          1          1         
338.5      0.0001981235 1          0.9861887 
338.6      0.007870754 1          0.9342244 
338.7      0.03593018 1          0.7810294 
338.8      0.03899318 1          0.7718468 
338.9      0.04677549 1          0.7313913 
339        0.01615095 1          0.8564036 
339.1      0.05144513 1          0.721024  
339.2      0.07429494 1          0.6852538 
339.3      0.0785301  1          0.6901972 
339.4      0.08135399 1          0.6829956 
339.5      0.08005982 1          0.689699  
339.6      0.06878961 1          0.7049561 
339.7      0.03614911 1          0.7798805 
339.8      0.01786731 1          0.8557297 
339.9      0.01336069 1          0.8830919 
340        0.03337045 1          0.7986394 
340.1      0.0219158  1          0.8451329 
340.2      0.01990509 1          0.8724953 
340.3      0.01054872 1          0.9785219 
340.4      0.0136466  1          1         
340.5      0.02613778 1          1         
340.6      0.03501044 1          1         
340.7      0.03635208 1          1         
340.8      0.0336494  1          1         
340.9      0.03600466 1          1         
341        0.03641542 1          1         
341.1      0.03915986 1          1         
341.2      0.03531331 1          1         
341.3      0.06016882 1          0.9142017 
341.4      0.09288231 1          0.8430749 
341.5      0.1307316  1          0.7591602 
341.6      0.1075014  1          0.813764  
341.7      0.1049278  1          0.7944101 
341.8      0.09761909 1          0.7819772 
341.9      0.08108319 1          0.806867  
342        0.1096472  1          0.7334607 
342.1      0.1135687  1          0.7218983 
342.2      0.1244851  1          0.6922404 
342.3      0.1020601  1          0.7242824 
342.4      0.08398207 1          0.7601285 
342.5      0.1022684  1          0.7208542 
342.6      0.1063425  1          0.6935308 
342.7      0.09452991 1          0.7101282 
342.8      0.07575838 1          0.7329409 
342.9      0.1166472  1          0.6304628 
343        0.1169994  1          0.6411898 
343.1      0.1200268  1          0.6309475 
343.2      0.1288901  1          0.5970458 
343.3      0.1260222  1          0.5936111 
343.4      0.1049143  1          0.6271234 
