~Version
 VERS              .         3.0                           : CWLS LOG ASCII STANDARD - VERSION 3.0
 WRAP              .         NO                            : ONE LINE PER DEPTH STEP
 DLM               .         SPACE                         : DELIMITING CHARACTER(SPACE TAB OR COMMA)
~Well Information
#_______________________________________________________________________________
#
#PARAMETER_NAME    .UNIT     VALUE                         : DESCRIPTION
#_______________________________________________________________________________
STRT               .м        0.1                           : First reference value
STOP               .м        905                           : Last reference value
STEP               .м        0.1                           : Step increment
NULL               .         -9999                         : Missing value
COMP               .         ICPetroleum                   : Company
WELL               .         304                           : Well name
FLD                .         Karatobe                      : Field
LOC                .                                       : Location
SRVC               .                                       : Service Company
CTRY               .         KZ                            : Country
DATE               .         Нет поля ДАТА_ИССЛЕДОВАНИЯ    : Service Date
LATI               .         0                             : Latitude
LONG               .         0                             : Longitude
GDAT               .         WGS 84                        : Geodetic Datum
CNTY               .         WEST_SIBERIA                  : 
COORDIN            .                                       : Grid System
COUNT              .         KAZAKHSTAN                    : Country
COUNTRY            .         Kazakhstan                    : 
COUNTRY            .         Kazakhstan                    : 
EREF               .m        142.1                         : 
KB                 .         141.8                         : KB Elevation
ORIGINALWELLNAME   .         304                           : 
PROV               .                                       : Province
RWS                .         -999                          : Def_Rw
UWI                .         1_304                         : Unique Well Identifier (UWI)
WST                .         -999                          : Def_Rwt
X                  .km       466783.1                      : 
XCOORD             .                                       : X or East-West Coordinate
Y                  .km       5308023.95                    : 
YCOORD             .                                       : Y or North-South Coordinate
~Parameter Information Block
#_______________________________________________________________________________
#
#PARAMETER_NAME    .UNIT     VALUE                         : DESCRIPTION
#_______________________________________________________________________________
SET                .         Las                           : 
DFL                .см3/мин  -999.250                      : Водоотдача промывочной жидкости
GSDD               .         NPHI                          : NPHI,0,DEPT,,,,,0
TDD                .м        720.0                         : Полная глубина по бурению
TDL                .м        706.0                         : Полная глубина по каротажу
TLFamily_DEPT      .         Measured Depth                : 
TLFamily_PHI_FINAL .         Porosity                      : 
TLFamily_SW_AR     .         Water Saturation              : 
TLFamily_VSH_FINAL .         Shale Volume                  : 
~Curve Information
#_______________________________________________________________________________
#
#LOGNAME           .UNIT     LOG_ID                        : DESCRIPTION
#_______________________________________________________________________________
DEPT               .м                                      : Колонка глубины {F}
PHI_FINAL          .m3/m3                                  : Porosity {F}
SW_AR              .m3/m3                                  :  {F}
VSH_FINAL          .unitless                               : Vshale {F}
~Ascii
# ...
671        0.1159198  1          0.3703086 
671.1      0.1226942  1          0.3708678 
671.2      0.1438899  1          0.3545807 
671.3      0.1734642  1          0.3371999 
671.4      0.2075714  0.8659852  0.2873874 
671.5      0.2051947  0.9007307  0.325659  
671.6      0.2013291  0.934082   0.3448634 
671.7      0.2087025  0.9037734  0.3205087 
671.8      0.1971359  0.9471996  0.3331133 
671.9      0.1920315  0.9759079  0.3549874 
672        0.1973768  0.9687632  0.3436801 
672.1      0.2137978  0.915382   0.3080068 
672.2      0.2108239  0.932668   0.3137315 
672.3      0.2014018  0.9708688  0.3369209 
672.4      0.1998244  0.9778748  0.35211   
672.5      0.204158   0.958347   0.337625  
672.6      0.1934333  1          0.3496055 
672.7      0.1817478  1          0.3841035 
672.8      0.1650949  1          0.4168108 
672.9      0.1704691  1          0.3734577 
673        0.1567051  1          0.4020531 
673.1      0.152434   1          0.4091451 
673.2      0.1507929  1          0.4045393 
673.3      0.1359225  1          0.451292  
673.4      0.1259894  1          0.4802427 
673.5      0.1429506  1          0.4195127 
673.6      0.143365   1          0.4252339 
673.7      0.1274757  1          0.4519162 
673.8      0.1010783  1          0.5113471 
673.9      0.08796204 1          0.5238826 
674        0.09125468 1          0.5189976 
674.1      0.06688149 1          0.5742423 
674.2      0.05738363 1          0.6036024 
674.3      0.0569901  1          0.6055275 
674.4      0.04435554 1          0.6279244 
674.5      0.04080308 1          0.6301055 
674.6      0.03657816 1          0.6617528 
674.7      0.02551963 1          0.7119198 
674.8      0.02999076 1          0.7194498 
674.9      0.03782833 1          0.6952203 
675        0.03254824 1          0.7175394 
675.1      0.05909102 1          0.6487479 
675.2      0.09129287 1          0.5761803 
675.3      0.098212   1          0.5775031 
675.4      0.1383308  1          0.4927487 
675.5      0.1926874  1          0.3682119 
675.6      0.2308348  0.864881   0.2936772 
675.7      0.2671688  0.7229503  0.2179104 
675.8      0.3001695  0.6233345  0.1580285 
675.9      0.3035216  0.56222    0.1525766 
676        0.3116021  0.4782754  0.1357556 
676.1      0.3113628  0.4338539  0.1165587 
676.2      0.3159275  0.4222907  0.1058863 
676.3      0.3250768  0.4130947  0.09110569
676.4      0.329327   0.3976837  0.07876528
676.5      0.3335367  0.3821493  0.06846135
676.6      0.3307227  0.3845883  0.07523116
676.7      0.3323513  0.3885716  0.06709143
676.8      0.3243604  0.4021319  0.06880762
676.9      0.3218974  0.4009373  0.07300567
677        0.3241425  0.3934379  0.071764  
677.1      0.3211639  0.4016493  0.07846501
677.2      0.321537   0.4137738  0.07599506
677.3      0.3354273  0.4045942  0.06213111
677.4      0.3353263  0.3984004  0.0628593 
677.5      0.330679   0.3929967  0.07367636
677.6      0.33079    0.4019547  0.07639338
677.7      0.3200397  0.4544014  0.07881373
677.8      0.3120992  0.5152841  0.08022899
677.9      0.310008   0.5364704  0.09509324
678        0.3013936  0.5604006  0.1213434 
678.1      0.2894402  0.5611547  0.1400056 
678.2      0.2811173  0.5585448  0.1479918 
678.3      0.284866   0.5479661  0.1251917 
678.4      0.2853732  0.5513231  0.1115805 
678.5      0.2890651  0.5572752  0.1129159 
678.6      0.284603   0.5846022  0.1150982 
678.7      0.2765755  0.6192486  0.1213239 
678.8      0.2626606  0.662087   0.149445  
678.9      0.2543438  0.6805014  0.1581483 
679        0.2440846  0.7179281  0.1777985 
679.1      0.245099   0.726665   0.1923312 
679.2      0.2567912  0.7131664  0.1963517 
679.3      0.2641209  0.7407559  0.2051222 
679.4      0.2688454  0.7309111  0.2030493 
679.5      0.2777478  0.6732761  0.1970342 
679.6      0.2791547  0.6432417  0.1938448 
679.7      0.2925375  0.5852064  0.1626044 
679.8      0.3007625  0.5545508  0.1442596 
679.9      0.3040606  0.5305777  0.1343042 
680        0.3059057  0.5162947  0.1291207 
680.1      0.303242   0.5245023  0.1325618 
680.2      0.310097   0.5201957  0.122413  
680.3      0.3063579  0.5324746  0.1232741 
680.4      0.3008168  0.5496458  0.1197456 
680.5      0.2994491  0.5609959  0.1106631 
680.6      0.2885666  0.5875202  0.1240622 
680.7      0.2889963  0.5889692  0.1361717 
680.8      0.2902271  0.5863352  0.1330505 
680.9      0.2968549  0.5785583  0.1366698 
681        0.3008949  0.5736328  0.1347483 
681.1      0.3043737  0.5692613  0.123243  
681.2      0.2931824  0.6000856  0.131523  
681.3      0.2962951  0.6010598  0.1191708 
681.4      0.292013   0.6031883  0.1190536 
681.5      0.2886736  0.5995901  0.1269421 
681.6      0.2909061  0.5795459  0.1336427 
681.7      0.2944551  0.5603833  0.126698  
681.8      0.303056   0.5390616  0.1205139 
681.9      0.3019505  0.5365936  0.1148789 
682        0.3091329  0.5191453  0.1021638 
682.1      0.2990964  0.5307735  0.1022532 
682.2      0.2956055  0.5377038  0.1002477 
682.3      0.2925853  0.5496006  0.104701  
682.4      0.2884628  0.5674435  0.1066372 
682.5      0.286308   0.5827073  0.1171343 
682.6      0.2941082  0.5772022  0.1166487 
682.7      0.2965463  0.5745093  0.1123586 
682.8      0.2930985  0.5751833  0.1218666 
682.9      0.2946721  0.5677081  0.1284565 
683        0.2888258  0.577592   0.1389803 
683.1      0.2849017  0.5825751  0.143291  
683.2      0.2840346  0.5814869  0.1225292 
683.3      0.2817778  0.5907753  0.1197679 
683.4      0.2721912  0.6232527  0.1075522 
683.5      0.2718868  0.6456609  0.1185191 
683.6      0.2718865  0.6593608  0.1260455 
683.7      0.2607527  0.6722406  0.1565587 
683.8      0.2755997  0.6213223  0.1450602 
683.9      0.278435   0.6245496  0.1317198 
684        0.2823078  0.6371621  0.1302389 
684.1      0.2861616  0.6489611  0.1369186 
684.2      0.2871112  0.6537164  0.1306669 
684.3      0.2856186  0.6642753  0.1253074 
684.4      0.2782016  0.6841978  0.1448611 
684.5      0.2849233  0.6600026  0.1352504 
684.6      0.2867962  0.6450806  0.1381383 
684.7      0.294921   0.6285967  0.1415971 
684.8      0.302331   0.6207554  0.1405198 
684.9      0.301514   0.6269952  0.1421652 
685        0.3025583  0.6250177  0.1476869 
685.1      0.3003502  0.6253173  0.1429136 
685.2      0.3060772  0.604618   0.1371909 
685.3      0.3029431  0.5995477  0.1299215 
685.4      0.3040432  0.5983657  0.1283427 
685.5      0.3097225  0.6005976  0.1232084 
685.6      0.3059427  0.6171648  0.130788  
685.7      0.3106962  0.602677   0.1221561 
685.8      0.3056723  0.5963425  0.1329188 
685.9      0.3026472  0.5939631  0.132964  
686        0.3065085  0.5688727  0.1210988 
686.1      0.3114982  0.5531607  0.1157752 
686.2      0.3147746  0.5528733  0.1098775 
686.3      0.3202866  0.5449109  0.109056  
686.4      0.3215219  0.5330409  0.1081877 
686.5      0.3150238  0.5330002  0.1183737 
686.6      0.3183007  0.516195   0.1035874 
686.7      0.3189719  0.5019205  0.1040221 
686.8      0.3266905  0.4775702  0.08524899
686.9      0.33025    0.4636512  0.09001066
687        0.334212   0.4573872  0.08643733
687.1      0.340554   0.4485554  0.07604229
687.2      0.3486469  0.4155381  0.07607836
687.3      0.3455572  0.3814094  0.07657646
687.4      0.3364382  0.3583022  0.07168369
687.5      0.3439398  0.3310508  0.05957985
687.6      0.3476036  0.3150361  0.04578406
687.7      0.3538169  0.2924665  0.04108321
687.8      0.3559245  0.2700063  0.0374716 
687.9      0.3617117  0.2527893  0.03623733
688        0.3700524  0.2427937  0.02889843
688.1      0.3682384  0.2535751  0.03044021
688.2      0.3664222  0.2729745  0.03082739
688.3      0.3695877  0.2968161  0.02871601
688.4      0.3681844  0.3277325  0.02710714
688.5      0.3675602  0.3607572  0.03367491
688.6      0.3642733  0.3924834  0.03795993
688.7      0.3669888  0.4021386  0.03385492
688.8      0.3679952  0.3897747  0.03406829
688.9      0.3683084  0.3644828  0.03235213
689        0.3733566  0.3386795  0.03186496
689.1      0.3701441  0.3331913  0.03390739
