~Version
 VERS              .         3.0                           : CWLS LOG ASCII STANDARD - VERSION 3.0
 WRAP              .         NO                            : ONE LINE PER DEPTH STEP
 DLM               .         SPACE                         : DELIMITING CHARACTER(SPACE TAB OR COMMA)
~Well Information
#_______________________________________________________________________________
#
#PARAMETER_NAME    .UNIT     VALUE                         : DESCRIPTION
#_______________________________________________________________________________
STRT               .м        0.1                           : First reference value
STOP               .м        905                           : Last reference value
STEP               .м        0.1                           : Step increment
NULL               .         -9999                         : Missing value
COMP               .         ICPetroleum                   : Company
WELL               .         304                           : Well name
FLD                .         Karatobe                      : Field
LOC                .                                       : Location
SRVC               .                                       : Service Company
CTRY               .         KZ                            : Country
DATE               .         Нет поля ДАТА_ИССЛЕДОВАНИЯ    : Service Date
LATI               .         0                             : Latitude
LONG               .         0                             : Longitude
GDAT               .         WGS 84                        : Geodetic Datum
CNTY               .         WEST_SIBERIA                  : 
COORDIN            .                                       : Grid System
COUNT              .         KAZAKHSTAN                    : Country
COUNTRY            .         Kazakhstan                    : 
COUNTRY            .         Kazakhstan                    : 
EREF               .m        142.1                         : 
KB                 .         141.8                         : KB Elevation
ORIGINALWELLNAME   .         304                           : 
PROV               .                                       : Province
RWS                .         -999                          : Def_Rw
UWI                .         1_304                         : Unique Well Identifier (UWI)
WST                .         -999                          : Def_Rwt
X                  .km       466783.1                      : 
XCOORD             .                                       : X or East-West Coordinate
Y                  .km       5308023.95                    : 
YCOORD             .                                       : Y or North-South Coordinate
~Parameter Information Block
#_______________________________________________________________________________
#
#PARAMETER_NAME    .UNIT     VALUE                         : DESCRIPTION
#_______________________________________________________________________________
SET                .         Las                           : 
DFL                .см3/мин  -999.250                      : Водоотдача промывочной жидкости
GSDD               .         NPHI                          : NPHI,0,DEPT,,,,,0
TDD                .м        720.0                         : Полная глубина по бурению
TDL                .м        706.0                         : Полная глубина по каротажу
TLFamily_DEPT      .         Measured Depth                : 
TLFamily_PHI_FINAL .         Porosity                      : 
TLFamily_SW_AR     .         Water Saturation              : 
TLFamily_VSH_FINAL .         Shale Volume                  : 
~Curve Information
#_______________________________________________________________________________
#
#LOGNAME           .UNIT     LOG_ID                        : DESCRIPTION
#_______________________________________________________________________________
DEPT               .м                                      : Колонка глубины {F}
PHI_FINAL          .m3/m3                                  : Porosity {F}
SW_AR              .m3/m3                                  :  {F}
VSH_FINAL          .unitless                               : Vshale {F}
~Ascii
# ...
288.9      0.04272144 1          1         
289        0.03695289 1          1         
289.1      0.02291052 1          1         
289.2      0.0151044  1          1         
289.3      0.01155095 1          1         
289.4      0.009448001 1          1         
289.5      0.008859647 1          1         
289.6      0.008090245 1          1         
289.7      0.003770588 1          1         
289.8      0.0006307618 1          1         
289.9      0.0001034768 1          1         
290        0.00248606 1          0.9582485 
290.1      0.02474569 1          0.8086592 
290.2      0.06057725 1          0.7327096 
290.3      0.09395118 1          0.7174452 
290.4      0.1255515  1          0.6897403 
290.5      0.1443014  1          0.6906664 
290.6      0.1557903  1          0.7260821 
290.7      0.1792365  1          0.7012796 
290.8      0.149263   1          0.8139595 
290.9      0.1477765  1          0.8410615 
291        0.1726153  1          0.8093857 
291.1      0.160777   1          0.8549852 
291.2      0.1440242  1          0.8958894 
291.3      0.1275476  1          0.9392665 
291.4      0.1125837  1          0.9755192 
291.5      0.1117564  1          0.9585392 
291.6      0.1293535  1          0.8925238 
291.7      0.1081786  1          0.9240282 
291.8      0.09818307 1          0.9404114 
291.9      0.08535708 1          0.9835599 
292        0.0921206  1          0.9775752 
292.1      0.08031529 1          1         
292.2      0.06855216 1          1         
292.3      0.05624317 1          1         
292.4      0.03494992 1          1         
292.5      0.01928971 1          1         
292.6      0.0135003  1          1         
292.7      0.01269575 1          1         
292.8      0.01462501 1          1         
292.9      0.01749006 1          1         
293        0.02922264 1          0.9574146 
293.1      0.02618795 1          0.9844276 
293.2      0.03341877 1          0.957383  
293.3      0.04528298 1          0.9224526 
293.4      0.0473938  1          0.8916753 
293.5      0.04783456 1          0.8826047 
293.6      0.03461796 1          0.9140843 
293.7      0.05152377 1          0.8449768 
293.8      0.03934142 1          0.8536754 
293.9      0.05126731 1          0.8250184 
294        0.0782482  1          0.7678609 
294.1      0.04386164 1          0.8579563 
294.2      0.07328016 1          0.7789055 
294.3      0.08090897 1          0.7438033 
294.4      0.1136815  1          0.6488389 
294.5      0.09325757 1          0.6757805 
294.6      0.09657334 1          0.6463751 
294.7      0.1301092  1          0.5628435 
294.8      0.1405276  1          0.5271757 
294.9      0.1454062  1          0.5256396 
295        0.1484954  1          0.528863  
295.1      0.1752826  1          0.4707066 
295.2      0.1957341  1          0.4650248 
295.3      0.1973712  1          0.4906211 
295.4      0.2180674  1          0.4950313 
295.5      0.2649855  0.9309568  0.4629436 
295.6      0.2796588  0.9211589  0.4933017 
295.7      0.2816329  0.9834843  0.5276164 
295.8      0.2831632  1          0.5477254 
295.9      0.2857743  1          0.5345151 
296        0.2692167  0.9846086  0.5781838 
296.1      0.2135765  1          0.6648944 
296.2      0.2083156  1          0.6400994 
296.3      0.1846508  1          0.6548368 
296.4      0.1885789  1          0.5899864 
296.5      0.1899753  1          0.5683464 
296.6      0.1854563  1          0.5709019 
296.7      0.1645963  1          0.6164051 
296.8      0.160299   1          0.6270388 
296.9      0.1331145  1          0.6797885 
297        0.1468502  1          0.647056  
297.1      0.1933628  1          0.5594364 
297.2      0.2320875  0.9631788  0.4949273 
297.3      0.2120991  1          0.5527526 
297.4      0.1841666  1          0.6436338 
297.5      0.1596459  1          0.7255692 
297.6      0.1141373  1          0.8383093 
297.7      0.07929543 1          0.9256373 
297.8      0.05631511 1          0.9830266 
297.9      0.04637461 1          0.984995  
298        0.03755665 1          0.9790286 
298.1      0.04175841 1          0.9331229 
298.2      0.03111964 1          0.9226744 
298.3      0.06180715 1          0.802953  
298.4      0.02353255 1          0.9298204 
298.5      0.01624282 1          1         
298.6      0.02011702 1          1         
298.7      0.02770994 1          1         
298.8      0.03468594 1          1         
298.9      0.03666003 1          1         
299        0.03358718 1          1         
299.1      0.0274042  1          1         
299.2      0.04515217 1          0.9171194 
299.3      0.07331785 1          0.8333932 
299.4      0.04713574 1          0.8986668 
299.5      0.0246663  1          0.9897683 
299.6      0.04118105 1          0.9465753 
299.7      0.08504011 1          0.8244309 
299.8      0.05491578 1          0.9049486 
299.9      0.06678956 1          0.8706493 
300        0.05890672 1          0.8828048 
300.1      0.07827721 1          0.8083024 
300.2      0.06255434 1          0.8300978 
300.3      0.03448991 1          0.9037246 
300.4      0.02416663 1          0.9544876 
300.5      0.0215742  1          0.9712566 
300.6      0.01580439 1          1         
300.7      0.01906393 1          1         
300.8      0.01842899 1          1         
300.9      0.0196225  1          1         
301        0.02003646 1          1         
301.1      0.02004954 1          1         
301.2      0.01836986 1          1         
301.3      0.01772597 1          1         
301.4      0.01524609 1          1         
301.5      0.01536088 1          1         
301.6      0.01382992 1          1         
301.7      0.01458098 1          1         
301.8      0.01489997 1          1         
301.9      0.01608937 1          1         
302        0.01742603 1          1         
302.1      0.01910402 1          1         
302.2      0.01999698 1          1         
302.3      0.01999086 1          1         
302.4      0.02126031 1          1         
302.5      0.02211448 1          1         
302.6      0.02055955 1          1         
302.7      0.02027125 1          1         
302.8      0.0200002  1          1         
302.9      0.01989464 1          1         
303        0.02037062 1          1         
303.1      0.02126869 1          1         
303.2      0.02267214 1          1         
303.3      0.02223081 1          1         
303.4      0.01922188 1          1         
303.5      0.0206171  1          1         
303.6      0.01979355 1          1         
303.7      0.02400555 1          0.9450988 
303.8      0.04781926 1          0.857711  
303.9      0.02643323 1          0.9464561 
304        0.02285939 1          0.9740396 
304.1      0.02365306 1          0.9649775 
304.2      0.021298   1          0.9743611 
304.3      0.02274841 1          0.968836  
304.4      0.02115025 1          0.9700605 
304.5      0.05322175 1          0.841168  
304.6      0.08822671 1          0.7675212 
304.7      0.06645598 1          0.8238867 
304.8      0.02064118 1          1         
304.9      0.02081181 1          1         
305        0.02174564 1          1         
305.1      0.02381767 1          1         
305.2      0.02369376 1          1         
305.3      0.02371318 1          1         
305.4      0.02362213 1          1         
305.5      0.05357295 1          0.8830984 
305.6      0.06950165 1          0.843437  
305.7      0.1280949  1          0.6987423 
305.8      0.1411164  1          0.6616361 
305.9      0.1180345  1          0.7200848 
306        0.1373091  1          0.6730121 
306.1      0.1558685  1          0.6327879 
306.2      0.1438445  1          0.6753173 
306.3      0.1488588  1          0.6736667 
306.4      0.1715688  1          0.6278939 
306.5      0.1808048  1          0.6033456 
306.6      0.1825161  1          0.598181  
306.7      0.2049214  1          0.5322917 
306.8      0.2106411  1          0.5237769 
306.9      0.2072311  1          0.5218559 
307        0.1888977  1          0.5614541 
