~Version
 VERS              .         3.0                           : CWLS LOG ASCII STANDARD - VERSION 3.0
 WRAP              .         NO                            : ONE LINE PER DEPTH STEP
 DLM               .         SPACE                         : DELIMITING CHARACTER(SPACE TAB OR COMMA)
~Well Information
#_______________________________________________________________________________
#
#PARAMETER_NAME    .UNIT     VALUE                         : DESCRIPTION
#_______________________________________________________________________________
STRT               .м        0.1                           : First reference value
STOP               .м        905                           : Last reference value
STEP               .м        0.1                           : Step increment
NULL               .         -9999                         : Missing value
COMP               .         ICPetroleum                   : Company
WELL               .         304                           : Well name
FLD                .         Karatobe                      : Field
LOC                .                                       : Location
SRVC               .                                       : Service Company
CTRY               .         KZ                            : Country
DATE               .         Нет поля ДАТА_ИССЛЕДОВАНИЯ    : Service Date
LATI               .         0                             : Latitude
LONG               .         0                             : Longitude
GDAT               .         WGS 84                        : Geodetic Datum
CNTY               .         WEST_SIBERIA                  : 
COORDIN            .                                       : Grid System
COUNT              .         KAZAKHSTAN                    : Country
COUNTRY            .         Kazakhstan                    : 
COUNTRY            .         Kazakhstan                    : 
EREF               .m        142.1                         : 
KB                 .         141.8                         : KB Elevation
ORIGINALWELLNAME   .         304                           : 
PROV               .                                       : Province
RWS                .         -999                          : Def_Rw
UWI                .         1_304                         : Unique Well Identifier (UWI)
WST                .         -999                          : Def_Rwt
X                  .km       466783.1                      : 
XCOORD             .                                       : X or East-West Coordinate
Y                  .km       5308023.95                    : 
YCOORD             .                                       : Y or North-South Coordinate
~Parameter Information Block
#_______________________________________________________________________________
#
#PARAMETER_NAME    .UNIT     VALUE                         : DESCRIPTION
#_______________________________________________________________________________
SET                .         Las                           : 
DFL                .см3/мин  -999.250                      : Водоотдача промывочной жидкости
GSDD               .         NPHI                          : NPHI,0,DEPT,,,,,0
TDD                .м        720.0                         : Полная глубина по бурению
TDL                .м        706.0                         : Полная глубина по каротажу
TLFamily_DEPT      .         Measured Depth                : 
TLFamily_PHI_FINAL .         Porosity                      : 
TLFamily_SW_AR     .         Water Saturation              : 
TLFamily_VSH_FINAL .         Shale Volume                  : 
~Curve Information
#_______________________________________________________________________________
#
#LOGNAME           .UNIT     LOG_ID                        : DESCRIPTION
#_______________________________________________________________________________
DEPT               .м                                      : Колонка глубины {F}
PHI_FINAL          .m3/m3                                  : Porosity {F}
SW_AR              .m3/m3                                  :  {F}
VSH_FINAL          .unitless                               : Vshale {F}
~Ascii
# ...
234.3      0.2072381  0.9903034  0.6452174 
234.4      0.2363776  0.8965888  0.6005158 
234.5      0.2456714  0.8810697  0.5999206 
234.6      0.179654   1          0.7745415 
234.7      0.1646356  1          0.8446689 
234.8      0.1885113  1          0.7880339 
234.9      0.1685504  1          0.8374423 
235        0.1701669  1          0.8268836 
235.1      0.1905644  1          0.7875642 
235.2      0.2070169  1          0.7443542 
235.3      0.2141386  1          0.7503938 
235.4      0.2085388  1          0.7675658 
235.5      0.2180194  1          0.7299597 
235.6      0.2303512  1          0.6792828 
235.7      0.2068709  1          0.7027545 
235.8      0.1635542  1          0.7751375 
235.9      0.1491659  1          0.7844664 
236        0.1455072  1          0.7736152 
236.1      0.1225519  1          0.8138566 
236.2      0.1188941  1          0.8108372 
236.3      0.1374358  1          0.771641  
236.4      0.1210173  1          0.7994975 
236.5      0.1139922  1          0.81894   
236.6      0.09592199 1          0.8781703 
236.7      0.08979217 1          0.902474  
236.8      0.1020316  1          0.857934  
236.9      0.09581983 1          0.8783118 
237        0.0783136  1          0.9117335 
237.1      0.08671721 1          0.8965108 
237.2      0.08139543 1          0.9241173 
237.3      0.1054513  1          0.8708126 
237.4      0.1173444  1          0.847614  
237.5      0.1275556  1          0.8230557 
237.6      0.1090271  1          0.8760354 
237.7      0.1339799  1          0.8176085 
237.8      0.1232139  1          0.8426574 
237.9      0.1399535  1          0.7875066 
238        0.1318597  1          0.7895097 
238.1      0.1209384  1          0.8233469 
238.2      0.1322601  1          0.8016324 
238.3      0.1345737  1          0.799909  
238.4      0.1476666  1          0.7711706 
238.5      0.1283995  1          0.8252536 
238.6      0.1426276  1          0.8120092 
238.7      0.1230705  1          0.8877093 
238.8      0.133812   1          0.8701731 
238.9      0.1470232  1          0.8143748 
239        0.1135358  1          0.8684713 
239.1      0.1228901  1          0.812781  
239.2      0.08524933 1          0.9072482 
239.3      0.08093043 1          0.9311581 
239.4      0.0803437  1          0.9288152 
239.5      0.06033696 1          0.9691159 
239.6      0.08778021 1          0.897099  
239.7      0.07748096 1          0.9228888 
239.8      0.05723602 1          0.9857439 
239.9      0.05653595 1          0.9638518 
240        0.08859915 1          0.8620169 
240.1      0.08035041 1          0.8390794 
240.2      0.1254744  1          0.7322266 
240.3      0.1483049  1          0.7012868 
240.4      0.1734448  1          0.6384153 
240.5      0.1534908  1          0.7074157 
240.6      0.1668783  1          0.6785015 
240.7      0.1803649  1          0.6637226 
240.8      0.2015164  1          0.6404915 
240.9      0.2041003  1          0.6548227 
241        0.190528   1          0.7143046 
241.1      0.2165135  1          0.6653345 
241.2      0.2218433  1          0.6508178 
241.3      0.2257232  1          0.636839  
241.4      0.2022663  1          0.6796252 
241.5      0.1867088  1          0.7074552 
241.6      0.18307    1          0.7084362 
241.7      0.1791432  1          0.7221066 
241.8      0.156856   1          0.7845127 
241.9      0.162459   1          0.7596157 
242        0.1710466  1          0.7208376 
242.1      0.1615363  1          0.7410898 
242.2      0.1119329  1          0.8489248 
242.3      0.09419969 1          0.8670114 
242.4      0.1144436  1          0.7983843 
242.5      0.09330375 1          0.8148575 
242.6      0.0707666  1          0.8153285 
242.7      0.04621186 1          0.8467556 
242.8      0.0560505  1          0.7702331 
242.9      0.04986099 1          0.7614015 
243        0.09417748 1          0.6535511 
243.1      0.1412651  1          0.5601693 
243.2      0.1443876  1          0.5904687 
243.3      0.1517781  1          0.6332153 
243.4      0.1898087  1          0.6131841 
243.5      0.1901535  1          0.616762  
243.6      0.1761778  1          0.6176358 
243.7      0.1314052  1          0.7042053 
243.8      0.09317926 1          0.7971023 
243.9      0.04150023 1          0.9308646 
244        0.04929235 1          0.9000675 
244.1      0.09797715 1          0.7733862 
244.2      0.110193   1          0.7509055 
244.3      0.0862485  1          0.8072228 
244.4      0.07333987 1          0.8267158 
244.5      0.0465533  1          0.8658203 
244.6      0.009658409 1          1         
244.7      0.008061348 1          0.9959574 
244.8      0.01048469 1          1         
244.9      0.028719   1          0.942933  
245        0.07164002 1          0.884161  
245.1      0.09696207 1          0.8711295 
245.2      0.1143164  1          0.872297  
245.3      0.1060088  1          0.9217849 
245.4      0.08604933 1          0.977182  
245.5      0.08340966 1          1         
245.6      0.09279451 1          1         
245.7      0.1420307  1          0.8969386 
245.8      0.1312146  1          0.9085475 
245.9      0.1016686  1          0.9720665 
246        0.09517014 1          0.9480127 
246.1      0.08873253 1          0.924865  
246.2      0.09419265 1          0.8925837 
246.3      0.06728509 1          0.9283892 
246.4      0.0740686  1          0.9022174 
246.5      0.05325836 1          0.9304981 
246.6      0.07763705 1          0.8349571 
246.7      0.05206556 1          0.9058269 
246.8      0.09972346 1          0.7789496 
246.9      0.08247857 1          0.8153039 
247        0.07688844 1          0.8007332 
247.1      0.09270008 1          0.7455216 
247.2      0.0742064  1          0.7690033 
247.3      0.06526455 1          0.7870089 
247.4      0.07681662 1          0.774409  
247.5      0.08383418 1          0.7385672 
247.6      0.08073544 1          0.7381363 
247.7      0.1001537  1          0.6865917 
247.8      0.09355181 1          0.6932504 
247.9      0.133798   1          0.5923136 
248        0.163816   1          0.5195645 
248.1      0.1788271  0.9219906  0.4921756 
248.2      0.1917691  0.8342109  0.4693237 
248.3      0.1897484  0.82498    0.4819973 
248.4      0.2001141  0.7711527  0.4662642 
248.5      0.1928968  0.7824003  0.4840192 
248.6      0.1568067  0.9253256  0.5842607 
248.7      0.1636993  0.8660461  0.5564045 
248.8      0.1719879  0.8119978  0.5220196 
248.9      0.1938801  0.7169402  0.4651012 
249        0.2071355  0.6702322  0.4221601 
249.1      0.1764202  0.7847164  0.4660999 
249.2      0.1676946  0.8331705  0.4662143 
249.3      0.1664265  0.8584458  0.4464535 
249.4      0.1464324  1          0.4576442 
249.5      0.1297835  1          0.4237675 
249.6      0.09315808 1          0.4537112 
249.7      0.06476171 1          0.4428255 
249.8      0.03517402 1          0.4791892 
249.9      0.01848354 1          0.5049233 
250        0.02035488 1          0.5389895 
250.1      0.04064169 1          0.5485671 
250.2      0.07896578 1          0.5555972 
250.3      0.1594872  0.955108   0.453934  
250.4      0.21119    0.8797655  0.4136498 
250.5      0.2128833  1          0.4487245 
250.6      0.1926995  1          0.5165905 
250.7      0.1378805  1          0.6174757 
250.8      0.08871008 1          0.7149206 
250.9      0.05557126 1          0.7881576 
251        0.02805635 1          0.8444018 
251.1      0.05819132 1          0.7691285 
251.2      0.06563414 1          0.7662957 
251.3      0.08686128 1          0.7369052 
251.4      0.1290705  1          0.6547046 
251.5      0.138414   1          0.6468703 
251.6      0.1413834  1          0.6505958 
251.7      0.101005   1          0.7730148 
251.8      0.0845627  1          0.8102335 
251.9      0.01920065 1          0.9776665 
252        0.008840217 1          0.9890396 
252.1      0.001757956 1          1         
252.2      0.007847009 1          0.9380684 
252.3      0.03247003 1          0.8873351 
252.4      0.03510706 1          0.957164  
