~Version
 VERS              .         3.0                           : CWLS LOG ASCII STANDARD - VERSION 3.0
 WRAP              .         NO                            : ONE LINE PER DEPTH STEP
 DLM               .         SPACE                         : DELIMITING CHARACTER(SPACE TAB OR COMMA)
~Well Information
#_______________________________________________________________________________
#
#PARAMETER_NAME    .UNIT     VALUE                         : DESCRIPTION
#_______________________________________________________________________________
STRT               .м        0.1                           : First reference value
STOP               .м        905                           : Last reference value
STEP               .м        0.1                           : Step increment
NULL               .         -9999                         : Missing value
COMP               .         ICPetroleum                   : Company
WELL               .         304                           : Well name
FLD                .         Karatobe                      : Field
LOC                .                                       : Location
SRVC               .                                       : Service Company
CTRY               .         KZ                            : Country
DATE               .         Нет поля ДАТА_ИССЛЕДОВАНИЯ    : Service Date
LATI               .         0                             : Latitude
LONG               .         0                             : Longitude
GDAT               .         WGS 84                        : Geodetic Datum
CNTY               .         WEST_SIBERIA                  : 
COORDIN            .                                       : Grid System
COUNT              .         KAZAKHSTAN                    : Country
COUNTRY            .         Kazakhstan                    : 
COUNTRY            .         Kazakhstan                    : 
EREF               .m        142.1                         : 
KB                 .         141.8                         : KB Elevation
ORIGINALWELLNAME   .         304                           : 
PROV               .                                       : Province
RWS                .         -999                          : Def_Rw
UWI                .         1_304                         : Unique Well Identifier (UWI)
WST                .         -999                          : Def_Rwt
X                  .km       466783.1                      : 
XCOORD             .                                       : X or East-West Coordinate
Y                  .km       5308023.95                    : 
YCOORD             .                                       : Y or North-South Coordinate
~Parameter Information Block
#_______________________________________________________________________________
#
#PARAMETER_NAME    .UNIT     VALUE                         : DESCRIPTION
#_______________________________________________________________________________
SET                .         Las                           : 
DFL                .см3/мин  -999.250                      : Водоотдача промывочной жидкости
GSDD               .         NPHI                          : NPHI,0,DEPT,,,,,0
TDD                .м        720.0                         : Полная глубина по бурению
TDL                .м        706.0                         : Полная глубина по каротажу
TLFamily_DEPT      .         Measured Depth                : 
TLFamily_PHI_FINAL .         Porosity                      : 
TLFamily_SW_AR     .         Water Saturation              : 
TLFamily_VSH_FINAL .         Shale Volume                  : 
~Curve Information
#_______________________________________________________________________________
#
#LOGNAME           .UNIT     LOG_ID                        : DESCRIPTION
#_______________________________________________________________________________
DEPT               .м                                      : Колонка глубины {F}
PHI_FINAL          .m3/m3                                  : Porosity {F}
SW_AR              .m3/m3                                  :  {F}
VSH_FINAL          .unitless                               : Vshale {F}
~Ascii
# ...
762        0.0538248  1          0.3925888 
762.1      0.0658026  1          0.3711238 
762.2      0.07385218 1          0.361319  
762.3      0.08125579 1          0.3726279 
762.4      0.07519041 1          0.3872989 
762.5      0.07042103 1          0.4229641 
762.6      0.06809211 1          0.4156235 
762.7      0.07985981 1          0.403735  
762.8      0.09186603 1          0.3752139 
762.9      0.09704091 1          0.3647136 
763        0.1138405  1          0.3371986 
763.1      0.1127176  1          0.3368923 
763.2      0.08737439 1          0.3730582 
763.3      0.09076516 1          0.3758619 
763.4      0.0674956  1          0.4092591 
763.5      0.06980056 1          0.4035103 
763.6      0.04871362 1          0.4229641 
763.7      0.03516117 1          0.4571427 
763.8      0.01702923 1          0.4754256 
763.9      0.02805098 1          0.4482766 
764        0.02587115 1          0.462705  
764.1      0.03070142 1          0.4741937 
764.2      0.05291089 1          0.4263142 
764.3      0.07841741 1          0.3934742 
764.4      0.08858525 1          0.3419133 
764.5      0.0852158  1          0.3467648 
764.6      0.07709338 1          0.3676977 
764.7      0.08114336 1          0.3596279 
764.8      0.07690032 1          0.3676977 
764.9      0.08146057 1          0.3718754 
765        0.07371429 1          0.3866404 
765.1      0.0806995  1          0.371768  
765.2      0.06605612 1          0.3886177 
765.3      0.07059075 1          0.4126619 
765.4      0.0604367  1          0.4192849 
765.5      0.03913118 1          0.4567813 
765.6      0.02964278 1          0.4977999 
765.7      0.01719631 1          0.5433601 
765.8      0.02298213 1          0.5290402 
765.9      0.02850864 1          0.4943856 
766        0.03987071 1          0.471122  
766.1      0.07952736 1          0.3985865 
766.2      0.1127678  1          0.3331258 
766.3      0.1312888  1          0.3047207 
766.4      0.1376419  1          0.2919291 
766.5      0.1348758  1          0.3101851 
766.6      0.1549609  1          0.2950788 
766.7      0.163905   1          0.2968034 
766.8      0.1636609  1          0.3158942 
766.9      0.1777388  1          0.3065695 
767        0.1753489  1          0.3382207 
767.1      0.1900169  1          0.3256566 
767.2      0.1963281  1          0.3126397 
767.3      0.1896902  1          0.3275664 
767.4      0.1729771  1          0.3451093 
767.5      0.1607836  1          0.3456263 
767.6      0.1417711  1          0.3670572 
767.7      0.1279142  1          0.3841218 
767.8      0.1216172  1          0.3919254 
767.9      0.1316602  1          0.3965817 
768        0.1482801  1          0.3932527 
768.1      0.1484203  1          0.401716  
768.2      0.1583579  1          0.358573  
768.3      0.1155663  1          0.3679113 
768.4      0.0406446  1          0.3796539 
768.5      0          1          0.4116393 
768.6      0          1          0.4142551 
768.7      0.02904184 1          0.4139134 
768.8      0.05943322 1          0.4175664 
768.9      0.08796626 1          0.4020521 
769        0.1080591  1          0.381394  
769.1      0.09992808 1          0.3968042 
769.2      0.1040403  1          0.3769433 
769.3      0.1157759  1          0.355628  
769.4      0.1176876  1          0.3444895 
769.5      0.1063233  1          0.3671639 
769.6      0.1137844  1          0.3596279 
769.7      0.104687   1          0.3588893 
769.8      0.1021378  1          0.3597334 
769.9      0.1056838  1          0.3480091 
770        0.1209887  1          0.3275664 
770.1      0.1137271  1          0.3215545 
770.2      0.1189568  1          0.3272644 
770.3      0.1026338  1          0.3432517 
770.4      0.09400462 1          0.3416048 
770.5      0.07899533 1          0.3581516 
770.6      0.09395534 1          0.3475942 
770.7      0.08901265 1          0.3460401 
770.8      0.08471762 1          0.3467648 
770.9      0.09211157 1          0.3319088 
771        0.09308119 1          0.3368923 
771.1      0.1003652  1          0.3304919 
771.2      0.1015991  1          0.3382207 
771.3      0.09770661 1          0.3426336 
771.4      0.09528059 1          0.3586785 
771.5      0.1088644  1          0.3606844 
771.6      0.09435631 1          0.3540556 
771.7      0.0922821  1          0.3765105 
771.8      0.09412789 1          0.3818298 
771.9      0.09594075 1          0.3906005 
772        0.08140443 1          0.4119801 
772.1      0.06982054 1          0.4395103 
772.2      0.09011283 1          0.4369233 
772.3      0.113232   1          0.4088067 
772.4      0.1352707  1          0.39281   
772.5      0.1518127  1          0.3953593 
772.6      0.15947    1          0.3917044 
772.7      0.1553109  1          0.3835754 
772.8      0.1599704  1          0.3617424 
772.9      0.1529619  1          0.3684457 
773        0.1615873  1          0.3617424 
773.1      0.158672   1          0.3846686 
773.2      0.1662202  1          0.3691945 
773.3      0.1687041  1          0.3549986 
773.4      0.1434228  1          0.3665239 
773.5      0.09005614 1          0.3818298 
773.6      0.0374757  1          0.3682319 
773.7      0.01645435 1          0.3367903 
773.8      0.01329183 1          0.3278683 
773.9      0.03021336 1          0.3194635 
774        0.04977977 1          0.3244533 
774.1      0.06527556 1          0.3367903 
774.2      0.08529256 1          0.3365861 
774.3      0.1094746  1          0.3221533 
774.4      0.1232315  1          0.3188672 
774.5      0.1302973  1          0.3151038 
774.6      0.1256494  1          0.3216543 
774.7      0.1317536  1          0.2969953 
774.8      0.1138405  1          0.3190659 
774.9      0.1060896  1          0.3282713 
775        0.09806167 1          0.3504005 
775.1      0.1097784  1          0.3424277 
775.2      0.1241825  1          0.3246538 
775.3      0.09563252 1          0.3660975 
775.4      0.1039161  1          0.355628  
775.5      0.1058094  1          0.3735965 
775.6      0.1155771  1          0.3629082 
775.7      0.104712   1          0.3808497 
775.8      0.1124766  1          0.3877382 
775.9      0.1076928  1          0.39038   
776        0.119219   1          0.381503  
776.1      0.127042   1          0.3702656 
776.2      0.1332187  1          0.3774846 
776.3      0.1484571  1          0.3662041 
776.4      0.1671607  1          0.3344468 
776.5      0.1978816  1          0.2896485 
776.6      0.198859   1          0.2970913 
776.7      0.1881344  1          0.3212554 
776.8      0.1834235  1          0.3163888 
776.9      0.1736704  1          0.3203588 
777        0.1590174  1          0.3398593 
777.1      0.1569372  1          0.3470757 
777.2      0.1604126  1          0.3632265 
777.3      0.1755258  1          0.3576251 
777.4      0.1748955  1          0.3647136 
777.5      0.1753575  1          0.3362801 
777.6      0.1495357  1          0.3456263 
777.7      0.1127869  1          0.3732735 
777.8      0.06769576 1          0.3809586 
777.9      0.04020962 1          0.4128892 
778        0.06484284 1          0.40194   
778.1      0.1077707  1          0.3595223 
778.2      0.1302839  1          0.3185692 
778.3      0.1037136  1          0.3425307 
778.4      0.06866252 1          0.380741  
778.5      0.05023104 1          0.4069994 
778.6      0.05429723 1          0.4109585 
778.7      0.07090555 1          0.4009324 
778.8      0.09785181 1          0.3753219 
778.9      0.1194235  1          0.3607901 
779        0.1202048  1          0.3746744 
779.1      0.1207007  1          0.3778095 
779.2      0.1408804  1          0.3444895 
779.3      0.143515   1          0.3275664 
779.4      0.1317128  1          0.3432517 
779.5      0.1294666  1          0.3393469 
779.6      0.1298605  1          0.3431486 
779.7      0.1404531  1          0.3460401 
779.8      0.1472854  1          0.3578357 
779.9      0.1591039  1          0.3753219 
780        0.1773676  1          0.3686596 
780.1      0.1792144  1          0.3678045 
