~Version
 VERS              .         3.0                           : CWLS LOG ASCII STANDARD - VERSION 3.0
 WRAP              .         NO                            : ONE LINE PER DEPTH STEP
 DLM               .         SPACE                         : DELIMITING CHARACTER(SPACE TAB OR COMMA)
~Well Information
#_______________________________________________________________________________
#
#PARAMETER_NAME    .UNIT     VALUE                         : DESCRIPTION
#_______________________________________________________________________________
STRT               .м        0.1                           : First reference value
STOP               .м        905                           : Last reference value
STEP               .м        0.1                           : Step increment
NULL               .         -9999                         : Missing value
COMP               .         ICPetroleum                   : Company
WELL               .         304                           : Well name
FLD                .         Karatobe                      : Field
LOC                .                                       : Location
SRVC               .                                       : Service Company
CTRY               .         KZ                            : Country
DATE               .         Нет поля ДАТА_ИССЛЕДОВАНИЯ    : Service Date
LATI               .         0                             : Latitude
LONG               .         0                             : Longitude
GDAT               .         WGS 84                        : Geodetic Datum
CNTY               .         WEST_SIBERIA                  : 
COORDIN            .                                       : Grid System
COUNT              .         KAZAKHSTAN                    : Country
COUNTRY            .         Kazakhstan                    : 
COUNTRY            .         Kazakhstan                    : 
EREF               .m        142.1                         : 
KB                 .         141.8                         : KB Elevation
ORIGINALWELLNAME   .         304                           : 
PROV               .                                       : Province
RWS                .         -999                          : Def_Rw
UWI                .         1_304                         : Unique Well Identifier (UWI)
WST                .         -999                          : Def_Rwt
X                  .km       466783.1                      : 
XCOORD             .                                       : X or East-West Coordinate
Y                  .km       5308023.95                    : 
YCOORD             .                                       : Y or North-South Coordinate
~Parameter Information Block
#_______________________________________________________________________________
#
#PARAMETER_NAME    .UNIT     VALUE                         : DESCRIPTION
#_______________________________________________________________________________
SET                .         Las                           : 
DFL                .см3/мин  -999.250                      : Водоотдача промывочной жидкости
GSDD               .         NPHI                          : NPHI,0,DEPT,,,,,0
TDD                .м        720.0                         : Полная глубина по бурению
TDL                .м        706.0                         : Полная глубина по каротажу
TLFamily_DEPT      .         Measured Depth                : 
TLFamily_PHI_FINAL .         Porosity                      : 
TLFamily_SW_AR     .         Water Saturation              : 
TLFamily_VSH_FINAL .         Shale Volume                  : 
~Curve Information
#_______________________________________________________________________________
#
#LOGNAME           .UNIT     LOG_ID                        : DESCRIPTION
#_______________________________________________________________________________
DEPT               .м                                      : Колонка глубины {F}
PHI_FINAL          .m3/m3                                  : Porosity {F}
SW_AR              .m3/m3                                  :  {F}
VSH_FINAL          .unitless                               : Vshale {F}
~Ascii
# ...
470.8      0.1533861  1          0.5843723 
470.9      0.1446932  1          0.604643  
471        0.130237   1          0.6338804 
471.1      0.1166535  1          0.6695406 
471.2      0.1160148  1          0.6586578 
471.3      0.07358966 1          0.7477521 
471.4      0.06409218 1          0.7683478 
471.5      0.05548783 1          0.7638827 
471.6      0.08184326 1          0.6553476 
471.7      0.1080109  1          0.5789723 
471.8      0.133146   1          0.5334001 
471.9      0.1799358  1          0.4708166 
472        0.2333214  1          0.4024884 
472.1      0.2749671  1          0.3663738 
472.2      0.2954946  0.9675105  0.3634999 
472.3      0.2796035  0.9984697  0.3935127 
472.4      0.25349    1          0.4054827 
472.5      0.2519382  1          0.3568351 
472.6      0.2437993  1          0.3212062 
472.7      0.2147105  1          0.3474661 
472.8      0.1802914  1          0.4227126 
472.9      0.1373438  1          0.5390217 
473        0.06750724 1          0.6790811 
473.1      0.04465534 1          0.7234453 
473.2      0.06548943 1          0.6706753 
473.3      0.0570334  1          0.7059748 
473.4      0.07339779 1          0.6797876 
473.5      0.09001648 1          0.654694  
473.6      0.1338932  1          0.5614315 
473.7      0.1401543  1          0.5833656 
473.8      0.1424773  1          0.58608   
473.9      0.1658214  1          0.5263991 
474        0.1514794  1          0.5616696 
474.1      0.1638762  1          0.5345212 
474.2      0.1697196  1          0.5188991 
474.3      0.1723869  1          0.5084441 
474.4      0.1787601  1          0.488322  
474.5      0.1720751  1          0.4897946 
474.6      0.1705465  1          0.4959388 
474.7      0.1671793  1          0.5040812 
474.8      0.1811415  1          0.4888937 
474.9      0.1965377  1          0.4595959 
475        0.1847825  1          0.4805832 
475.1      0.1890492  1          0.4726299 
475.2      0.1791118  1          0.4925627 
475.3      0.18669    1          0.4632479 
475.4      0.1757702  1          0.5083277 
475.5      0.1585606  1          0.5748175 
475.6      0.1599073  1          0.5906875 
475.7      0.1335921  1          0.6504269 
475.8      0.1319383  1          0.6452875 
475.9      0.1227244  1          0.6515394 
476        0.06765132 1          0.7652709 
476.1      0.02298219 1          0.8673994 
476.2      0.01108743 1          0.9168913 
476.3      0.01280585 1          0.8776878 
476.4      0.02356996 1          0.8168252 
476.5      0.03823406 1          0.7812968 
476.6      0.07496757 1          0.7019637 
476.7      0.117676   1          0.6147154 
476.8      0.1410121  1          0.5746597 
476.9      0.151679   1          0.553649  
477        0.1364373  1          0.5892127 
477.1      0.1218726  1          0.6314481 
477.2      0.141817   1          0.5778597 
477.3      0.1668212  1          0.5108033 
477.4      0.1722056  1          0.5057728 
477.5      0.1789299  1          0.4902244 
477.6      0.1862347  1          0.4674583 
477.7      0.1932415  1          0.4465492 
477.8      0.1766925  1          0.4974307 
477.9      0.1552808  1          0.5526226 
478        0.1577371  1          0.5510197 
478.1      0.1443168  1          0.5989436 
478.2      0.1277933  1          0.643495  
478.3      0.1116846  1          0.6721974 
478.4      0.09414262 1          0.7095798 
478.5      0.08388501 1          0.7364606 
478.6      0.08705179 1          0.7309664 
478.7      0.09054543 1          0.7364637 
478.8      0.1038195  1          0.7268429 
478.9      0.1096642  1          0.7510522 
479        0.1166088  1          0.7785545 
479.1      0.1605149  1          0.71257   
479.2      0.1761952  1          0.705116  
479.3      0.2104872  1          0.6517631 
479.4      0.262994   1          0.5636261 
479.5      0.2967505  0.907212   0.503863  
479.6      0.3384247  0.7462812  0.4322495 
479.7      0.3879906  0.6223175  0.3278769 
479.8      0.4143075  0.6088595  0.2428985 
479.9      0.4235784  0.6456955  0.1933164 
480        0.4206702  0.6970932  0.1661567 
480.1      0.3912397  0.7583186  0.182907  
480.2      0.3380226  0.8294362  0.2238872 
480.3      0.2779237  0.9667003  0.265821  
480.4      0.2272588  1          0.3182443 
480.5      0.1895162  1          0.3757887 
480.6      0.1714429  1          0.3961859 
480.7      0.1508555  1          0.4495651 
480.8      0.1263092  1          0.4990662 
480.9      0.1077277  1          0.5503175 
481        0.09667999 1          0.5828124 
481.1      0.07356788 1          0.6371102 
481.2      0.0371519  1          0.739076  
481.3      0.01104732 1          0.8368778 
481.4      0.001037477 1          0.9371229 
481.5      0.0014855  1          0.9817586 
481.6      0.0007878834 1          1         
481.7      0.001772731 1          1         
481.8      0.003212131 1          1         
481.9      0.007431234 1          1         
482        0.008950269 1          1         
482.1      0.01206221 1          1         
482.2      0.01376121 1          1         
482.3      0.01827286 1          1         
482.4      0.0186328  1          1         
482.5      0.01746638 1          1         
482.6      0.01749754 1          1         
482.7      0.01984502 1          1         
482.8      0.0221852  1          1         
482.9      0.02787717 1          1         
483        0.03802781 1          1         
483.1      0.04192365 1          0.9917113 
483.2      0.09481547 1          0.8260108 
483.3      0.1313109  1          0.7196071 
483.4      0.1535329  1          0.6527991 
483.5      0.1343631  1          0.7100978 
483.6      0.1287346  1          0.6846293 
483.7      0.1185444  1          0.6817789 
483.8      0.1238093  1          0.6297266 
483.9      0.1425737  1          0.5309609 
484        0.1496559  1          0.4699079 
484.1      0.1801635  1          0.3726181 
484.2      0.2047801  1          0.324886  
484.3      0.208427   1          0.3034301 
484.4      0.1996147  1          0.3228631 
484.5      0.1942054  1          0.3350948 
484.6      0.1696663  1          0.3814116 
484.7      0.1597092  1          0.4031601 
484.8      0.1349372  1          0.4522004 
484.9      0.1296714  1          0.4701253 
485        0.1245855  1          0.4925778 
485.1      0.1109618  1          0.547795  
485.2      0.1084808  1          0.5757413 
485.3      0.06214567 1          0.7000631 
485.4      0.1028852  1          0.6095553 
485.5      0.1203298  1          0.5811889 
485.6      0.1135631  1          0.6151626 
485.7      0.1263494  1          0.5883665 
485.8      0.1420958  1          0.547596  
485.9      0.1302132  1          0.5681135 
486        0.1504496  1          0.5200826 
486.1      0.1514775  1          0.5012784 
486.2      0.1330182  1          0.5256988 
486.3      0.1062998  1          0.5608345 
486.4      0.1201317  1          0.5176271 
486.5      0.1273832  1          0.5090342 
486.6      0.1373423  1          0.4907517 
486.7      0.1252268  1          0.5371885 
486.8      0.1194576  1          0.5609863 
486.9      0.1165192  1          0.5803444 
487        0.1058195  1          0.6230094 
487.1      0.06052866 1          0.7454173 
487.2      0.04496966 1          0.7965848 
487.3      0.03282442 1          0.8195038 
487.4      0.05663314 1          0.7672603 
487.5      0.06097392 1          0.7699186 
487.6      0.05221409 1          0.8244704 
487.7      0.04138745 1          0.8776358 
487.8      0.04253368 1          0.8918698 
487.9      0.05994601 1          0.8572761 
488        0.06594922 1          0.8658338 
488.1      0.07796772 1          0.8550298 
488.2      0.07345523 1          0.8632846 
488.3      0.04009487 1          0.9409746 
488.4      0.04464042 1          0.9212221 
488.5      0.02942259 1          0.9584423 
488.6      0.04389654 1          0.8632569 
488.7      0.03302456 1          0.863672  
488.8      0.03215476 1          0.8287441 
488.9      0.01378774 1          0.8849885 
