~Version
 VERS              .         3.0                           : CWLS LOG ASCII STANDARD - VERSION 3.0
 WRAP              .         NO                            : ONE LINE PER DEPTH STEP
 DLM               .         SPACE                         : DELIMITING CHARACTER(SPACE TAB OR COMMA)
~Well Information
#_______________________________________________________________________________
#
#PARAMETER_NAME    .UNIT     VALUE                         : DESCRIPTION
#_______________________________________________________________________________
STRT               .м        0.1                           : First reference value
STOP               .м        905                           : Last reference value
STEP               .м        0.1                           : Step increment
NULL               .         -9999                         : Missing value
COMP               .         ICPetroleum                   : Company
WELL               .         304                           : Well name
FLD                .         Karatobe                      : Field
LOC                .                                       : Location
SRVC               .                                       : Service Company
CTRY               .         KZ                            : Country
DATE               .         Нет поля ДАТА_ИССЛЕДОВАНИЯ    : Service Date
LATI               .         0                             : Latitude
LONG               .         0                             : Longitude
GDAT               .         WGS 84                        : Geodetic Datum
CNTY               .         WEST_SIBERIA                  : 
COORDIN            .                                       : Grid System
COUNT              .         KAZAKHSTAN                    : Country
COUNTRY            .         Kazakhstan                    : 
COUNTRY            .         Kazakhstan                    : 
EREF               .m        142.1                         : 
KB                 .         141.8                         : KB Elevation
ORIGINALWELLNAME   .         304                           : 
PROV               .                                       : Province
RWS                .         -999                          : Def_Rw
UWI                .         1_304                         : Unique Well Identifier (UWI)
WST                .         -999                          : Def_Rwt
X                  .km       466783.1                      : 
XCOORD             .                                       : X or East-West Coordinate
Y                  .km       5308023.95                    : 
YCOORD             .                                       : Y or North-South Coordinate
~Parameter Information Block
#_______________________________________________________________________________
#
#PARAMETER_NAME    .UNIT     VALUE                         : DESCRIPTION
#_______________________________________________________________________________
SET                .         Las                           : 
DFL                .см3/мин  -999.250                      : Водоотдача промывочной жидкости
GSDD               .         NPHI                          : NPHI,0,DEPT,,,,,0
TDD                .м        720.0                         : Полная глубина по бурению
TDL                .м        706.0                         : Полная глубина по каротажу
TLFamily_DEPT      .         Measured Depth                : 
TLFamily_PHI_FINAL .         Porosity                      : 
TLFamily_SW_AR     .         Water Saturation              : 
TLFamily_VSH_FINAL .         Shale Volume                  : 
~Curve Information
#_______________________________________________________________________________
#
#LOGNAME           .UNIT     LOG_ID                        : DESCRIPTION
#_______________________________________________________________________________
DEPT               .м                                      : Колонка глубины {F}
PHI_FINAL          .m3/m3                                  : Porosity {F}
SW_AR              .m3/m3                                  :  {F}
VSH_FINAL          .unitless                               : Vshale {F}
~Ascii
# ...
525.4      0.09954833 1          0.6264569 
525.5      0.0859216  1          0.6527888 
525.6      0.09369288 1          0.6364267 
525.7      0.09613172 1          0.6190031 
525.8      0.08491716 1          0.6473821 
525.9      0.07293779 1          0.6762429 
526        0.05952207 1          0.7217364 
526.1      0.05468101 1          0.7409978 
526.2      0.0645167  1          0.7019077 
526.3      0.06620064 1          0.7040778 
526.4      0.09137786 1          0.6461512 
526.5      0.08676278 1          0.6769342 
526.6      0.07482989 1          0.7069474 
526.7      0.09640686 1          0.6532913 
526.8      0.09959164 1          0.6596253 
526.9      0.09368867 1          0.6822628 
527        0.07768087 1          0.7201284 
527.1      0.06636651 1          0.7348205 
527.2      0.0588461  1          0.7432847 
527.3      0.07111666 1          0.7084605 
527.4      0.08923815 1          0.6590152 
527.5      0.08037013 1          0.7009306 
527.6      0.04825567 1          0.7951587 
527.7      0.03019448 1          0.8401873 
527.8      0.02322174 1          0.8633487 
527.9      0.02922473 1          0.821372  
528        0.01998247 1          0.8575932 
528.1      0.02152513 1          0.84688   
528.2      0.05324334 1          0.7447338 
528.3      0.06072698 1          0.7240099 
528.4      0.06228789 1          0.7292912 
528.5      0.06220849 1          0.7436581 
528.6      0.0684835  1          0.7409096 
528.7      0.02945994 1          0.8342706 
528.8      0.02059626 1          0.8743106 
528.9      0.02326477 1          0.8554942 
529        0.03372735 1          0.8317356 
529.1      0.03426075 1          0.8326589 
529.2      0.0381119  1          0.8149272 
529.3      0.05009241 1          0.8018868 
529.4      0.06799597 1          0.7497951 
529.5      0.06075726 1          0.7659879 
529.6      0.02863171 1          0.8488169 
529.7      0.04487511 1          0.808563  
529.8      0.06149037 1          0.777494  
529.9      0.05739701 1          0.7806122 
530        0.068892   1          0.7404497 
530.1      0.08345918 1          0.6983058 
530.2      0.08467388 1          0.6894276 
530.3      0.06302632 1          0.7346354 
530.4      0.0485624  1          0.7675837 
530.5      0.03360112 1          0.7985327 
530.6      0.04516878 1          0.7469164 
530.7      0.04718326 1          0.727106  
530.8      0.02534815 1          0.7892652 
530.9      0.02791647 1          0.7977584 
531        0.0434301  1          0.7607188 
531.1      0.05693574 1          0.734648  
531.2      0.05346811 1          0.7373743 
531.3      0.03222639 1          0.7911507 
531.4      0.043083   1          0.7464435 
531.5      0.05332793 1          0.7147993 
531.6      0.0527774  1          0.7121532 
531.7      0.06852936 1          0.6682329 
531.8      0.05577391 1          0.6751122 
531.9      0.05025981 1          0.6869357 
532        0.04758959 1          0.6912932 
532.1      0.05950199 1          0.661767  
532.2      0.08494429 1          0.6442207 
532.3      0.123437   1          0.5688583 
532.4      0.1562877  1          0.5215873 
532.5      0.1573102  1          0.5344027 
532.6      0.142306   1          0.5529784 
532.7      0.1232878  1          0.5911245 
532.8      0.1029313  1          0.6423721 
532.9      0.09296273 1          0.6794522 
533        0.09248011 1          0.697625  
533.1      0.1229487  1          0.6383172 
533.2      0.1405391  1          0.6334434 
533.3      0.1701402  1          0.6181962 
533.4      0.2065411  1          0.5903147 
533.5      0.2290487  1          0.5935412 
533.6      0.2346272  1          0.6120701 
533.7      0.2519031  1          0.5919983 
533.8      0.2591495  1          0.5048867 
533.9      0.2424078  1          0.4342276 
534        0.238204   1          0.3628337 
534.1      0.2227008  1          0.3494745 
534.2      0.1981242  1          0.3839496 
534.3      0.1721034  1          0.4453087 
534.4      0.1635757  1          0.4555648 
534.5      0.1386749  1          0.524914  
534.6      0.1309014  1          0.5460808 
534.7      0.1179463  1          0.5704286 
534.8      0.1158583  1          0.5669591 
534.9      0.1105848  1          0.5805212 
535        0.08689386 1          0.6188397 
535.1      0.06217326 1          0.7043788 
535.2      0.06873583 1          0.6814356 
535.3      0.08093354 1          0.6725593 
535.4      0.07552218 1          0.7233549 
535.5      0.06627436 1          0.7740902 
535.6      0.09016293 1          0.7481577 
535.7      0.1171778  1          0.7283786 
535.8      0.1205047  1          0.7178016 
535.9      0.1323913  1          0.6978474 
536        0.1168829  1          0.7336664 
536.1      0.09773121 1          0.7642553 
536.2      0.06344067 1          0.8222238 
536.3      0.05243833 1          0.8365575 
536.4      0.02225619 1          0.9180458 
536.5      0.02016813 1          0.9086991 
536.6      0.01634809 1          0.9085465 
536.7      0.02264307 1          0.8791119 
536.8      0.01450268 1          0.8859229 
536.9      0.004737925 1          0.9382479 
537        0          1          0.9952545 
537.1      0.002515801 1          0.9426476 
537.2      0.0006363609 1          1         
537.3      0.0006363609 1          1         
537.4      0.0009394058 1          1         
537.5      0.001848485 1          1         
537.6      0.003414401 1          0.9785112 
537.7      0.004628919 1          0.9517741 
537.8      0.02334017 1          0.8250338 
537.9      0.04720008 1          0.775306  
538        0.02713979 1          0.8520992 
538.1      0.02988907 1          0.8479277 
538.2      0.04920468 1          0.8081763 
538.3      0.02650264 1          0.9093776 
538.4      0.04423766 1          0.8689207 
538.5      0.03464688 1          0.903091  
538.6      0.05804345 1          0.8448223 
538.7      0.05232001 1          0.8627525 
538.8      0.06105752 1          0.8213398 
538.9      0.09065724 1          0.7770286 
539        0.1372698  1          0.6998774 
539.1      0.1431778  1          0.6984176 
539.2      0.1624304  1          0.6444816 
539.3      0.1624999  1          0.6162609 
539.4      0.1607427  1          0.539604  
539.5      0.1447537  1          0.515805  
539.6      0.1174763  1          0.5622453 
539.7      0.08525229 1          0.6249995 
539.8      0.05902064 1          0.6858429 
539.9      0.01963939 1          0.7666887 
540        0.01441528 1          0.7763993 
540.1      0.02202083 1          0.731975  
540.2      0.009048598 1          0.7906039 
540.3      0.02418729 1          0.7390411 
540.4      0.05084303 1          0.6757645 
540.5      0.04856822 1          0.6674142 
540.6      0.06231346 1          0.6323348 
540.7      0.07753693 1          0.5810956 
540.8      0.08338673 1          0.5636745 
540.9      0.09592678 1          0.5368325 
541        0.08375958 1          0.5495365 
541.1      0.1137105  1          0.474307  
541.2      0.1127183  1          0.4581389 
541.3      0.08697622 1          0.4780325 
541.4      0.06494315 1          0.4857594 
541.5      0.04913911 1          0.4783836 
541.6      0.04301108 1          0.4711042 
541.7      0.05873615 1          0.4467491 
541.8      0.09958921 1          0.3901222 
541.9      0.1037003  1          0.4216671 
542        0.1347207  1          0.3921997 
542.1      0.1496431  1          0.3929681 
542.2      0.1671304  1          0.3847834 
542.3      0.1634801  1          0.4158215 
542.4      0.1671986  1          0.4066802 
542.5      0.1583063  1          0.4129963 
542.6      0.1559549  1          0.4162286 
542.7      0.1624095  1          0.4087735 
542.8      0.1766767  1          0.3790108 
542.9      0.1881675  1          0.3753937 
543        0.1975761  1          0.3694605 
543.1      0.2103867  1          0.3477361 
543.2      0.2092033  1          0.3607466 
543.3      0.2224802  1          0.3378699 
543.4      0.2425131  1          0.3074481 
543.5      0.2523169  1          0.288709  
