~Version
 VERS              .         3.0                           : CWLS LOG ASCII STANDARD - VERSION 3.0
 WRAP              .         NO                            : ONE LINE PER DEPTH STEP
 DLM               .         SPACE                         : DELIMITING CHARACTER(SPACE TAB OR COMMA)
~Well Information
#_______________________________________________________________________________
#
#PARAMETER_NAME    .UNIT     VALUE                         : DESCRIPTION
#_______________________________________________________________________________
STRT               .м        0.1                           : First reference value
STOP               .м        905                           : Last reference value
STEP               .м        0.1                           : Step increment
NULL               .         -9999                         : Missing value
COMP               .         ICPetroleum                   : Company
WELL               .         304                           : Well name
FLD                .         Karatobe                      : Field
LOC                .                                       : Location
SRVC               .                                       : Service Company
CTRY               .         KZ                            : Country
DATE               .         Нет поля ДАТА_ИССЛЕДОВАНИЯ    : Service Date
LATI               .         0                             : Latitude
LONG               .         0                             : Longitude
GDAT               .         WGS 84                        : Geodetic Datum
CNTY               .         WEST_SIBERIA                  : 
COORDIN            .                                       : Grid System
COUNT              .         KAZAKHSTAN                    : Country
COUNTRY            .         Kazakhstan                    : 
COUNTRY            .         Kazakhstan                    : 
EREF               .m        142.1                         : 
KB                 .         141.8                         : KB Elevation
ORIGINALWELLNAME   .         304                           : 
PROV               .                                       : Province
RWS                .         -999                          : Def_Rw
UWI                .         1_304                         : Unique Well Identifier (UWI)
WST                .         -999                          : Def_Rwt
X                  .km       466783.1                      : 
XCOORD             .                                       : X or East-West Coordinate
Y                  .km       5308023.95                    : 
YCOORD             .                                       : Y or North-South Coordinate
~Parameter Information Block
#_______________________________________________________________________________
#
#PARAMETER_NAME    .UNIT     VALUE                         : DESCRIPTION
#_______________________________________________________________________________
SET                .         Las                           : 
DFL                .см3/мин  -999.250                      : Водоотдача промывочной жидкости
GSDD               .         NPHI                          : NPHI,0,DEPT,,,,,0
TDD                .м        720.0                         : Полная глубина по бурению
TDL                .м        706.0                         : Полная глубина по каротажу
TLFamily_DEPT      .         Measured Depth                : 
TLFamily_PHI_FINAL .         Porosity                      : 
TLFamily_SW_AR     .         Water Saturation              : 
TLFamily_VSH_FINAL .         Shale Volume                  : 
~Curve Information
#_______________________________________________________________________________
#
#LOGNAME           .UNIT     LOG_ID                        : DESCRIPTION
#_______________________________________________________________________________
DEPT               .м                                      : Колонка глубины {F}
PHI_FINAL          .m3/m3                                  : Porosity {F}
SW_AR              .m3/m3                                  :  {F}
VSH_FINAL          .unitless                               : Vshale {F}
~Ascii
# ...
434.4      0.1381223  1          0.7120326 
434.5      0.1170317  1          0.7665648 
434.6      0.1045834  1          0.8270675 
434.7      0.07002769 1          0.903643  
434.8      0.07703972 1          0.8917109 
434.9      0.115067   1          0.8026026 
435        0.1157776  1          0.7854627 
435.1      0.1577057  1          0.6674824 
435.2      0.1999505  1          0.5519186 
435.3      0.212098   1          0.5299528 
435.4      0.2349066  1          0.4754955 
435.5      0.2443794  1          0.4628566 
435.6      0.2561525  1          0.4418778 
435.7      0.271015   1          0.4232628 
435.8      0.2708348  1          0.4200978 
435.9      0.2832956  1          0.4264209 
436        0.3073931  0.9603963  0.3882323 
436.1      0.2876742  0.9565364  0.4521472 
436.2      0.288387   0.9255201  0.4664193 
436.3      0.260379   1          0.5774396 
436.4      0.2489314  1          0.6194425 
436.5      0.2287041  1          0.671497  
436.6      0.2733884  1          0.5552176 
436.7      0.3356264  0.9786769  0.3688529 
436.8      0.3608217  0.890876   0.2297285 
436.9      0.3649862  0.8139102  0.1699479 
437        0.3407336  0.8185128  0.1981329 
437.1      0.3209482  0.8425565  0.238216  
437.2      0.2694789  0.9569136  0.3350784 
437.3      0.2118221  1          0.442078  
437.4      0.1731575  1          0.5316404 
437.5      0.1346954  1          0.6316181 
437.6      0.1179065  1          0.6749272 
437.7      0.07933463 1          0.7810279 
437.8      0.06782361 1          0.8174692 
437.9      0.05890597 1          0.8220402 
438        0.04765667 1          0.8404261 
438.1      0.04562506 1          0.8357533 
438.2      0.02351082 1          0.9061673 
438.3      0.02842543 1          0.8939322 
438.4      0.03390014 1          0.8697806 
438.5      0.03264228 1          0.884957  
438.6      0.07849988 1          0.7706017 
438.7      0.04510419 1          0.856831  
438.8      0.04475463 1          0.871506  
438.9      0.04458715 1          0.8870037 
439        0.01823481 1          1         
439.1      0.0252188  1          0.9959815 
439.2      0.03331015 1          1         
439.3      0.05475283 1          0.9348405 
439.4      0.07199921 1          0.911215  
439.5      0.07566313 1          0.9104421 
439.6      0.08877847 1          0.8915645 
439.7      0.1367272  1          0.7938175 
439.8      0.1483053  1          0.7806021 
439.9      0.1642863  1          0.7446819 
440        0.1833609  1          0.7107465 
440.1      0.1735786  1          0.7221506 
440.2      0.1787121  1          0.690567  
440.3      0.2039011  1          0.6170865 
440.4      0.2133629  1          0.5707238 
440.5      0.2173658  1          0.5225901 
440.6      0.2203733  1          0.4880712 
440.7      0.2344589  1          0.44945   
440.8      0.2179304  1          0.4875756 
440.9      0.1851719  1          0.5453355 
441        0.1553194  1          0.5831289 
441.1      0.09435663 1          0.6966769 
441.2      0.07302585 1          0.7362414 
441.3      0.04244594 1          0.7921717 
441.4      0.002921225 1          1         
441.5      0.001655852 1          1         
441.6      0.002373422 1          1         
441.7      0.008308972 1          0.9742615 
441.8      0.021844   1          0.8991527 
441.9      0.01926302 1          0.9286084 
442        0.02447851 1          0.913069  
442.1      0.03820457 1          0.8778492 
442.2      0.02084843 1          0.9762896 
442.3      0.04429884 1          0.9214602 
442.4      0.04566246 1          0.9299429 
442.5      0.06713809 1          0.8789937 
442.6      0.06351098 1          0.8729663 
442.7      0.06485344 1          0.8422908 
442.8      0.08585992 1          0.7745039 
442.9      0.07482588 1          0.8026488 
443        0.09124859 1          0.7901291 
443.1      0.1167661  1          0.7469991 
443.2      0.1359226  1          0.7342701 
443.3      0.1685172  1          0.6856306 
443.4      0.1608143  1          0.6959359 
443.5      0.1953812  1          0.6082079 
443.6      0.2031084  1          0.5744877 
443.7      0.2123398  1          0.5215331 
443.8      0.2306035  1          0.4754062 
443.9      0.2446855  1          0.4380381 
444        0.2449052  1          0.4199665 
444.1      0.2424106  1          0.4085008 
444.2      0.2424374  1          0.409346  
444.3      0.2089527  1          0.5028636 
444.4      0.1683848  1          0.6109376 
444.5      0.1293051  1          0.7056887 
444.6      0.08884998 1          0.8218994 
444.7      0.05879162 1          0.8975181 
444.8      0.03078601 1          0.9749065 
444.9      0.03137241 1          0.9698894 
445        0.0306016  1          0.9588282 
445.1      0.01683033 1          1         
445.2      0.01916442 1          0.9594365 
445.3      0.01436287 1          0.9434559 
445.4      0.003317054 1          1         
445.5      0.001936141 1          1         
445.6      0.00994214 1          0.8868524 
445.7      0.04070072 1          0.7785485 
445.8      0.09450965 1          0.6545724 
445.9      0.1388332  1          0.5798807 
446        0.1807913  1          0.5334982 
446.1      0.1804693  1          0.5967166 
446.2      0.1902029  1          0.5922769 
446.3      0.1538969  1          0.6547179 
446.4      0.149371   1          0.6291543 
446.5      0.1317101  1          0.6184775 
446.6      0.1354339  1          0.5674213 
446.7      0.1415396  1          0.5543578 
446.8      0.1077508  1          0.6412473 
446.9      0.0562605  1          0.7704189 
447        0.02653326 1          0.8501339 
447.1      0.004844305 1          0.9959034 
447.2      0.005679165 1          0.9970396 
447.3      0.00636919 1          1         
447.4      0.006848792 1          1         
447.5      0.003235991 1          1         
447.6      0.004147995 1          1         
447.7      0.00681567 1          1         
447.8      0.009675571 1          1         
447.9      0.02533393 1          0.9538125 
448        0.03210353 1          0.9467058 
448.1      0.03935981 1          0.9183466 
448.2      0.02277381 1          1         
448.3      0.04104998 1          0.9572409 
448.4      0.0601224  1          0.910555  
448.5      0.04301995 1          0.9894275 
448.6      0.04757735 1          1         
448.7      0.06492706 1          0.9831978 
448.8      0.1011008  1          0.9178099 
448.9      0.1630106  1          0.7995157 
449        0.2243362  1          0.6947417 
449.1      0.2727868  0.8328095  0.5558078 
449.2      0.2974982  0.8072714  0.4748633 
449.3      0.329395   0.7929897  0.3920125 
449.4      0.3140593  0.8711672  0.4184396 
449.5      0.2836139  0.9732143  0.5050268 
449.6      0.2054375  1          0.6625062 
449.7      0.1735256  1          0.6970261 
449.8      0.08252089 1          0.8944901 
449.9      0.05944782 1          0.9332044 
450        0.05344569 1          0.9321088 
450.1      0.02681149 1          0.9832936 
450.2      0.01537421 1          1         
450.3      0.008445043 1          1         
450.4      0.00313334 1          1         
450.5      0.001433591 1          0.9855039 
450.6      0.0007878834 1          1         
450.7      0.00222728 1          1         
450.8      0.002303033 1          1         
450.9      0.002530306 1          1         
451        0.003060608 1          1         
451.1      0.02159074 1          0.8794549 
451.2      0.01737357 1          0.9163235 
451.3      0.0148471  1          0.9448531 
451.4      0.01795732 1          0.9242421 
451.5      0.03963004 1          0.8585584 
451.6      0.03494997 1          0.8775111 
451.7      0.0139613  1          0.9797924 
451.8      0.01056895 1          1         
451.9      0.0180839  1          0.9413391 
452        0.02931811 1          0.890721  
452.1      0.05864041 1          0.8746981 
452.2      0.1441625  1          0.7294666 
452.3      0.2208768  1          0.567758  
452.4      0.2705293  1          0.4629192 
452.5      0.2961512  1          0.3680676 
