~Version
 VERS              .         3.0                           : CWLS LOG ASCII STANDARD - VERSION 3.0
 WRAP              .         NO                            : ONE LINE PER DEPTH STEP
 DLM               .         SPACE                         : DELIMITING CHARACTER(SPACE TAB OR COMMA)
~Well Information
#_______________________________________________________________________________
#
#PARAMETER_NAME    .UNIT     VALUE                         : DESCRIPTION
#_______________________________________________________________________________
STRT               .м        0.1                           : First reference value
STOP               .м        905                           : Last reference value
STEP               .м        0.1                           : Step increment
NULL               .         -9999                         : Missing value
COMP               .         ICPetroleum                   : Company
WELL               .         304                           : Well name
FLD                .         Karatobe                      : Field
LOC                .                                       : Location
SRVC               .                                       : Service Company
CTRY               .         KZ                            : Country
DATE               .         Нет поля ДАТА_ИССЛЕДОВАНИЯ    : Service Date
LATI               .         0                             : Latitude
LONG               .         0                             : Longitude
GDAT               .         WGS 84                        : Geodetic Datum
CNTY               .         WEST_SIBERIA                  : 
COORDIN            .                                       : Grid System
COUNT              .         KAZAKHSTAN                    : Country
COUNTRY            .         Kazakhstan                    : 
COUNTRY            .         Kazakhstan                    : 
EREF               .m        142.1                         : 
KB                 .         141.8                         : KB Elevation
ORIGINALWELLNAME   .         304                           : 
PROV               .                                       : Province
RWS                .         -999                          : Def_Rw
UWI                .         1_304                         : Unique Well Identifier (UWI)
WST                .         -999                          : Def_Rwt
X                  .km       466783.1                      : 
XCOORD             .                                       : X or East-West Coordinate
Y                  .km       5308023.95                    : 
YCOORD             .                                       : Y or North-South Coordinate
~Parameter Information Block
#_______________________________________________________________________________
#
#PARAMETER_NAME    .UNIT     VALUE                         : DESCRIPTION
#_______________________________________________________________________________
SET                .         Las                           : 
DFL                .см3/мин  -999.250                      : Водоотдача промывочной жидкости
GSDD               .         NPHI                          : NPHI,0,DEPT,,,,,0
TDD                .м        720.0                         : Полная глубина по бурению
TDL                .м        706.0                         : Полная глубина по каротажу
TLFamily_DEPT      .         Measured Depth                : 
TLFamily_PHI_FINAL .         Porosity                      : 
TLFamily_SW_AR     .         Water Saturation              : 
TLFamily_VSH_FINAL .         Shale Volume                  : 
~Curve Information
#_______________________________________________________________________________
#
#LOGNAME           .UNIT     LOG_ID                        : DESCRIPTION
#_______________________________________________________________________________
DEPT               .м                                      : Колонка глубины {F}
PHI_FINAL          .m3/m3                                  : Porosity {F}
SW_AR              .m3/m3                                  :  {F}
VSH_FINAL          .unitless                               : Vshale {F}
~Ascii
# ...
197.9      0.1215321  1          0.8612444 
198        0.1222272  1          0.8617533 
198.1      0.1168694  1          0.876869  
198.2      0.1185998  1          0.8686599 
198.3      0.1416041  1          0.8011625 
198.4      0.1392148  1          0.8100793 
198.5      0.1410907  1          0.8027709 
198.6      0.100178   1          0.9021966 
198.7      0.0981238  1          0.9074116 
198.8      0.1171633  1          0.8634115 
198.9      0.1365043  1          0.8223628 
199        0.1563078  1          0.7637291 
199.1      0.1315947  1          0.7934291 
199.2      0.1264621  1          0.8090706 
199.3      0.1529506  1          0.7440397 
199.4      0.1433976  1          0.7591083 
199.5      0.1529269  1          0.724962  
199.6      0.1004645  1          0.8550965 
199.7      0.1437566  1          0.7744469 
199.8      0.1413091  1          0.781194  
199.9      0.1369629  1          0.8001444 
200        0.1241623  1          0.8304299 
200.1      0.1501154  1          0.7697669 
200.2      0.1194222  1          0.8478972 
200.3      0.1199504  1          0.8392782 
200.4      0.1259361  1          0.8122808 
200.5      0.1382725  1          0.7822857 
200.6      0.133196   1          0.765579  
200.7      0.1174087  1          0.7867075 
200.8      0.1329835  1          0.7640339 
200.9      0.1373851  1          0.7552844 
201        0.1461515  1          0.7427077 
201.1      0.1427378  1          0.7895548 
201.2      0.1800015  1          0.6813532 
201.3      0.1570902  1          0.732699  
201.4      0.1226058  1          0.791616  
201.5      0.110824   1          0.8029929 
201.6      0.09251565 1          0.8250343 
201.7      0.09043018 1          0.8094609 
201.8      0.1133071  1          0.7085753 
201.9      0.1375815  1          0.5954893 
202        0.1564897  1          0.5456849 
202.1      0.1553224  1          0.5543391 
202.2      0.1969651  0.8855043  0.4569911 
202.3      0.2178158  0.8081985  0.4037222 
202.4      0.2136246  0.8513461  0.433768  
202.5      0.2168697  0.845506   0.4267846 
202.6      0.2127103  0.855176   0.4484904 
202.7      0.2163939  0.8434933  0.4733385 
202.8      0.2246775  0.8303772  0.4783372 
202.9      0.2049959  0.9344459  0.5339218 
203        0.1988554  0.9887693  0.5529601 
203.1      0.2193399  0.918966   0.5234962 
203.2      0.2286626  0.8929298  0.543121  
203.3      0.2082276  0.9797748  0.6103685 
203.4      0.2359075  0.8737086  0.5616306 
203.5      0.2568073  0.8079259  0.5344615 
203.6      0.2914191  0.7195756  0.4877415 
203.7      0.2898939  0.731755   0.5124487 
203.8      0.3071939  0.7053545  0.4919409 
203.9      0.3183874  0.6922859  0.4778207 
204        0.3351282  0.668267   0.4348382 
204.1      0.3329198  0.6836123  0.4349521 
204.2      0.3432801  0.679502   0.3996285 
204.3      0.3618565  0.6607961  0.3345911 
204.4      0.3592401  0.6721023  0.3324199 
204.5      0.3570043  0.6696293  0.3271196 
204.6      0.3554332  0.6686916  0.3318627 
204.7      0.3528023  0.6630049  0.336203  
204.8      0.3389104  0.6856678  0.3675654 
204.9      0.3176918  0.7302132  0.404091  
205        0.2963445  0.7789912  0.4506938 
205.1      0.3110341  0.7410259  0.4119781 
205.2      0.3141013  0.7322962  0.4142504 
205.3      0.3218355  0.713698   0.3909166 
205.4      0.3192586  0.7169787  0.3979574 
205.5      0.3363441  0.6812919  0.361304  
205.6      0.3392779  0.6760381  0.3556378 
205.7      0.3515361  0.656943   0.3262078 
205.8      0.331565   0.7001415  0.3689334 
205.9      0.3567621  0.6552933  0.2943041 
206        0.3627088  0.6407543  0.2954935 
206.1      0.3742596  0.6179671  0.2726822 
206.2      0.3766978  0.6131116  0.2654893 
206.3      0.3820799  0.6058031  0.2584428 
206.4      0.3735577  0.6216388  0.2927155 
206.5      0.3904544  0.5994334  0.2700787 
206.6      0.3832538  0.6128632  0.2939916 
206.7      0.3814261  0.6180651  0.3073013 
206.8      0.3776062  0.6237727  0.305278  
206.9      0.358238   0.6490474  0.2825525 
207        0.344271   0.6602132  0.2635396 
207.1      0.3235702  0.684426   0.2816737 
207.2      0.2927701  0.7410634  0.3219051 
207.3      0.2920309  0.743699   0.2973844 
207.4      0.2967568  0.7476958  0.3023344 
207.5      0.3221785  0.7126387  0.3022881 
207.6      0.3325133  0.7084128  0.323174  
207.7      0.3430156  0.6924998  0.3139571 
207.8      0.3351516  0.7060785  0.3304971 
207.9      0.3309183  0.7130673  0.3085755 
208        0.3211024  0.732204   0.3128065 
208.1      0.3151506  0.7406082  0.3165034 
208.2      0.3201663  0.7244027  0.303642  
208.3      0.327443   0.707331   0.2943268 
208.4      0.3271979  0.7074895  0.2978516 
208.5      0.3253608  0.7106946  0.2982202 
208.6      0.3365067  0.6902999  0.2756773 
208.7      0.3378966  0.6921091  0.2713766 
208.8      0.3396848  0.6915005  0.2719785 
208.9      0.3427263  0.6883129  0.2524481 
209        0.3381735  0.6964966  0.2385021 
209.1      0.3200712  0.7288752  0.2631046 
209.2      0.3153744  0.7305531  0.2513689 
209.3      0.3056816  0.7524474  0.2450993 
209.4      0.2907198  0.7955651  0.2398817 
209.5      0.283082   0.8247697  0.2337148 
209.6      0.2906338  0.8077127  0.2079725 
209.7      0.3034168  0.7749667  0.204179  
209.8      0.3150845  0.7460468  0.2178699 
209.9      0.3214276  0.7294427  0.2351899 
210        0.3247931  0.7189654  0.2542351 
210.1      0.3339528  0.6971008  0.256892  
210.2      0.3347785  0.694796   0.2663256 
210.3      0.343315   0.6819955  0.2531506 
210.4      0.3389068  0.6953019  0.2646094 
210.5      0.3305799  0.7155518  0.2781506 
210.6      0.3413027  0.6936864  0.2611558 
210.7      0.3275524  0.7202372  0.297225  
210.8      0.3212015  0.7365363  0.3103206 
210.9      0.3190258  0.74392    0.312697  
211        0.3159358  0.7513101  0.31624   
211.1      0.3294369  0.7219062  0.2716956 
211.2      0.3239955  0.7331215  0.2924949 
211.3      0.3324249  0.7157667  0.2647628 
211.4      0.3316641  0.7193952  0.2842228 
211.5      0.3139122  0.7609383  0.3276967 
211.6      0.3164449  0.7550464  0.3354328 
211.7      0.3207659  0.7419893  0.3272978 
211.8      0.3252343  0.7299852  0.31513   
211.9      0.3261664  0.7294941  0.3156568 
212        0.3216698  0.7405212  0.334166  
212.1      0.3405175  0.6983641  0.2863183 
212.2      0.3382629  0.7007564  0.2930032 
212.3      0.3505718  0.6797476  0.2571761 
212.4      0.346224   0.69098    0.2649641 
212.5      0.3435287  0.6986128  0.2742164 
212.6      0.3509735  0.6877807  0.2488181 
212.7      0.3506677  0.6863306  0.2288101 
212.8      0.3465117  0.6824476  0.2342265 
212.9      0.3457755  0.6613021  0.2249439 
213        0.3540523  0.6336619  0.2123955 
213.1      0.3597527  0.6230313  0.2167687 
213.2      0.3828056  0.5894361  0.1800371 
213.3      0.4146281  0.5422124  0.1271443 
213.4      0.4218796  0.5287524  0.1307223 
213.5      0.4440357  0.5042056  0.1259047 
213.6      0.4403573  0.5160604  0.1395006 
213.7      0.4378968  0.5402654  0.1280709 
213.8      0.4213726  0.577363   0.1405119 
213.9      0.391619   0.6265975  0.1894266 
214        0.3788132  0.6453643  0.2162836 
214.1      0.3706104  0.6492221  0.231294  
214.2      0.3718989  0.6368095  0.2499231 
214.3      0.3772552  0.6265894  0.2397246 
214.4      0.3945561  0.5962433  0.2087098 
214.5      0.4019159  0.5763845  0.1968375 
214.6      0.4046083  0.5697861  0.1810363 
214.7      0.3960964  0.5874674  0.1811077 
214.8      0.3912483  0.5985733  0.1851114 
214.9      0.3902911  0.6012287  0.1988567 
215        0.3997194  0.58934    0.188856  
215.1      0.4021033  0.5888295  0.1896156 
215.2      0.3931563  0.6047941  0.1839538 
215.3      0.3764444  0.6303719  0.1978377 
215.4      0.3653492  0.6462088  0.1990276 
215.5      0.3656421  0.6474357  0.2003243 
215.6      0.3696956  0.6444796  0.1949411 
215.7      0.3735907  0.6331351  0.1871199 
215.8      0.3748895  0.6229497  0.1771673 
215.9      0.3678932  0.6328205  0.1775192 
216        0.3582407  0.6494617  0.186269  
