~Version
 VERS              .         3.0                           : CWLS LOG ASCII STANDARD - VERSION 3.0
 WRAP              .         NO                            : ONE LINE PER DEPTH STEP
 DLM               .         SPACE                         : DELIMITING CHARACTER(SPACE TAB OR COMMA)
~Well Information
#_______________________________________________________________________________
#
#PARAMETER_NAME    .UNIT     VALUE                         : DESCRIPTION
#_______________________________________________________________________________
STRT               .м        0.1                           : First reference value
STOP               .м        905                           : Last reference value
STEP               .м        0.1                           : Step increment
NULL               .         -9999                         : Missing value
COMP               .         ICPetroleum                   : Company
WELL               .         304                           : Well name
FLD                .         Karatobe                      : Field
LOC                .                                       : Location
SRVC               .                                       : Service Company
CTRY               .         KZ                            : Country
DATE               .         Нет поля ДАТА_ИССЛЕДОВАНИЯ    : Service Date
LATI               .         0                             : Latitude
LONG               .         0                             : Longitude
GDAT               .         WGS 84                        : Geodetic Datum
CNTY               .         WEST_SIBERIA                  : 
COORDIN            .                                       : Grid System
COUNT              .         KAZAKHSTAN                    : Country
COUNTRY            .         Kazakhstan                    : 
COUNTRY            .         Kazakhstan                    : 
EREF               .m        142.1                         : 
KB                 .         141.8                         : KB Elevation
ORIGINALWELLNAME   .         304                           : 
PROV               .                                       : Province
RWS                .         -999                          : Def_Rw
UWI                .         1_304                         : Unique Well Identifier (UWI)
WST                .         -999                          : Def_Rwt
X                  .km       466783.1                      : 
XCOORD             .                                       : X or East-West Coordinate
Y                  .km       5308023.95                    : 
YCOORD             .                                       : Y or North-South Coordinate
~Parameter Information Block
#_______________________________________________________________________________
#
#PARAMETER_NAME    .UNIT     VALUE                         : DESCRIPTION
#_______________________________________________________________________________
SET                .         Las                           : 
DFL                .см3/мин  -999.250                      : Водоотдача промывочной жидкости
GSDD               .         NPHI                          : NPHI,0,DEPT,,,,,0
TDD                .м        720.0                         : Полная глубина по бурению
TDL                .м        706.0                         : Полная глубина по каротажу
TLFamily_DEPT      .         Measured Depth                : 
TLFamily_PHI_FINAL .         Porosity                      : 
TLFamily_SW_AR     .         Water Saturation              : 
TLFamily_VSH_FINAL .         Shale Volume                  : 
~Curve Information
#_______________________________________________________________________________
#
#LOGNAME           .UNIT     LOG_ID                        : DESCRIPTION
#_______________________________________________________________________________
DEPT               .м                                      : Колонка глубины {F}
PHI_FINAL          .m3/m3                                  : Porosity {F}
SW_AR              .m3/m3                                  :  {F}
VSH_FINAL          .unitless                               : Vshale {F}
~Ascii
# ...
143.3      -9999      -9999      0.06477357
143.4      -9999      -9999      0.06275082
143.5      -9999      -9999      0.05723515
143.6      -9999      -9999      0.06201639
143.7      -9999      -9999      0.06339916
143.8      -9999      -9999      0.06084631
143.9      -9999      -9999      0.05726442
144        -9999      -9999      0.04855438
144.1      -9999      -9999      0.04764959
144.2      -9999      -9999      0.05396982
144.3      -9999      -9999      0.06097839
144.4      -9999      -9999      0.0525044 
144.5      -9999      -9999      0.05840907
144.6      -9999      -9999      0.04712831
144.7      -9999      -9999      0.04050354
144.8      -9999      -9999      0.047516  
144.9      -9999      -9999      0.04239227
145        -9999      -9999      0.04641686
145.1      -9999      -9999      0.05308698
145.2      -9999      -9999      0.04319417
145.3      -9999      -9999      0.04137632
145.4      -9999      -9999      0.04928853
145.5      -9999      -9999      0.04933386
145.6      -9999      -9999      0.04570052
145.7      -9999      -9999      0.04545107
145.8      -9999      -9999      0.04911727
145.9      -9999      -9999      0.04412821
146        -9999      -9999      0.05159482
146.1      -9999      -9999      0.05128241
146.2      -9999      -9999      0.04944957
146.3      -9999      -9999      0.05932337
146.4      -9999      -9999      0.06360529
146.5      -9999      -9999      0.0567348 
146.6      -9999      -9999      0.05347079
146.7      -9999      -9999      0.06038522
146.8      -9999      -9999      0.05602754
146.9      -9999      -9999      0.06185265
147        -9999      -9999      0.04583159
147.1      -9999      -9999      0.04558218
147.2      -9999      -9999      0.04191409
147.3      -9999      -9999      0.04464722
147.4      -9999      -9999      0.0449343 
147.5      -9999      -9999      0.04983745
147.6      -9999      -9999      0.05222742
147.7      -9999      -9999      0.05346148
147.8      -9999      -9999      0.05175475
147.9      -9999      -9999      0.0517494 
148        -9999      -9999      0.0518978 
148.1      -9999      -9999      0.06337786
148.2      -9999      -9999      0.06737424
148.3      -9999      -9999      0.05973908
148.4      -9999      -9999      0.06219425
148.5      -9999      -9999      0.05843085
148.6      -9999      -9999      0.06947322
148.7      -9999      -9999      0.07840564
148.8      -9999      -9999      0.08528336
148.9      -9999      -9999      0.07302377
149        -9999      -9999      0.06067354
149.1      -9999      -9999      0.05307336
149.2      -9999      -9999      0.04944843
149.3      -9999      -9999      0.03731262
149.4      -9999      -9999      0.03344422
149.5      -9999      -9999      0.03295577
149.6      -9999      -9999      0.02757917
149.7      -9999      -9999      0.02935349
149.8      -9999      -9999      0.03281431
149.9      -9999      -9999      0.04010787
150        -9999      -9999      0.04598601
150.1      -9999      -9999      0.04890143
150.2      -9999      -9999      0.05425702
150.3      -9999      -9999      0.06212317
150.4      -9999      -9999      0.07691628
150.5      -9999      -9999      0.08391085
150.6      -9999      -9999      0.07200257
150.7      -9999      -9999      0.07933461
150.8      -9999      -9999      0.07549354
150.9      -9999      -9999      0.08578186
151        -9999      -9999      0.07777669
151.1      -9999      -9999      0.08271886
151.2      -9999      -9999      0.07849228
151.3      -9999      -9999      0.07714242
151.4      -9999      -9999      0.08007392
151.5      -9999      -9999      0.08018856
151.6      -9999      -9999      0.1036785 
151.7      -9999      -9999      0.0957062 
151.8      -9999      -9999      0.1004981 
151.9      -9999      -9999      0.09677029
152        -9999      -9999      0.09991911
152.1      -9999      -9999      0.1054639 
152.2      -9999      -9999      0.0943019 
152.3      -9999      -9999      0.07760303
152.4      -9999      -9999      0.08091257
152.5      -9999      -9999      0.07868411
152.6      -9999      -9999      0.08851352
152.7      -9999      -9999      0.09191356
152.8      -9999      -9999      0.09511051
152.9      -9999      -9999      0.1005063 
153        -9999      -9999      0.0814794 
153.1      -9999      -9999      0.08499368
153.2      -9999      -9999      0.08587646
153.3      -9999      -9999      0.08954901
153.4      -9999      -9999      0.0902584 
153.5      -9999      -9999      0.08394126
153.6      -9999      -9999      0.09569664
153.7      -9999      -9999      0.1037019 
153.8      -9999      -9999      0.1211234 
153.9      -9999      -9999      0.1120507 
154        0.03415477 1          0.1229546 
154.1      0.02712978 1          0.1396257 
154.2      0.02404427 1          0.1505601 
154.3      0.01880712 1          0.1772139 
154.4      0.01602173 1          0.1995454 
154.5      0.0149574  1          0.2005874 
154.6      0.00943253 1          0.2199533 
154.7      0.007607353 1          0.2231447 
154.8      0.006043447 1          0.2304892 
154.9      0.003966602 1          0.2322374 
155        0.0006222327 1          0.2434786 
155.1      0          1          0.2414743 
155.2      0          1          0.2786015 
155.3      0          1          0.2804758 
155.4      0          1          0.2928601 
155.5      0          1          0.3077252 
155.6      0          1          0.3362705 
155.7      0          1          0.3913265 
155.8      0          1          0.4054384 
155.9      0          1          0.4079566 
156        0          1          0.4147924 
156.1      0          1          0.3651231 
156.2      0          1          0.3982028 
156.3      0          1          0.3296057 
156.4      0          1          0.3102398 
156.5      0          1          0.272763  
156.6      0.01455699 1          0.2167027 
156.7      0.01598742 1          0.226908  
156.8      0.009869654 1          0.2543353 
156.9      0.01704684 1          0.214693  
157        0.02032692 1          0.207999  
157.1      0.02306769 1          0.2052378 
157.2      0.0259972  1          0.1997166 
157.3      0.02663376 1          0.1849445 
157.4      0.0222389  1          0.1987023 
157.5      0.02494588 1          0.1866167 
157.6      0.02061898 1          0.2033589 
157.7      0.01362464 1          0.2257602 
157.8      0.008521419 1          0.2390443 
157.9      0.01738954 1          0.207513  
158        0.01354596 1          0.2196691 
158.1      0.01043678 1          0.2425995 
158.2      0.006906562 1          0.2622816 
158.3      0.006926965 1          0.2659044 
158.4      0.001542643 1          0.2878273 
158.5      0.000111738 1          0.2984114 
158.6      0.004683147 1          0.274296  
158.7      0.005010849 1          0.2609135 
158.8      0.008395002 1          0.2475357 
158.9      0.01196375 1          0.2278143 
159        0.01250884 1          0.2281324 
159.1      0.003073115 1          0.2761076 
159.2      0.01931437 1          0.2386696 
159.3      0.03956923 1          0.2318033 
159.4      0.06801668 1          0.2395692 
159.5      0.140228   1          0.2337564 
159.6      0.2453354  1          0.2514941 
159.7      0.3430295  1          0.2815709 
159.8      0.4247645  1          0.3202235 
159.9      0.5377514  1          0.3156445 
160        0.6307591  1          0.3007253 
160.1      0.684112   1          0.3220452 
160.2      0.7095189  1          0.331242  
160.3      0.6994978  1          0.3308764 
160.4      0.6520671  0.9795361  0.3603213 
160.5      0.5687785  0.6963231  0.4216987 
160.6      0.4822595  0.5962018  0.4688927 
160.7      0.4178014  0.5373541  0.5123732 
160.8      0.419979   0.4699045  0.5334705 
160.9      0.5403701  0.3541822  0.4850616 
161        0.7288706  0.2589467  0.4448104 
161.1      0.8707532  0.2121577  0.4252538 
161.2      0.9058092  0.1988875  0.449836  
161.3      0.9050895  0.1971299  0.4707927 
161.4      0.8972104  0.19825    0.3815459 
