~Version
 VERS              .         3.0                           : CWLS LOG ASCII STANDARD - VERSION 3.0
 WRAP              .         NO                            : ONE LINE PER DEPTH STEP
 DLM               .         SPACE                         : DELIMITING CHARACTER(SPACE TAB OR COMMA)
~Well Information
#_______________________________________________________________________________
#
#PARAMETER_NAME    .UNIT     VALUE                         : DESCRIPTION
#_______________________________________________________________________________
STRT               .м        0.1                           : First reference value
STOP               .м        905                           : Last reference value
STEP               .м        0.1                           : Step increment
NULL               .         -9999                         : Missing value
COMP               .         ICPetroleum                   : Company
WELL               .         304                           : Well name
FLD                .         Karatobe                      : Field
LOC                .                                       : Location
SRVC               .                                       : Service Company
CTRY               .         KZ                            : Country
DATE               .         Нет поля ДАТА_ИССЛЕДОВАНИЯ    : Service Date
LATI               .         0                             : Latitude
LONG               .         0                             : Longitude
GDAT               .         WGS 84                        : Geodetic Datum
CNTY               .         WEST_SIBERIA                  : 
COORDIN            .                                       : Grid System
COUNT              .         KAZAKHSTAN                    : Country
COUNTRY            .         Kazakhstan                    : 
COUNTRY            .         Kazakhstan                    : 
EREF               .m        142.1                         : 
KB                 .         141.8                         : KB Elevation
ORIGINALWELLNAME   .         304                           : 
PROV               .                                       : Province
RWS                .         -999                          : Def_Rw
UWI                .         1_304                         : Unique Well Identifier (UWI)
WST                .         -999                          : Def_Rwt
X                  .km       466783.1                      : 
XCOORD             .                                       : X or East-West Coordinate
Y                  .km       5308023.95                    : 
YCOORD             .                                       : Y or North-South Coordinate
~Parameter Information Block
#_______________________________________________________________________________
#
#PARAMETER_NAME    .UNIT     VALUE                         : DESCRIPTION
#_______________________________________________________________________________
SET                .         Las                           : 
DFL                .см3/мин  -999.250                      : Водоотдача промывочной жидкости
GSDD               .         NPHI                          : NPHI,0,DEPT,,,,,0
TDD                .м        720.0                         : Полная глубина по бурению
TDL                .м        706.0                         : Полная глубина по каротажу
TLFamily_DEPT      .         Measured Depth                : 
TLFamily_PHI_FINAL .         Porosity                      : 
TLFamily_SW_AR     .         Water Saturation              : 
TLFamily_VSH_FINAL .         Shale Volume                  : 
~Curve Information
#_______________________________________________________________________________
#
#LOGNAME           .UNIT     LOG_ID                        : DESCRIPTION
#_______________________________________________________________________________
DEPT               .м                                      : Колонка глубины {F}
PHI_FINAL          .m3/m3                                  : Porosity {F}
SW_AR              .m3/m3                                  :  {F}
VSH_FINAL          .unitless                               : Vshale {F}
~Ascii
# ...
616.4      0.3364229  1          0.04523446
616.5      0.3307063  1          0.0480439 
616.6      0.3250438  1          0.04952423
616.7      0.327368   1          0.04671208
616.8      0.3198374  1          0.05112777
616.9      0.315658   1          0.05049932
617        0.3125518  1          0.0482062 
617.1      0.3182064  1          0.05045516
617.2      0.319946   1          0.05100213
617.3      0.3195403  1          0.05453897
617.4      0.3206792  1          0.05851791
617.5      0.3245982  1          0.05498451
617.6      0.334763   1          0.04786119
617.7      0.3331239  1          0.04757068
617.8      0.3276622  1          0.05057549
617.9      0.3197308  1          0.06017519
618        0.3221224  1          0.06472015
618.1      0.3286065  1          0.06471511
618.2      0.3298014  1          0.06382113
618.3      0.3263473  1          0.06237321
618.4      0.3298414  1          0.05972074
618.5      0.3340379  1          0.05246793
618.6      0.3332208  1          0.04804147
618.7      0.3313602  1          0.05094519
618.8      0.3328081  1          0.04175643
618.9      0.3349846  1          0.03665956
619        0.3332936  1          0.04008521
619.1      0.3331937  1          0.04500496
619.2      0.342005   1          0.03550893
619.3      0.3394726  1          0.04194679
619.4      0.336505   1          0.04584017
619.5      0.3390663  1          0.05183593
619.6      0.3336497  1          0.05433157
619.7      0.3239055  1          0.05584162
619.8      0.3214704  1          0.06613454
619.9      0.3257428  1          0.0622962 
620        0.3253243  1          0.06357132
620.1      0.3305278  1          0.0638881 
620.2      0.3274691  1          0.0677162 
620.3      0.3322716  1          0.06156213
620.4      0.3377811  1          0.05596431
620.5      0.3337499  1          0.06202873
620.6      0.3319577  1          0.06115241
620.7      0.327197   1          0.06150359
620.8      0.3285377  1          0.06429664
620.9      0.3288925  1          0.06615947
621        0.3236043  1          0.06858449
621.1      0.3208103  1          0.07151347
621.2      0.3228262  1          0.07079004
621.3      0.3199849  1          0.07053195
621.4      0.3221722  1          0.06479196
621.5      0.33347    1          0.0505098 
621.6      0.3345811  1          0.04432904
621.7      0.3329326  1          0.0422168 
621.8      0.3385412  1          0.0522276 
621.9      0.3391963  1          0.05635801
622        0.3396051  1          0.05255337
622.1      0.3347657  1          0.05206795
622.2      0.332657   1          0.05853646
622.3      0.3376684  1          0.05668467
622.4      0.3389769  1          0.0619777 
622.5      0.3367974  1          0.07029719
622.6      0.3305127  1          0.08204735
622.7      0.3265078  1          0.08422284
622.8      0.3252181  1          0.08271277
622.9      0.3218727  1          0.07617325
623        0.3194063  1          0.08324416
623.1      0.3241776  1          0.07546581
623.2      0.318758   1          0.08323056
623.3      0.3070644  1          0.09426045
623.4      0.2992129  1          0.09847168
623.5      0.3000633  1          0.09366375
623.6      0.3001193  1          0.09731703
623.7      0.3016071  1          0.1004926 
623.8      0.3039762  1          0.1044912 
623.9      0.306082   1          0.1025948 
624        0.309671   1          0.1057592 
624.1      0.307749   1          0.1151095 
624.2      0.3032135  1          0.1173324 
624.3      0.2894567  1          0.1437331 
624.4      0.2805057  1          0.1628957 
624.5      0.2857036  1          0.149989  
624.6      0.2902957  1          0.1295307 
624.7      0.2834295  1          0.1346331 
624.8      0.2830736  1          0.1273115 
624.9      0.2793502  1          0.1376627 
625        0.2763297  1          0.1365073 
625.1      0.27498    1          0.1387252 
625.2      0.2874479  1          0.1301579 
625.3      0.2851674  1          0.1373106 
625.4      0.283988   1          0.135261  
625.5      0.2901221  1          0.1320525 
625.6      0.2962714  1          0.1197739 
625.7      0.2924618  1          0.1114103 
625.8      0.2944     1          0.1137511 
625.9      0.2991554  1          0.1153599 
626        0.2982768  1          0.1183517 
626.1      0.2933164  1          0.1131846 
626.2      0.3001661  1          0.1069538 
626.3      0.2939622  1          0.1129506 
626.4      0.2948581  1          0.1163949 
626.5      0.2825658  1          0.1320494 
626.6      0.281057   1          0.1295276 
626.7      0.2765623  1          0.1340305 
626.8      0.269198   1          0.133959  
626.9      0.2626938  1          0.1383132 
627        0.2583795  1          0.1426927 
627.1      0.2495653  1          0.1552763 
627.2      0.2513704  1          0.1482148 
627.3      0.2530784  1          0.1595769 
627.4      0.2527775  1          0.1628269 
627.5      0.2615494  1          0.1497554 
627.6      0.2616878  1          0.1411404 
627.7      0.2611891  1          0.1306188 
627.8      0.265667   1          0.1244047 
627.9      0.2798081  1          0.1116206 
628        0.2874557  1          0.1104464 
628.1      0.2899462  1          0.1164922 
628.2      0.2970628  1          0.1096899 
628.3      0.3007587  1          0.1180008 
628.4      0.3048363  1          0.1168425 
628.5      0.3025629  1          0.1263149 
628.6      0.3051674  1          0.1363548 
628.7      0.3123224  1          0.1253242 
628.8      0.3137774  1          0.1308962 
628.9      0.3124181  1          0.1257565 
629        0.3147184  1          0.1225824 
629.1      0.3175589  1          0.1073075 
629.2      0.317543   1          0.1022312 
629.3      0.311904   1          0.1037433 
629.4      0.3066056  1          0.1073316 
629.5      0.3083483  1          0.09595256
629.6      0.3144368  1          0.1008384 
629.7      0.3177097  1          0.09564404
629.8      0.3230202  1          0.09617233
629.9      0.3315879  1          0.09220529
630        0.3348567  1          0.09048744
630.1      0.3346366  1          0.09707783
630.2      0.3365591  1          0.1124588 
630.3      0.343413   1          0.1123426 
630.4      0.3369627  1          0.1321663 
630.5      0.3166875  1          0.1656381 
630.6      0.2944543  1          0.2100023 
630.7      0.2675956  1          0.2694013 
630.8      0.220592   1          0.3598304 
630.9      0.1691673  1          0.4562929 
631        0.1139686  1          0.5675225 
631.1      0.06506039 1          0.6669965 
631.2      0.04638666 1          0.7097324 
631.3      0.059121   1          0.673776  
631.4      0.07600623 1          0.6367064 
631.5      0.05005092 1          0.7122271 
631.6      0.0400637  1          0.7356223 
631.7      0.03073521 1          0.750804  
631.8      0.02780859 1          0.7500105 
631.9      0.0459373  1          0.6829227 
632        0.01910983 1          0.7427891 
632.1      0.02077459 1          0.7115948 
632.2      0.02678514 1          0.7035301 
632.3      0.02234311 1          0.7262197 
632.4      0.03074267 1          0.7046071 
632.5      0.04307848 1          0.681492  
632.6      0.01774975 1          0.7678823 
632.7      0.0236318  1          0.7503566 
632.8      0.03011698 1          0.7468506 
632.9      0.03175195 1          0.7643008 
633        0.03165879 1          0.772522  
633.1      0.02118809 1          0.8345861 
633.2      0.02172407 1          0.8349559 
633.3      0.03080886 1          0.8116612 
633.4      0.03081674 1          0.8419629 
633.5      0.06217758 1          0.7453907 
633.6      0.08872557 1          0.7117451 
633.7      0.1349099  1          0.6342236 
633.8      0.1536704  1          0.630438  
633.9      0.1779921  1          0.6237848 
634        0.1874116  1          0.6501123 
634.1      0.2012993  1          0.6338612 
634.2      0.1853416  1          0.6777323 
634.3      0.211374   1          0.5809826 
634.4      0.2276502  1          0.4902806 
634.5      0.2398688  1          0.4206616 
