~Version information
  VERS.                           2.00 : CWLS log ASCII Standard -Version 2.00
  WRAP.                             NO : One line per depth step
~Well information
#MNEM.UNIT              Data Type        Information
#----------------------------------------------------------------------
  STRT.M                         2.000 : 
  STOP.M                       905.000 : 
  STEP.M                         0.100 : 
  NULL.                      -999.2500 : 
  WELL.                            304 : Well Name
  FLD .                       KARATUBE : Field Name
  CTRY.                     KAZAKHSTAN : Country
  SRVC.        JSC "KAZPROMGEOPHYSICA" : Service company
  DATE.                       22.06.04 : Log date
~Curve information
#MNEM.UNIT                               Curve Description
#----------------------------------------------------------------------
  DEPT.M                               : Depth Curve
  LL3 .OHMM                            : Appar.resist.laterolog,3 electrodes
  MLL .OHMM                            : Microlaterolog sonde
  RHOB.G/C3                            : Bulk density by gamma-gamma log
  GR  .UR/H                            : Gamma-ray log
  NGLD.UE                              : Neutron-gamma log/device DRST-90
  C1  .MM                              : Diameter from profile1
  C2  .MM                              : Diameter from profile2
  CALI.MM                              : Caliper
  GZ3 .OHMM                            : App.resistivity by lateral A2.0M0.5N
  GZ3B.OHMM                            : App.resistivity by lateral N0.5Œ2.0€
  SP  .MV                              : Spontaneous potential
  CILR.MMHO                            : Conduct. by sonde 7I1.6,react.signal
  CILA.MMHO                            : Conduct. by sonde 7I1.6,active signal
  DTP .US/M                            : Interval travel time (P-wave)
  T1  .US                              : Travel time1
  T2  .US                              : Travel time2
~Parameter information
#MNEM.UNIT              Value            Description
#----------------------------------------------------------------------
#----------------------------------------------------------------------
  DFV .SEK                          35 : Drilling Fluid Viscosity
  BS  .MM                        215.9 : Bit Size
  DFD .G/C3                       1.13 : Drilling Fluid Density
~Ascii Log Data
# ...
  390.500 3.0600 1.8540 2.0400 10.2330 1.2950 213.4620 224.7890 219.1260 4.1600 5.5690 111.0200 79.0660 143.5350 459.4030 1551.9800 1726.7500
  390.600 3.0890 1.9980 2.0470 10.3310 1.3180 213.8020 224.0100 218.9060 4.2510 5.5180 110.7470 79.1320 138.7960 454.5430 1550.6400 1722.4301
  390.700 3.1350 2.4230 2.0680 10.1780 1.3160 214.7920 222.8660 218.8290 4.3330 5.4260 111.2860 78.3000 134.9980 451.5870 1548.7300 1718.7700
  390.800 3.2710 2.7140 2.0790 10.0440 1.2920 217.4110 224.0220 220.7170 4.4210 5.3460 112.3400 77.9210 131.8170 449.6230 1546.5500 1716.7400
  390.900 3.3940 2.7900 2.0940 10.0850 1.2720 219.6910 221.9290 220.8100 4.4830 5.3010 114.5360 77.4540 130.6550 445.7090 1544.3101 1716.6000
  391.000 3.5090 2.7210 2.0930 10.0530 1.3100 217.6320 219.6540 218.6430 4.5200 5.0100 116.4240 78.1060 131.9420 441.3460 1542.7400 1717.5000
  391.100 3.3870 2.1840 2.1070 10.0890 1.2850 215.9300 218.3050 217.1170 4.4990 4.7020 118.4150 80.3550 131.1360 439.1440 1541.5200 1718.5699
  391.200 3.1870 1.5600 2.1070 9.9520 1.3300 214.5710 217.5440 216.0580 4.4220 4.4740 120.1480 81.3220 132.6360 440.7250 1539.9500 1719.5300
  391.300 3.0730 1.6270 2.1010 9.8760 1.3410 214.9570 217.8010 216.3790 4.2870 4.2980 121.1380 84.5720 137.4130 443.1070 1537.4000 1720.9000
  391.400 3.0060 1.3470 2.0910 9.6390 1.3500 215.9570 217.1830 216.5700 4.1500 4.1390 121.8120 87.3230 141.8270 442.1120 1534.1000 1723.0900
  391.500 2.8750 1.1410 2.0780 9.9990 1.3770 212.4080 219.0070 215.7070 4.0680 4.0670 121.7420 91.0790 145.6110 436.9220 1531.5800 1725.6000
  391.600 2.7860 1.3450 2.0810 9.6980 1.3870 213.0700 218.9980 216.0340 4.0380 4.0580 121.2850 94.1370 147.9120 429.4790 1531.2300 1727.6300
  391.700 2.7950 1.0860 2.0610 9.8230 1.3390 211.6450 219.9490 215.7970 4.0500 4.0690 120.3800 96.2270 148.5900 425.0890 1533.3199 1728.5500
  391.800 2.8720 1.2180 2.0690 9.9540 1.3400 211.4070 221.5170 216.4620 4.1120 4.0830 119.1380 97.9720 148.0610 425.4830 1536.6000 1728.5200
  391.900 3.0390 1.5280 2.0850 10.2940 1.3340 211.2490 221.8330 216.5410 4.2170 4.0930 117.6000 98.4320 148.8340 430.7210 1539.4399 1727.8101
  392.000 3.2310 1.5260 2.0980 10.8520 1.3280 213.4630 222.7700 218.1170 4.3650 4.1010 116.2470 98.7190 148.7830 436.8950 1541.1899 1726.6700
  392.100 3.3280 1.4450 2.0990 11.3610 1.3390 214.4210 221.4330 217.9270 4.5400 4.0780 115.0510 100.2010 147.3360 442.6240 1541.8900 1725.8300
  392.200 3.3200 1.2720 2.1120 12.0220 1.3340 211.8110 224.4100 218.1110 4.6740 4.0020 114.4520 101.1730 145.4730 448.9650 1542.3400 1725.8600
  392.300 3.3020 1.2780 2.1200 12.2810 1.3070 211.7760 226.2060 218.9910 4.7820 3.8620 113.9470 100.3630 145.5140 458.7540 1543.1500 1727.2800
  392.400 3.3610 1.5630 2.1550 12.6730 1.3070 212.4570 225.0850 218.7710 4.8160 3.7060 111.8970 100.1780 147.3460 472.4810 1544.8900 1729.4700
  392.500 3.0600 1.5780 2.1730 13.4650 1.2830 214.8830 230.1470 222.5150 4.7480 3.5620 110.2060 101.5490 149.8890 485.0710 1547.4800 1732.0800
  392.600 2.6400 1.3600 2.1930 13.7530 1.3060 217.9330 240.0510 228.9920 4.6390 3.4670 108.6090 104.5600 154.3500 490.9810 1550.6200 1734.7000
  392.700 2.3590 1.2850 2.2150 14.2460 1.3270 236.4210 248.9160 242.6680 4.5020 3.4320 106.8370 109.8130 162.1470 488.0720 1553.9800 1737.7300
  392.800 2.2100 1.0690 2.2030 13.6460 1.3400 246.9400 248.1980 247.5690 4.4270 3.4450 104.9760 113.3110 171.1940 479.7900 1557.6300 1741.4000
  392.900 2.1880 1.2320 2.1790 12.1280 1.3550 262.5590 258.1800 260.3700 4.4070 3.5210 103.5200 116.3410 178.9120 470.9120 1561.7400 1746.0601
  393.000 2.2110 1.5200 2.2030 11.0070 1.3290 261.7110 250.5130 256.1120 4.4180 3.5950 102.3190 117.7350 183.6740 463.7040 1566.2900 1751.7000
  393.100 2.2330 1.7680 2.1940 10.4520 1.2860 260.0870 245.7050 252.8960 4.4390 3.6570 101.3510 119.2470 185.3490 459.8500 1570.9700 1758.1500
  393.200 2.2600 1.2860 2.1860 10.3960 1.2870 261.2760 239.5090 250.3930 4.4640 3.7280 100.6270 119.0060 181.8400 458.8050 1575.3199 1765.0400
  393.300 2.2990 1.4180 2.1740 10.2530 1.2500 249.3950 247.8170 248.6060 4.4880 3.8080 100.0300 117.3190 178.3190 460.3400 1579.0100 1772.2200
  393.400 2.2970 1.2460 2.1860 9.9930 1.2560 240.1320 250.1850 245.1590 4.4980 3.8700 99.5810 115.0450 173.6110 461.4610 1582.4301 1779.7000
  393.500 2.2480 1.2450 2.1410 10.1700 1.2350 237.9090 239.7690 238.8390 4.4860 3.9300 99.1530 113.4370 170.0750 461.5060 1586.8101 1787.6500
  393.600 2.1740 1.2920 2.1640 9.9790 1.2430 229.1100 236.7560 232.9330 4.4720 4.0040 99.1680 111.9990 169.3430 460.1940 1593.8400 1796.2600
  393.700 2.1570 1.2380 2.1730 9.9220 1.2260 235.3530 237.6330 236.4930 4.3420 4.0770 100.1800 112.3670 170.0350 459.3900 1603.3600 1805.3000
  393.800 2.1410 1.1890 2.1910 10.0010 1.1960 232.1680 239.3080 235.7380 4.2640 4.1430 101.9680 114.2750 168.4830 459.4110 1613.7200 1814.1000
  393.900 2.1320 1.1560 2.2020 9.9430 1.2230 228.7930 245.8730 237.3330 4.1940 4.1760 104.0900 113.0150 168.2140 460.8130 1622.1400 1821.8101
  394.000 2.1690 1.1570 2.1730 10.0280 1.2530 232.1910 251.8530 242.0220 4.1520 4.1660 104.7010 113.4550 169.3010 463.5330 1627.7000 1828.2300
  394.100 2.2800 1.2070 2.1840 10.2910 1.2710 226.4680 247.4270 236.9470 4.1210 4.1380 106.1320 112.6970 169.8070 467.9470 1630.5699 1833.5601
  394.200 2.4150 1.2620 2.1920 10.2780 1.2840 213.7180 230.2450 221.9810 4.0790 4.0980 110.5220 111.3640 167.2250 474.2980 1632.9700 1838.2200
  394.300 2.4670 1.3510 2.1850 9.7940 1.2720 215.9230 232.7330 224.3280 4.0230 4.0440 111.6650 109.7980 163.6110 483.0310 1636.8600 1842.7300
  394.400 2.4450 1.3700 2.1780 9.6920 1.2500 221.8710 236.4580 229.1640 3.9540 4.0040 112.2350 109.2370 162.1500 493.1760 1643.9100 1847.6899
  394.500 2.3690 1.0890 2.1500 10.2070 1.2520 225.1720 243.0050 234.0880 3.9120 3.9960 112.4550 108.9000 161.4350 502.0960 1652.5900 1853.0400
  394.600 2.3330 1.2390 2.1450 10.1860 1.2530 224.6800 243.4850 234.0820 3.8780 4.0370 112.4110 108.2000 163.2930 506.0500 1659.7200 1856.8101
  394.700 2.3480 1.3160 2.1660 10.1640 1.2680 231.9740 244.9550 238.4650 3.8360 4.0800 112.3600 109.2420 165.4150 504.8600 1661.7400 1856.1700
  394.800 2.3190 1.2410 2.1580 10.1700 1.2930 242.0630 240.6130 241.3380 3.7630 4.0950 112.2330 110.7750 166.5250 500.9420 1658.0000 1849.4301
  394.900 2.3150 1.4240 2.1510 10.1940 1.2730 251.5770 252.0560 251.8170 3.6820 4.0810 111.7940 110.8250 168.4900 499.1680 1650.2200 1838.2000
  395.000 2.3430 1.3110 2.1680 9.9740 1.2780 244.4530 244.9350 244.6940 3.6090 4.0640 111.5900 111.1890 170.5020 501.3200 1641.2000 1826.0900
  395.100 2.3480 1.5230 2.1570 9.9000 1.2410 237.2700 252.4160 244.8430 3.5520 4.0510 111.7220 111.0980 170.6700 507.4830 1632.5300 1816.0699
  395.200 2.3400 1.5310 2.1580 9.8650 1.2330 247.4160 250.7510 249.0830 3.5060 4.0440 112.6240 111.4590 169.7710 513.1340 1624.7700 1809.1300
  395.300 2.3130 1.3020 2.1370 9.6760 1.1950 244.8530 249.9530 247.4030 3.4820 4.0420 113.5040 111.6500 168.3480 514.6740 1618.1300 1804.9000
  395.400 2.2560 1.1390 2.1650 9.4940 1.1990 236.1910 241.0720 238.6310 3.4720 4.0400 114.0400 110.7120 168.1380 509.4490 1613.7400 1803.3700
  395.500 2.2180 1.0520 2.1740 9.8550 1.2180 235.5900 246.6950 241.1420 3.4380 4.0370 114.5080 110.3950 168.9600 501.1120 1612.8400 1804.6899
  395.600 2.2060 1.0640 2.1710 10.0030 1.2470 240.2780 247.5200 243.8990 3.3970 4.0480 114.7040 110.8840 170.7920 492.7290 1615.8900 1808.5699
  395.700 2.1910 1.0580 2.1630 10.0910 1.2640 237.6890 249.7140 243.7020 3.3640 4.0880 114.7030 111.2760 172.1410 486.0550 1621.3101 1813.0800
  395.800 2.1840 1.2560 2.1770 10.0100 1.2850 240.9770 248.9840 244.9800 3.3710 4.1600 114.5490 112.6900 172.9440 478.5750 1626.0601 1815.3400
  395.900 2.2030 1.2140 2.1950 10.1280 1.2860 238.5370 242.5610 240.5490 3.4150 4.2520 114.3810 113.2910 171.9760 469.9290 1627.2700 1813.0400
  396.000 2.2730 1.4150 2.1370 10.0960 1.3080 238.6490 259.0310 248.8400 3.4720 4.3460 113.9000 112.6160 172.1680 462.2010 1624.0699 1806.9000
  396.100 2.3280 1.2780 2.1450 9.9740 1.3030 239.1770 249.4170 244.2970 3.5460 4.4410 113.0680 112.1270 172.7800 458.8570 1618.4399 1800.0601
