~Version information
  VERS.                           2.00 : CWLS log ASCII Standard -Version 2.00
  WRAP.                             NO : One line per depth step
~Well information
#MNEM.UNIT              Data Type        Information
#----------------------------------------------------------------------
  STRT.M                         2.000 : 
  STOP.M                       905.000 : 
  STEP.M                         0.100 : 
  NULL.                      -999.2500 : 
  WELL.                            304 : Well Name
  FLD .                       KARATUBE : Field Name
  CTRY.                     KAZAKHSTAN : Country
  SRVC.        JSC "KAZPROMGEOPHYSICA" : Service company
  DATE.                       22.06.04 : Log date
~Curve information
#MNEM.UNIT                               Curve Description
#----------------------------------------------------------------------
  DEPT.M                               : Depth Curve
  LL3 .OHMM                            : Appar.resist.laterolog,3 electrodes
  MLL .OHMM                            : Microlaterolog sonde
  RHOB.G/C3                            : Bulk density by gamma-gamma log
  GR  .UR/H                            : Gamma-ray log
  NGLD.UE                              : Neutron-gamma log/device DRST-90
  C1  .MM                              : Diameter from profile1
  C2  .MM                              : Diameter from profile2
  CALI.MM                              : Caliper
  GZ3 .OHMM                            : App.resistivity by lateral A2.0M0.5N
  GZ3B.OHMM                            : App.resistivity by lateral N0.5Œ2.0€
  SP  .MV                              : Spontaneous potential
  CILR.MMHO                            : Conduct. by sonde 7I1.6,react.signal
  CILA.MMHO                            : Conduct. by sonde 7I1.6,active signal
  DTP .US/M                            : Interval travel time (P-wave)
  T1  .US                              : Travel time1
  T2  .US                              : Travel time2
~Parameter information
#MNEM.UNIT              Value            Description
#----------------------------------------------------------------------
#----------------------------------------------------------------------
  DFV .SEK                          35 : Drilling Fluid Viscosity
  BS  .MM                        215.9 : Bit Size
  DFD .G/C3                       1.13 : Drilling Fluid Density
~Ascii Log Data
# ...
  646.900 3.5050 2.6410 2.1180 9.5420 1.3320 218.6530 221.6140 220.1330 5.8500 6.0120 123.0050 73.5620 127.5120 406.1760 1450.8300 1606.4900
  647.000 4.1360 3.4700 2.1110 9.5710 1.3820 217.9280 221.9830 219.9560 6.1380 6.0180 123.2170 72.4770 117.9420 411.7420 1457.5601 1615.8400
  647.100 4.8260 4.1170 2.1170 9.5000 1.3660 214.4990 220.4960 217.4980 6.5170 5.9790 123.0620 71.6090 108.8050 416.3790 1461.4500 1623.1300
  647.200 6.0880 4.1120 2.1140 9.4170 1.3290 215.5270 222.1390 218.8330 6.9580 5.8860 122.7140 69.9720 102.3490 419.7380 1460.8400 1626.9500
  647.300 6.9070 4.4780 2.1080 9.2220 1.3430 217.0360 221.2400 219.1380 7.4130 5.7380 122.4720 68.9150 98.1500 420.3280 1455.6300 1628.3400
  647.400 7.2470 4.2810 2.1120 9.1380 1.3690 217.8300 219.7660 218.7980 7.7850 5.6000 122.6190 69.2600 97.4980 416.7940 1448.1000 1629.4900
  647.500 7.4140 4.0610 2.1450 9.0630 1.3500 218.7780 218.3600 218.5690 8.1570 5.4600 123.0910 70.5710 97.8450 409.0950 1441.7700 1631.1899
  647.600 7.4140 4.4040 2.1670 8.7440 1.3510 221.0540 217.0080 219.0310 8.4820 5.1490 123.8730 72.2550 100.3090 399.0460 1438.8300 1632.9600
  647.700 7.1650 3.7630 2.1970 8.9680 1.3140 219.1600 217.3420 218.2510 8.6840 4.9220 124.5550 75.4680 104.4120 390.4230 1439.3000 1634.0800
  647.800 6.5400 4.0140 2.2190 8.8960 1.2880 217.6510 218.3410 217.9960 8.7430 4.7290 125.0760 78.5530 110.3740 386.7080 1441.8101 1634.9000
  647.900 5.4570 4.4590 2.2340 9.2220 1.2770 216.3280 218.7500 217.5390 8.5170 4.5370 125.4250 82.9660 119.2750 389.1670 1446.0699 1635.9800
  648.000 3.9530 3.4690 2.2400 8.9220 1.2520 216.8510 217.4960 217.1740 7.9200 4.3300 125.6080 86.8000 128.8300 395.7150 1452.4200 1637.6600
  648.100 2.9880 2.1630 2.2250 9.0040 1.2430 216.3210 218.1270 217.2240 7.2340 4.1520 125.5960 92.1020 138.0020 404.1970 1460.4100 1639.4301
  648.200 2.5470 2.0200 2.2040 9.1670 1.2280 223.8100 221.8580 222.8340 6.3600 4.0500 125.4680 98.0490 148.2640 415.2740 1468.1000 1640.5400
  648.300 2.2640 2.2170 2.1870 9.2950 1.2240 226.3400 227.7020 227.0210 5.6310 4.0840 125.2790 104.7120 155.7100 431.7830 1473.4100 1640.1700
  648.400 2.1110 1.7960 2.1160 9.5080 1.2210 247.9550 241.0550 244.5050 5.3130 4.2060 124.8810 111.7890 162.6220 453.4580 1475.7300 1638.0300
  648.500 2.0100 1.3230 2.1260 9.3810 1.2570 258.3080 237.0140 247.6610 5.2140 4.3140 123.8480 117.6740 165.0790 473.5400 1475.7400 1634.3800
  648.600 2.2400 0.9940 2.0840 9.0710 1.2610 270.1370 258.0700 264.1030 5.3530 4.3160 122.3890 117.6700 164.4020 485.3280 1474.4399 1629.7700
  648.700 2.7870 2.7090 2.0790 8.8730 1.2140 242.5250 248.5310 245.5280 5.5240 4.2020 120.3870 113.9110 161.6770 486.9610 1472.2300 1624.5900
  648.800 3.0890 3.3260 2.1030 8.9190 1.1270 226.1910 228.0800 227.1350 5.5880 4.0000 118.5130 109.1840 158.5860 482.7140 1469.2400 1618.9399
  648.900 2.6080 1.7710 2.1280 8.5800 1.1110 226.8680 222.2230 224.5450 5.4880 3.7170 117.4700 106.1710 153.5370 474.7750 1465.5900 1612.7100
  649.000 2.0780 0.7630 2.1290 8.1920 1.1000 247.6310 232.5460 240.0890 5.1360 3.4240 116.7480 107.3400 152.8110 463.1030 1461.8600 1606.0699
  649.100 1.8010 0.6250 2.1470 7.9640 1.0960 256.1170 232.3620 244.2400 4.7540 3.2630 116.4300 110.5600 157.8180 447.5590 1458.4500 1599.5699
  649.200 1.7570 0.6200 2.1460 7.7100 1.1000 267.6970 235.8760 251.7860 4.4410 3.2120 116.2880 113.6080 166.0530 431.0960 1455.7500 1594.5900
  649.300 1.8020 0.6550 2.2020 8.0590 1.1290 272.7440 236.1550 254.4490 4.2240 3.1120 115.4190 115.0360 172.1020 416.9040 1454.0699 1592.4500
  649.400 1.8930 0.6930 2.2260 8.2570 1.1410 268.9740 229.2340 249.1040 4.1150 3.0980 115.0960 115.6410 175.3190 405.7540 1453.9600 1593.8700
  649.500 1.9860 0.7660 2.2280 8.3920 1.1460 262.2110 233.0730 247.6420 4.0480 3.1260 115.0940 115.5580 175.1930 396.5950 1455.6000 1597.8700
  649.600 2.0330 0.8720 2.2370 8.9430 1.1380 245.0610 240.4980 242.7800 4.0180 3.1710 114.8840 115.4690 173.0350 388.3380 1458.0601 1602.4900
  649.700 2.0250 0.9170 2.2110 9.1510 1.1500 244.0580 245.5320 244.7950 3.9910 3.2540 114.3540 115.1120 170.4870 380.9100 1459.6500 1605.7900
  649.800 1.9980 0.9180 2.1970 9.1240 1.1960 249.7420 251.2760 250.5090 3.9590 3.3740 113.6350 114.5410 167.2640 374.2610 1459.0300 1607.1400
  649.900 1.9750 1.0090 2.1950 8.9410 1.2140 242.6280 246.6590 244.6430 3.9280 3.5540 113.0790 114.6550 167.7810 367.7870 1456.4800 1607.3600
  650.000 1.9430 1.3270 2.2200 9.1070 1.2020 239.5090 235.0820 237.2960 3.9210 3.8450 112.3550 115.8710 170.2480 360.5250 1453.8000 1608.0200
  650.100 1.9010 0.8920 2.2560 9.2580 1.2590 245.4390 232.4920 238.9660 3.9700 4.2000 112.0750 117.5030 170.8660 352.8040 1452.9399 1610.6000
  650.200 2.0160 0.9290 2.2280 9.3080 1.2860 227.9390 243.5170 235.7280 4.0750 4.4990 112.3820 119.3440 168.1680 347.1060 1454.5699 1615.7900
  650.300 2.4030 1.7440 2.2560 9.3300 1.3070 232.2530 239.1110 235.6820 4.2400 4.7420 113.1900 119.0910 165.5700 345.9570 1457.6400 1622.9200
  650.400 3.1830 2.3750 2.2580 9.0190 1.3180 224.2760 228.2260 226.2510 4.4530 4.8730 114.6550 118.3510 161.6190 349.7770 1460.6500 1630.2800
  650.500 3.8720 3.0420 2.2310 8.8060 1.3390 217.1370 219.6240 218.3800 4.6050 4.8440 116.2900 115.3310 155.6150 355.6790 1462.9900 1635.9800
  650.600 4.0940 3.1870 2.2410 8.7600 1.3250 215.7580 217.1990 216.4780 4.6850 4.7350 117.1200 112.8370 150.4950 361.0820 1465.2200 1639.5500
  650.700 3.8400 2.9840 2.2380 8.4050 1.3340 215.4810 217.8410 216.6610 4.6820 4.5330 118.2250 111.9690 147.4160 365.3520 1468.1200 1641.6600
  650.800 3.4330 2.4510 2.2560 8.4790 1.3260 215.6780 218.2420 216.9600 4.6190 4.2780 118.9930 112.7800 146.3620 370.2940 1471.5900 1642.8101
  650.900 3.2340 2.3010 2.2630 8.6290 1.2830 216.6600 219.3040 217.9820 4.5480 4.0930 119.2840 113.9340 147.6680 377.1990 1474.7900 1641.9500
  651.000 3.2180 2.5410 2.2570 8.6240 1.2310 218.1370 221.3910 219.7640 4.4330 3.8340 119.3100 115.2160 151.2050 385.5400 1476.9301 1637.5300
  651.100 3.0720 2.4510 2.2590 8.6130 1.2890 218.9180 222.2810 220.5990 4.2800 3.6330 119.2510 117.3860 156.9140 394.1340 1477.8800 1629.2000
  651.200 2.7140 1.9970 2.2440 8.9050 1.2520 220.2810 223.6690 221.9750 4.0950 3.4950 119.0110 119.4030 161.2260 403.0350 1477.6801 1618.5200
  651.300 2.5130 1.7420 2.2540 8.8290 1.2300 228.6180 233.9480 231.2830 3.8960 3.4000 118.5150 122.2320 164.8200 413.2120 1475.6700 1607.3800
  651.400 2.3850 1.4090 2.2290 8.8130 1.2170 227.0360 229.3650 228.2010 3.6790 3.3280 117.7530 122.5600 166.0860 424.0640 1470.4500 1596.8300
  651.500 2.3080 1.9340 2.1940 9.2870 1.2270 241.4040 237.7650 239.5850 3.5300 3.2910 116.6670 122.5700 169.4510 432.4800 1461.0601 1587.3700
  651.600 2.1450 1.9740 2.2040 9.8270 1.2480 238.1470 230.8830 234.5150 3.4090 3.3020 115.5750 122.8160 172.5890 435.8110 1448.5000 1579.6500
  651.700 1.8470 1.0680 2.2070 9.6600 1.1730 227.4150 235.1880 231.3010 3.2900 3.3320 114.6260 123.8090 173.3180 433.8500 1435.6100 1574.4301
  651.800 1.7190 0.8490 2.1880 9.7430 1.1840 234.8150 248.0500 241.4330 3.1610 3.3820 114.6360 124.8810 174.1820 428.0510 1425.3199 1571.5100
  651.900 1.6930 0.8210 2.1700 9.8280 1.1830 231.2860 246.7860 239.0360 3.0610 3.4340 115.2230 126.1570 177.5300 417.8990 1418.9700 1570.0699
  652.000 1.6370 0.7000 2.1860 9.9800 1.2360 231.7740 237.4180 234.5960 2.9780 3.4880 116.3930 126.9490 180.9420 401.4920 1416.1000 1569.3101
  652.100 1.5630 0.6680 2.1790 10.2710 1.2310 231.9790 231.4360 231.7080 2.8300 3.5700 117.4320 127.4530 183.1230 378.3160 1415.5800 1569.3199
  652.200 1.5490 0.7350 2.2090 10.8240 1.2480 229.3740 230.8360 230.1050 2.7360 3.6990 118.6500 128.5660 185.6280 352.1120 1416.6000 1570.6500
  652.300 1.6340 0.9110 2.2370 11.5020 1.3070 237.4040 230.4160 233.9100 2.7040 3.8660 119.8000 129.6000 186.2240 329.2690 1418.7700 1573.6100
  652.400 1.8020 1.3340 2.2530 12.3800 1.3020 243.4050 233.7070 238.5560 2.7360 4.0750 121.6900 128.7520 184.0910 315.9340 1421.9000 1577.7800
  652.500 2.1010 1.6140 2.2270 12.5980 1.3440 248.9620 232.8990 240.9300 2.8650 4.2450 123.6880 126.9560 180.7710 315.7590 1425.7800 1582.2600
