~Version information
  VERS.                           2.00 : CWLS log ASCII Standard -Version 2.00
  WRAP.                             NO : One line per depth step
~Well information
#MNEM.UNIT              Data Type        Information
#----------------------------------------------------------------------
  STRT.M                         2.000 : 
  STOP.M                       905.000 : 
  STEP.M                         0.100 : 
  NULL.                      -999.2500 : 
  WELL.                            304 : Well Name
  FLD .                       KARATUBE : Field Name
  CTRY.                     KAZAKHSTAN : Country
  SRVC.        JSC "KAZPROMGEOPHYSICA" : Service company
  DATE.                       22.06.04 : Log date
~Curve information
#MNEM.UNIT                               Curve Description
#----------------------------------------------------------------------
  DEPT.M                               : Depth Curve
  LL3 .OHMM                            : Appar.resist.laterolog,3 electrodes
  MLL .OHMM                            : Microlaterolog sonde
  RHOB.G/C3                            : Bulk density by gamma-gamma log
  GR  .UR/H                            : Gamma-ray log
  NGLD.UE                              : Neutron-gamma log/device DRST-90
  C1  .MM                              : Diameter from profile1
  C2  .MM                              : Diameter from profile2
  CALI.MM                              : Caliper
  GZ3 .OHMM                            : App.resistivity by lateral A2.0M0.5N
  GZ3B.OHMM                            : App.resistivity by lateral N0.5Œ2.0€
  SP  .MV                              : Spontaneous potential
  CILR.MMHO                            : Conduct. by sonde 7I1.6,react.signal
  CILA.MMHO                            : Conduct. by sonde 7I1.6,active signal
  DTP .US/M                            : Interval travel time (P-wave)
  T1  .US                              : Travel time1
  T2  .US                              : Travel time2
~Parameter information
#MNEM.UNIT              Value            Description
#----------------------------------------------------------------------
#----------------------------------------------------------------------
  DFV .SEK                          35 : Drilling Fluid Viscosity
  BS  .MM                        215.9 : Bit Size
  DFD .G/C3                       1.13 : Drilling Fluid Density
~Ascii Log Data
# ...
  595.600 1.1650 0.7060 2.0600 7.8340 1.3330 213.9450 218.4330 216.1890 1.1050 1.3220 115.7000 247.4830 219.3280 432.0730 1485.2200 1646.9399
  595.700 1.0560 0.6330 2.0910 7.7060 1.3280 214.2640 217.9030 216.0840 1.0880 1.3950 116.4420 248.5370 227.4800 430.0860 1482.9200 1645.0000
  595.800 0.9480 0.4640 2.0760 7.4750 1.3130 214.8480 216.9560 215.9020 1.0640 1.5250 116.9180 251.1030 233.5240 427.0990 1480.5100 1642.8300
  595.900 0.8580 0.3390 2.0970 7.6480 1.3150 215.8530 216.8710 216.3620 1.0980 1.6570 117.1060 252.9620 234.1580 423.2960 1477.9700 1640.0400
  596.000 0.8870 0.3500 2.1100 7.5930 1.3270 217.3750 218.8220 218.0990 1.1420 1.7730 117.2610 251.6660 230.9210 419.1340 1475.2800 1636.8800
  596.100 1.0730 0.7840 2.1360 8.0220 1.3640 217.2160 219.5010 218.3590 1.2370 1.8570 117.5170 244.6100 223.5130 414.8950 1472.4000 1633.4600
  596.200 1.3480 1.1620 2.1440 8.3090 1.3270 214.2580 218.3270 216.2930 1.3250 1.9030 117.6270 234.5570 213.5420 410.7900 1469.2500 1630.3700
  596.300 1.5920 1.3700 2.1600 8.9650 1.3300 212.8550 216.7890 214.8220 1.4330 1.9260 117.2180 221.5040 199.5180 407.0580 1465.8700 1627.8199
  596.400 1.7810 1.3520 2.1770 9.5970 1.3280 214.1950 215.9200 215.0570 1.5260 1.9260 116.7200 213.9140 186.8020 404.5790 1462.4600 1626.0200
  596.500 1.8740 1.4480 2.1800 9.5360 1.3260 214.0070 216.5640 215.2850 1.5870 1.9140 116.2070 207.9360 176.5170 403.6620 1459.3300 1624.8199
  596.600 1.9210 1.6280 2.2000 9.7490 1.3260 215.1830 215.8390 215.5110 1.6320 1.8920 115.8260 206.2340 171.0320 404.2990 1456.7100 1624.0601
  596.700 1.9460 1.6080 2.2000 9.8300 1.3370 213.9720 215.5820 214.7770 1.6680 1.8720 115.5090 207.9510 167.6000 405.2110 1454.4301 1623.3800
  596.800 1.9610 1.6120 2.1720 9.4460 1.3610 212.5760 215.8790 214.2270 1.7020 1.8500 115.0830 212.2620 166.8990 405.7940 1452.2200 1622.4301
  596.900 1.9660 1.6890 2.1580 9.6440 1.3580 211.5690 215.8440 213.7070 1.7340 1.8240 114.5230 218.4360 165.9780 405.1900 1449.8300 1621.2200
  597.000 1.9480 1.7020 2.1530 9.4510 1.3470 212.1040 215.9640 214.0340 1.7860 1.7960 113.9790 226.2370 165.2490 403.9870 1447.4800 1620.2800
  597.100 1.9030 1.6090 2.1510 9.3700 1.3870 213.1950 216.0600 214.6270 1.8190 1.7590 114.3080 233.3190 163.0870 402.6570 1445.4200 1620.1100
  597.200 1.8640 1.5180 2.1350 9.2380 1.3090 213.4110 215.4150 214.4130 1.8370 1.7170 115.0130 241.2470 160.5200 402.8050 1444.0200 1620.7900
  597.300 1.8550 1.5880 2.1160 8.8590 1.3010 214.9650 215.0910 215.0280 1.8070 1.6650 115.3910 248.9320 160.7750 404.8840 1443.5900 1621.9800
  597.400 1.8350 1.6290 2.1000 8.4180 1.3280 214.8160 214.9710 214.8940 1.7820 1.6050 115.1920 259.2510 160.6920 408.8860 1444.6899 1623.8199
  597.500 1.7640 1.4930 2.0970 8.0080 1.3840 214.1670 214.5210 214.3440 1.7490 1.5420 115.5480 267.6910 159.9610 413.7070 1447.6300 1626.7600
  597.600 1.6100 1.3150 2.0900 7.6100 1.3990 215.7350 215.0910 215.4130 1.6750 1.4860 116.3000 277.6820 159.5280 418.3690 1452.0400 1631.0800
  597.700 1.4570 1.1530 2.0780 6.8740 1.3900 216.3550 216.7290 216.5420 1.5560 1.4280 116.8260 289.1890 159.7330 422.3870 1456.9399 1636.0800
  597.800 1.3820 0.9950 2.0700 6.3170 1.3090 216.6350 216.3690 216.5020 1.4570 1.3690 116.8830 301.4560 159.2590 425.5190 1461.4800 1640.8101
  597.900 1.3380 0.8720 2.0630 5.7190 1.3370 218.9260 220.0750 219.5010 1.3680 1.3240 116.5400 311.7560 157.9930 428.4730 1465.6400 1644.8400
  598.000 1.3510 0.8230 2.1110 5.5520 1.3710 226.9820 234.3400 230.6610 1.3080 1.2950 114.6750 316.9310 156.1600 431.9770 1469.8800 1648.4399
  598.100 1.3590 0.8080 2.0670 4.9640 1.3860 246.6110 260.9850 253.7980 1.2650 1.2710 113.4140 319.9300 154.6900 436.7100 1474.4100 1652.0699
  598.200 1.3300 1.0900 2.0270 4.8290 1.3950 262.9240 283.7800 273.3520 1.2550 1.2500 111.8700 322.5670 153.7710 441.9240 1479.0000 1655.9800
  598.300 1.2930 0.8620 2.0580 4.6910 1.4100 230.2030 259.6650 244.9340 1.2570 1.2360 110.4490 326.3240 154.9120 445.9690 1483.4200 1660.3500
  598.400 1.1760 0.7590 2.0500 4.4290 1.4450 226.2570 227.5200 226.8880 1.2580 1.2370 109.1710 333.6430 157.1210 447.8290 1487.7100 1665.0200
  598.500 1.1100 0.6880 2.0460 4.2080 1.4260 225.9180 222.0910 224.0050 1.2300 1.2470 108.3010 344.3030 160.4580 447.8420 1492.0601 1669.6500
  598.600 1.0710 0.7050 2.0420 4.2350 1.4530 244.6220 221.5650 233.0940 1.1840 1.2650 107.6700 352.9210 164.5740 447.6030 1496.6200 1673.9100
  598.700 1.0600 0.7100 2.0600 4.3740 1.4090 255.4090 229.9990 242.7040 1.1630 1.2920 107.2320 357.7480 168.6520 447.8580 1501.3500 1677.9399
  598.800 1.0610 0.6500 2.0480 4.3520 1.3910 241.9730 242.7750 242.3740 1.1450 1.3290 106.8490 360.3710 171.8040 448.3280 1506.0300 1682.0900
  598.900 1.0550 0.6200 2.0480 4.1510 1.3770 233.9080 236.4360 235.1720 1.1410 1.3800 106.5530 360.9360 172.8970 448.0170 1510.3800 1686.6000
  599.000 1.0410 0.6440 2.0540 4.1090 1.3820 249.1460 233.2240 241.1850 1.1350 1.4260 106.3400 360.0050 171.1300 446.4160 1514.1801 1691.4600
  599.100 1.0310 0.7420 2.0590 4.3030 1.3170 264.1280 238.8440 251.4860 1.1210 1.4770 106.3310 356.3580 170.2590 444.1720 1517.4399 1696.5200
  599.200 1.0160 0.7730 2.0620 4.3170 1.3230 261.4720 229.3880 245.4300 1.1150 1.5430 106.4260 353.9140 172.6310 442.4510 1520.3600 1701.3700
  599.300 0.9850 0.6000 2.0480 4.2860 1.3420 249.1570 223.4270 236.2920 1.1130 1.6130 106.7220 351.2120 175.7960 442.3280 1523.2200 1705.4399
  599.400 0.9540 0.4760 2.0570 4.2460 1.3730 223.9750 221.3180 222.6460 1.1060 1.6860 107.1040 349.2080 180.2390 443.2710 1526.1700 1708.1100
  599.500 0.9380 0.5180 2.0520 4.2610 1.3570 221.2320 221.8310 221.5320 1.0760 1.7840 107.6450 346.3190 185.8230 443.9530 1529.1700 1709.0601
  599.600 0.9380 0.4710 2.0630 4.3360 1.3350 221.8450 221.5870 221.7160 1.0860 1.8900 108.1890 342.4600 191.4790 443.2260 1531.8900 1708.4200
  599.700 0.9790 0.5620 2.0680 4.3380 1.3470 222.7290 224.0950 223.4120 1.0910 1.9860 108.2670 334.8520 198.1400 441.4930 1533.7700 1706.6200
  599.800 1.0350 0.5770 2.0800 4.1230 1.3640 222.3450 223.2170 222.7810 1.0980 2.0400 108.3280 324.9940 202.2190 440.1500 1534.4000 1704.1000
  599.900 1.1020 0.6850 2.0570 4.3430 1.3460 221.0960 222.8660 221.9810 1.0960 2.0790 108.6950 310.9130 207.2390 440.5330 1533.7300 1701.2700
  600.000 1.1390 0.8560 2.0450 4.5070 1.3320 224.4210 223.3430 223.8820 1.0820 2.0870 109.6380 298.0300 211.6060 443.2050 1532.1500 1698.4399
  600.100 1.1080 0.7590 2.0490 4.5120 1.3460 227.2830 225.3470 226.3150 1.0540 2.0430 110.8200 285.0320 215.3750 447.6890 1530.0699 1695.8400
  600.200 1.0430 0.5180 2.0470 4.7650 1.2800 227.7170 228.1890 227.9530 0.9980 1.9710 111.9920 274.7510 220.5040 452.5260 1527.6600 1693.4500
  600.300 0.9990 0.5710 2.0520 4.8590 1.2930 224.1470 227.5940 225.8700 0.9320 1.9140 112.9750 267.8040 229.0780 455.5680 1524.8400 1691.2000
  600.400 0.9720 0.5890 2.0780 4.8720 1.2900 225.7140 224.3350 225.0240 0.8880 1.9450 114.1290 261.7600 236.9200 454.8470 1521.5900 1689.1200
  600.500 0.9700 0.7410 2.0790 5.0060 1.3380 239.1250 227.9750 233.5500 0.8630 2.0730 115.4220 254.3230 243.8880 449.7170 1518.0601 1687.0400
  600.600 0.9820 0.7400 2.0880 5.1820 1.3090 258.9460 229.7850 244.3660 0.8600 2.3230 116.4460 246.3850 251.7870 441.3440 1514.4500 1683.9800
  600.700 0.9980 0.7430 2.1420 5.5300 1.2860 279.2220 227.4130 253.3180 0.8630 2.5650 117.0910 237.4810 255.8350 432.1100 1510.7400 1678.0699
  600.800 1.0360 0.6230 2.1850 5.9170 1.2610 268.1330 235.5410 251.8370 0.8930 2.7790 117.2540 223.8670 254.1760 424.2520 1506.5900 1667.7500
  600.900 1.1550 0.7850 2.1990 6.4550 1.2300 231.0160 233.9610 232.4890 0.9450 2.9870 117.4760 207.5700 247.1020 418.8300 1501.7300 1652.9500
  601.000 1.3170 1.2260 2.2150 7.2860 1.2150 226.7140 229.7180 228.2160 0.9910 3.1530 117.6630 189.2900 234.0550 415.7410 1496.4399 1635.0699
  601.100 1.4970 1.5970 2.2170 8.1660 1.2590 239.1870 221.7810 230.4840 1.0750 3.2800 117.6920 171.9450 217.4170 414.4240 1491.4900 1615.9100
  601.200 1.6850 1.6140 2.2230 9.2400 1.2730 253.6080 223.7140 238.6610 1.1530 3.4050 117.6410 154.7630 196.8550 414.4720 1487.3199 1597.2400
