~Version information
  VERS.                           2.00 : CWLS log ASCII Standard -Version 2.00
  WRAP.                             NO : One line per depth step
~Well information
#MNEM.UNIT              Data Type        Information
#----------------------------------------------------------------------
  STRT.M                         2.000 : 
  STOP.M                       905.000 : 
  STEP.M                         0.100 : 
  NULL.                      -999.2500 : 
  WELL.                            304 : Well Name
  FLD .                       KARATUBE : Field Name
  CTRY.                     KAZAKHSTAN : Country
  SRVC.        JSC "KAZPROMGEOPHYSICA" : Service company
  DATE.                       22.06.04 : Log date
~Curve information
#MNEM.UNIT                               Curve Description
#----------------------------------------------------------------------
  DEPT.M                               : Depth Curve
  LL3 .OHMM                            : Appar.resist.laterolog,3 electrodes
  MLL .OHMM                            : Microlaterolog sonde
  RHOB.G/C3                            : Bulk density by gamma-gamma log
  GR  .UR/H                            : Gamma-ray log
  NGLD.UE                              : Neutron-gamma log/device DRST-90
  C1  .MM                              : Diameter from profile1
  C2  .MM                              : Diameter from profile2
  CALI.MM                              : Caliper
  GZ3 .OHMM                            : App.resistivity by lateral A2.0M0.5N
  GZ3B.OHMM                            : App.resistivity by lateral N0.5Œ2.0€
  SP  .MV                              : Spontaneous potential
  CILR.MMHO                            : Conduct. by sonde 7I1.6,react.signal
  CILA.MMHO                            : Conduct. by sonde 7I1.6,active signal
  DTP .US/M                            : Interval travel time (P-wave)
  T1  .US                              : Travel time1
  T2  .US                              : Travel time2
~Parameter information
#MNEM.UNIT              Value            Description
#----------------------------------------------------------------------
#----------------------------------------------------------------------
  DFV .SEK                          35 : Drilling Fluid Viscosity
  BS  .MM                        215.9 : Bit Size
  DFD .G/C3                       1.13 : Drilling Fluid Density
~Ascii Log Data
# ...
  141.400 -999.2500 -999.2500 -999.2500 3.3540 0.8090 223.2190 224.2200 223.7190 0.1380 0.1810 165.9940 -999.2500 -999.2500 -999.2500 -999.2500 -999.2500
  141.500 -999.2500 -999.2500 -999.2500 3.4020 0.7920 223.0880 224.2370 223.6630 0.1330 0.1790 167.6290 -999.2500 -999.2500 -999.2500 -999.2500 -999.2500
  141.600 -999.2500 -999.2500 -999.2500 3.4740 0.7960 223.1320 224.3380 223.7350 0.1240 0.1790 168.3370 -999.2500 -999.2500 -999.2500 -999.2500 -999.2500
  141.700 -999.2500 -999.2500 -999.2500 3.2630 0.8030 223.2400 224.3800 223.8100 0.1200 0.1780 168.7250 -999.2500 -999.2500 -999.2500 -999.2500 -999.2500
  141.800 -999.2500 -999.2500 -999.2500 3.3170 0.7960 223.3720 224.2810 223.8270 0.1150 0.1780 168.7970 -999.2500 -999.2500 -999.2500 -999.2500 -999.2500
  141.900 -999.2500 -999.2500 -999.2500 3.2070 0.8230 223.3220 224.0090 223.6660 0.1130 0.1780 168.5400 -999.2500 -999.2500 -999.2500 -999.2500 -999.2500
  142.000 -999.2500 -999.2500 -999.2500 3.4520 0.8240 223.4890 223.7770 223.6330 0.1210 0.1780 168.1360 -999.2500 -999.2500 -999.2500 -999.2500 -999.2500
  142.100 -999.2500 -999.2500 -999.2500 3.3330 0.8590 223.5960 223.6720 223.6340 0.1180 0.1790 167.8150 -999.2500 -999.2500 -999.2500 -999.2500 -999.2500
  142.200 -999.2500 -999.2500 -999.2500 3.1830 0.8470 223.5880 223.6830 223.6360 0.1300 0.1790 167.7190 -999.2500 -999.2500 -999.2500 -999.2500 -999.2500
  142.300 -999.2500 -999.2500 -999.2500 3.0600 0.8620 223.5100 223.7960 223.6530 0.1250 0.1780 167.7350 -999.2500 -999.2500 -999.2500 -999.2500 -999.2500
  142.400 -999.2500 -999.2500 -999.2500 3.1070 0.8460 223.5100 223.5320 223.5210 0.1170 0.1780 167.5900 -999.2500 -999.2500 -999.2500 -999.2500 -999.2500
  142.500 -999.2500 -999.2500 -999.2500 3.1980 0.8280 223.5990 223.7080 223.6540 0.1220 0.1780 167.0310 -999.2500 -999.2500 -999.2500 -999.2500 -999.2500
  142.600 -999.2500 -999.2500 -999.2500 3.3010 0.8430 223.7420 224.0980 223.9200 0.1210 0.1780 166.0820 -999.2500 -999.2500 -999.2500 -999.2500 -999.2500
  142.700 -999.2500 -999.2500 -999.2500 3.4530 0.8300 223.8220 223.2150 223.5180 0.1170 0.1780 164.7190 -999.2500 -999.2500 -999.2500 -999.2500 -999.2500
  142.800 -999.2500 -999.2500 -999.2500 3.5600 0.8100 224.3650 222.6970 223.5310 0.1180 0.1780 162.8340 -999.2500 -999.2500 -999.2500 -999.2500 -999.2500
  142.900 -999.2500 -999.2500 -999.2500 3.6070 0.8260 224.5560 222.4930 223.5240 0.1130 0.1790 160.9510 -999.2500 -999.2500 -999.2500 -999.2500 -999.2500
  143.000 -999.2500 -999.2500 -999.2500 3.6580 0.8040 224.4010 222.5340 223.4670 0.1150 0.1780 159.1420 -999.2500 -999.2500 -999.2500 -999.2500 -999.2500
  143.100 -999.2500 -999.2500 -999.2500 3.5600 0.8080 224.4780 222.4720 223.4750 0.1190 0.1770 157.1490 -999.2500 -999.2500 -999.2500 -999.2500 -999.2500
  143.200 -999.2500 -999.2500 -999.2500 3.6260 0.7950 224.5020 222.5670 223.5340 0.1190 0.1770 155.0770 -999.2500 -999.2500 -999.2500 -999.2500 -999.2500
  143.300 -999.2500 -999.2500 -999.2500 3.5900 0.8000 224.5990 222.7510 223.6750 0.1240 0.1790 152.8330 -999.2500 -999.2500 -999.2500 -999.2500 -999.2500
  143.400 -999.2500 -999.2500 -999.2500 3.5540 0.8420 224.6710 222.9210 223.7960 0.1290 0.1810 150.8470 -999.2500 -999.2500 -999.2500 -999.2500 -999.2500
  143.500 -999.2500 -999.2500 -999.2500 3.4530 0.8190 224.6060 222.9870 223.7960 0.1230 0.1820 149.1480 -999.2500 -999.2500 -999.2500 -999.2500 -999.2500
  143.600 -999.2500 -999.2500 -999.2500 3.5410 0.8370 224.6800 222.9140 223.7970 0.1220 0.1820 147.4580 -999.2500 -999.2500 -999.2500 -999.2500 -999.2500
  143.700 -999.2500 -999.2500 -999.2500 3.5660 0.8530 224.7010 222.9000 223.8000 0.1220 0.1830 146.4570 -999.2500 -999.2500 -999.2500 -999.2500 -999.2500
  143.800 -999.2500 -999.2500 -999.2500 3.5200 0.8510 224.6960 222.9400 223.8180 0.1290 0.1830 146.6840 -999.2500 -999.2500 -999.2500 -999.2500 -999.2500
  143.900 -999.2500 -999.2500 -999.2500 3.4540 0.8570 224.6760 222.9980 223.8370 0.1270 0.1810 148.3960 -999.2500 -999.2500 -999.2500 -999.2500 -999.2500
  144.000 -999.2500 -999.2500 -999.2500 3.2860 0.8660 224.5830 222.6020 223.5920 0.1290 0.1800 150.1580 -999.2500 -999.2500 -999.2500 -999.2500 -999.2500
  144.100 -999.2500 -999.2500 -999.2500 3.2680 0.8680 223.9690 222.8510 223.4100 0.1360 0.1810 152.2530 -999.2500 -999.2500 -999.2500 -999.2500 -999.2500
  144.200 -999.2500 -999.2500 -999.2500 3.3920 0.8810 223.5830 222.8950 223.2390 0.1360 0.1820 153.7890 -999.2500 -999.2500 -999.2500 -999.2500 -999.2500
  144.300 -999.2500 -999.2500 -999.2500 3.5230 0.8710 223.6940 222.6730 223.1840 0.1210 0.1820 157.4220 -999.2500 -999.2500 -999.2500 -999.2500 -999.2500
  144.400 -999.2500 -999.2500 -999.2500 3.3640 0.8570 224.0490 222.6890 223.3690 0.1090 0.1810 159.4430 -999.2500 -999.2500 -999.2500 -999.2500 -999.2500
  144.500 -999.2500 -999.2500 -999.2500 3.4760 0.8550 223.7050 222.7580 223.2320 0.1070 0.1800 161.1200 -999.2500 -999.2500 -999.2500 -999.2500 -999.2500
  144.600 -999.2500 -999.2500 -999.2500 3.2580 0.8560 223.6040 222.7810 223.1930 0.1180 0.1780 162.2890 -999.2500 -999.2500 -999.2500 -999.2500 -999.2500
  144.700 -999.2500 -999.2500 -999.2500 3.1210 0.8990 223.6190 222.7940 223.2060 0.1280 0.1770 163.1390 -999.2500 -999.2500 -999.2500 -999.2500 -999.2500
  144.800 -999.2500 -999.2500 -999.2500 3.2660 0.8840 223.6870 222.7400 223.2140 0.1260 0.1770 163.4870 -999.2500 -999.2500 -999.2500 -999.2500 -999.2500
  144.900 -999.2500 -999.2500 -999.2500 3.1610 0.8770 223.9020 222.3680 223.1350 0.1200 0.1780 163.7000 -999.2500 -999.2500 -999.2500 -999.2500 -999.2500
  145.000 -999.2500 -999.2500 -999.2500 3.2440 0.8740 224.0070 222.0920 223.0490 0.1210 0.1800 163.7290 -999.2500 -999.2500 -999.2500 -999.2500 -999.2500
  145.100 -999.2500 -999.2500 -999.2500 3.3760 0.8730 224.3820 222.3080 223.3450 0.1170 0.1800 163.8100 -999.2500 -999.2500 -999.2500 -999.2500 -999.2500
  145.200 -999.2500 -999.2500 -999.2500 3.1780 0.8720 224.7380 222.6930 223.7160 0.1180 0.1780 164.3250 -999.2500 -999.2500 -999.2500 -999.2500 -999.2500
  145.300 -999.2500 -999.2500 -999.2500 3.1400 0.8720 224.5850 222.7450 223.6650 0.1230 0.1770 164.9710 -999.2500 -999.2500 -999.2500 -999.2500 -999.2500
  145.400 -999.2500 -999.2500 -999.2500 3.3020 0.8610 224.5500 222.5750 223.5630 0.1240 0.1780 165.5400 -999.2500 -999.2500 -999.2500 -999.2500 -999.2500
  145.500 -999.2500 -999.2500 -999.2500 3.3030 0.8720 223.9510 222.7210 223.3360 0.1220 0.1780 165.8260 -999.2500 -999.2500 -999.2500 -999.2500 -999.2500
  145.600 -999.2500 -999.2500 -999.2500 3.2300 0.8680 223.3390 223.0250 223.1820 0.1180 0.1780 165.6680 -999.2500 -999.2500 -999.2500 -999.2500 -999.2500
  145.700 -999.2500 -999.2500 -999.2500 3.2250 0.8590 223.2690 223.2500 223.2600 0.1250 0.1770 165.4340 -999.2500 -999.2500 -999.2500 -999.2500 -999.2500
  145.800 -999.2500 -999.2500 -999.2500 3.2990 0.8440 223.2600 222.8090 223.0350 0.1230 0.1780 165.0640 -999.2500 -999.2500 -999.2500 -999.2500 -999.2500
  145.900 -999.2500 -999.2500 -999.2500 3.1980 0.8480 223.2070 222.7100 222.9590 0.1320 0.1770 164.6350 -999.2500 -999.2500 -999.2500 -999.2500 -999.2500
  146.000 -999.2500 -999.2500 -999.2500 3.3480 0.8510 223.1720 222.8800 223.0260 0.1230 0.1790 164.2210 -999.2500 -999.2500 -999.2500 -999.2500 -999.2500
  146.100 -999.2500 -999.2500 -999.2500 3.3420 0.8740 223.1900 223.2340 223.2120 0.1190 0.1800 163.9380 -999.2500 -999.2500 -999.2500 -999.2500 -999.2500
  146.200 -999.2500 -999.2500 -999.2500 3.3060 0.8540 223.3610 222.6610 223.0110 0.1200 0.1800 163.6070 -999.2500 -999.2500 -999.2500 -999.2500 -999.2500
  146.300 -999.2500 -999.2500 -999.2500 3.4950 0.8280 223.4550 222.5010 222.9780 0.1280 0.1790 163.1750 -999.2500 -999.2500 -999.2500 -999.2500 -999.2500
  146.400 -999.2500 -999.2500 -999.2500 3.5730 0.8620 223.7950 222.5390 223.1670 0.1240 0.1800 162.9070 -999.2500 -999.2500 -999.2500 -999.2500 -999.2500
  146.500 -999.2500 -999.2500 -999.2500 3.4470 0.8590 224.2930 222.7360 223.5140 0.1250 0.1820 162.5620 -999.2500 -999.2500 -999.2500 -999.2500 -999.2500
