~Version information
  VERS.                           2.00 : CWLS log ASCII Standard -Version 2.00
  WRAP.                             NO : One line per depth step
~Well information
#MNEM.UNIT              Data Type        Information
#----------------------------------------------------------------------
  STRT.M                         2.000 : 
  STOP.M                       905.000 : 
  STEP.M                         0.100 : 
  NULL.                      -999.2500 : 
  WELL.                            304 : Well Name
  FLD .                       KARATUBE : Field Name
  CTRY.                     KAZAKHSTAN : Country
  SRVC.        JSC "KAZPROMGEOPHYSICA" : Service company
  DATE.                       22.06.04 : Log date
~Curve information
#MNEM.UNIT                               Curve Description
#----------------------------------------------------------------------
  DEPT.M                               : Depth Curve
  LL3 .OHMM                            : Appar.resist.laterolog,3 electrodes
  MLL .OHMM                            : Microlaterolog sonde
  RHOB.G/C3                            : Bulk density by gamma-gamma log
  GR  .UR/H                            : Gamma-ray log
  NGLD.UE                              : Neutron-gamma log/device DRST-90
  C1  .MM                              : Diameter from profile1
  C2  .MM                              : Diameter from profile2
  CALI.MM                              : Caliper
  GZ3 .OHMM                            : App.resistivity by lateral A2.0M0.5N
  GZ3B.OHMM                            : App.resistivity by lateral N0.5Œ2.0€
  SP  .MV                              : Spontaneous potential
  CILR.MMHO                            : Conduct. by sonde 7I1.6,react.signal
  CILA.MMHO                            : Conduct. by sonde 7I1.6,active signal
  DTP .US/M                            : Interval travel time (P-wave)
  T1  .US                              : Travel time1
  T2  .US                              : Travel time2
~Parameter information
#MNEM.UNIT              Value            Description
#----------------------------------------------------------------------
#----------------------------------------------------------------------
  DFV .SEK                          35 : Drilling Fluid Viscosity
  BS  .MM                        215.9 : Bit Size
  DFD .G/C3                       1.13 : Drilling Fluid Density
~Ascii Log Data
# ...
  795.100 2.1920 0.9310 2.0540 6.1310 1.3590 375.0290 254.8480 314.9380 3.1080 5.9770 123.4790 106.9070 159.1210 324.7980 1303.7300 1440.2200
  795.200 2.2450 0.9120 2.0760 6.2390 1.3550 378.3730 265.0680 321.7200 3.2310 6.1170 122.9360 103.2750 153.6610 325.1030 1306.6700 1440.5500
  795.300 2.2330 0.9090 2.0520 6.0410 1.3390 378.3430 262.8180 320.5810 3.2330 6.0890 122.1550 99.2240 147.0000 325.9570 1311.2900 1441.0800
  795.400 2.1960 0.7910 2.0320 6.2240 1.3420 337.2520 247.3240 292.2880 3.1930 5.9940 121.7960 95.7960 143.2620 328.3560 1316.2700 1442.0699
  795.500 2.1700 0.7930 2.0070 6.4650 1.3540 347.2540 238.6610 292.9580 3.1370 5.9070 119.7780 94.1610 144.3010 331.7560 1319.6600 1443.2300
  795.600 2.1060 0.8490 2.0270 6.5870 1.3600 361.7540 247.4280 304.5910 3.0940 5.8590 117.1900 93.5610 145.2490 334.9870 1320.6100 1444.0400
  795.700 2.0560 0.9530 2.0730 6.6120 1.3600 378.0960 267.4270 322.7620 3.0830 5.8630 115.3160 93.6050 145.9690 337.0610 1319.6801 1443.2500
  795.800 2.0970 0.9640 2.1220 6.9020 1.3350 387.2740 263.0680 325.1710 3.1310 5.8770 113.0220 93.7070 148.8270 338.8990 1317.4700 1438.4000
  795.900 2.2080 0.8800 2.1780 7.0180 1.2970 378.7670 251.4450 315.1060 3.2670 5.8520 111.1850 92.0760 151.1050 341.1170 1313.2600 1427.5300
  796.000 2.3180 0.9510 2.1840 6.7630 1.3420 361.9780 244.0660 303.0220 3.3980 5.7220 109.7340 85.8300 148.1370 342.8440 1305.5200 1411.2600
  796.100 2.3680 1.2320 2.1450 7.0140 1.3590 326.7600 246.3560 286.5580 3.3870 5.5680 108.0440 80.0540 145.6020 341.2120 1294.1200 1392.9800
  796.200 2.3560 0.9830 2.0920 7.0980 1.3690 305.1500 251.3740 278.2620 3.2830 5.4080 106.2490 76.6860 141.8710 334.6800 1280.8400 1376.5000
  796.300 2.2240 0.7980 2.0790 7.1180 1.3700 323.1330 276.6830 299.9080 3.1430 5.2900 104.5160 73.8540 137.1330 324.4810 1267.9600 1363.5100
  796.400 2.1820 0.8970 2.0830 7.1020 1.3800 352.2850 291.5860 321.9360 3.0340 5.2150 103.8180 71.4320 136.5760 314.4870 1255.9800 1353.8300
  796.500 2.2170 0.8010 2.1140 7.1850 1.3750 325.8880 311.2400 318.5630 2.9480 5.2710 104.2510 70.1890 140.8480 308.9400 1243.8400 1346.1100
  796.600 2.2320 0.6910 2.1120 6.9790 1.4140 321.8560 280.3550 301.1060 2.9390 5.4290 105.9340 67.7520 143.1860 308.5630 1231.3000 1339.2700
  796.700 2.2200 0.8360 2.1150 6.9690 1.4260 321.1270 294.6300 307.8790 2.9550 5.6690 107.1990 65.4100 141.2930 308.9160 1219.5400 1332.7700
  796.800 2.2140 0.8660 2.1180 7.0830 1.4190 354.0180 304.9510 329.4840 2.9460 6.0980 109.8590 63.5910 138.1520 302.3190 1210.0601 1326.5300
  796.900 2.2160 0.7430 2.1140 7.3100 1.4450 359.2890 306.0700 332.6790 3.0850 6.7730 113.8570 63.0130 138.0940 285.6650 1202.9100 1321.0200
  797.000 2.2470 0.9120 2.2280 7.4510 1.4450 334.4640 282.9300 308.6970 3.2700 7.5580 117.1110 62.0540 135.5550 264.3610 1197.1600 1316.4200
  797.100 2.3620 0.7230 2.3740 7.4960 1.4850 356.3580 263.0210 309.6900 3.5240 8.4280 118.7630 60.4010 130.0490 247.1510 1192.4200 1312.9900
  797.200 2.5950 0.9530 2.3850 7.6180 1.4970 333.1090 257.2920 295.2010 4.0230 9.1980 119.6300 57.8390 126.1060 239.1500 1188.9700 1310.5100
  797.300 3.0800 1.2690 2.4740 7.3830 1.4800 293.2430 250.1030 271.6730 4.5080 9.9710 121.4160 56.1310 121.1520 238.8700 1187.6700 1309.1200
  797.400 3.6070 1.6070 2.4700 7.2120 1.5500 270.5320 248.2980 259.4150 5.0260 10.5680 122.7410 53.0250 112.9210 244.6340 1188.6200 1308.9700
  797.500 4.1190 1.5430 2.4470 6.7090 1.5900 269.5660 244.4330 257.0000 5.5950 11.1720 123.3230 50.6450 104.0100 255.6670 1191.0900 1310.1700
  797.600 4.7890 4.4920 2.4220 5.9030 1.6400 266.7000 243.1120 254.9060 6.3070 11.5510 123.2180 49.9360 96.7610 269.9290 1193.4700 1312.0601
  797.700 5.8950 5.2380 2.3490 5.7860 1.6830 275.0040 249.4100 262.2070 6.9120 11.5980 122.8480 49.2160 91.4140 283.0810 1194.2800 1313.6600
  797.800 7.4520 6.8490 2.2910 5.0050 1.7260 248.4360 236.7990 242.6180 7.4310 11.3410 123.0370 47.7460 86.3610 291.1780 1192.6801 1313.8101
  797.900 8.9760 12.1320 2.2410 4.3620 1.7340 238.2520 229.7070 233.9790 7.6850 10.6340 123.0910 46.9380 83.4260 295.2810 1189.6000 1312.6500
  798.000 8.7690 11.6010 2.2050 4.0170 1.7460 237.6080 228.8570 233.2320 7.6070 9.6120 123.1600 46.8620 80.8620 298.1430 1186.3500 1310.9100
  798.100 7.3560 5.7250 2.1400 3.9450 1.6450 247.8680 235.0480 241.4580 7.3960 8.6140 122.9330 47.3750 79.4840 301.4360 1183.2800 1308.7500
  798.200 5.9570 3.3560 2.0480 3.7330 1.6030 284.5230 234.1670 259.3450 7.0570 7.6560 122.4450 48.9920 80.8330 303.8450 1179.5000 1305.7100
  798.300 4.8940 2.5330 1.9850 3.7230 1.6080 325.1370 236.6020 280.8700 6.7450 6.8590 121.9610 52.0830 84.6080 303.6240 1173.8400 1301.1899
  798.400 4.1750 2.0980 1.8900 3.7310 1.5680 352.4260 240.7390 296.5820 6.4810 6.3370 121.5560 55.7290 93.1100 300.8910 1167.1801 1295.8700
  798.500 3.7810 1.3600 1.8630 3.7700 1.5380 383.1220 244.9860 314.0540 6.3940 5.9090 121.5160 57.9570 99.0670 297.6930 1161.6400 1291.1600
  798.600 3.5350 0.9990 1.8280 3.7460 1.5080 385.2700 235.9600 310.6150 6.0690 5.5790 121.8960 60.9680 106.3850 296.4720 1159.2800 1288.2000
  798.700 3.3540 1.1750 1.7660 3.6390 1.5390 397.6500 234.5090 316.0790 5.5560 5.3440 122.0410 64.0470 113.1310 298.4550 1160.1000 1286.8500
  798.800 3.1930 1.2160 1.7400 3.8240 1.5040 412.5020 235.5760 324.0390 5.2990 5.1030 121.8820 66.0780 116.1720 302.8410 1163.6300 1286.5500
  798.900 3.0550 1.3110 1.7260 3.9710 1.4610 410.2580 236.5320 323.3950 5.0400 4.8520 121.3960 67.1080 116.9500 307.6330 1169.1801 1287.0200
  799.000 3.0010 1.3950 1.7300 3.7580 1.4630 422.5580 232.3060 327.4320 4.7840 4.6550 121.0870 68.5540 119.9670 311.4050 1176.6300 1288.6100
  799.100 2.9520 1.4410 1.7740 3.9880 1.4620 431.7730 234.1700 332.9710 4.6500 4.5880 120.3500 71.2600 123.1240 313.6670 1184.8700 1291.8000
  799.200 2.8700 1.3130 1.8480 4.0690 1.4080 423.8080 241.1960 332.5020 4.6270 4.5300 119.5200 73.3940 123.9250 315.5290 1192.5200 1296.4600
  799.300 2.7940 1.0470 1.9180 3.9260 1.4010 419.0960 248.2540 333.6750 4.6720 4.4990 119.0900 75.7410 126.1340 318.3630 1198.1100 1302.4301
  799.400 2.7240 1.1130 1.9200 4.1000 1.4390 412.4900 245.4190 328.9540 4.8390 4.4940 119.3730 78.4790 130.3350 321.7280 1201.5601 1309.1200
  799.500 2.6990 1.3800 1.9150 4.1050 1.4880 395.8930 246.2910 321.0920 5.0680 4.4610 118.9550 79.8480 132.4890 323.7970 1203.4900 1316.2800
  799.600 2.6810 1.4340 1.8900 4.1760 1.4550 381.8710 246.2780 314.0740 5.2470 4.4090 119.0480 80.2330 134.0530 322.3020 1204.9301 1323.1400
  799.700 2.7390 1.2030 1.8510 4.1080 1.4680 385.8980 249.3320 317.6150 5.4170 4.3630 121.3170 81.1040 135.3500 316.8730 1206.2800 1328.8700
  799.800 2.7700 1.1800 1.8500 3.9550 1.5110 393.1000 247.4770 320.2890 5.5730 4.3460 124.1660 82.5970 135.6920 307.3050 1207.9700 1332.4500
  799.900 2.7390 1.3520 1.8900 4.0290 1.5330 391.9490 252.0360 321.9920 5.7780 4.3600 123.9830 83.8220 135.3840 294.6050 1210.3199 1333.2900
  800.000 2.6900 1.2970 1.9400 3.9870 1.5080 389.2480 253.2540 321.2510 6.0500 4.3890 123.4120 85.2290 137.2870 279.9400 1213.5800 1331.8500
  800.100 2.6620 1.1160 1.9940 4.0420 1.5350 396.2990 248.5290 322.4140 6.3440 4.4330 122.2660 86.8180 140.0520 267.3140 1216.7600 1329.5400
  800.200 2.6610 1.0950 2.0720 4.1940 1.5730 393.9730 253.1480 323.5600 6.5460 4.4440 121.2810 87.3110 140.5330 259.8540 1218.6400 1328.1600
  800.300 2.6790 1.3590 2.0870 4.1560 1.5720 382.7630 244.9960 313.8800 6.6270 4.4100 120.0160 86.6590 139.7210 260.8100 1218.6700 1328.8000
  800.400 2.6940 1.6330 2.0810 3.9770 1.5370 380.7230 248.4940 314.6080 6.5800 4.3590 118.2830 86.2840 138.6990 268.8830 1217.6801 1331.1300
  800.500 2.6890 1.6600 2.0700 4.0160 1.5200 383.0480 251.5940 317.3210 6.3940 4.2990 116.9680 85.8390 137.4280 281.9650 1216.6000 1333.9000
  800.600 2.6740 1.5640 2.0510 4.0750 1.5360 382.7660 254.9240 318.8450 6.1570 4.2420 115.8780 85.7540 135.3080 295.5190 1215.6100 1335.7700
  800.700 2.6510 1.1540 2.0400 4.1820 1.5520 382.1670 253.1520 317.6590 5.9150 4.2150 115.1580 86.2340 135.2210 306.4810 1214.4700 1336.0800
