~Version information
  VERS.                           2.00 : CWLS log ASCII Standard -Version 2.00
  WRAP.                             NO : One line per depth step
~Well information
#MNEM.UNIT              Data Type        Information
#----------------------------------------------------------------------
  STRT.M                         2.000 : 
  STOP.M                       905.000 : 
  STEP.M                         0.100 : 
  NULL.                      -999.2500 : 
  WELL.                            304 : Well Name
  FLD .                       KARATUBE : Field Name
  CTRY.                     KAZAKHSTAN : Country
  SRVC.        JSC "KAZPROMGEOPHYSICA" : Service company
  DATE.                       22.06.04 : Log date
~Curve information
#MNEM.UNIT                               Curve Description
#----------------------------------------------------------------------
  DEPT.M                               : Depth Curve
  LL3 .OHMM                            : Appar.resist.laterolog,3 electrodes
  MLL .OHMM                            : Microlaterolog sonde
  RHOB.G/C3                            : Bulk density by gamma-gamma log
  GR  .UR/H                            : Gamma-ray log
  NGLD.UE                              : Neutron-gamma log/device DRST-90
  C1  .MM                              : Diameter from profile1
  C2  .MM                              : Diameter from profile2
  CALI.MM                              : Caliper
  GZ3 .OHMM                            : App.resistivity by lateral A2.0M0.5N
  GZ3B.OHMM                            : App.resistivity by lateral N0.5Œ2.0€
  SP  .MV                              : Spontaneous potential
  CILR.MMHO                            : Conduct. by sonde 7I1.6,react.signal
  CILA.MMHO                            : Conduct. by sonde 7I1.6,active signal
  DTP .US/M                            : Interval travel time (P-wave)
  T1  .US                              : Travel time1
  T2  .US                              : Travel time2
~Parameter information
#MNEM.UNIT              Value            Description
#----------------------------------------------------------------------
#----------------------------------------------------------------------
  DFV .SEK                          35 : Drilling Fluid Viscosity
  BS  .MM                        215.9 : Bit Size
  DFD .G/C3                       1.13 : Drilling Fluid Density
~Ascii Log Data
# ...
  743.800 1.6920 0.5370 2.0400 6.7870 1.3140 347.1090 320.3470 333.7280 2.9740 3.8010 130.5830 118.0470 179.7970 339.6850 1320.0100 1438.8400
  743.900 1.7290 0.5000 2.0790 6.9740 1.3660 364.4770 304.0130 334.2450 2.9200 3.8730 130.4280 115.2140 173.4300 322.2070 1320.1899 1441.4900
  744.000 1.8060 0.4420 2.1390 6.9880 1.3990 367.3370 312.3990 339.8680 2.9390 4.0840 130.2960 113.3170 170.6920 302.4430 1319.1300 1446.7100
  744.100 1.9030 0.5250 2.1760 6.8210 1.3950 362.9660 310.9950 336.9810 3.0430 4.3370 130.9610 112.7380 170.0480 286.1530 1318.8700 1454.2500
  744.200 1.9970 0.6540 2.1910 6.8670 1.4320 356.8280 305.9560 331.3920 3.2320 4.5510 132.6810 109.9760 166.6020 278.1090 1322.1500 1463.3000
  744.300 2.1310 0.4560 2.1570 6.8580 1.4880 332.1200 296.6840 314.4020 3.4880 4.7120 136.1550 105.2420 162.1520 279.4610 1330.2000 1472.8700
  744.400 2.3830 1.0100 2.1270 6.9910 1.4870 296.7130 257.0190 276.8660 3.7230 4.8880 137.7880 101.1890 158.5020 287.3850 1341.4700 1481.5400
  744.500 2.5280 1.0260 2.1280 7.2550 1.4250 305.3560 227.3100 266.3330 3.8430 4.9510 138.3710 96.8520 152.6490 296.0440 1352.7200 1487.6300
  744.600 2.5470 0.8630 2.1440 7.0180 1.4620 337.4440 225.8820 281.6630 3.8610 4.9520 138.3960 93.3190 145.8080 299.9940 1360.7300 1489.2800
  744.700 2.5970 0.8370 2.1410 6.7960 1.4510 358.0130 226.4060 292.2100 3.8400 4.9410 137.6760 91.8340 143.0680 298.4700 1364.0500 1485.4900
  744.800 2.6360 1.1930 2.1510 6.4270 1.4840 320.2330 226.6960 273.4640 3.8890 4.9320 136.4140 92.0200 142.0220 297.0890 1363.1600 1476.8800
  744.900 2.6350 1.5440 2.1320 6.3270 1.5270 331.3470 228.9560 280.1520 3.9440 4.9140 134.9950 91.0620 141.2910 303.2580 1359.3500 1465.9200
  745.000 2.6290 1.6430 2.1310 6.4990 1.5400 337.4950 226.4350 281.9650 3.9880 4.9110 133.0760 90.3740 142.1450 318.9650 1353.0699 1455.3000
  745.100 2.5650 1.7030 2.1680 6.3650 1.5310 328.7950 226.9440 277.8700 4.0170 5.0230 130.6050 91.6070 145.2470 338.4470 1343.7200 1446.3400
  745.200 2.4300 1.8450 2.2490 6.3640 1.4950 317.8190 231.5950 274.7070 4.0390 5.2120 127.7570 92.7680 145.5200 352.8800 1330.9399 1438.9500
  745.300 2.3630 0.8550 2.2770 5.9580 1.4790 338.4150 237.2260 287.8200 4.0370 5.3760 124.8930 93.1720 143.3390 356.6700 1316.6300 1432.7900
  745.400 2.6440 0.5220 2.2590 5.8050 1.5680 364.1290 247.0920 305.6100 4.0350 5.5120 121.8750 93.7780 143.4040 350.1830 1303.8800 1427.5699
  745.500 3.0540 0.9890 2.2660 5.6420 1.5520 290.7580 229.5500 260.1540 4.0680 5.5790 118.8380 93.1040 143.5790 337.2650 1295.1000 1422.4800
  745.600 3.3550 1.3110 2.2260 5.5610 1.5380 284.0630 225.6820 254.8720 4.0850 5.5620 117.2600 89.9710 141.6000 321.3680 1290.3500 1416.9500
  745.700 3.2920 1.9060 2.2140 5.6120 1.5000 268.6100 226.1320 247.3710 4.0590 5.5050 116.5500 87.5760 139.2060 303.5920 1288.1100 1411.8600
  745.800 2.9940 1.9840 2.1810 5.5960 1.4870 286.6400 227.7040 257.1720 3.9950 5.4360 116.4070 86.6530 137.5360 284.2990 1286.5200 1409.4600
  745.900 2.6610 1.4130 2.1820 5.5350 1.4970 321.8340 227.3030 274.5680 3.9020 5.3690 116.5800 87.2440 137.5750 266.4210 1284.3101 1411.1600
  746.000 2.4670 1.2740 2.1950 5.4880 1.5070 338.4450 229.2220 283.8340 3.8350 5.3210 117.1890 87.9670 138.7810 255.5690 1281.5500 1416.3300
  746.100 2.5100 1.4950 2.1880 5.7250 1.4610 329.5850 230.1720 279.8790 3.7650 5.2870 118.1030 88.9270 141.9650 256.5480 1279.1899 1423.0800
  746.200 2.5270 1.8030 2.2020 5.8110 1.4710 300.9580 227.5000 264.2290 3.7170 5.2560 119.1310 89.7990 146.1980 270.0280 1278.5800 1430.2400
  746.300 2.5430 1.7940 2.1860 6.0190 1.4530 308.0880 227.3600 267.7240 3.6600 5.2340 120.2690 89.3190 148.5280 290.3830 1280.2400 1437.5900
  746.400 2.5480 1.4280 2.1800 6.1610 1.4780 332.0390 228.1870 280.1130 3.6200 5.2570 121.4970 89.0030 149.5590 309.2260 1283.6899 1445.0000
  746.500 2.5020 1.6300 2.2070 6.2860 1.4650 300.1250 226.6630 263.3940 3.6190 5.2950 122.7450 88.3210 148.1150 318.4530 1287.6899 1451.7400
  746.600 2.4660 1.3960 2.2240 6.1440 1.4120 310.8210 225.9380 268.3790 3.6580 5.3320 123.4560 87.5900 147.8110 316.4930 1291.2100 1456.8199
  746.700 2.4860 1.3910 2.2560 6.1570 1.4200 313.4080 226.5720 269.9900 3.6850 5.4040 124.1310 86.4150 147.5540 309.3820 1293.8400 1459.5800
  746.800 2.4590 1.6090 2.2350 6.1950 1.4160 294.5800 226.0220 260.3010 3.7140 5.4760 125.0390 85.3720 148.6520 307.3360 1295.7600 1459.7900
  746.900 2.3960 1.1980 2.2520 6.0570 1.4260 296.8960 226.8500 261.8730 3.7350 5.5430 125.8930 84.7200 147.9920 317.1260 1297.1100 1457.5000
  747.000 2.4100 1.1790 2.2610 6.0730 1.4420 315.6170 226.2920 270.9550 3.7480 5.5950 126.8310 84.0700 147.0920 336.9470 1298.3700 1453.9399
  747.100 2.4680 1.4160 2.2600 6.4440 1.4330 318.7190 226.2310 272.4750 3.7530 5.6500 128.1310 83.3020 145.8530 359.7310 1300.3600 1451.3500
  747.200 2.5230 1.7390 2.2910 6.2330 1.4740 304.4440 226.5210 265.4820 3.7880 5.7030 129.4990 81.6970 144.2540 379.1450 1303.7800 1452.0400
  747.300 2.5450 1.8790 2.2920 6.1790 1.4720 308.2710 227.5480 267.9100 3.8180 5.7690 130.2700 80.1560 141.6250 393.3650 1308.3900 1455.8800
  747.400 2.5580 1.0920 2.3100 6.1080 1.5090 325.4970 227.4700 276.4830 3.8360 5.8610 130.5250 78.5640 140.9480 403.2850 1313.2800 1460.7400
  747.500 2.5710 1.1150 2.3260 6.2790 1.5190 322.3830 226.2850 274.3340 3.8710 5.9610 130.3830 78.1060 140.1360 410.1290 1318.0000 1464.3300
  747.600 2.6060 1.1300 2.3630 6.0670 1.5440 324.7320 227.3670 276.0500 3.9240 6.0760 129.9730 77.3910 138.7880 414.0110 1322.7700 1466.4200
  747.700 2.6820 1.3850 2.3480 6.2090 1.5540 319.8020 227.1990 273.5010 4.0390 6.2120 129.5490 76.5390 137.9250 414.3520 1327.6801 1468.2700
  747.800 2.7330 1.5030 2.3960 6.2550 1.5530 285.8190 224.8350 255.3270 4.1880 6.2940 128.9670 76.0950 137.7090 410.0810 1332.0601 1470.8700
  747.900 2.7920 1.7240 2.3720 6.2470 1.5740 275.7280 225.3860 250.5570 4.3210 6.3730 128.0880 75.4940 136.1050 400.9760 1335.1899 1474.0400
  748.000 2.9830 2.3820 2.3220 6.0930 1.5990 270.3520 225.8310 248.0920 4.4380 6.3810 127.2620 74.9680 134.7390 388.9070 1336.9000 1476.8600
  748.100 3.3680 3.5470 2.3210 6.2650 1.6240 242.7300 226.6100 234.6700 4.5610 6.3330 126.2500 74.2980 133.4210 377.4820 1337.5400 1478.5300
  748.200 3.6510 4.0330 2.3360 6.1450 1.5570 236.8470 227.9920 232.4200 4.6810 6.2200 124.9820 73.2670 131.2550 370.6390 1337.3000 1478.7700
  748.300 3.8040 3.1980 2.3440 6.1070 1.5340 232.9880 228.1720 230.5800 4.7470 6.0890 123.8520 71.7960 128.7960 368.7270 1336.3900 1477.7500
  748.400 3.6950 3.5740 2.3640 5.8560 1.5590 232.7920 229.4850 231.1380 4.7620 5.9700 123.3690 71.2630 128.0740 368.6450 1335.2700 1475.9200
  748.500 3.3520 3.6700 2.3790 5.5090 1.5570 231.6160 230.7300 231.1730 4.7190 5.8940 124.6500 71.2940 128.2700 365.8310 1334.5100 1473.6400
  748.600 2.9020 1.8500 2.3600 5.5400 1.5530 234.1460 236.0060 235.0760 4.6470 5.8510 126.4220 71.7950 128.4460 359.1300 1334.1600 1471.1899
  748.700 2.7140 1.6260 2.3600 5.3730 1.5550 239.6730 238.8120 239.2420 4.5790 5.8260 128.0630 72.5480 129.2920 351.4780 1333.5601 1468.8700
  748.800 2.8550 2.7880 2.3640 5.5660 1.5860 245.3790 238.2890 241.8340 4.5420 5.8240 129.8360 73.5640 131.9310 347.0170 1332.0400 1466.9700
  748.900 3.0880 3.1510 2.3800 5.5260 1.5920 247.7310 239.2640 243.4970 4.5500 5.8500 131.5750 74.1450 134.0140 347.1260 1329.4301 1465.6200
  749.000 3.1590 3.1300 2.3660 5.8280 1.5740 233.1860 235.5760 234.3810 4.5910 5.8800 132.5530 74.2330 134.5500 349.9090 1326.6300 1464.8600
  749.100 3.1230 2.8610 2.3600 5.6330 1.5780 229.8830 232.5010 231.1920 4.6390 5.9100 133.6750 74.1090 134.6390 352.4820 1324.6801 1464.7400
  749.200 3.1050 2.4570 2.3650 5.6300 1.5860 230.0050 231.4060 230.7060 4.6760 5.9320 133.9600 74.3440 134.8370 353.6780 1324.2100 1465.3500
  749.300 3.1260 2.2350 2.3590 5.7060 1.5290 228.6490 229.5240 229.0860 4.7070 5.9500 133.7120 74.3140 135.4130 353.3990 1324.7800 1466.3400
  749.400 3.1480 2.2570 2.3530 5.8540 1.4860 223.7140 227.1310 225.4230 4.7340 5.9600 132.9700 74.6220 136.4290 351.6070 1325.5900 1467.1100
