~Version information
  VERS.                           2.00 : CWLS log ASCII Standard -Version 2.00
  WRAP.                             NO : One line per depth step
~Well information
#MNEM.UNIT              Data Type        Information
#----------------------------------------------------------------------
  STRT.M                         2.000 : 
  STOP.M                       905.000 : 
  STEP.M                         0.100 : 
  NULL.                      -999.2500 : 
  WELL.                            304 : Well Name
  FLD .                       KARATUBE : Field Name
  CTRY.                     KAZAKHSTAN : Country
  SRVC.        JSC "KAZPROMGEOPHYSICA" : Service company
  DATE.                       22.06.04 : Log date
~Curve information
#MNEM.UNIT                               Curve Description
#----------------------------------------------------------------------
  DEPT.M                               : Depth Curve
  LL3 .OHMM                            : Appar.resist.laterolog,3 electrodes
  MLL .OHMM                            : Microlaterolog sonde
  RHOB.G/C3                            : Bulk density by gamma-gamma log
  GR  .UR/H                            : Gamma-ray log
  NGLD.UE                              : Neutron-gamma log/device DRST-90
  C1  .MM                              : Diameter from profile1
  C2  .MM                              : Diameter from profile2
  CALI.MM                              : Caliper
  GZ3 .OHMM                            : App.resistivity by lateral A2.0M0.5N
  GZ3B.OHMM                            : App.resistivity by lateral N0.5Œ2.0€
  SP  .MV                              : Spontaneous potential
  CILR.MMHO                            : Conduct. by sonde 7I1.6,react.signal
  CILA.MMHO                            : Conduct. by sonde 7I1.6,active signal
  DTP .US/M                            : Interval travel time (P-wave)
  T1  .US                              : Travel time1
  T2  .US                              : Travel time2
~Parameter information
#MNEM.UNIT              Value            Description
#----------------------------------------------------------------------
#----------------------------------------------------------------------
  DFV .SEK                          35 : Drilling Fluid Viscosity
  BS  .MM                        215.9 : Bit Size
  DFD .G/C3                       1.13 : Drilling Fluid Density
~Ascii Log Data
# ...
  698.200 2.0650 1.8290 2.4460 5.4840 1.4770 242.3410 231.5220 236.9320 2.4150 3.9360 117.9870 130.4720 177.2490 346.4910 1332.3101 1467.5601
  698.300 2.0730 1.8450 2.4910 5.4360 1.4600 239.9770 231.3560 235.6660 2.5160 4.0330 119.6070 130.5040 177.5830 347.1410 1332.9000 1470.4301
  698.400 2.2100 1.9220 2.4750 5.2810 1.4530 234.8500 229.9060 232.3780 2.6180 4.0600 121.2230 129.6470 176.0730 350.0230 1331.9200 1472.6400
  698.500 2.3580 2.2240 2.4310 4.9380 1.4210 232.8490 227.0340 229.9420 2.6980 4.0230 122.5600 127.7400 174.7000 355.1400 1329.8700 1472.7600
  698.600 2.3530 2.2450 2.4280 4.8340 1.3740 230.3600 224.8670 227.6130 2.7540 3.9730 123.3280 124.8890 171.7000 360.7610 1327.6100 1470.8199
  698.700 2.2260 1.9270 2.4380 4.8900 1.3280 230.1180 224.5760 227.3470 2.7750 3.9630 124.0470 123.3700 168.7570 363.7920 1325.8800 1468.2700
  698.800 2.1400 1.7840 2.4270 5.0200 1.3480 232.0770 227.4270 229.7520 2.7770 4.0700 124.4580 121.6430 168.2250 361.8950 1325.1500 1466.3400
  698.900 2.1300 1.7790 2.4530 5.1240 1.3830 232.8410 229.7550 231.2980 2.7960 4.2290 124.6360 121.5650 169.5250 354.9340 1325.3199 1465.0800
  699.000 2.1970 1.9020 2.4540 5.0740 1.4280 233.6400 228.4940 231.0670 2.8380 4.4010 124.8940 120.8970 170.4600 345.7070 1325.8101 1463.3300
  699.100 2.3100 1.9900 2.4720 5.3380 1.4510 234.3350 229.4500 231.8930 2.8830 4.5250 125.3910 119.2860 170.4940 338.7870 1326.0500 1460.1600
  699.200 2.4790 2.1730 2.4490 5.1130 1.3950 234.4550 228.4920 231.4730 2.9020 4.6130 126.0280 117.5480 168.4030 338.1240 1325.9700 1455.5601
  699.300 2.6240 2.5280 2.4270 4.9400 1.3760 233.6970 226.9690 230.3330 2.9540 4.6660 126.8210 114.6960 164.1350 343.8180 1325.8101 1450.4399
  699.400 2.7350 2.8400 2.3680 4.9430 1.3800 233.4480 227.1750 230.3110 2.9940 4.7260 126.9950 112.3230 162.2660 351.8120 1325.3300 1446.1300
  699.500 2.6440 2.9660 2.3010 5.0220 1.3880 233.4500 227.7570 230.6040 3.0140 4.7630 126.2560 110.4230 160.1950 357.2240 1323.4399 1443.9800
  699.600 2.4140 2.2880 2.2620 5.3110 1.4040 233.0830 224.0120 228.5480 3.0410 4.7590 125.9240 109.4390 156.3730 358.0390 1319.1200 1444.8000
  699.700 2.2670 1.7470 2.2120 5.5240 1.4090 234.3390 225.8730 230.1060 3.0490 4.7110 123.6980 108.6670 153.2880 355.9620 1312.8500 1447.9800
  699.800 2.2750 1.8840 2.1520 5.7810 1.4130 239.5060 230.0450 234.7760 3.0170 4.6300 121.6140 107.3560 153.9180 352.9910 1306.9800 1451.5300
  699.900 2.2930 2.1070 2.1460 5.8600 1.4110 241.9840 230.9350 236.4590 2.9520 4.6200 119.7510 106.3200 157.1300 349.4210 1304.3101 1453.2900
  700.000 2.2370 2.2910 2.1090 5.8090 1.4020 274.3630 236.3140 255.3390 2.8940 4.6860 117.9290 106.1350 157.2950 343.8020 1305.9900 1452.4301
  700.100 2.1260 1.2780 2.1360 5.9180 1.4580 326.7980 245.2500 286.0240 2.8640 4.8040 116.2200 106.6210 153.2070 335.2620 1310.4800 1449.8500
  700.200 2.1490 1.1640 2.1840 5.8990 1.4480 351.9200 242.4620 297.1910 2.8810 4.9850 114.0420 106.2430 149.6140 323.9660 1314.5300 1447.0400
  700.300 2.2520 1.4360 2.2080 5.6750 1.4760 341.0520 247.8940 294.4730 2.9770 5.1360 111.6550 104.6670 150.7840 311.5650 1315.7400 1444.7300
  700.400 2.4120 2.0480 2.1710 5.9510 1.4820 304.8700 240.9660 272.9180 3.1080 5.2570 109.6150 101.9290 152.4140 301.9960 1314.2600 1442.8199
  700.500 2.5570 2.2010 2.1600 5.7150 1.4690 284.7970 234.9410 259.8690 3.2470 5.3040 107.2560 99.4380 151.6070 301.3400 1312.1300 1441.0601
  700.600 2.6510 1.8250 2.1400 5.8470 1.4350 289.5400 235.5700 262.5550 3.3740 5.1710 106.0510 97.8630 148.6620 314.2010 1311.1000 1439.8500
  700.700 2.7290 1.6240 2.0710 5.8970 1.4250 311.9880 238.8380 275.4130 3.4200 4.9350 106.7970 94.3200 142.8900 337.8040 1311.2400 1439.9399
  700.800 2.7460 1.8560 1.9670 5.7930 1.4380 299.7340 237.8580 268.7960 3.3670 4.6110 108.1120 90.3460 139.7620 361.3870 1311.4800 1441.7800
  700.900 2.4890 1.8460 1.8990 5.5910 1.3990 281.0390 236.3050 258.6720 3.2930 4.4010 109.0840 89.2260 141.9840 372.4300 1310.9500 1444.6400
  701.000 2.0690 1.5230 1.8360 5.5620 1.3990 285.9830 243.5780 264.7800 3.2410 4.3530 111.0700 92.2560 147.6350 366.0790 1309.7000 1447.1100
  701.100 1.7970 1.1750 1.8210 5.3660 1.3960 320.4960 276.4610 298.4780 2.9090 4.4280 113.8620 97.3120 149.8310 348.4310 1308.3500 1447.9200
  701.200 1.7730 1.2040 1.8680 5.2600 1.4120 331.7680 296.5920 314.1800 2.8680 4.6250 116.2870 103.3980 157.5020 331.2590 1307.6000 1446.8400
  701.300 1.9730 1.4930 1.9800 5.2450 1.4310 346.6710 280.9590 313.8150 2.9550 4.8550 118.1300 104.7490 167.5910 322.4760 1307.4900 1444.4600
  701.400 2.1440 1.3750 2.0010 5.0100 1.4200 354.9900 244.2770 299.6330 3.1150 4.9910 119.9460 101.4950 172.6390 321.4160 1307.6100 1441.4600
  701.500 2.2370 0.9760 1.9880 5.0610 1.4540 361.2280 244.6910 302.9600 3.2620 5.1160 121.9640 97.3650 169.0820 322.3230 1307.5800 1438.5900
  701.600 2.2220 0.7400 1.9950 5.1380 1.4520 302.9190 249.0700 275.9940 3.3910 5.1840 123.4890 95.3050 158.5380 321.8650 1307.4900 1436.6100
  701.700 2.2460 0.7480 2.0010 5.4820 1.4160 328.8880 249.3330 289.1110 3.4530 5.2070 124.4220 93.0020 150.4160 321.7710 1307.6600 1436.1500
  701.800 2.3850 0.7900 2.0430 5.4410 1.4090 383.3770 243.6800 313.5280 3.5120 5.1930 125.0870 90.9540 146.5980 325.7340 1308.1700 1437.2100
  701.900 2.5140 0.9400 2.0250 5.4900 1.4170 379.2300 244.4790 311.8550 3.5670 5.1150 125.7420 88.9650 145.0090 334.2150 1309.1899 1439.2900
  702.000 2.5570 1.2070 1.9920 5.4380 1.3700 359.6460 243.8200 301.7330 3.5740 4.9670 126.5260 85.6450 142.2670 343.5180 1310.8101 1441.9200
  702.100 2.5100 1.4980 1.9540 5.4280 1.3680 361.1750 248.2150 304.6950 3.5320 4.8750 127.4800 83.5440 142.5920 348.9250 1312.6300 1444.7300
  702.200 2.3910 1.2180 1.9770 5.4940 1.3610 361.6110 259.4900 310.5500 3.4990 4.9000 128.2770 84.8940 144.6130 348.1040 1313.0900 1447.2100
  702.300 2.2340 0.9200 2.0570 5.7090 1.4010 372.7440 274.0460 323.3950 3.5030 5.0030 128.3900 86.8040 141.8790 342.4190 1310.5500 1448.5200
  702.400 2.2510 0.7410 2.1280 5.8810 1.4020 389.4170 295.4920 342.4550 3.5700 5.1910 128.3220 87.3140 144.3420 334.6310 1304.9100 1448.0100
  702.500 2.4790 0.9340 2.1980 5.8590 1.4440 332.4850 245.7270 289.1060 3.7750 5.4080 127.8290 88.6350 148.5300 327.5330 1298.1400 1445.6801
  702.600 2.7190 1.1710 2.2770 6.1270 1.5060 316.2560 242.1270 279.1920 4.0180 5.5750 127.1410 86.8670 148.5000 322.7890 1293.0699 1442.3900
  702.700 2.8830 1.2690 2.2390 5.7840 1.4940 328.7450 243.1000 285.9220 4.1460 5.5950 126.4380 83.5480 144.0780 321.2310 1291.3300 1439.2500
  702.800 2.9390 1.4570 2.2540 5.4990 1.5250 303.6360 242.3640 273.0000 4.2950 5.5140 125.9190 81.5730 140.8040 322.5840 1292.4800 1436.8500
  702.900 2.9950 1.6350 2.2110 5.6370 1.5080 286.7110 239.7030 263.2070 4.3270 5.3950 125.2960 81.6220 139.9230 325.2620 1294.6300 1434.8800
  703.000 2.8530 1.0000 2.1710 5.5620 1.5560 298.4530 241.4920 269.9720 4.2790 5.3030 124.3450 80.9970 134.8950 327.7720 1296.0800 1432.6700
  703.100 2.6600 0.8150 2.1750 5.4010 1.4930 309.2570 252.0920 280.6740 4.1900 5.2520 123.4670 80.0080 133.3070 330.2660 1296.3900 1430.1000
  703.200 2.5480 0.8420 2.1710 5.5230 1.4750 335.6320 249.7230 292.6780 4.0890 5.2730 122.6170 81.3560 137.4110 335.2870 1296.0000 1427.7100
  703.300 2.5110 0.8740 2.2060 5.4880 1.4390 361.6420 245.0560 303.3490 4.0160 5.2940 121.5320 83.4600 141.3710 344.9230 1295.2800 1426.0500
  703.400 2.5340 0.9190 2.2430 5.3680 1.4270 370.1600 248.6560 309.4080 4.0080 5.4340 121.1640 83.2770 141.5000 357.7520 1294.2700 1424.9399
  703.500 2.6130 0.7890 2.2190 5.5600 1.4310 353.5320 252.1850 302.8580 4.0580 5.4440 122.0260 82.3760 141.5350 368.8290 1292.9200 1423.7000
  703.600 2.7630 1.2800 2.2290 5.6310 1.4350 294.1360 255.4700 274.8030 4.1460 5.4050 123.8160 83.0300 143.4580 373.2810 1291.3600 1421.9399
  703.700 2.8450 1.6610 2.2200 5.4570 1.4260 267.3850 247.7520 257.5690 4.2050 5.2970 125.4250 82.5750 142.4100 369.7820 1289.5900 1419.9700
  703.800 2.8100 1.4370 2.1480 5.4240 1.4240 294.7450 241.6870 268.2160 4.2120 5.1640 126.7030 80.8120 141.5150 360.9230 1287.5500 1418.4900
