~Version information
  VERS.                           2.00 : CWLS log ASCII Standard -Version 2.00
  WRAP.                             NO : One line per depth step
~Well information
#MNEM.UNIT              Data Type        Information
#----------------------------------------------------------------------
  STRT.M                         2.000 : 
  STOP.M                       905.000 : 
  STEP.M                         0.100 : 
  NULL.                      -999.2500 : 
  WELL.                            304 : Well Name
  FLD .                       KARATUBE : Field Name
  CTRY.                     KAZAKHSTAN : Country
  SRVC.        JSC "KAZPROMGEOPHYSICA" : Service company
  DATE.                       22.06.04 : Log date
~Curve information
#MNEM.UNIT                               Curve Description
#----------------------------------------------------------------------
  DEPT.M                               : Depth Curve
  LL3 .OHMM                            : Appar.resist.laterolog,3 electrodes
  MLL .OHMM                            : Microlaterolog sonde
  RHOB.G/C3                            : Bulk density by gamma-gamma log
  GR  .UR/H                            : Gamma-ray log
  NGLD.UE                              : Neutron-gamma log/device DRST-90
  C1  .MM                              : Diameter from profile1
  C2  .MM                              : Diameter from profile2
  CALI.MM                              : Caliper
  GZ3 .OHMM                            : App.resistivity by lateral A2.0M0.5N
  GZ3B.OHMM                            : App.resistivity by lateral N0.5Œ2.0€
  SP  .MV                              : Spontaneous potential
  CILR.MMHO                            : Conduct. by sonde 7I1.6,react.signal
  CILA.MMHO                            : Conduct. by sonde 7I1.6,active signal
  DTP .US/M                            : Interval travel time (P-wave)
  T1  .US                              : Travel time1
  T2  .US                              : Travel time2
~Parameter information
#MNEM.UNIT              Value            Description
#----------------------------------------------------------------------
#----------------------------------------------------------------------
  DFV .SEK                          35 : Drilling Fluid Viscosity
  BS  .MM                        215.9 : Bit Size
  DFD .G/C3                       1.13 : Drilling Fluid Density
~Ascii Log Data
# ...
  191.000 4.8000 2.0860 2.1070 7.8680 1.1340 224.3480 235.4090 229.8790 8.2660 8.0330 115.1710 44.0520 108.6690 492.7540 1668.2100 1883.5500
  191.100 4.8050 2.0880 2.1010 8.0240 1.1020 224.2380 234.1300 229.1840 8.3180 7.9140 113.0700 44.3570 108.8230 501.0430 1674.1700 1887.7600
  191.200 4.7900 2.1810 2.1060 7.6500 1.1220 226.2650 234.6530 230.4590 8.3280 7.7660 110.5290 44.9730 109.0440 509.8760 1679.7200 1891.7500
  191.300 4.7690 2.3430 2.0950 7.9110 1.1340 225.6700 235.0130 230.3410 8.3220 7.6310 108.0500 45.1710 109.1490 519.1170 1684.6600 1895.5500
  191.400 4.7370 2.2760 2.0970 8.0110 1.1720 228.0980 237.0700 232.5840 8.3040 7.5210 105.9610 45.9000 109.9960 528.4570 1688.9500 1899.2800
  191.500 4.6980 2.2230 2.0710 8.3060 1.1300 231.4920 238.7650 235.1280 8.2900 7.4200 103.6780 46.5620 111.0700 536.8280 1692.8300 1903.0699
  191.600 4.6540 2.1870 2.0630 8.2320 1.1310 236.4780 241.5070 238.9930 8.2950 7.3220 101.7490 47.3450 112.4010 542.7130 1696.4900 1906.9399
  191.700 4.6130 2.3140 2.0610 7.9400 1.1540 243.2090 243.8230 243.5160 8.3310 7.2740 100.5220 48.0130 113.8540 545.2420 1700.0800 1910.8199
  191.800 4.5730 2.4930 2.0830 8.1120 1.1840 250.1500 247.8190 248.9850 8.4150 7.1890 100.4290 48.8320 114.9580 544.7850 1703.6801 1914.6200
  191.900 4.5120 2.4210 2.0740 7.7610 1.1150 250.7540 258.6360 254.6950 8.4960 7.1670 101.1060 49.7460 114.7940 542.1530 1707.4200 1918.3000
  192.000 4.4540 2.3340 2.0700 7.7870 1.1340 242.9580 261.2350 252.0960 8.5890 7.1620 102.0440 50.6420 116.2460 538.3340 1711.3700 1921.9200
  192.100 4.4300 2.3790 2.0550 8.0180 1.1740 239.5600 255.3930 247.4760 8.6890 7.1680 103.5290 51.8670 118.2010 533.9790 1715.3700 1925.6200
  192.200 4.4190 2.3260 2.0410 8.1640 1.1270 238.7170 252.9550 245.8360 8.8070 7.1740 105.5370 52.1310 119.0760 530.0620 1719.2100 1929.6000
  192.300 4.3760 2.3060 2.0480 8.1380 1.1050 245.5600 247.8770 246.7190 8.8520 7.1500 107.8300 52.4350 120.1910 527.2110 1723.0601 1934.1600
  192.400 4.2820 2.1740 2.0640 8.2080 1.1150 240.3820 246.7440 243.5630 8.8400 7.0750 109.5350 53.5590 121.0310 525.8310 1727.6801 1939.5699
  192.500 4.1980 2.0250 2.0430 8.2110 1.0900 245.1130 247.8260 246.4690 8.7640 6.9720 111.1800 54.0660 121.9820 525.5970 1733.8400 1946.0200
  192.600 4.1660 2.3900 2.0470 8.1400 1.1090 246.9860 248.0010 247.4930 8.6520 6.8860 112.4130 54.8900 122.8770 526.1180 1741.6600 1953.4500
  192.700 4.1450 2.0780 2.0550 8.0290 1.1170 242.7330 255.7820 249.2580 8.5670 6.8180 113.3230 55.4730 122.9060 526.8410 1750.4100 1961.5300
  192.800 4.1320 1.9970 2.0480 8.1810 1.1550 246.8220 273.5430 260.1820 8.5030 6.7690 113.9070 56.5480 123.6100 527.3450 1759.1000 1969.6899
  192.900 4.1540 2.1180 2.0520 8.2800 1.1430 250.3480 276.5860 263.4670 8.4740 6.7390 114.4770 57.4580 125.3280 527.1850 1767.0500 1977.1700
  193.000 4.1390 2.0740 2.0380 8.1550 1.1640 262.8240 258.5380 260.6810 8.4690 6.7280 115.0920 57.2380 128.1330 526.3650 1773.8000 1983.3700
  193.100 4.0610 2.0970 2.0220 8.1320 1.1600 264.0370 258.4990 261.2680 8.4740 6.7350 115.7210 57.5810 128.7130 525.6070 1779.1700 1988.1500
  193.200 3.9700 2.1150 2.0220 8.0540 1.1540 257.0660 263.3450 260.2060 8.4550 6.7500 117.1430 58.2970 128.8910 525.9690 1783.1899 1991.9500
  193.300 3.8980 2.0710 2.0270 8.3350 1.1120 253.3590 267.7040 260.5320 8.4300 6.7700 118.1360 58.8880 130.1040 527.7370 1786.4100 1995.5500
  193.400 3.8600 2.0060 2.0340 8.1450 1.0720 252.7930 271.0460 261.9190 8.4030 6.8100 118.8350 59.7780 131.3730 529.7420 1789.4900 1999.6400
  193.500 3.7910 2.0560 2.0300 8.1710 1.0770 246.8850 259.0930 252.9890 8.3720 6.8730 118.8030 60.3930 132.5650 530.4290 1792.9399 2004.4399
  193.600 3.6550 1.8650 2.0200 8.1620 1.0980 255.7140 259.9420 257.8280 8.3260 6.9400 118.5230 61.2000 133.2230 529.4630 1796.7600 2009.6700
  193.700 3.5570 1.9200 2.0400 8.3970 1.0850 253.0990 255.3520 254.2260 8.2360 6.9690 117.9370 62.1010 134.7330 527.8090 1800.5699 2014.7400
  193.800 3.5450 1.8440 2.0330 8.1280 1.0930 255.6110 255.8300 255.7200 8.1310 6.9610 117.2970 62.9360 136.4450 526.4750 1803.9500 2019.0400
  193.900 3.5880 1.9790 2.0410 8.1050 1.0840 252.5120 257.7210 255.1160 7.9990 6.9360 116.7890 62.8260 137.6140 525.2910 1806.6899 2022.2100
  194.000 3.6340 1.8940 2.0300 8.2070 1.1220 251.6770 256.7650 254.2210 7.8450 6.9070 116.3220 62.9560 136.8890 523.9180 1808.8500 2024.2500
  194.100 3.6640 2.1910 2.0260 8.2290 1.1390 255.5210 266.2110 260.8660 7.7000 6.8830 115.8680 62.9430 136.6690 522.4600 1810.6600 2025.4800
  194.200 3.6480 1.9870 2.0330 7.9980 1.1050 246.3350 266.0370 256.1860 7.5870 6.8750 115.3480 63.4580 136.6820 521.8980 1812.3000 2026.3700
  194.300 3.5840 1.9460 2.0350 8.2150 1.1330 247.8740 266.4790 257.1770 7.4980 6.8870 114.8950 63.7350 136.5630 522.8600 1813.8199 2027.3500
  194.400 3.5470 1.9990 2.0310 8.2960 1.1370 247.5460 265.6690 256.6070 7.4360 6.8990 114.3630 64.6090 137.6380 525.3550 1815.1400 2028.5900
  194.500 3.5350 1.8360 2.0300 8.3040 1.1380 244.7730 265.9610 255.3670 7.3650 6.8850 113.8440 65.0050 138.3310 528.7440 1816.1801 2030.0400
  194.600 3.5360 1.5680 2.0200 8.5830 1.1130 242.9740 275.7560 259.3650 7.2910 6.8410 113.8170 65.1190 138.0560 532.2820 1816.9000 2031.4399
  194.700 3.5690 1.7300 2.0140 8.4730 1.0940 249.7330 277.0920 263.4130 7.2070 6.7920 114.6920 65.2260 138.2460 535.4280 1817.3400 2032.6300
  194.800 3.5970 1.9440 2.0130 8.4320 1.1010 246.9220 260.6520 253.7870 7.1150 6.7330 115.6790 65.0700 137.9830 537.7200 1817.6700 2033.5400
  194.900 3.6710 2.1030 2.0240 8.5260 1.0760 254.0310 262.6750 258.3530 7.0330 6.6840 117.3970 65.5540 136.8580 538.8180 1818.1100 2034.3000
  195.000 3.6880 2.0560 2.0260 8.4570 1.0880 255.5230 268.2110 261.8670 6.9620 6.6590 118.6780 65.4780 136.3480 538.5100 1818.8300 2035.1000
  195.100 3.7220 1.9160 2.0350 8.6690 1.1020 258.1340 272.3740 265.2540 6.9230 6.6490 119.6400 65.4990 136.5490 537.0560 1819.8800 2036.0500
  195.200 3.7530 1.8310 2.0360 8.6150 1.1350 250.5700 263.0500 256.8100 6.8930 6.6390 120.4780 65.2980 136.3850 535.1830 1821.1500 2037.1500
  195.300 3.7610 1.8260 2.0230 8.5560 1.1380 248.2770 259.0700 253.6740 6.8570 6.6240 121.1620 65.0760 136.9980 533.8310 1822.4301 2038.3000
  195.400 3.7160 1.9340 2.0010 8.5980 1.1170 249.7600 261.1700 255.4650 6.8070 6.6130 121.6170 65.2160 137.8360 533.6290 1823.4800 2039.3600
  195.500 3.6570 2.1140 2.0010 8.5590 1.0890 253.2670 265.2470 259.2570 6.7590 6.6020 121.2010 65.7260 137.8640 534.6340 1824.1500 2040.2100
  195.600 3.6080 2.0610 2.0000 8.7610 1.1200 254.9700 272.3810 263.6750 6.7020 6.6010 120.1170 66.3840 139.0400 536.3700 1824.4399 2040.8000
  195.700 3.5960 1.8180 2.0220 8.6030 1.1000 250.0590 268.1810 259.1200 6.6630 6.6160 118.0250 67.1140 140.2690 538.2150 1824.4500 2041.1300
  195.800 3.5720 1.7720 2.0100 8.2980 1.0810 246.7240 263.1460 254.9350 6.6260 6.6430 115.9050 67.0290 140.9940 539.6570 1824.3500 2041.2100
  195.900 3.5290 1.7670 2.0080 8.3990 1.0720 243.9460 257.9920 250.9690 6.6030 6.6800 113.8600 67.3480 141.4690 540.4810 1824.2500 2041.0900
  196.000 3.5010 1.7200 2.0360 8.6640 1.1010 255.3950 254.3590 254.8770 6.5870 6.7360 112.0610 67.5870 141.7750 540.6810 1824.1801 2040.8400
  196.100 3.4960 1.7810 2.0140 8.4380 1.0900 258.3140 253.0990 255.7070 6.5820 6.8040 110.3170 67.7880 142.1290 540.4390 1824.1300 2040.5601
  196.200 3.4920 1.7840 2.0130 8.4270 1.1290 255.9580 259.5840 257.7710 6.5910 6.8910 109.3760 67.8020 141.8930 540.0120 1824.0601 2040.3600
  196.300 3.5070 1.8960 2.0300 8.4170 1.1150 251.2520 253.1320 252.1920 6.6040 6.9830 108.3280 68.0850 141.7460 539.6890 1823.9800 2040.3300
  196.400 3.5330 1.8930 2.0170 8.6050 1.0980 249.4700 251.2420 250.3560 6.6030 7.0750 107.3830 67.5860 141.5920 539.7010 1823.9301 2040.4399
  196.500 3.5290 1.8360 2.0320 8.2200 1.1060 247.7160 257.9590 252.8380 6.5920 7.1500 106.3210 67.3480 141.6320 540.1410 1823.9800 2040.6300
  196.600 3.4960 1.8460 2.0310 8.2570 1.0880 247.7180 267.6450 257.6810 6.5750 7.2210 105.2730 67.4730 141.7560 540.8990 1824.1200 2040.7900
