~Version information
  VERS.                           2.00 : CWLS log ASCII Standard -Version 2.00
  WRAP.                             NO : One line per depth step
~Well information
#MNEM.UNIT              Data Type        Information
#----------------------------------------------------------------------
  STRT.M                         2.000 : 
  STOP.M                       905.000 : 
  STEP.M                         0.100 : 
  NULL.                      -999.2500 : 
  WELL.                            304 : Well Name
  FLD .                       KARATUBE : Field Name
  CTRY.                     KAZAKHSTAN : Country
  SRVC.        JSC "KAZPROMGEOPHYSICA" : Service company
  DATE.                       22.06.04 : Log date
~Curve information
#MNEM.UNIT                               Curve Description
#----------------------------------------------------------------------
  DEPT.M                               : Depth Curve
  LL3 .OHMM                            : Appar.resist.laterolog,3 electrodes
  MLL .OHMM                            : Microlaterolog sonde
  RHOB.G/C3                            : Bulk density by gamma-gamma log
  GR  .UR/H                            : Gamma-ray log
  NGLD.UE                              : Neutron-gamma log/device DRST-90
  C1  .MM                              : Diameter from profile1
  C2  .MM                              : Diameter from profile2
  CALI.MM                              : Caliper
  GZ3 .OHMM                            : App.resistivity by lateral A2.0M0.5N
  GZ3B.OHMM                            : App.resistivity by lateral N0.5Œ2.0€
  SP  .MV                              : Spontaneous potential
  CILR.MMHO                            : Conduct. by sonde 7I1.6,react.signal
  CILA.MMHO                            : Conduct. by sonde 7I1.6,active signal
  DTP .US/M                            : Interval travel time (P-wave)
  T1  .US                              : Travel time1
  T2  .US                              : Travel time2
~Parameter information
#MNEM.UNIT              Value            Description
#----------------------------------------------------------------------
#----------------------------------------------------------------------
  DFV .SEK                          35 : Drilling Fluid Viscosity
  BS  .MM                        215.9 : Bit Size
  DFD .G/C3                       1.13 : Drilling Fluid Density
~Ascii Log Data
# ...
  493.100 2.2570 1.1770 2.0950 7.4700 1.2820 218.6350 217.1260 217.8810 3.0560 3.7370 110.8830 136.1170 192.3430 435.9910 1497.8101 1671.9399
  493.200 2.3050 1.2180 2.0780 7.2210 1.2710 217.5070 217.2600 217.3840 3.0280 3.7440 110.1480 135.4610 191.7250 436.0980 1497.3101 1671.7100
  493.300 2.3080 1.0620 2.0660 7.3860 1.2980 217.2210 217.1380 217.1800 3.0020 3.7500 109.1740 134.1650 190.5970 435.7930 1497.1000 1671.5400
  493.400 2.3060 1.0940 2.0570 7.0660 1.2870 217.1760 216.9830 217.0800 2.9800 3.7550 108.9800 133.0640 189.4560 434.9640 1497.1400 1671.4800
  493.500 2.2630 1.1740 2.0620 7.1680 1.3290 216.8600 217.3540 217.1070 2.9710 3.7620 109.2270 132.3580 188.4160 433.7360 1497.3300 1671.5300
  493.600 2.2510 1.1490 2.0820 7.3230 1.3100 216.7670 217.3340 217.0510 2.9670 3.7690 111.5320 131.4490 187.1530 432.5040 1497.5601 1671.6500
  493.700 2.2790 1.1880 2.1120 7.4080 1.3130 216.7040 217.3420 217.0230 2.9670 3.7750 113.7940 130.6660 186.4140 431.7630 1497.7400 1671.7900
  493.800 2.3280 1.3020 2.1220 7.3880 1.3670 216.5490 217.9940 217.2710 2.9760 3.7850 115.1920 129.6820 184.9890 431.8600 1497.8400 1671.9000
  493.900 2.3620 1.3400 2.1110 7.3280 1.3670 216.4970 218.2110 217.3540 2.9890 3.8030 116.5390 128.4520 184.4340 432.7700 1497.8600 1671.9900
  494.000 2.3770 1.3570 2.1110 7.7530 1.3750 216.3940 217.7380 217.0660 2.9980 3.8270 118.5000 127.9690 183.5640 434.1030 1497.8400 1672.0699
  494.100 2.4070 1.3860 2.1070 7.4600 1.4000 216.3860 218.2400 217.3130 3.0080 3.8460 119.8680 127.5720 183.1060 435.3100 1497.8500 1672.1200
  494.200 2.4440 1.3990 2.1000 7.7010 1.3550 216.3440 217.3040 216.8240 3.0180 3.8640 120.6060 127.4710 182.0740 435.9990 1497.9700 1672.0300
  494.300 2.4780 1.4450 2.1020 7.4810 1.3270 215.4740 217.0810 216.2780 3.0230 3.8790 120.8510 127.3660 182.1980 436.1020 1498.2400 1671.6801
  494.400 2.4970 1.5290 2.0840 7.4670 1.3390 215.2780 217.2460 216.2620 3.0440 3.8900 120.6360 127.0360 181.7680 435.8360 1498.6100 1671.0699
  494.500 2.5010 1.4310 2.0780 7.6130 1.3580 215.5890 218.0240 216.8070 3.0540 3.9020 120.2590 127.3570 181.6600 435.4890 1498.9301 1670.3199
  494.600 2.4890 1.3330 2.1060 7.5080 1.3770 216.4290 218.0810 217.2550 3.0600 3.9270 119.9090 127.1410 181.8390 435.2400 1498.9700 1669.5699
  494.700 2.4710 1.2870 2.1060 7.5630 1.3240 215.8520 218.5920 217.2220 3.0690 3.9590 119.8840 127.0840 181.6820 435.1350 1498.5800 1668.8800
  494.800 2.4590 1.2330 2.1110 7.7850 1.2800 216.5020 220.0380 218.2700 3.0890 4.0140 120.5090 127.2070 182.1680 435.1600 1497.7100 1668.1400
  494.900 2.5130 1.2210 2.1390 7.9180 1.2490 216.9010 221.5190 219.2100 3.1230 4.0730 121.4670 126.9320 182.3210 435.3330 1496.5200 1667.2500
  495.000 2.5080 1.2650 2.1670 7.7170 1.2700 216.6510 221.7090 219.1800 3.1750 4.1460 122.4990 126.9080 182.0160 435.5830 1495.2100 1666.1801
  495.100 2.4970 1.3010 2.1730 8.1640 1.2540 215.6550 221.9940 218.8250 3.2330 4.2080 123.1230 126.0150 180.9270 435.6730 1493.9301 1665.0400
  495.200 2.4780 1.3290 2.1940 8.5120 1.2300 215.4170 223.2380 219.3270 3.2870 4.2460 123.3090 125.0490 179.2880 435.1300 1492.6400 1664.0000
  495.300 2.4470 1.4570 2.1640 8.7340 1.2270 216.4640 224.0000 220.2320 3.3300 4.2930 123.0370 124.0320 178.8750 433.5950 1491.2200 1663.1600
  495.400 2.3930 1.4730 2.1520 8.8870 1.2340 216.7720 225.7720 221.2720 3.3550 4.3120 122.3620 122.9370 176.7990 431.1420 1489.6700 1662.5000
  495.500 2.3580 1.4540 2.1450 9.3210 1.2750 217.5550 228.2960 222.9250 3.3550 4.3010 121.2830 121.7550 175.6690 428.4720 1488.1600 1661.9800
  495.600 2.3620 1.2310 2.1510 9.7800 1.2630 216.4710 235.5770 226.0240 3.3470 4.2630 119.6260 120.4090 174.9480 426.4870 1486.9800 1661.5200
  495.700 2.4480 1.4040 2.1600 9.6050 1.2700 217.1810 225.2510 221.2160 3.3330 4.2070 118.0650 119.7870 175.1750 425.7440 1486.3000 1661.1000
  495.800 2.5310 1.5530 2.1520 9.6850 1.2360 216.1150 224.5820 220.3480 3.3130 4.1620 116.3270 118.0440 176.0970 426.0740 1486.0500 1660.7400
  495.900 2.5220 1.4920 2.1500 9.6320 1.2700 215.7490 224.3470 220.0480 3.2720 4.1280 114.4070 117.8000 176.4390 426.8280 1486.0699 1660.5100
  496.000 2.4220 1.2930 2.1510 9.8070 1.3190 216.5540 224.3580 220.4560 3.2500 4.0950 111.8310 117.7970 177.2330 427.4120 1486.1801 1660.4500
  496.100 2.3250 1.1110 2.1500 10.0920 1.3320 216.3340 223.9950 220.1640 3.2340 4.0760 108.8890 118.4570 177.9050 427.7800 1486.2700 1660.5699
  496.200 2.2800 1.0660 2.1770 10.0600 1.3230 214.8010 223.9720 219.3870 3.1110 4.0810 106.1380 118.5560 179.3000 428.4090 1486.2900 1660.5100
  496.300 2.2910 1.1450 2.2250 10.0460 1.3630 214.1610 224.8650 219.5130 3.0970 4.1110 103.4600 118.4320 180.8820 429.8350 1486.2800 1660.0200
  496.400 2.3350 1.1870 2.2410 9.9480 1.3220 212.6720 225.0550 218.8640 3.1020 4.1560 102.0880 117.7560 181.3750 432.0830 1486.3199 1659.0900
  496.500 2.3590 1.1830 2.2650 10.0190 1.2900 212.5600 224.6820 218.6210 3.1240 4.2000 101.8170 116.2800 180.1940 434.5310 1486.4600 1658.7500
  496.600 2.3730 1.3180 2.2840 10.0210 1.2270 211.9920 228.3530 220.1720 3.1600 4.2380 101.8720 114.7280 176.5790 436.3360 1486.7800 1660.1200
  496.700 2.4330 1.4530 2.2670 10.2020 1.2440 213.9960 230.5550 222.2750 3.2080 4.2820 102.4200 112.1440 173.8270 437.0260 1487.4000 1664.0100
  496.800 2.5020 1.4670 2.2770 10.1530 1.2140 214.8240 232.7360 223.7800 3.2530 4.3340 103.7080 110.5730 171.9190 436.7300 1488.5601 1669.4800
  496.900 2.5320 1.4860 2.2510 10.1970 1.1810 214.2710 233.8590 224.0650 3.3040 4.3900 105.8400 109.4220 169.9290 436.0840 1490.5601 1675.2200
  497.000 2.5470 1.4980 2.2370 10.5190 1.1740 213.7330 236.8320 225.2830 3.3430 4.4430 106.9870 108.4280 168.3930 435.6780 1493.4700 1680.2800
  497.100 2.5730 1.4950 2.2250 10.0830 1.2050 213.7280 239.6850 226.7070 3.3750 4.4890 107.9910 107.0760 166.8050 435.7510 1497.0900 1685.1600
  497.200 2.6350 1.7510 2.2140 10.3640 1.1910 213.4520 239.7700 226.6110 3.3930 4.5240 108.9560 105.2370 166.1520 435.5430 1500.9399 1690.6899
  497.300 2.6690 1.6760 2.2120 10.3640 1.1960 213.0110 239.7460 226.3780 3.4100 4.5690 109.5910 104.8490 166.1050 434.3350 1504.7900 1697.1500
  497.400 2.6430 1.6470 2.2200 10.1410 1.2270 212.8630 239.9950 226.4290 3.4360 4.6500 110.0940 104.2830 166.3930 431.9240 1508.8700 1704.0800
  497.500 2.5980 1.6800 2.2020 9.9670 1.1880 213.2230 241.9900 227.6070 3.4700 4.7490 110.6170 103.6640 165.7120 430.7240 1513.8300 1710.9000
  497.600 2.5970 1.6750 2.1740 9.7670 1.2010 214.7280 256.7750 235.7520 3.5110 4.8550 111.2660 102.8120 164.8700 433.3670 1519.9700 1717.2200
  497.700 2.6210 1.5700 2.1310 9.8170 1.1940 214.7220 255.9790 235.3500 3.5670 4.9700 112.1000 102.5460 163.8040 441.5290 1526.9200 1722.8700
  497.800 2.6310 1.3930 2.1220 9.8780 1.2090 213.4500 247.7100 230.5800 3.6310 5.1070 113.2780 99.8310 164.5630 452.3050 1533.7000 1727.6100
  497.900 2.6010 1.3360 2.1000 9.7280 1.2020 214.9190 239.6920 227.3060 3.7030 5.2630 114.6200 99.9730 163.9570 461.6530 1539.5000 1731.1000
  498.000 2.5240 1.4390 2.1010 9.5270 1.2050 218.3070 240.1780 229.2420 3.7900 5.4070 115.5640 98.2450 161.2440 467.0070 1544.0601 1733.0900
  498.100 2.5500 1.9080 2.0990 9.2360 1.1860 231.7620 249.6720 240.7170 3.8790 5.5420 116.1950 96.7670 160.9550 470.1730 1547.6801 1733.4900
  498.200 2.6860 1.9160 2.1270 8.7320 1.1280 226.4270 252.2790 239.3530 3.9530 5.6700 116.5790 94.9390 161.9800 474.3660 1550.7200 1732.7400
  498.300 2.7610 1.8260 2.1300 8.5340 1.1250 218.7770 252.7970 235.7870 4.0110 5.8580 116.6890 92.8950 163.2630 480.9020 1553.4100 1731.3400
  498.400 2.6290 1.5600 2.1440 8.1990 1.1100 216.9470 240.7710 228.8590 4.0480 6.1040 116.5200 91.2170 163.6610 488.0200 1555.7100 1729.8800
  498.500 2.4420 1.3450 2.1470 8.2350 1.0960 215.8370 237.3470 226.5920 4.0570 6.2910 116.2550 90.8400 164.4370 492.6910 1557.5699 1728.8900
  498.600 2.2200 1.2020 2.1280 8.0560 1.0740 230.8760 245.5390 238.2070 4.0240 6.3680 116.1580 91.8090 163.5600 493.1380 1558.8900 1728.7400
  498.700 2.1400 1.0960 2.1200 8.2610 1.0580 230.9740 244.8290 237.9020 3.9650 6.4390 115.9750 91.1030 160.5890 489.8810 1559.7100 1729.5601
