~Version information
  VERS.                           2.00 : CWLS log ASCII Standard -Version 2.00
  WRAP.                             NO : One line per depth step
~Well information
#MNEM.UNIT              Data Type        Information
#----------------------------------------------------------------------
  STRT.M                         2.000 : 
  STOP.M                       905.000 : 
  STEP.M                         0.100 : 
  NULL.                      -999.2500 : 
  WELL.                            304 : Well Name
  FLD .                       KARATUBE : Field Name
  CTRY.                     KAZAKHSTAN : Country
  SRVC.        JSC "KAZPROMGEOPHYSICA" : Service company
  DATE.                       22.06.04 : Log date
~Curve information
#MNEM.UNIT                               Curve Description
#----------------------------------------------------------------------
  DEPT.M                               : Depth Curve
  LL3 .OHMM                            : Appar.resist.laterolog,3 electrodes
  MLL .OHMM                            : Microlaterolog sonde
  RHOB.G/C3                            : Bulk density by gamma-gamma log
  GR  .UR/H                            : Gamma-ray log
  NGLD.UE                              : Neutron-gamma log/device DRST-90
  C1  .MM                              : Diameter from profile1
  C2  .MM                              : Diameter from profile2
  CALI.MM                              : Caliper
  GZ3 .OHMM                            : App.resistivity by lateral A2.0M0.5N
  GZ3B.OHMM                            : App.resistivity by lateral N0.5Œ2.0€
  SP  .MV                              : Spontaneous potential
  CILR.MMHO                            : Conduct. by sonde 7I1.6,react.signal
  CILA.MMHO                            : Conduct. by sonde 7I1.6,active signal
  DTP .US/M                            : Interval travel time (P-wave)
  T1  .US                              : Travel time1
  T2  .US                              : Travel time2
~Parameter information
#MNEM.UNIT              Value            Description
#----------------------------------------------------------------------
#----------------------------------------------------------------------
  DFV .SEK                          35 : Drilling Fluid Viscosity
  BS  .MM                        215.9 : Bit Size
  DFD .G/C3                       1.13 : Drilling Fluid Density
~Ascii Log Data
# ...
  293.600 2.6640 1.4400 2.1370 9.3990 1.2220 231.2460 231.0490 231.1480 3.9410 4.8480 95.8600 82.7420 154.5800 465.3370 1594.9800 1758.5699
  293.700 2.5310 1.2780 2.1440 9.1880 1.2290 235.1950 231.5320 233.3630 3.8990 4.8490 97.2880 82.8140 152.8260 454.9800 1586.9301 1748.7900
  293.800 2.5050 1.3080 2.1440 9.2160 1.2700 243.7390 230.9450 237.3420 3.8660 4.8310 98.1710 82.4700 151.7700 447.3680 1579.7500 1741.8900
  293.900 2.6770 1.7970 2.1300 9.1250 1.2560 232.8280 233.2620 233.0450 3.8350 4.8440 102.0220 82.2590 151.8840 444.0990 1573.4100 1736.7200
  294.000 2.8950 1.6800 2.1190 8.9340 1.2250 226.3840 234.2030 230.2940 3.8230 4.9340 104.4260 81.6140 150.7450 444.5550 1567.1500 1732.0900
  294.100 2.8950 1.5250 2.1190 9.2310 1.2300 225.0700 229.5420 227.3060 3.8290 5.0640 107.0450 80.2350 149.4700 447.1710 1560.3800 1727.6500
  294.200 2.8180 1.4110 2.1310 8.9730 1.2460 225.5390 227.9220 226.7310 3.8520 5.1640 108.4740 81.4540 145.8300 448.2920 1552.7700 1723.9000
  294.300 2.8380 1.5890 2.1360 8.8510 1.2820 226.0780 227.6110 226.8440 3.8860 5.2710 109.7510 80.8370 141.3640 444.2630 1544.5500 1722.3600
  294.400 2.9140 1.5230 2.1290 8.4920 1.2590 225.9710 226.7870 226.3790 3.9380 5.3770 110.2020 80.8810 140.5080 433.4580 1536.3900 1724.9700
  294.500 2.9570 1.5950 2.1130 8.5990 1.2810 226.1400 226.1140 226.1270 4.0040 5.5080 110.3360 79.6570 143.0860 419.7370 1529.6200 1732.7400
  294.600 2.9570 1.5960 2.1100 8.4830 1.2920 226.2850 225.9280 226.1070 4.1100 5.6270 110.2970 81.7340 145.8930 408.9700 1526.9100 1744.6000
  294.700 2.8840 1.5990 2.1010 8.1250 1.2630 226.8930 224.9390 225.9160 4.2570 5.7280 110.2860 83.5160 143.5010 404.6450 1531.1300 1757.7500
  294.800 3.0740 1.4630 2.1170 7.9580 1.2940 228.4550 229.3650 228.9100 4.4370 5.7890 110.4420 82.9400 139.0650 405.3440 1532.8000 1769.0699
  294.900 3.5880 2.4670 2.0970 7.9510 1.3000 226.9050 231.5690 229.2370 4.6680 5.8000 110.9290 82.1320 138.0910 408.2980 1544.0000 1776.4800
  295.000 4.0440 2.2160 2.0860 7.9670 1.3000 225.1750 226.2930 225.7340 4.8850 5.7680 111.5780 81.6750 136.1430 412.3510 1547.3900 1779.6899
  295.100 3.9890 1.7400 2.0660 7.6730 1.3450 225.6030 226.1930 225.8980 4.9620 5.7090 112.1570 79.0350 134.2730 418.1810 1562.4100 1779.7100
  295.200 3.7280 1.7440 1.9970 7.6430 1.3100 224.1190 223.5780 223.8490 5.2190 5.6370 112.3200 78.5120 135.1790 427.8300 1569.8000 1778.2000
  295.300 3.4730 1.6490 2.0000 7.7780 1.3040 221.7980 221.6380 221.7180 5.2920 5.5380 112.3540 79.6410 136.2000 444.5400 1576.3400 1776.2300
  295.400 3.1490 1.1580 1.9750 7.8010 1.2920 222.4710 221.3670 221.9190 5.1330 5.2950 112.3470 78.2480 132.7820 471.4480 1578.7900 1774.2400
  295.500 2.8810 0.9740 1.9030 7.6330 1.2750 231.4680 229.6330 230.5510 4.8780 5.0440 112.4510 77.6570 139.0350 507.8100 1578.3900 1772.1899
  295.600 2.6710 1.2150 1.8910 7.7930 1.2460 233.1220 233.5100 233.3160 4.6310 4.9780 112.6480 80.4040 148.4130 544.2280 1578.0000 1769.9800
  295.700 2.3330 0.8200 1.8590 7.9640 1.2730 252.2740 250.9420 251.6080 4.4170 4.9990 113.0140 85.7680 154.8710 566.5610 1577.6000 1767.5100
  295.800 2.1090 0.7210 1.9020 8.0600 1.2660 284.5710 283.4200 283.9950 4.2860 5.0160 113.5130 90.1020 157.4700 590.6730 1577.2100 1764.8900
  295.900 2.1440 0.7350 1.8700 7.9980 1.2790 297.4280 320.2700 308.8490 4.2190 4.9740 113.9860 91.7750 162.0890 581.2010 1576.8101 1763.1400
  296.000 2.5220 1.1780 1.8540 8.2000 1.2950 257.1750 291.7180 274.4470 4.2170 4.8710 114.2820 90.8780 166.1590 580.7440 1576.4200 1764.2000
  296.100 2.7130 1.3960 1.8720 8.5640 1.2520 225.6610 232.0700 228.8650 4.1320 4.7670 114.3360 88.5730 164.1760 543.2390 1576.0200 1770.4000
  296.200 2.4220 1.1540 1.8650 8.4650 1.2760 230.7990 243.4360 237.1170 3.9580 4.7140 114.0180 86.8330 157.8120 521.0160 1578.0200 1781.7700
  296.300 2.1550 0.9260 1.9010 8.5250 1.2700 260.7770 288.1030 274.4400 3.7600 4.8190 113.3200 89.6370 158.9520 499.7240 1588.9000 1795.8600
  296.400 2.0960 0.8530 2.0040 8.2540 1.2870 280.9680 344.9650 312.9670 3.7560 5.0520 112.9160 93.2350 163.2860 488.6280 1596.6400 1807.8800
  296.500 2.1990 1.0180 2.0470 8.1580 1.2740 281.3590 358.5750 319.9670 3.9330 5.3520 113.3050 93.9110 165.9510 484.4970 1602.0300 1815.2600
  296.600 2.4690 1.0570 2.0610 8.1700 1.2580 261.9620 330.1530 296.0580 4.1600 5.6740 114.1750 91.7180 165.9500 479.9710 1604.7600 1818.0300
  296.700 2.7950 1.3570 2.0680 8.3690 1.2390 246.4420 304.8870 275.6640 4.3940 5.7950 114.6790 90.0870 163.9940 474.7630 1605.9100 1818.7200
  296.800 3.1820 1.4780 2.0480 8.4140 1.2250 224.9100 224.5950 224.7530 4.5610 5.8380 115.0420 85.3720 155.7710 469.2050 1607.9500 1818.7800
  296.900 3.4260 1.4420 2.0630 8.6260 1.2500 223.9880 222.3250 223.1570 4.6840 5.7780 115.4040 81.4140 146.2500 465.8260 1612.1801 1818.2100
  297.000 3.5050 1.4720 2.0530 8.4970 1.2880 224.3740 222.8050 223.5900 4.7550 5.6320 115.7680 78.8430 139.2100 469.4560 1618.4000 1816.9100
  297.100 3.4910 1.4900 2.0440 8.1200 1.2930 224.3750 224.1430 224.2590 4.7580 5.4380 115.7540 76.1590 135.5160 485.9380 1624.9100 1815.5100
  297.200 3.4180 1.4710 2.0560 7.8080 1.2990 225.8860 224.9970 225.4420 4.6670 5.1870 115.2590 74.6430 137.5390 509.3880 1629.9500 1814.6200
  297.300 2.9800 1.4110 2.0760 8.0900 1.2700 226.5850 227.6410 227.1130 4.5140 5.0630 114.1890 74.6820 142.7920 517.3880 1632.0900 1813.3700
  297.400 2.5970 1.3620 2.0760 8.4850 1.2560 229.8530 239.4000 234.6270 4.2800 5.0600 112.6950 75.4600 146.5120 528.0970 1630.1100 1810.4399
  297.500 2.2670 1.3660 2.0460 8.8010 1.2720 232.5290 272.2090 252.3690 4.1180 5.2070 110.9940 80.9460 156.9570 533.0920 1623.4900 1805.7800
  297.600 2.1220 1.2590 2.0570 9.1870 1.2700 239.8800 310.4550 275.1680 4.0450 5.5340 109.1750 84.2490 161.7550 533.1840 1612.7900 1800.3000
  297.700 2.1990 1.2930 2.0570 9.4550 1.2670 262.3970 313.8410 288.1190 4.0960 5.8210 107.8810 85.8060 165.2530 532.0290 1600.3101 1794.8101
  297.800 2.4520 1.4790 2.0660 9.6190 1.2660 266.2050 288.3350 277.2700 4.2570 6.1400 107.0290 84.6560 166.8570 527.0560 1588.8300 1788.9900
  297.900 2.7700 1.5640 2.0910 9.6250 1.2970 228.9600 235.4340 232.1970 4.4310 6.3870 106.3560 81.7450 163.7170 515.0710 1580.6600 1782.6400
  298.000 3.0870 1.4770 2.0910 9.6090 1.2900 224.0090 225.9130 224.9610 4.5370 6.5030 106.3770 76.7310 153.4170 496.2830 1576.3800 1776.1500
  298.100 3.2520 1.4460 2.0790 9.4790 1.2410 221.8360 222.5380 222.1870 4.6150 6.5280 106.5830 73.4710 144.6170 476.5000 1575.5900 1770.7000
  298.200 3.3270 1.4390 2.0870 9.4490 1.3340 220.8540 222.3360 221.5950 4.6780 6.5340 106.7570 70.2280 138.7530 461.6870 1577.2100 1767.8101
  298.300 3.2450 1.4540 2.1030 9.0750 1.3650 220.8840 222.5240 221.7040 4.6930 6.5410 107.0870 69.0710 138.2440 453.2120 1580.5100 1768.5699
  298.400 2.8960 1.2770 2.1040 9.4710 1.3460 220.9470 223.5000 222.2230 4.6420 6.5420 107.6680 69.3460 138.9740 450.8230 1584.4900 1772.7800
  298.500 2.7330 1.2200 2.1010 9.6850 1.3510 222.0590 230.9710 226.5150 4.4940 6.5300 108.4370 69.7630 139.9110 455.7140 1587.7700 1778.0100
  298.600 2.6980 1.3780 2.0820 9.9590 1.3150 224.8740 237.0870 230.9800 4.3490 6.5060 109.4620 70.5230 144.3520 468.7840 1588.3600 1780.9700
  298.700 2.9130 1.5200 2.0740 9.9590 1.2970 219.8640 224.4240 222.1440 4.2960 6.4660 110.5530 70.1720 146.5560 486.2430 1584.9700 1779.2300
  298.800 3.1700 1.5310 2.0860 10.2850 1.3020 219.3080 223.8040 221.5560 4.3080 6.4080 111.7710 68.4170 143.1640 500.4190 1577.9800 1772.8700
  298.900 3.2850 1.5270 2.1020 10.3970 1.2800 219.3160 223.4760 221.3960 4.3650 6.3260 112.7290 66.9710 137.8800 504.9400 1569.6899 1763.6200
  299.000 3.3560 1.5490 2.0890 9.9080 1.3130 219.3850 222.8560 221.1210 4.4290 6.2500 113.3220 65.9120 133.0720 499.4320 1562.8400 1753.9600
  299.100 3.3800 1.5350 2.0820 9.6870 1.3170 219.2460 222.8930 221.0700 4.4800 6.1860 113.8190 64.3060 130.0410 487.7670 1559.3600 1746.2300
  299.200 3.3500 1.5110 2.0660 9.4380 1.3060 219.4130 222.9370 221.1750 4.5210 6.1230 113.6910 63.0400 127.8510 476.4960 1559.4700 1741.7800
