~Version information
  VERS.                           2.00 : CWLS log ASCII Standard -Version 2.00
  WRAP.                             NO : One line per depth step
~Well information
#MNEM.UNIT              Data Type        Information
#----------------------------------------------------------------------
  STRT.M                         2.000 : 
  STOP.M                       905.000 : 
  STEP.M                         0.100 : 
  NULL.                      -999.2500 : 
  WELL.                            304 : Well Name
  FLD .                       KARATUBE : Field Name
  CTRY.                     KAZAKHSTAN : Country
  SRVC.        JSC "KAZPROMGEOPHYSICA" : Service company
  DATE.                       22.06.04 : Log date
~Curve information
#MNEM.UNIT                               Curve Description
#----------------------------------------------------------------------
  DEPT.M                               : Depth Curve
  LL3 .OHMM                            : Appar.resist.laterolog,3 electrodes
  MLL .OHMM                            : Microlaterolog sonde
  RHOB.G/C3                            : Bulk density by gamma-gamma log
  GR  .UR/H                            : Gamma-ray log
  NGLD.UE                              : Neutron-gamma log/device DRST-90
  C1  .MM                              : Diameter from profile1
  C2  .MM                              : Diameter from profile2
  CALI.MM                              : Caliper
  GZ3 .OHMM                            : App.resistivity by lateral A2.0M0.5N
  GZ3B.OHMM                            : App.resistivity by lateral N0.5Œ2.0€
  SP  .MV                              : Spontaneous potential
  CILR.MMHO                            : Conduct. by sonde 7I1.6,react.signal
  CILA.MMHO                            : Conduct. by sonde 7I1.6,active signal
  DTP .US/M                            : Interval travel time (P-wave)
  T1  .US                              : Travel time1
  T2  .US                              : Travel time2
~Parameter information
#MNEM.UNIT              Value            Description
#----------------------------------------------------------------------
#----------------------------------------------------------------------
  DFV .SEK                          35 : Drilling Fluid Viscosity
  BS  .MM                        215.9 : Bit Size
  DFD .G/C3                       1.13 : Drilling Fluid Density
~Ascii Log Data
# ...
  846.400 2.5580 0.9260 2.4070 4.9110 1.4950 224.9940 314.0840 269.5390 4.3640 5.6800 101.7060 65.9240 126.7980 260.1270 1112.7400 1216.3600
  846.500 2.5270 1.2880 2.3760 4.7460 1.5350 224.3040 318.8100 271.5570 4.3590 5.7190 100.1230 65.4310 124.8480 271.1400 1104.8000 1216.6600
  846.600 2.5370 1.1830 2.3800 4.9410 1.4920 225.5110 314.4170 269.9640 4.3580 5.7310 99.1230 65.0390 122.4490 278.1660 1097.9100 1217.3101
  846.700 2.6390 1.0140 2.3480 5.1190 1.5410 226.9760 309.0320 268.0040 4.3520 5.7450 99.1220 65.1860 121.7600 277.8060 1093.5900 1218.0900
  846.800 2.7330 0.9960 2.3650 4.9940 1.5440 228.3790 313.0890 270.7340 4.3700 5.8300 99.8300 65.1460 123.6280 269.9190 1092.1801 1218.8800
  846.900 2.7110 1.0360 2.3880 4.7660 1.5590 229.7410 287.0420 258.3910 4.4270 6.0120 101.0680 64.6600 125.6560 257.5610 1093.2300 1219.7300
  847.000 2.6320 1.0290 2.4330 4.8200 1.6350 232.3000 277.2550 254.7770 4.5310 6.2100 101.3610 65.3740 126.8940 244.5210 1095.7700 1220.7800
  847.100 2.6580 1.0570 2.4690 4.8560 1.6940 232.8180 298.1690 265.4930 4.7100 6.6170 101.5290 66.6520 125.9580 235.5060 1099.0100 1222.2400
  847.200 2.8680 1.3780 2.4970 5.0120 1.7300 234.1400 293.8810 264.0110 4.9670 6.8400 101.8000 66.6840 125.1400 234.0040 1102.8500 1224.2300
  847.300 3.3680 2.8620 2.5040 4.8740 1.7620 233.4870 270.5150 252.0010 5.2420 6.9970 102.5400 65.8150 122.8020 242.3240 1107.1899 1226.6300
  847.400 3.9260 3.4530 2.5220 4.7450 1.7850 231.3910 224.2690 227.8300 5.4920 7.0450 103.9250 64.1330 119.3800 259.0510 1111.5699 1228.9800
  847.500 4.1360 3.0000 2.4920 4.6690 1.7770 226.8500 223.9660 225.4080 5.6580 6.9720 105.6710 62.4590 114.9110 279.6500 1114.8500 1230.8500
  847.600 4.0810 3.2400 2.5090 4.6190 1.7720 225.0520 223.9940 224.5230 5.7330 6.8710 107.8010 61.4630 111.3150 298.4850 1116.4500 1231.5699
  847.700 3.7300 3.0040 2.4840 4.5730 1.8050 227.7380 222.5900 225.1640 5.7230 6.7490 109.6080 60.9290 109.6180 311.2360 1116.6400 1230.7500
  847.800 3.4210 2.3940 2.5300 4.5300 1.8240 228.4360 221.4000 224.9180 5.6640 6.6610 111.3670 61.2380 110.5810 316.7600 1116.1600 1228.0601
  847.900 3.2230 2.2230 2.5450 4.5030 1.7480 227.5440 220.3020 223.9230 5.5540 6.6090 112.3440 61.6890 113.2210 316.2550 1115.1500 1224.3300
  848.000 3.1190 2.5640 2.5260 4.5190 1.7680 226.1260 220.3700 223.2480 5.4510 6.6090 112.9530 63.2010 118.3480 312.5220 1112.9900 1220.5100
  848.100 3.0690 2.8930 2.5400 4.5190 1.7750 225.7340 220.6040 223.1690 5.3600 6.6320 112.3570 64.1330 121.7980 308.0940 1109.4200 1217.6200
  848.200 3.0720 2.9030 2.5520 4.4720 1.7970 224.0030 221.0320 222.5170 5.2120 6.6740 111.4320 64.9050 123.6230 303.4600 1105.3400 1215.4600
  848.300 3.1100 2.2700 2.5650 4.4830 1.7890 223.3490 222.3420 222.8450 5.1390 6.7310 110.5400 65.3730 125.5070 298.5950 1102.4200 1213.4700
  848.400 3.1420 2.5270 2.5590 4.3680 1.8250 222.6540 223.3890 223.0220 5.0930 6.7980 109.5400 65.7120 126.5280 293.5210 1101.7100 1210.8500
  848.500 3.1190 2.4710 2.5530 4.2200 1.8170 221.8410 220.2430 221.0420 5.0630 6.8730 108.4910 65.3410 127.1930 290.0140 1102.3500 1207.7600
  848.600 3.1090 2.5920 2.5530 4.3120 1.7940 223.0830 221.0820 222.0830 5.0510 6.9100 108.3720 65.6680 126.9950 287.8220 1102.8199 1204.4000
  848.700 3.1760 2.5830 2.5430 4.2310 1.7810 220.0420 221.1310 220.5870 5.0410 6.9300 109.5760 65.3270 126.4870 285.2630 1101.8400 1201.1600
  848.800 3.2800 2.6850 2.5520 4.3260 1.7350 220.4030 220.7590 220.5810 5.0410 6.9260 110.9680 65.2180 125.8530 279.7530 1099.7200 1197.7100
  848.900 3.3500 3.1030 2.5290 4.3490 1.7060 219.8810 220.4880 220.1840 5.0560 6.8980 112.6370 64.5700 123.9170 272.9670 1097.2000 1194.6100
  849.000 3.3740 3.0610 2.5290 4.4630 1.7070 220.6980 221.6340 221.1660 5.0810 6.8520 114.0420 63.9630 122.8050 268.7820 1095.0800 1192.2100
  849.100 3.3670 2.8100 2.5330 4.2650 1.7260 220.7450 222.4800 221.6120 5.1000 6.7960 115.1270 63.7540 121.0310 270.5020 1093.3700 1190.8500
  849.200 3.3520 2.7970 2.5350 4.2400 1.7380 220.8740 222.0140 221.4440 5.1160 6.7330 115.0360 63.3230 119.9260 275.3010 1091.8800 1189.7000
  849.300 3.3650 2.8280 2.5310 4.1170 1.7350 220.9940 221.6070 221.3010 5.1300 6.6390 113.7370 62.7800 118.4860 277.6340 1090.2200 1188.5100
  849.400 3.4120 2.7340 2.5330 4.1420 1.7480 221.0970 220.5190 220.8080 5.1690 6.5400 112.5220 62.3550 118.0010 272.8450 1088.3300 1187.6700
  849.500 3.4350 3.3490 2.5560 4.1720 1.7880 221.2730 220.6700 220.9710 5.2520 6.4430 111.3740 62.3250 117.8480 263.5290 1086.2500 1188.0900
  849.600 3.3930 2.9570 2.5490 4.0910 1.8190 221.3880 221.1550 221.2720 5.3470 6.3280 110.5260 62.1660 117.7510 253.9460 1084.2800 1189.6100
  849.700 3.3410 2.7990 2.5570 3.9900 1.8160 222.3690 221.8330 222.1010 5.4330 6.2070 108.8840 62.4060 117.8560 248.2910 1083.0500 1191.1801
  849.800 3.3510 2.9070 2.5890 3.9500 1.8480 220.8330 219.7120 220.2720 5.5010 6.1070 107.3670 62.4650 118.0420 244.9820 1082.8500 1191.6000
  849.900 3.4450 3.1460 2.5840 3.8220 1.8580 220.4560 220.0760 220.2660 5.5720 6.0280 105.7250 62.6360 118.1840 243.5430 1083.7900 1190.6300
  850.000 3.5930 3.1740 2.5920 3.6390 1.8820 219.7600 220.2190 219.9900 5.6320 5.9800 104.0280 62.6270 118.1520 242.8470 1084.9500 1188.8700
  850.100 3.6610 3.1380 2.5710 3.6400 1.8660 222.0750 218.0420 220.0590 5.6670 5.9030 102.7700 62.7350 118.0620 243.7020 1086.0000 1187.2600
  850.200 3.5910 3.0410 2.5620 3.8140 1.8540 222.9670 219.0710 221.0190 5.6960 5.8090 101.1440 62.8340 117.6310 244.5610 1086.4600 1186.3800
  850.300 3.5470 2.8450 2.5680 3.7800 1.8700 222.8000 219.4470 221.1240 5.7110 5.7200 101.2180 63.3090 117.5720 245.7320 1086.6500 1186.2200
  850.400 3.5770 2.8840 2.5490 3.7650 1.7950 220.9900 217.8560 219.4230 5.7410 5.6800 101.8480 63.4820 118.1510 248.3250 1086.5200 1186.3700
  850.500 3.6300 2.9030 2.5360 3.9050 1.8150 220.9810 218.8050 219.8930 5.7800 5.5980 102.1990 64.2310 118.4780 254.6000 1086.2600 1186.7600
  850.600 3.6810 3.1170 2.5230 3.9770 1.7840 221.1510 220.5760 220.8630 5.8510 5.5660 102.1730 64.7350 118.4860 263.3130 1085.9700 1187.8900
  850.700 3.7720 3.0160 2.5400 4.1250 1.7880 221.2760 221.4860 221.3810 5.9330 5.5220 102.0890 65.4220 118.1440 270.3300 1085.7300 1190.5100
  850.800 3.9020 3.2200 2.5660 4.0520 1.7900 222.1700 220.2320 221.2010 6.0340 5.4770 102.3630 65.8360 117.1230 271.8690 1085.5900 1194.5800
  850.900 4.0420 3.6440 2.5920 4.0570 1.7660 219.0890 217.8850 218.4870 6.1550 5.4250 103.1330 66.2180 117.3030 267.1060 1085.7000 1198.7100
  851.000 4.0860 3.5900 2.5570 3.9720 1.6830 219.1100 218.1820 218.6460 6.2600 5.3580 103.2720 67.3180 118.0320 259.8010 1086.3800 1201.3800
  851.100 3.9970 3.3450 2.5510 3.9680 1.6620 219.7030 218.6030 219.1530 6.3290 5.3100 103.3490 68.1780 118.1690 253.1650 1087.9800 1201.7700
  851.200 3.8590 3.2990 2.5370 4.1200 1.6800 221.6040 218.1200 219.8620 6.3730 5.2860 103.9660 68.7200 118.3380 249.7790 1090.3300 1201.1000
  851.300 3.7360 3.0650 2.5430 4.2980 1.6850 223.5470 219.0590 221.3030 6.3980 5.2670 104.4700 70.1540 118.0970 248.9210 1092.8000 1201.0200
  851.400 3.6570 2.4370 2.5230 4.4650 1.6670 222.6760 220.1670 221.4220 6.4150 5.2510 103.9810 70.9380 117.9310 249.6340 1094.5300 1203.0500
  851.500 3.5880 2.5650 2.5100 4.6450 1.6530 222.2480 221.8550 222.0520 6.4330 5.2470 104.6150 72.0590 118.9880 251.2490 1095.4900 1207.1600
  851.600 3.5390 2.7810 2.4760 4.9220 1.6510 221.2250 220.0570 220.6410 6.4710 5.2690 106.0070 72.9620 120.6870 254.8180 1096.2800 1212.4700
  851.700 3.5250 2.6540 2.4620 5.1170 1.6540 220.7560 218.8020 219.7790 6.4910 5.2580 108.1350 73.8410 121.2770 261.9500 1097.8400 1217.9399
  851.800 3.5340 2.4680 2.4320 5.1240 1.6140 220.8230 217.9180 219.3710 6.4600 5.1590 109.1360 74.6090 122.9000 272.4750 1100.5100 1223.1300
  851.900 3.5400 2.4240 2.4250 5.1380 1.5770 220.8810 218.1040 219.4930 6.3330 4.9960 110.2440 74.2610 123.1060 282.5140 1104.0200 1228.0100
  852.000 3.4440 2.2920 2.4170 5.0120 1.5450 222.2980 219.2090 220.7530 6.1450 4.8170 110.3930 74.3800 123.9640 287.4950 1107.5601 1232.7200
