~Version information
  VERS.                           2.00 : CWLS log ASCII Standard -Version 2.00
  WRAP.                             NO : One line per depth step
~Well information
#MNEM.UNIT              Data Type        Information
#----------------------------------------------------------------------
  STRT.M                         2.000 : 
  STOP.M                       905.000 : 
  STEP.M                         0.100 : 
  NULL.                      -999.2500 : 
  WELL.                            304 : Well Name
  FLD .                       KARATUBE : Field Name
  CTRY.                     KAZAKHSTAN : Country
  SRVC.        JSC "KAZPROMGEOPHYSICA" : Service company
  DATE.                       22.06.04 : Log date
~Curve information
#MNEM.UNIT                               Curve Description
#----------------------------------------------------------------------
  DEPT.M                               : Depth Curve
  LL3 .OHMM                            : Appar.resist.laterolog,3 electrodes
  MLL .OHMM                            : Microlaterolog sonde
  RHOB.G/C3                            : Bulk density by gamma-gamma log
  GR  .UR/H                            : Gamma-ray log
  NGLD.UE                              : Neutron-gamma log/device DRST-90
  C1  .MM                              : Diameter from profile1
  C2  .MM                              : Diameter from profile2
  CALI.MM                              : Caliper
  GZ3 .OHMM                            : App.resistivity by lateral A2.0M0.5N
  GZ3B.OHMM                            : App.resistivity by lateral N0.5Œ2.0€
  SP  .MV                              : Spontaneous potential
  CILR.MMHO                            : Conduct. by sonde 7I1.6,react.signal
  CILA.MMHO                            : Conduct. by sonde 7I1.6,active signal
  DTP .US/M                            : Interval travel time (P-wave)
  T1  .US                              : Travel time1
  T2  .US                              : Travel time2
~Parameter information
#MNEM.UNIT              Value            Description
#----------------------------------------------------------------------
#----------------------------------------------------------------------
  DFV .SEK                          35 : Drilling Fluid Viscosity
  BS  .MM                        215.9 : Bit Size
  DFD .G/C3                       1.13 : Drilling Fluid Density
~Ascii Log Data
# ...
  339.200 2.8580 1.7460 2.1550 8.8500 1.2970 238.1420 248.5100 243.3260 4.4020 4.9240 117.1980 75.0780 143.0010 408.0250 1538.4900 1712.2300
  339.300 2.8750 1.6410 2.1540 8.8700 1.2940 236.3800 240.5260 238.4530 4.3790 4.8900 117.4100 75.2750 145.0140 415.8890 1533.3800 1716.7800
  339.400 2.7990 1.5490 2.1780 8.8420 1.2970 237.4140 239.9090 238.6620 4.3550 4.8800 117.7880 75.5410 145.4720 420.1910 1530.0601 1723.5601
  339.500 2.7110 1.5370 2.1730 8.8690 1.2830 244.8080 248.6190 246.7130 4.3340 4.8860 117.5930 75.9170 145.2140 419.7800 1529.9200 1731.8500
  339.600 2.6670 1.6290 2.1800 8.9290 1.3160 249.9600 258.2880 254.1240 4.3310 4.9120 116.7240 76.1360 146.4110 417.2920 1533.9200 1740.9301
  339.700 2.6580 1.5970 2.1820 9.2060 1.3280 250.6040 255.3840 252.9940 4.3520 4.9710 115.5060 76.3120 148.4320 413.9200 1541.1899 1750.1000
  339.800 2.6520 1.6020 2.1890 9.4630 1.3070 244.9900 249.9200 247.4550 4.4120 5.0370 114.0290 76.6790 149.3450 410.6210 1550.0300 1758.7300
  339.900 2.6500 1.7140 2.1960 9.5510 1.3240 244.8370 247.2260 246.0320 4.5060 5.1140 112.1450 77.0470 148.3030 407.7170 1558.2200 1766.6000
  340.000 2.6820 1.5920 2.1980 9.2730 1.2250 255.0320 250.5780 252.8050 4.6150 5.1960 109.9610 77.6570 148.4140 408.5900 1565.8199 1774.0800
  340.100 2.7590 1.8320 2.2140 9.4300 1.2200 249.1100 247.1260 248.1180 4.7260 5.2680 108.0110 78.1260 148.1460 416.8760 1573.6300 1781.5601
  340.200 2.8300 1.7100 2.2200 9.5190 1.2420 235.9820 253.0530 244.5180 4.8300 5.3360 106.2810 77.6390 148.4430 434.3520 1582.6700 1789.4800
  340.300 2.8750 1.6530 2.2020 9.8400 1.2340 229.8810 250.7680 240.3240 4.9210 5.3940 104.1350 76.9440 147.9040 458.5160 1591.1400 1797.3101
  340.400 2.8730 1.6850 2.2050 10.1000 1.2360 227.4190 237.5190 232.4690 4.9660 5.4360 102.0060 76.4710 146.0730 483.7380 1597.3600 1804.3000
  340.500 2.8450 1.7110 2.1920 10.1100 1.2260 228.0790 236.5660 232.3220 4.9870 5.4730 100.0260 75.8440 144.7910 504.8160 1600.5900 1809.1300
  340.600 2.8100 1.7170 2.1780 10.1520 1.2060 227.6520 232.4700 230.0610 4.9800 5.5140 97.8100 75.3090 144.2500 517.5160 1603.0400 1811.5200
  340.700 2.8000 1.6190 2.1800 10.1310 1.2250 223.1020 227.4640 225.2830 4.9690 5.5630 95.7940 75.8050 144.1830 522.2630 1606.5800 1812.0800
  340.800 2.8210 1.4690 2.1910 10.2900 1.2500 221.0770 225.1680 223.1220 4.9460 5.6040 95.0760 75.7360 144.3850 521.7710 1611.6899 1812.7000
  340.900 2.8590 1.7500 2.1760 10.1560 1.2350 219.6460 222.8750 221.2610 4.9240 5.6350 95.2620 75.3650 143.8180 520.9430 1616.7300 1814.3400
  341.000 2.9430 1.6140 2.1720 10.1400 1.2370 218.0370 223.3050 220.6710 4.8870 5.6420 96.8030 74.9350 143.4110 520.6680 1620.2000 1816.8900
  341.100 3.1250 1.3980 2.1560 10.0180 1.2150 216.2120 223.7010 219.9560 4.8430 5.6280 99.0350 74.3480 143.5990 519.8430 1622.1300 1818.8101
  341.200 3.1480 1.3060 2.1690 9.9070 1.2310 207.0100 221.8650 214.4370 4.7730 5.6070 101.0400 73.4490 143.7430 517.0070 1623.7700 1819.2200
  341.300 3.0340 1.2940 2.1700 9.6550 1.1660 206.9510 221.5810 214.2660 4.6490 5.5790 103.6300 73.3900 144.2980 515.4430 1625.9100 1818.0500
  341.400 2.7800 1.2900 2.1570 9.4300 1.1380 214.6910 221.2780 217.9840 4.5170 5.5570 105.8940 73.8870 145.8080 517.3460 1628.1801 1816.4700
  341.500 2.6350 1.1890 2.1410 9.1410 1.1400 214.7960 219.3250 217.0600 4.3860 5.5670 107.6950 74.4950 147.7750 521.3480 1629.6500 1814.9900
  341.600 2.5590 1.1260 2.1650 9.3330 1.1080 212.8270 218.6860 215.7570 4.2780 5.6030 109.1430 74.7940 149.7780 521.2070 1629.9000 1813.4700
  341.700 2.5340 1.1150 2.1820 9.2670 1.1250 208.8870 216.4400 212.6630 4.1930 5.6690 110.1390 74.6940 150.5420 513.7660 1629.0200 1810.9399
  341.800 2.5330 1.1680 2.2160 9.2240 1.1150 210.0230 215.7990 212.9110 4.1390 5.7380 110.5630 73.9240 149.6550 502.5200 1627.2700 1807.8000
  341.900 2.5650 1.1830 2.2180 9.3110 1.1310 209.7120 218.8520 214.2820 4.1210 5.7980 110.6700 72.7720 147.5180 494.0320 1625.3600 1805.2700
  342.000 2.6430 1.3180 2.2180 9.0490 1.1170 212.0240 222.4810 217.2530 4.1280 5.8380 110.7890 71.7920 145.2880 491.7380 1624.0800 1804.5900
  342.100 2.7570 1.3850 2.2220 9.0060 1.1140 210.3770 225.5510 217.9640 4.1500 5.8590 111.1660 69.9860 143.5120 491.7210 1624.3300 1804.9700
  342.200 2.7960 1.7310 2.2150 8.8920 1.1160 212.1720 225.0080 218.5900 4.1740 5.8550 111.7320 68.5510 141.2640 488.6290 1625.8000 1804.5400
  342.300 2.8920 1.7150 2.2200 9.0160 1.1530 215.6930 225.4090 220.5510 4.1860 5.8110 112.5460 66.8650 138.6740 480.3440 1627.5300 1801.5601
  342.400 2.9520 1.4330 2.2190 9.1490 1.1480 215.7600 227.8180 221.7890 4.1910 5.7600 113.2860 65.4440 136.9380 470.7430 1628.2300 1796.2300
  342.500 2.9480 1.2870 2.2020 9.0040 1.1190 213.0980 230.5160 221.8070 4.1820 5.7130 113.6730 64.5120 135.8090 463.3490 1627.0900 1789.7200
  342.600 2.9730 1.2840 2.2040 8.8990 1.1470 214.9920 225.1640 220.0780 4.1560 5.6930 113.4240 63.4020 135.7180 458.9230 1623.5900 1783.3500
  342.700 2.8180 1.2930 2.2080 8.9640 1.1670 212.9540 223.1060 218.0300 4.1210 5.7150 113.0530 62.7920 136.1410 454.7930 1617.2700 1777.0300
  342.800 2.7640 1.2780 2.2260 9.0510 1.2070 215.8610 222.4980 219.1790 4.0860 5.7910 112.4460 62.8800 137.0620 451.3210 1608.7500 1770.4500
  342.900 2.7470 1.3520 2.2270 8.6420 1.1790 217.0890 216.3230 216.7060 4.0800 5.8980 111.6590 62.7450 136.9420 449.7590 1599.4399 1763.5900
  343.000 2.7700 1.4220 2.2050 8.6880 1.1960 218.0970 217.5730 217.8350 4.1070 6.0680 110.9230 62.3310 136.4790 451.2830 1591.2500 1757.5200
  343.100 2.8210 1.4260 2.2100 8.6450 1.1940 221.2300 220.5130 220.8720 4.1750 6.2540 110.2840 62.0510 135.3540 451.6020 1584.7100 1752.7200
  343.200 2.8230 1.3890 2.2300 8.4970 1.1640 218.4210 223.7080 221.0640 4.3220 6.4810 109.6840 61.4680 133.7960 446.8490 1579.6700 1749.0500
  343.300 2.9550 1.5740 2.2300 8.4820 1.1440 216.6580 227.0170 221.8380 4.5040 6.6780 109.1320 61.1400 130.1500 435.0570 1575.5900 1745.5300
  343.400 3.2030 1.6330 2.1940 8.6300 1.2280 219.4740 236.6880 228.0810 4.7460 6.7800 108.7940 60.4310 126.1180 419.9980 1572.5400 1741.9200
  343.500 3.6060 2.0210 2.1920 8.9370 1.2650 223.7170 235.3820 229.5490 4.9970 6.8140 108.5900 59.3130 122.0050 406.5860 1570.1700 1738.1899
  343.600 4.0470 2.1690 2.1860 9.0490 1.2320 223.7570 225.4450 224.6010 5.2210 6.7670 108.4400 58.3370 118.7530 399.4090 1567.9399 1734.9800
  343.700 4.4430 2.1000 2.2040 9.0160 1.2310 223.9370 225.0530 224.4950 5.3990 6.6320 108.6560 56.9820 114.5140 399.4060 1564.8101 1732.4700
  343.800 4.5780 2.1380 2.2230 8.9050 1.2770 223.7810 222.5980 223.1900 5.5210 6.4450 109.4660 55.9210 111.7740 404.2500 1560.3300 1730.5200
  343.900 4.5340 2.3870 2.2390 8.6530 1.2730 224.5730 224.9990 224.7860 5.5720 6.2330 111.0010 56.0590 110.9980 410.3730 1554.0900 1728.6100
  344.000 4.0080 2.4280 2.2230 8.3490 1.3070 224.8600 224.9970 224.9280 5.5760 6.0730 112.4450 56.3860 112.6950 415.6740 1546.8300 1726.4900
  344.100 3.6030 2.0720 2.1970 8.4440 1.3070 224.9870 226.7150 225.8510 5.5420 5.9500 113.8350 58.1410 117.3650 420.0130 1539.6300 1724.6200
  344.200 3.3220 1.7180 2.1910 8.4190 1.2730 221.2760 221.7920 221.5340 5.4970 5.8160 115.0760 59.5830 121.5690 423.4540 1534.5400 1723.3101
  344.300 3.1610 1.5980 2.1640 8.7620 1.2440 221.2330 219.2390 220.2360 5.4670 5.7490 115.6190 61.5330 126.4710 424.8420 1532.5200 1722.7700
  344.400 3.0710 1.6140 2.1960 8.9580 1.2550 223.9150 221.3920 222.6540 5.4440 5.6970 115.7090 63.1370 130.3520 423.4560 1533.7100 1722.6899
  344.500 3.0690 1.6460 2.1910 9.0790 1.2530 223.7040 220.3450 222.0250 5.4520 5.6660 115.1130 64.9550 132.7440 420.0550 1536.6300 1723.2500
  344.600 3.0950 1.6170 2.2120 9.1480 1.2690 223.4010 222.2660 222.8330 5.4750 5.6330 113.6400 65.8300 133.8600 417.6210 1540.0300 1724.4600
  344.700 3.1380 1.6130 2.2170 8.7850 1.2660 223.5690 222.2730 222.9210 5.5020 5.5960 111.7630 66.8490 134.2870 419.1280 1542.8600 1726.3199
  344.800 3.1720 1.5550 2.2190 8.9430 1.2700 223.5720 222.1780 222.8750 5.5250 5.5390 109.8890 67.3350 134.9150 425.4670 1545.1600 1728.4800
