~Version information
  VERS.                           2.00 : CWLS log ASCII Standard -Version 2.00
  WRAP.                             NO : One line per depth step
~Well information
#MNEM.UNIT              Data Type        Information
#----------------------------------------------------------------------
  STRT.M                         2.000 : 
  STOP.M                       905.000 : 
  STEP.M                         0.100 : 
  NULL.                      -999.2500 : 
  WELL.                            304 : Well Name
  FLD .                       KARATUBE : Field Name
  CTRY.                     KAZAKHSTAN : Country
  SRVC.        JSC "KAZPROMGEOPHYSICA" : Service company
  DATE.                       22.06.04 : Log date
~Curve information
#MNEM.UNIT                               Curve Description
#----------------------------------------------------------------------
  DEPT.M                               : Depth Curve
  LL3 .OHMM                            : Appar.resist.laterolog,3 electrodes
  MLL .OHMM                            : Microlaterolog sonde
  RHOB.G/C3                            : Bulk density by gamma-gamma log
  GR  .UR/H                            : Gamma-ray log
  NGLD.UE                              : Neutron-gamma log/device DRST-90
  C1  .MM                              : Diameter from profile1
  C2  .MM                              : Diameter from profile2
  CALI.MM                              : Caliper
  GZ3 .OHMM                            : App.resistivity by lateral A2.0M0.5N
  GZ3B.OHMM                            : App.resistivity by lateral N0.5Œ2.0€
  SP  .MV                              : Spontaneous potential
  CILR.MMHO                            : Conduct. by sonde 7I1.6,react.signal
  CILA.MMHO                            : Conduct. by sonde 7I1.6,active signal
  DTP .US/M                            : Interval travel time (P-wave)
  T1  .US                              : Travel time1
  T2  .US                              : Travel time2
~Parameter information
#MNEM.UNIT              Value            Description
#----------------------------------------------------------------------
#----------------------------------------------------------------------
  DFV .SEK                          35 : Drilling Fluid Viscosity
  BS  .MM                        215.9 : Bit Size
  DFD .G/C3                       1.13 : Drilling Fluid Density
~Ascii Log Data
# ...
  441.800 2.8700 1.3680 2.1800 10.1440 1.2470 225.0130 215.1570 220.0850 3.4880 3.7550 116.2440 105.0510 161.3450 439.1870 1563.6200 1752.4900
  441.900 2.8630 1.3760 2.1700 10.2410 1.2490 223.0560 214.7520 218.9040 3.5300 3.7240 116.0920 105.3360 161.3160 445.1540 1560.0200 1748.2500
  442.000 2.8370 1.3960 2.1660 10.1910 1.2350 222.1600 214.7580 218.4590 3.5790 3.6910 116.1580 106.2310 160.8800 450.4010 1555.5300 1747.6899
  442.100 2.8250 1.3140 2.1560 10.0740 1.2260 221.5850 214.8340 218.2100 3.6250 3.6600 116.6760 107.3950 159.8960 456.3790 1550.6500 1750.3199
  442.200 2.8250 1.4040 2.1380 10.3930 1.2150 221.5980 214.6860 218.1420 3.6770 3.6390 117.1670 107.2610 158.3610 465.5410 1546.3700 1754.5400
  442.300 2.8130 1.3190 2.1150 10.2200 1.1900 221.4270 213.5810 217.5040 3.7310 3.6270 117.4480 107.8260 159.1450 478.0870 1543.6000 1757.9500
  442.400 2.7930 1.2220 2.1250 10.2480 1.2330 221.8090 213.6970 217.7530 3.7860 3.6220 117.3880 110.1430 161.7110 490.4660 1542.9500 1759.1300
  442.500 2.7910 1.2550 2.1300 10.0800 1.2220 223.1260 215.0730 219.0990 3.8420 3.6260 117.1150 112.9430 162.8240 496.3970 1544.4700 1758.2900
  442.600 2.7950 1.2940 2.1540 10.0600 1.1980 223.2000 214.4470 218.8230 3.8950 3.6410 116.7430 114.5460 162.6970 492.6580 1547.7200 1757.1801
  442.700 2.7820 1.2800 2.1600 9.9540 1.2340 223.5170 215.7530 219.6350 3.9370 3.6680 116.1820 115.1880 162.4660 481.9580 1551.9700 1757.1899
  442.800 2.7550 1.2730 2.1600 9.7060 1.2290 224.5380 215.1900 219.8640 3.9650 3.7030 115.5720 115.8160 162.5880 472.1880 1556.6700 1758.5800
  442.900 2.7290 1.2540 2.1690 9.8120 1.1960 223.7510 213.7420 218.7470 4.0030 3.7380 115.0790 116.3760 162.9300 470.5800 1561.5900 1760.7100
  443.000 2.6950 1.2680 2.1420 9.7660 1.2010 226.3580 213.8940 220.1260 4.0460 3.7900 114.3780 118.5410 163.3770 480.4070 1566.6899 1763.0900
  443.100 2.6950 1.3070 2.1470 9.6010 1.1980 226.8370 215.4330 221.1350 4.1000 3.8210 113.4230 119.3420 163.0870 499.1640 1571.8600 1765.6600
  443.200 2.7140 1.3670 2.1360 9.5510 1.1940 227.5420 216.1160 221.8290 4.1450 3.8080 112.1740 119.8570 162.0340 520.4180 1576.7600 1768.6300
  443.300 2.7290 1.3740 2.1270 9.3510 1.1530 229.1840 216.0850 222.6350 4.1550 3.7410 110.9430 119.1240 162.6830 535.8770 1581.1600 1772.1000
  443.400 2.7210 1.4920 2.1630 9.3950 1.1240 230.5790 216.6410 223.6100 4.1290 3.6600 109.1570 118.3340 165.0710 540.4360 1585.0500 1775.9500
  443.500 2.6570 1.6780 2.1520 9.0050 1.1080 233.3270 217.9750 225.6510 4.0690 3.5610 107.4460 119.9360 165.0070 534.5360 1588.7200 1780.0300
  443.600 2.4660 1.3490 2.1490 8.8420 1.1110 244.5850 225.7480 235.1670 3.9940 3.4860 106.6150 122.2030 164.6250 523.6370 1592.4100 1784.1899
  443.700 2.3280 1.1700 2.1650 8.5680 1.1250 252.8720 232.0060 242.4390 3.8890 3.4250 106.4470 125.3610 167.5970 513.0280 1596.3199 1788.4500
  443.800 2.1720 0.7670 2.1390 8.3090 1.1400 243.4860 227.9160 235.7010 3.7960 3.4020 106.8970 128.1280 173.7790 504.7620 1600.4301 1792.7900
  443.900 2.0600 0.7700 2.1270 8.0830 1.1350 226.7700 221.7050 224.2380 3.7190 3.3980 107.3280 128.5960 177.9370 497.8140 1604.7300 1797.0400
  444.000 2.0000 1.2470 2.1440 7.9680 1.1230 207.2660 212.5090 209.8870 3.6000 3.3910 107.7310 128.2270 179.9590 490.9840 1609.1400 1800.8101
  444.100 1.9690 0.8570 2.1700 7.8930 1.1000 211.5790 212.4820 212.0300 3.4580 3.3860 108.0330 128.1620 181.5280 484.5160 1613.7600 1804.0200
  444.200 1.9630 0.8910 2.1410 7.8990 1.1360 222.9390 207.5710 215.2550 3.3330 3.4110 107.9090 129.0610 184.3180 479.6800 1618.7400 1806.9100
  444.300 1.9480 0.8480 2.1330 8.4680 1.1210 226.0380 210.0580 218.0480 3.2640 3.4710 107.5790 129.4920 186.2560 477.3490 1624.6300 1810.1500
  444.400 1.9100 0.7380 2.1230 9.0220 1.1390 230.5130 207.0480 218.7800 3.2150 3.5730 107.1340 128.1190 186.9240 477.2470 1632.4200 1814.1600
  444.500 1.8800 0.6940 2.1380 9.4410 1.1360 229.2120 207.6210 218.4170 3.1720 3.6780 106.8120 127.5100 188.7080 478.2740 1643.0601 1819.1700
  444.600 1.8880 0.7630 2.1230 9.8910 1.1340 222.1580 207.4810 214.8190 3.1460 3.7950 103.9040 125.9490 187.5490 479.4470 1656.1400 1824.8199
  444.700 1.9280 0.8390 2.1250 10.1540 1.1390 219.9070 208.2120 214.0600 3.1290 3.9260 102.3910 123.7560 188.7420 480.3380 1668.8101 1830.6100
  444.800 1.9540 0.8220 2.1160 10.4030 1.1970 233.0950 211.7300 222.4130 3.1250 4.0830 101.0190 122.7860 188.8850 480.8970 1677.1300 1835.7200
  444.900 1.9600 0.8400 2.1130 10.3880 1.2230 239.9430 212.0900 226.0160 3.1270 4.2280 100.3130 120.9630 188.9210 480.7810 1678.6100 1839.5300
  445.000 1.9640 0.9340 2.1350 10.3540 1.2540 238.7550 211.5330 225.1440 3.1310 4.3620 100.2770 119.2440 189.0160 479.1830 1674.4399 1841.6000
  445.100 1.9800 0.9550 2.1560 10.5300 1.2660 232.4920 207.7490 220.1200 3.1310 4.5450 101.2440 116.5300 189.3290 475.6720 1667.9301 1841.3000
  445.200 1.9890 0.8840 2.1830 10.3570 1.2730 241.7670 211.1640 226.4650 3.1410 4.6940 102.6690 114.4190 188.8240 470.4190 1662.0300 1838.3000
  445.300 1.9730 1.1560 2.2280 10.3070 1.2260 227.4310 229.9450 228.6880 3.1560 4.8500 103.9560 113.4940 186.7670 463.7980 1657.3000 1832.3500
  445.400 1.9940 0.9990 2.3090 10.7710 1.2680 225.9140 252.3070 239.1100 3.2020 4.9770 105.1180 112.5390 183.9110 454.3510 1653.0800 1824.7800
  445.500 2.1610 1.1290 2.3170 10.5030 1.2980 236.9460 256.0240 246.4850 3.2870 5.0820 106.1750 110.9710 179.0520 440.2670 1648.4800 1816.9800
  445.600 2.3560 2.4510 2.2440 10.1230 1.2730 239.5700 232.4600 236.0150 3.4080 5.1450 107.2140 107.9660 174.3960 421.7080 1643.4100 1810.4600
  445.700 2.6910 4.2870 2.1960 9.7360 1.1950 229.0770 242.5430 235.8100 3.5000 5.1740 108.1150 103.5700 168.4620 404.4840 1637.5300 1804.9500
  445.800 2.8960 3.1790 2.0790 9.2280 1.2070 226.9500 260.3540 243.6520 3.5230 5.1720 108.7890 99.3070 162.4260 396.4790 1631.1100 1800.0601
  445.900 2.8010 2.7940 2.0140 8.8790 1.1860 225.7720 244.1950 234.9840 3.5400 5.2200 109.2030 97.2020 157.5620 402.2950 1624.4900 1795.3000
  446.000 2.5180 1.6670 1.9520 8.6420 1.1420 227.5760 238.3330 232.9540 3.5610 5.2970 109.3580 96.5970 153.2010 417.9030 1618.5200 1791.0601
  446.100 2.3590 1.6380 1.8950 8.9620 1.0840 227.6890 242.1910 234.9400 3.5730 5.3640 109.1520 96.4960 151.9350 433.4390 1613.1700 1787.1700
  446.200 2.4210 1.6310 1.8560 8.9410 1.0970 230.0530 230.4190 230.2360 3.5910 5.3640 108.7180 96.8720 154.3490 440.6800 1608.0601 1783.3700
  446.300 2.5720 1.7800 1.9280 9.2310 1.1020 237.4990 221.5360 229.5170 3.5860 5.3050 108.1850 95.7260 158.2850 437.6400 1602.5100 1779.1500
  446.400 2.7390 1.8700 2.0000 9.1160 1.1000 227.8970 222.8140 225.3560 3.5510 5.1750 106.7660 95.0700 158.0700 429.2330 1596.0900 1774.6500
  446.500 2.8420 1.7430 2.0710 9.0670 1.1700 221.9560 216.2350 219.0950 3.4760 5.0000 106.4670 93.8720 156.0580 421.2320 1588.2300 1769.6300
  446.600 2.8520 1.5700 2.1570 8.8200 1.2070 224.2790 218.6670 221.4730 3.3450 4.8030 107.1340 93.1780 154.6640 417.6200 1578.7700 1764.0300
  446.700 2.8550 1.5650 2.1500 8.7540 1.2150 221.1530 214.6550 217.9040 3.2370 4.6150 108.1840 92.4850 152.3010 418.5610 1568.5601 1757.7900
  446.800 2.9460 1.6590 2.1810 9.1730 1.1850 220.0360 213.9940 217.0150 3.1730 4.4660 109.5390 92.4260 152.0140 422.3650 1559.2400 1751.5100
  446.900 2.9370 1.5660 2.1820 9.7110 1.2300 220.7000 213.9670 217.3330 3.1630 4.3590 110.6650 92.6170 152.6930 427.0270 1552.2100 1745.6000
  447.000 2.8470 1.4970 2.1930 10.0040 1.2610 221.5770 213.8540 217.7160 3.1720 4.2900 112.8360 93.2210 153.2740 431.3530 1547.6400 1740.3199
  447.100 2.7930 1.5270 2.2040 10.4800 1.2630 222.4850 213.7460 218.1150 3.2010 4.2550 114.3440 93.7330 154.0310 434.9940 1544.3199 1735.2800
  447.200 2.7410 1.5050 2.2000 10.4840 1.2710 221.7590 214.3480 218.0540 3.2570 4.2560 115.8360 93.9690 154.7760 438.2850 1540.5800 1730.3700
  447.300 2.6840 1.4820 2.1950 10.6520 1.2530 222.7380 214.9860 218.8620 3.3360 4.2650 116.8520 94.4500 155.3830 441.6120 1535.3500 1725.0200
  447.400 2.6500 1.4940 2.1960 10.8980 1.2420 222.3320 215.7680 219.0500 3.4130 4.2650 117.6190 94.4740 156.8770 446.4000 1529.2400 1719.2500
