~Version information
  VERS.                           2.00 : CWLS log ASCII Standard -Version 2.00
  WRAP.                             NO : One line per depth step
~Well information
#MNEM.UNIT              Data Type        Information
#----------------------------------------------------------------------
  STRT.M                         2.000 : 
  STOP.M                       905.000 : 
  STEP.M                         0.100 : 
  NULL.                      -999.2500 : 
  WELL.                            304 : Well Name
  FLD .                       KARATUBE : Field Name
  CTRY.                     KAZAKHSTAN : Country
  SRVC.        JSC "KAZPROMGEOPHYSICA" : Service company
  DATE.                       22.06.04 : Log date
~Curve information
#MNEM.UNIT                               Curve Description
#----------------------------------------------------------------------
  DEPT.M                               : Depth Curve
  LL3 .OHMM                            : Appar.resist.laterolog,3 electrodes
  MLL .OHMM                            : Microlaterolog sonde
  RHOB.G/C3                            : Bulk density by gamma-gamma log
  GR  .UR/H                            : Gamma-ray log
  NGLD.UE                              : Neutron-gamma log/device DRST-90
  C1  .MM                              : Diameter from profile1
  C2  .MM                              : Diameter from profile2
  CALI.MM                              : Caliper
  GZ3 .OHMM                            : App.resistivity by lateral A2.0M0.5N
  GZ3B.OHMM                            : App.resistivity by lateral N0.5Œ2.0€
  SP  .MV                              : Spontaneous potential
  CILR.MMHO                            : Conduct. by sonde 7I1.6,react.signal
  CILA.MMHO                            : Conduct. by sonde 7I1.6,active signal
  DTP .US/M                            : Interval travel time (P-wave)
  T1  .US                              : Travel time1
  T2  .US                              : Travel time2
~Parameter information
#MNEM.UNIT              Value            Description
#----------------------------------------------------------------------
#----------------------------------------------------------------------
  DFV .SEK                          35 : Drilling Fluid Viscosity
  BS  .MM                        215.9 : Bit Size
  DFD .G/C3                       1.13 : Drilling Fluid Density
~Ascii Log Data
# ...
  897.200 19140.1406 16.1260 2.0440 1.8220 9.4860 209.6110 203.0030 206.3070 1.1220 120.8700 197.5370 2.1240 -6.7290 232.5250 967.0450 1053.6300
  897.300 19003.6406 33.6850 2.0310 1.8530 9.6220 211.8280 203.0020 207.4150 1.0400 120.8560 197.6510 2.0240 -6.6270 231.2550 967.0680 1055.7700
  897.400 19683.6406 315.3170 1.9900 1.7660 9.6240 210.1170 203.2540 206.6860 1.0430 120.8230 198.0660 2.0500 -6.7520 229.4250 967.1350 1057.7400
  897.500 18998.1992 265.3350 1.9550 1.6940 9.8280 206.8940 203.0910 204.9930 1.0150 120.7980 198.5640 2.1170 -6.8460 226.3220 967.2280 1058.9800
  897.600 19181.0391 260.2850 1.8970 1.6950 9.9380 206.3230 199.9360 203.1300 1.0280 120.8230 198.6530 2.0550 -6.8050 221.5410 967.2780 1059.7200
  897.700 19090.0801 427.3840 1.8720 1.6370 9.9560 207.1900 197.8670 202.5280 1.0230 120.8220 199.2440 2.1500 -6.6550 216.4140 967.2550 1060.2100
  897.800 19198.1602 388.6760 1.8410 1.5100 10.0240 206.8910 198.8420 202.8670 1.0360 120.8130 198.0050 2.1800 -6.8010 212.2630 967.1610 1060.6899
  897.900 19212.5801 367.2380 1.7770 1.5670 10.2520 205.2030 197.2480 201.2260 1.0330 120.7820 195.2580 2.0470 -6.7710 210.0710 967.0360 1061.1801
  898.000 19179.9609 427.9240 1.7260 1.5600 10.5970 203.4970 196.5860 200.0410 1.0780 120.7560 192.7120 1.9860 -6.7190 209.9640 966.8650 1061.6700
  898.100 19147.8691 418.3930 1.7310 1.5030 10.7680 200.3710 194.6840 197.5280 1.0910 120.7650 191.7900 2.1140 -6.7620 212.0260 966.6630 1062.1000
  898.200 19103.3496 445.7060 1.7250 1.4660 10.9670 194.5400 190.0420 192.2910 1.0560 120.7240 190.6280 2.0360 -6.5980 216.4530 966.4450 1062.3600
  898.300 19494.8496 463.6490 1.7170 1.5820 11.1840 188.8540 183.6960 186.2750 1.0980 120.0390 191.6540 2.1290 -6.5900 221.7530 966.3340 1062.2700
  898.400 19291.7500 453.5130 1.7290 1.5340 11.1390 186.2200 181.2090 183.7140 1.0420 120.7210 190.8340 2.1910 -6.6590 226.5170 966.3650 1061.7900
  898.500 19204.6992 451.2590 1.7200 1.6230 11.0760 174.4150 177.1430 175.7790 1.0200 120.7170 190.1870 2.1770 -6.7220 229.3820 966.5330 1060.6801
  898.600 18999.7793 451.3550 1.7190 1.5900 11.1360 95.6130 162.2250 128.9190 1.0500 120.7250 193.7840 2.1190 -6.7740 231.1080 966.7280 1058.8900
  898.700 19075.7402 451.4010 1.7230 1.6640 11.1290 83.0720 153.1650 118.1190 1.0340 120.7140 195.8020 2.0680 -6.8760 232.3840 966.8980 1056.3300
  898.800 19017.5996 451.3980 1.7130 1.7450 11.0900 83.0080 152.0700 117.5390 1.0740 120.7040 196.5160 2.1270 -6.7680 233.8360 967.0020 1053.7800
  898.900 18937.0996 451.4470 1.7180 1.7380 10.9770 83.0080 152.1500 117.5790 1.0680 120.6930 196.2890 2.1460 -6.8090 235.3650 967.0590 1051.7900
  899.000 19466.8008 451.4890 1.7290 1.7050 10.9010 83.0130 152.0650 117.5390 1.0830 120.6920 196.6910 2.0690 -6.7290 237.0100 967.0760 1050.8500
  899.100 19296.1602 451.5890 1.7240 1.8150 10.9890 83.0920 152.0660 117.5790 1.0470 120.6960 196.2640 2.1620 -6.7380 238.5890 967.0760 1050.8500
  899.200 19251.4805 451.5830 1.7100 1.7250 11.0040 83.0610 152.1130 117.5870 1.0530 120.6550 195.6230 2.0960 -6.9050 239.7810 -999.2500 -999.2500
  899.300 19542.9102 451.5890 1.7200 1.6320 10.9460 83.0960 152.0800 117.5880 1.1270 120.6930 195.9000 2.2410 -6.8410 239.8470 -999.2500 -999.2500
  899.400 19364.7305 451.6150 1.7230 1.7280 10.9610 82.9650 152.1190 117.5420 1.0330 120.7030 195.9950 2.1440 -6.8520 238.5590 -999.2500 -999.2500
  899.500 19350.2207 451.6450 1.7200 1.7160 10.8950 83.2010 152.1600 117.6800 1.0480 120.6660 199.4120 2.0940 -6.8440 235.3690 -999.2500 -999.2500
  899.600 19136.0000 451.7740 1.7340 1.6560 10.9640 83.0220 152.0080 117.5150 1.0500 120.6290 200.7330 2.2310 -6.8020 230.3960 -999.2500 -999.2500
  899.700 19357.8809 451.7770 1.7470 1.5500 10.9420 83.2010 151.9350 117.5680 1.0330 120.6630 201.1350 2.0910 -6.7470 223.5920 -999.2500 -999.2500
  899.800 19602.1797 451.8210 1.7500 1.5640 10.9410 83.2280 151.9260 117.5770 1.0530 120.6340 201.8270 2.1260 -6.6270 216.9470 -999.2500 -999.2500
  899.900 19059.6406 451.9030 1.7600 1.5880 11.0010 83.2290 152.1620 117.6950 1.0920 120.6260 202.5580 1.9870 -6.6620 211.8380 -999.2500 -999.2500
  900.000 19277.2695 451.9840 1.7570 1.5670 10.9390 83.2750 152.0650 117.6700 1.0450 120.5300 201.9230 2.2170 -6.9210 209.4350 -999.2500 -999.2500
  900.100 19456.9102 452.0080 1.7470 1.5530 11.0050 83.1300 152.0640 117.5970 1.0600 120.5270 200.1340 2.0870 -6.6990 -999.2500 -999.2500 -999.2500
  900.200 19508.2207 452.0690 1.7430 1.5910 11.0220 83.1680 152.0550 117.6120 1.1010 120.5180 199.9560 2.1150 -6.8660 -999.2500 -999.2500 -999.2500
  900.300 19171.1602 451.9780 1.7330 1.7280 11.0070 83.2280 151.9440 117.5860 1.0610 120.4840 196.1360 2.1120 -6.7590 -999.2500 -999.2500 -999.2500
  900.400 19297.9902 451.9420 1.7280 1.7830 10.8470 83.2090 152.0000 117.6050 1.0610 120.3730 192.5480 2.1380 -6.7590 -999.2500 -999.2500 -999.2500
  900.500 19403.3906 452.0390 1.7220 1.7450 10.8130 83.0130 152.0650 117.5390 1.0560 120.1360 189.4390 2.2840 -6.7940 -999.2500 -999.2500 -999.2500
  900.600 19107.1406 452.1280 1.7350 1.7540 10.9730 83.1260 152.0740 117.6000 1.1560 119.5500 186.8780 1.9680 -6.5880 -999.2500 -999.2500 -999.2500
  900.700 18927.0703 452.2320 1.7440 1.7220 10.9460 82.8210 152.1760 117.4980 1.0770 118.9690 182.9950 2.0480 -6.7230 -999.2500 -999.2500 -999.2500
  900.800 19114.5000 452.2670 1.7320 1.6400 10.9790 82.9970 152.1770 117.5870 1.0920 120.2810 181.2320 2.2350 -6.7080 -999.2500 -999.2500 -999.2500
  900.900 19035.2207 452.2370 1.7280 1.5730 10.9410 82.9080 152.2470 117.5780 1.0590 120.7940 180.8430 2.2150 -6.6030 -999.2500 -999.2500 -999.2500
  901.000 19024.8301 452.2690 1.7430 1.5820 11.0050 83.0610 152.5490 117.8050 1.1340 120.7910 179.0770 2.1060 -6.5970 -999.2500 -999.2500 -999.2500
  901.100 19031.0391 452.3810 1.7310 1.6520 11.0280 84.1660 154.3890 119.2770 1.0590 120.7980 177.7060 2.1910 -6.6630 -999.2500 -999.2500 -999.2500
  901.200 19286.2402 452.3480 1.7450 1.5520 11.0540 84.2180 154.3890 119.3030 1.0810 120.7990 176.9420 2.0960 -6.6800 -999.2500 -999.2500 -999.2500
  901.300 19306.5195 452.4270 1.7370 1.6060 11.0350 84.2810 154.3880 119.3340 1.0820 120.8070 176.8280 2.1330 -6.7860 -999.2500 -999.2500 -999.2500
  901.400 19052.5801 452.5580 1.7400 1.6330 11.0170 84.3290 154.3750 119.3520 1.0730 120.7960 179.1400 2.0170 -6.7210 -999.2500 -999.2500 -999.2500
  901.500 19179.8398 452.7500 1.7480 1.6370 11.0910 84.3360 154.2780 119.3070 1.1660 120.7770 181.9870 2.1700 -6.8190 -999.2500 -999.2500 -999.2500
  901.600 19230.0293 452.9100 1.7440 1.6660 11.0340 84.4370 154.2760 119.3570 1.0770 120.7780 181.9580 2.0750 -6.7680 -999.2500 -999.2500 -999.2500
  901.700 19343.0703 453.0040 1.7430 1.6620 11.0040 84.3690 154.2110 119.2900 1.0870 120.7820 181.3210 2.0850 -6.6990 -999.2500 -999.2500 -999.2500
  901.800 19402.7109 453.1340 1.7270 1.5930 10.9610 84.2140 154.0980 119.1560 1.0940 -999.2500 181.8770 2.2140 -6.8700 -999.2500 -999.2500 -999.2500
  901.900 19241.4707 453.2760 1.7160 1.7050 11.0860 84.0130 153.6130 118.8130 1.1080 -999.2500 183.3140 2.2040 -6.8610 -999.2500 -999.2500 -999.2500
  902.000 19197.5703 453.3140 1.7230 1.7920 11.0740 83.8920 153.5890 118.7410 1.1460 -999.2500 184.7440 2.1260 -6.6630 -999.2500 -999.2500 -999.2500
  902.100 19259.4199 453.3030 1.7300 1.7450 11.1170 83.9670 153.5720 118.7690 1.1210 -999.2500 184.6160 2.1260 -6.8300 -999.2500 -999.2500 -999.2500
  902.200 19227.4395 453.2780 1.7350 1.7310 10.9610 83.9970 153.5030 118.7500 1.1150 -999.2500 184.1360 2.0700 -6.8500 -999.2500 -999.2500 -999.2500
  902.300 19049.3203 453.2170 1.7170 -999.2500 10.8990 83.9330 153.4940 118.7130 1.1250 -999.2500 182.8660 2.1860 -6.6240 -999.2500 -999.2500 -999.2500
  902.400 19718.2891 453.1690 1.7230 -999.2500 10.8350 84.0210 153.3930 118.7070 1.1560 -999.2500 183.8900 2.1040 -6.7960 -999.2500 -999.2500 -999.2500
  902.500 19312.0898 453.0830 -999.2500 -999.2500 10.9080 84.0140 153.4010 118.7070 1.1760 -999.2500 185.5650 2.1180 -6.7280 -999.2500 -999.2500 -999.2500
  902.600 19246.8594 453.0430 -999.2500 -999.2500 10.9120 83.9120 153.5000 118.7060 1.1650 -999.2500 184.7920 2.1490 -6.6700 -999.2500 -999.2500 -999.2500
