~Version information
  VERS.                           2.00 : CWLS log ASCII Standard -Version 2.00
  WRAP.                             NO : One line per depth step
~Well information
#MNEM.UNIT              Data Type        Information
#----------------------------------------------------------------------
  STRT.M                         2.000 : 
  STOP.M                       905.000 : 
  STEP.M                         0.100 : 
  NULL.                      -999.2500 : 
  WELL.                            304 : Well Name
  FLD .                       KARATUBE : Field Name
  CTRY.                     KAZAKHSTAN : Country
  SRVC.        JSC "KAZPROMGEOPHYSICA" : Service company
  DATE.                       22.06.04 : Log date
~Curve information
#MNEM.UNIT                               Curve Description
#----------------------------------------------------------------------
  DEPT.M                               : Depth Curve
  LL3 .OHMM                            : Appar.resist.laterolog,3 electrodes
  MLL .OHMM                            : Microlaterolog sonde
  RHOB.G/C3                            : Bulk density by gamma-gamma log
  GR  .UR/H                            : Gamma-ray log
  NGLD.UE                              : Neutron-gamma log/device DRST-90
  C1  .MM                              : Diameter from profile1
  C2  .MM                              : Diameter from profile2
  CALI.MM                              : Caliper
  GZ3 .OHMM                            : App.resistivity by lateral A2.0M0.5N
  GZ3B.OHMM                            : App.resistivity by lateral N0.5Œ2.0€
  SP  .MV                              : Spontaneous potential
  CILR.MMHO                            : Conduct. by sonde 7I1.6,react.signal
  CILA.MMHO                            : Conduct. by sonde 7I1.6,active signal
  DTP .US/M                            : Interval travel time (P-wave)
  T1  .US                              : Travel time1
  T2  .US                              : Travel time2
~Parameter information
#MNEM.UNIT              Value            Description
#----------------------------------------------------------------------
#----------------------------------------------------------------------
  DFV .SEK                          35 : Drilling Fluid Viscosity
  BS  .MM                        215.9 : Bit Size
  DFD .G/C3                       1.13 : Drilling Fluid Density
~Ascii Log Data
# ...
  242.300 2.7320 1.3240 2.0650 8.9870 1.1810 239.3680 252.0660 245.7170 4.8160 6.1870 106.0940 87.2090 163.1400 509.6920 1689.2600 1888.4301
  242.400 2.7040 1.3680 2.0570 8.7750 1.1520 234.6580 250.2140 242.4360 4.6130 5.9930 104.9770 86.3870 162.3680 493.8240 1678.8500 1887.1600
  242.500 2.7000 1.3310 2.0780 8.8280 1.1390 238.6890 248.0890 243.3890 4.3680 5.7430 104.5590 86.1060 161.4850 474.3530 1670.7800 1882.7200
  242.600 2.6760 1.4350 2.0940 8.8300 1.2130 246.0280 245.5840 245.8060 4.1260 5.5160 105.1930 85.9390 160.1320 454.7590 1664.8199 1874.8000
  242.700 2.8260 2.1730 2.0910 8.9280 1.2150 257.2790 242.6020 249.9410 3.9240 5.3550 106.6300 85.3150 158.1600 437.6210 1660.5300 1865.3300
  242.800 3.0400 2.1040 2.1450 8.6850 1.2780 270.3030 241.3080 255.8060 3.8560 5.3690 107.9840 84.7970 155.9270 425.5610 1657.1500 1856.5300
  242.900 3.2810 2.0190 2.2000 8.6560 1.2560 275.3900 242.9160 259.1530 3.9610 5.4710 109.1590 83.9290 152.9190 420.3310 1654.0100 1849.0400
  243.000 3.6110 2.2240 2.1920 8.2690 1.2760 260.1860 237.6440 248.9150 4.2140 5.5690 110.2250 82.3440 148.6110 424.8380 1649.9200 1842.0500
  243.100 4.1620 2.9300 2.1940 7.8850 1.2440 242.4080 234.0970 238.2530 4.4810 5.5760 111.5590 79.3620 143.5080 441.4640 1643.8300 1834.5300
  243.200 4.6070 6.2680 2.1690 8.0160 1.3220 231.4850 235.7820 233.6330 4.6590 5.4920 112.5800 77.0180 141.6990 468.0880 1635.0000 1825.8600
  243.300 4.6900 6.5650 2.1330 8.1910 1.3380 226.3070 230.1320 228.2200 4.7050 5.3520 112.8410 75.4040 139.7490 497.9260 1624.0601 1815.0699
  243.400 3.4260 1.1090 2.0760 8.1110 1.2830 228.9040 232.6670 230.7850 4.5490 5.1310 112.5480 75.4290 139.1210 520.7680 1612.8700 1801.0800
  243.500 2.8100 1.1840 2.0900 8.1260 1.2760 224.4030 230.6160 227.5090 4.2880 4.9900 111.9660 77.4840 144.2110 529.8510 1603.1100 1784.5200
  243.600 2.6410 1.2150 2.1450 8.1300 1.2430 224.3160 227.6380 225.9770 4.0090 4.9060 111.4830 79.7710 150.1340 524.9520 1595.1000 1768.6700
  243.700 2.6570 1.1760 2.1670 8.4610 1.2380 230.3610 224.6540 227.5080 3.8530 4.8830 109.7040 81.4420 153.0130 512.0140 1587.6200 1757.7700
  243.800 2.7780 1.5650 2.1510 8.7780 1.2340 239.7320 230.1250 234.9290 3.8010 4.9010 107.1070 82.0690 153.8730 498.4470 1579.9500 1753.8000
  243.900 2.9810 1.6310 2.1440 9.1800 1.2340 238.5430 231.6820 235.1120 3.8090 4.9260 105.4030 82.0240 152.7980 487.5770 1572.6200 1755.9000
  244.000 3.1050 1.5230 2.1090 9.0930 1.2580 235.9430 231.4600 233.7010 3.8540 4.9750 104.1870 80.9480 150.7140 480.3070 1567.4200 1762.2000
  244.100 2.9820 1.3830 2.1080 8.7020 1.2480 235.5570 231.0690 233.3130 3.9330 5.1400 103.0170 79.8780 148.4230 476.7580 1565.5699 1771.9301
  244.200 2.8630 1.2640 2.0930 8.6270 1.2340 233.1410 230.4560 231.7980 4.0240 5.3080 101.8380 79.8910 147.8990 477.1580 1567.5300 1784.5100
  244.300 2.7420 1.2600 2.1060 8.8130 1.2370 231.6610 233.2040 232.4320 4.1340 5.4880 100.2580 80.4040 148.2430 477.5200 1573.0100 1799.0800
  244.400 2.7070 1.4320 2.0980 8.8750 1.2540 232.9650 233.8110 233.3880 4.3040 5.7070 98.5400 80.5530 148.7320 470.5230 1581.7600 1814.1200
  244.500 2.9630 1.6140 2.1080 8.9950 1.2310 231.8770 229.9390 230.9080 4.5470 5.9030 96.8050 80.3320 148.9100 453.5170 1592.6899 1829.0300
  244.600 3.2240 1.5500 2.1310 9.6040 1.2130 230.2460 228.3630 229.3050 4.7740 6.0150 95.1590 79.4840 146.4680 433.9200 1603.8900 1843.0601
  244.700 3.4110 1.4720 2.1350 9.3610 1.2180 229.4770 231.9050 230.6910 4.9920 6.0880 93.6960 77.9590 144.0420 425.3640 1613.1600 1854.9700
  244.800 3.5330 1.7300 2.1220 9.4030 1.2210 228.2210 233.0410 230.6310 5.1270 6.1240 92.4430 76.8090 143.5050 434.6240 1619.9100 1862.7700
  244.900 3.3370 1.3470 2.0990 9.2190 1.2010 226.5570 232.8040 229.6810 5.1660 6.1330 91.5400 76.4660 143.9920 458.2050 1625.1000 1865.7100
  245.000 2.9860 1.2110 2.0790 9.0520 1.1680 230.6200 232.7490 231.6850 5.1720 6.1490 90.7920 76.2680 145.7050 486.9570 1630.3000 1865.0800
  245.100 2.8380 1.1610 2.0810 9.0140 1.1560 228.9620 230.3420 229.6520 4.8870 6.1720 90.3610 77.0090 149.5160 515.9040 1636.2400 1863.4399
  245.200 2.7490 1.0580 2.0780 9.0180 1.1420 223.9570 223.5500 223.7530 4.7060 6.2170 90.2180 77.5560 152.5980 542.4650 1642.9600 1862.6700
  245.300 2.7320 1.1610 2.0760 9.1620 1.1600 228.4510 228.5140 228.4820 4.5800 6.2890 90.3670 77.5290 155.1750 565.1800 1650.0900 1863.1300
  245.400 2.7900 1.3380 2.0990 9.3150 1.1760 233.1860 231.8820 232.5340 4.5000 6.4430 90.5550 77.5660 156.0670 580.8880 1656.9399 1864.2400
  245.500 2.8250 1.2510 2.1000 9.4790 1.1930 250.8700 241.4130 246.1410 4.4430 6.6590 91.6560 77.1040 155.0170 590.8500 1662.6700 1865.7300
  245.600 2.7940 1.4640 2.0630 9.3990 1.1970 251.4050 252.2300 251.8180 4.3980 6.9000 93.4470 75.9940 153.8200 597.9140 1666.7000 1867.5601
  245.700 2.7640 1.3730 2.0350 9.0930 1.1990 236.8670 257.5350 247.2010 4.3550 7.1880 95.7970 75.0340 153.9980 604.5390 1669.6100 1869.6000
  245.800 2.7230 1.1670 2.0550 9.1270 1.2290 233.7460 246.1500 239.9480 4.3250 7.5280 98.0340 73.8250 154.2660 607.1470 1672.7300 1871.5800
  245.900 2.6520 1.5410 2.0720 9.3040 1.2110 236.9040 243.0320 239.9680 4.2870 7.8800 100.0260 72.2740 154.5030 601.5480 1677.3500 1873.4700
  246.000 2.6030 1.2120 2.1010 9.2390 1.2220 236.3470 241.3080 238.8270 4.2430 8.2100 101.9350 71.8290 153.5250 586.9500 1683.3400 1875.7200
  246.100 2.5720 0.9170 2.1230 9.1750 1.2230 246.4700 240.5190 243.4950 4.1960 8.5100 104.4170 70.3110 150.7870 568.0090 1689.2800 1878.0699
  246.200 2.6690 1.3110 2.1210 9.0830 1.1970 240.3310 239.6950 240.0130 4.1480 8.7680 106.3760 67.5520 147.9540 549.2840 1692.9700 1879.4100
  246.300 2.9300 1.4110 2.1360 9.1860 1.2220 237.6150 236.4390 237.0270 4.1020 8.9270 107.8920 64.4920 145.3560 532.6120 1693.0300 1877.7900
  246.400 3.1100 1.4060 2.1330 9.1120 1.1670 235.7910 232.0120 233.9020 4.0530 9.0510 108.3550 60.9320 140.8620 518.2480 1689.2900 1872.0200
  246.500 3.1520 1.4320 2.1410 9.1930 1.2120 237.4090 230.8550 234.1320 4.0010 9.1510 108.6490 57.6130 134.8440 507.6360 1682.8199 1862.1899
  246.600 3.1610 1.5480 2.1570 8.9120 1.2530 236.7040 230.7210 233.7130 3.9620 9.2410 108.4470 54.5360 130.0720 502.1440 1674.9200 1850.3700
  246.700 3.1760 1.6760 2.1570 9.1240 1.2500 240.1340 232.8270 236.4810 3.9360 9.3400 108.2710 52.4310 127.9500 499.9740 1666.6300 1839.0500
  246.800 3.1690 1.6500 2.1500 8.7340 1.2330 238.7520 235.7220 237.2370 3.9240 9.4700 107.8510 50.3600 125.5340 497.1110 1658.5699 1830.1200
  246.900 3.1280 1.5700 2.1440 8.8520 1.2480 241.4230 234.3620 237.8930 3.9140 9.6010 107.5240 48.3830 123.6470 490.2980 1651.0300 1823.6200
  247.000 3.0760 1.5630 2.1620 8.8060 1.2680 242.1840 236.9070 239.5460 3.9040 9.7320 107.5740 46.5190 122.6790 480.9350 1644.1500 1818.6600
  247.100 3.0490 1.4680 2.1550 8.6230 1.2960 243.1710 240.6850 241.9280 3.8940 9.8780 107.7000 44.8710 121.1350 471.9710 1637.9200 1814.2300
  247.200 3.0690 1.5430 2.1850 8.7030 1.2810 245.5660 242.2250 243.8960 3.8960 10.0640 108.0760 43.2990 119.6110 466.1070 1632.2200 1809.8600
  247.300 3.1130 1.6100 2.1920 8.7630 1.2560 248.2830 243.8290 246.0560 3.9210 10.2860 108.2310 41.7940 117.9920 461.8990 1626.9000 1805.4700
  247.400 3.1820 1.8790 2.1610 8.7220 1.2340 250.5990 247.8570 249.2280 3.9820 10.6390 108.2140 40.1930 115.6100 456.8040 1621.8500 1801.0800
  247.500 3.2970 2.0960 2.1650 8.6010 1.2470 245.3870 249.4790 247.4330 4.0950 11.2560 108.3330 38.9590 113.7180 448.4270 1616.9700 1796.6899
  247.600 3.4450 2.1900 2.1320 8.6000 1.2680 246.7560 247.1290 246.9420 4.2580 11.9120 108.4000 37.8510 110.1480 438.6350 1612.1000 1792.1700
  247.700 3.5800 2.4480 2.0810 8.4160 1.2950 246.0130 246.9030 246.4580 4.4560 12.4130 108.4890 36.3480 106.0200 431.0480 1607.0699 1787.2600
  247.800 4.0630 2.8670 2.0880 8.4410 1.3150 237.2080 241.3290 239.2680 4.7170 12.6980 108.6540 35.1640 101.7040 428.8630 1601.7500 1781.6700
  247.900 4.6990 2.9580 2.0910 8.0450 1.3360 229.9100 232.5820 231.2460 5.0800 12.6030 108.9530 34.0360 96.4290 431.4810 1596.1500 1775.2600
