~Version information
  VERS.                           2.00 : CWLS log ASCII Standard -Version 2.00
  WRAP.                             NO : One line per depth step
~Well information
#MNEM.UNIT              Data Type        Information
#----------------------------------------------------------------------
  STRT.M                         2.000 : 
  STOP.M                       905.000 : 
  STEP.M                         0.100 : 
  NULL.                      -999.2500 : 
  WELL.                            304 : Well Name
  FLD .                       KARATUBE : Field Name
  CTRY.                     KAZAKHSTAN : Country
  SRVC.        JSC "KAZPROMGEOPHYSICA" : Service company
  DATE.                       22.06.04 : Log date
~Curve information
#MNEM.UNIT                               Curve Description
#----------------------------------------------------------------------
  DEPT.M                               : Depth Curve
  LL3 .OHMM                            : Appar.resist.laterolog,3 electrodes
  MLL .OHMM                            : Microlaterolog sonde
  RHOB.G/C3                            : Bulk density by gamma-gamma log
  GR  .UR/H                            : Gamma-ray log
  NGLD.UE                              : Neutron-gamma log/device DRST-90
  C1  .MM                              : Diameter from profile1
  C2  .MM                              : Diameter from profile2
  CALI.MM                              : Caliper
  GZ3 .OHMM                            : App.resistivity by lateral A2.0M0.5N
  GZ3B.OHMM                            : App.resistivity by lateral N0.5Œ2.0€
  SP  .MV                              : Spontaneous potential
  CILR.MMHO                            : Conduct. by sonde 7I1.6,react.signal
  CILA.MMHO                            : Conduct. by sonde 7I1.6,active signal
  DTP .US/M                            : Interval travel time (P-wave)
  T1  .US                              : Travel time1
  T2  .US                              : Travel time2
~Parameter information
#MNEM.UNIT              Value            Description
#----------------------------------------------------------------------
#----------------------------------------------------------------------
  DFV .SEK                          35 : Drilling Fluid Viscosity
  BS  .MM                        215.9 : Bit Size
  DFD .G/C3                       1.13 : Drilling Fluid Density
~Ascii Log Data
# ...
  544.400 1.6320 1.1410 2.0400 7.2690 1.3110 214.3710 215.7250 215.0480 2.4870 1.9420 116.3700 226.3130 202.6510 428.5470 1473.3300 1639.5000
  544.500 1.6330 1.0920 2.0470 7.1270 1.2750 214.6880 215.2120 214.9500 2.3990 1.9510 116.4010 227.0570 203.4900 425.4010 1473.0800 1639.6801
  544.600 1.6470 1.1390 2.0680 7.1310 1.2600 214.1870 214.8320 214.5090 2.3220 1.9590 116.2870 227.4420 204.5970 422.5850 1472.9500 1639.6801
  544.700 1.6570 1.0660 2.0680 7.2240 1.3170 214.0710 214.9300 214.5000 2.2590 1.9710 115.8730 227.9760 204.7340 420.1900 1473.1500 1639.6300
  544.800 1.6610 1.0940 2.0880 7.1580 1.3620 214.0240 214.6630 214.3430 2.1890 1.9880 115.2620 228.0690 205.2180 417.6990 1473.7300 1639.6500
  544.900 1.6490 1.0770 2.0770 7.1460 1.3840 214.0320 215.7340 214.8830 2.1260 2.0200 114.3700 228.4550 205.7760 415.4490 1474.5100 1639.7500
  545.000 1.6250 1.0450 2.0850 7.3390 1.3390 214.1110 215.6670 214.8890 2.0770 2.0560 113.2260 228.9210 206.0960 413.7810 1475.0400 1639.7500
  545.100 1.6140 1.1030 2.0950 7.4520 1.3300 214.0200 216.2140 215.1170 2.0400 2.0900 111.9380 229.4030 206.2260 412.9860 1474.9100 1639.4399
  545.200 1.6310 1.1710 2.0850 7.5790 1.3730 214.2610 216.1390 215.2000 2.0020 2.1290 110.9170 229.3460 206.5780 413.1640 1473.9800 1638.6700
  545.300 1.6610 1.1500 2.1230 7.6160 1.4050 214.4370 216.1380 215.2880 1.9710 2.1700 110.5390 228.6260 206.7640 414.1310 1472.4800 1637.5400
  545.400 1.6990 1.1920 2.1100 7.6320 1.3830 214.6600 216.1270 215.3940 1.9460 2.2060 111.5450 227.8640 206.9060 415.4310 1470.8000 1636.2400
  545.500 1.7170 1.1850 2.0980 7.7640 1.3950 214.2150 216.0410 215.1280 1.9180 2.2370 112.9410 227.9650 206.6720 416.4940 1469.2100 1634.9700
  545.600 1.7160 1.1350 2.0840 7.7040 1.3410 213.9260 215.8730 214.9000 1.8970 2.2600 114.5010 227.6450 206.6300 416.8230 1467.7600 1633.8101
  545.700 1.7110 1.1420 2.0920 8.0200 1.3410 213.9230 214.7550 214.3390 1.8750 2.2720 115.9970 227.2770 207.5760 416.2060 1466.3199 1632.7000
  545.800 1.7200 1.1330 2.1130 8.0290 1.2970 214.0060 214.9370 214.4710 1.8630 2.2940 118.4130 226.7290 208.3140 414.7970 1464.8300 1631.5601
  545.900 1.7420 1.1530 2.1130 8.2680 1.2940 214.6130 215.8360 215.2240 1.8490 2.3140 120.4980 226.9560 209.1680 413.1090 1463.3500 1630.3300
  546.000 1.7520 1.1510 2.1230 7.9840 1.3050 214.5190 215.8220 215.1700 1.8370 2.3340 122.3740 226.2750 209.5160 411.7870 1461.9800 1629.0500
  546.100 1.7450 1.1410 2.1470 7.7490 1.3190 214.9890 215.7840 215.3870 1.8220 2.3450 123.0240 225.3560 209.5810 411.3160 1460.7900 1627.8101
  546.200 1.7400 1.2070 2.1470 7.8160 1.3370 214.6270 215.5430 215.0850 1.8150 2.3470 123.0410 224.2940 210.0770 411.7200 1459.7400 1626.7200
  546.300 1.7510 1.2280 2.1560 7.8640 1.3220 214.2340 214.9150 214.5750 1.8090 2.3450 122.5800 223.2460 211.7880 412.6360 1458.8000 1625.9301
  546.400 1.7730 1.2620 2.1460 7.8140 1.3110 214.1670 214.5840 214.3750 1.8010 2.3490 121.9310 221.5210 213.1760 413.5890 1458.0000 1625.4700
  546.500 1.7800 1.1810 2.1490 7.9440 1.3450 214.3370 215.1250 214.7310 1.7910 2.3590 121.1500 219.7810 215.1330 414.3950 1457.4399 1625.2400
  546.600 1.7770 1.1760 2.1310 7.5440 1.3250 214.2150 215.7510 214.9830 1.7810 2.3750 120.2910 217.4490 216.7310 415.1340 1457.2300 1625.0000
  546.700 1.7790 1.1940 2.1260 7.2870 1.3560 214.0950 215.3110 214.7030 1.7690 2.4000 119.6090 215.0930 217.9580 415.9590 1457.4000 1624.5500
  546.800 1.7780 1.1760 2.1030 7.4010 1.3130 214.0230 214.5320 214.2770 1.7550 2.4280 119.2560 213.3230 217.4380 416.8050 1457.7600 1623.8400
  546.900 1.7600 1.1760 2.0970 8.0320 1.3100 214.0240 214.4260 214.2250 1.7400 2.4740 119.0380 210.7850 218.7250 417.4400 1457.9800 1623.0699
  547.000 1.7300 1.1700 2.0760 8.1110 1.3300 214.0330 214.4570 214.2450 1.7250 2.5400 117.7070 208.4840 220.4290 417.6630 1457.7900 1622.4399
  547.100 1.7090 1.1180 2.0650 7.7170 1.3600 214.1200 214.6390 214.3790 1.7050 2.6220 115.9830 206.8880 221.5010 417.5520 1457.1400 1622.0800
  547.200 1.6960 1.0550 2.0470 8.0010 1.3440 214.2370 215.2670 214.7520 1.6910 2.7270 114.1030 203.4770 221.5490 417.4600 1456.1899 1621.8600
  547.300 1.6880 1.0220 2.0560 7.9200 1.3520 214.3160 215.8810 215.0990 1.6880 2.8590 113.3960 200.3730 220.5640 417.8140 1455.2600 1621.4900
  547.400 1.6800 0.9530 2.0200 7.5730 1.3160 214.5730 215.3650 214.9690 1.7050 3.0210 110.4850 197.4560 220.1640 418.6770 1454.6600 1620.7200
  547.500 1.6710 0.9220 2.0280 7.8030 1.3140 214.5720 215.3700 214.9710 1.7460 3.1700 108.6730 195.5750 219.0770 419.5250 1454.5200 1619.5500
  547.600 1.6800 0.8790 1.9950 8.1720 1.2910 214.5580 215.4260 214.9920 1.8030 3.3200 106.7800 192.3580 214.9920 419.4350 1454.6899 1618.3300
  547.700 1.7450 0.9830 2.0130 8.2850 1.2430 214.4010 215.4680 214.9350 1.8670 3.4100 104.9720 188.1840 210.1040 417.8650 1454.9100 1617.4399
  547.800 1.8530 1.5430 2.0470 8.3580 1.2390 214.3540 214.7960 214.5750 1.9160 3.4540 103.4990 182.1080 205.0190 415.2130 1454.8600 1616.9900
  547.900 2.0140 1.8470 2.0250 8.4370 1.2360 216.4170 218.4990 217.4580 1.9530 3.4720 102.0730 175.1510 200.6500 412.7260 1454.4800 1616.9600
  548.000 2.1070 1.5920 2.0550 8.4890 1.2450 213.6990 214.7720 214.2360 1.9840 3.4810 100.6350 168.3150 197.3220 411.6280 1453.8400 1617.3000
  548.100 2.1090 1.2370 2.0470 8.4880 1.2750 213.7710 214.2370 214.0040 2.0140 3.5200 100.2540 163.9740 195.1330 412.3540 1453.0400 1617.9000
  548.200 2.0500 1.1670 2.0420 8.1750 1.3090 213.9950 213.7840 213.8890 2.0440 3.5720 100.9730 161.9490 193.8070 414.1830 1452.1899 1618.4800
  548.300 1.9830 1.1750 2.0080 8.1470 1.3260 214.3810 213.4230 213.9020 2.0840 3.6100 102.8500 159.9560 193.5420 415.5750 1451.3800 1618.4900
  548.400 2.0110 1.2610 2.0170 8.0600 1.3200 214.8600 213.8310 214.3460 2.1180 3.6120 105.1450 158.1400 194.2020 415.1320 1450.7100 1617.7500
  548.500 2.0990 1.9310 2.0580 8.1690 1.2800 215.3360 214.8440 215.0900 2.1400 3.5870 107.3100 156.6960 195.2720 412.5770 1450.1400 1616.1700
  548.600 2.1270 1.4170 2.0760 8.4140 1.2940 215.4750 217.1170 216.2960 2.1380 3.5340 109.9830 154.6020 195.7480 409.0860 1449.4200 1614.1700
  548.700 2.1380 1.2640 2.1320 8.4400 1.3440 214.9260 215.9360 215.4310 2.1300 3.4560 112.9540 152.8530 196.6700 406.3350 1448.1400 1611.7800
  548.800 2.0690 1.2010 2.1500 8.5680 1.3530 216.0550 217.9020 216.9790 2.0440 3.3850 115.3150 152.3440 197.8300 405.3120 1445.9399 1609.0200
  548.900 2.0230 1.1600 2.1400 8.9660 1.3650 215.3690 218.2790 216.8240 1.9890 3.3260 116.5450 151.6520 199.9520 406.1910 1442.7400 1605.3900
  549.000 1.9870 1.1300 2.1490 8.7990 1.3660 214.8950 219.1500 217.0220 1.9570 3.2880 117.9350 151.1090 201.0920 408.6590 1438.9200 1600.8800
  549.100 1.9800 1.1150 2.1500 8.6450 1.3620 214.7760 217.5870 216.1810 1.9380 3.3200 118.5710 149.5880 201.4100 412.1640 1435.2200 1596.1600
  549.200 2.0140 1.2240 2.1670 8.8410 1.3650 213.6200 217.0590 215.3390 1.9400 3.3980 118.5980 147.7960 200.6920 415.7470 1432.4399 1592.4900
  549.300 2.0470 1.2580 2.1800 9.0150 1.3360 212.9400 217.8290 215.3840 1.9660 3.5220 118.6050 145.6550 198.4940 417.7770 1431.0100 1590.7100
  549.400 2.0740 1.2760 2.2060 9.5140 1.3330 213.3170 217.7480 215.5330 2.0130 3.6560 118.6070 142.6440 195.3330 417.6120 1430.7800 1590.6700
  549.500 2.1050 1.4110 2.2000 9.5460 1.3470 213.1520 217.2510 215.2020 2.0720 3.7850 118.6840 138.6460 190.6730 415.0770 1431.1801 1591.6500
  549.600 2.2180 1.6870 2.2120 9.7150 1.2990 214.6760 216.9180 215.7970 2.1330 3.8890 119.0260 135.1570 187.2800 411.8760 1431.5400 1592.8101
  549.700 2.3440 1.7010 2.2160 10.4240 1.3160 216.1730 219.6920 217.9320 2.2090 3.9630 119.2950 131.0500 183.3150 409.0960 1431.5400 1593.6600
  549.800 2.4140 1.7220 2.2230 10.8430 1.3090 216.8720 219.4470 218.1590 2.2870 4.0070 119.4530 128.0240 180.7080 407.6920 1431.3000 1593.8500
  549.900 2.4100 1.7270 2.2140 11.2000 1.3260 215.3870 218.3450 216.8660 2.3670 4.0540 119.2420 125.8060 176.7160 406.6310 1431.2100 1594.1600
  550.000 2.3810 1.7750 2.2240 11.3890 1.3260 214.1650 217.0690 215.6170 2.4600 4.1130 118.7530 123.2670 172.5180 404.9180 1430.9600 1596.1500
