~Version
 VERS              .         3.0                           : CWLS LOG ASCII STANDARD - VERSION 3.0
 WRAP              .         NO                            : ONE LINE PER DEPTH STEP
 DLM               .         SPACE                         : DELIMITING CHARACTER(SPACE TAB OR COMMA)
~Well Information
#_______________________________________________________________________________
#
#PARAMETER_NAME    .UNIT     VALUE                         : DESCRIPTION
#_______________________________________________________________________________
STRT               .M        0                             : First reference value
STOP               .M        905                           : Last reference value
STEP               .M        0.1                           : Step increment
NULL               .         -9999                         : Missing value
COMP               .         ICPetroleum                   : Company
WELL               .         321                           : Well name
FLD                .         Karatobe                      : Field
LOC                .                                       : Location
SRVC               .         JSC"Kazpromgeophysica"        : Service Company
CTRY               .         KZ                            : Country
DATE               .         15.05.05                      : Service Date
LATI               .         0                             : Latitude
LONG               .         0                             : Longitude
GDAT               .         WGS 84                        : Geodetic Datum
CNTY               .                                       : 
COORDIN            .                                       : Grid System
COUNT              .         KAZAKHSTAN                    : Country
COUNTRY            .         Kazakhstan                    : 
COUNTRY            .         Kazakhstan                    : 
EREF               .m        146.4                         : 
FN                 .         KARATUBE                      : 
KB                 .         145.7                         : KB Elevation
LGCN               .                                       : 
ORIGINALWELLNAME   .         Скважина                      : 
PROV               .                                       : Province
RWS                .         -999                          : Def_Rw
UWI                .                                       : Уникальный идентификатор скважины
WN                 .         321                           : 
WST                .         -999                          : Def_Rwt
X                  .km       466364.5                      : 
XCOORD             .                                       : X or East-West Coordinate
Y                  .km       5307853.22                    : 
YCOORD             .                                       : Y or North-South Coordinate
~Parameter Information Block
#_______________________________________________________________________________
#
#PARAMETER_NAME    .UNIT     VALUE                         : DESCRIPTION
#_______________________________________________________________________________
SET                .         Las                           : 
BS                 .MM       215.9                         : Bit Size
DFD                .G/C3     1.14                          : Drilling Fluid Density
DFV                .S        45                            : Drilling Fluid Viscosity
TLFamily_DEPT      .         Measured Depth                : 
TLFamily_PHI_FINAL .         Porosity                      : 
TLFamily_SW_AR     .         Water Saturation              : 
TLFamily_VSH_FINAL .         Shale Volume                  : 
~Curve Information
#_______________________________________________________________________________
#
#LOGNAME           .UNIT     LOG_ID                        : DESCRIPTION
#_______________________________________________________________________________
DEPT               .M                                      : Depth curve {F}
PHI_FINAL          .m3/m3                                  : Porosity {F}
SW_AR              .m3/m3                                  :  {F}
VSH_FINAL          .unitless                               : Vshale {F}
~Ascii
# ...
852.9      0.01284664 1          0.3183214 
853        0.01485935 1          0.3294783 
853.1      0.0006863903 1          0.3536662 
853.2      0.003946354 1          0.3685824 
853.3      0.01100984 1          0.3725668 
853.4      0.01279519 1          0.3624965 
853.5      0.00853452 1          0.3429829 
853.6      0.02492954 1          0.3332398 
853.7      0.03018946 1          0.3253558 
853.8      0.03617042 1          0.3150207 
853.9      0.04226752 1          0.2942906 
854        0.04838618 1          0.269487  
854.1      0.05495202 1          0.2311634 
854.2      0.06332497 1          0.2026953 
854.3      0.08006445 1          0.1617809 
854.4      0.06442067 1          0.1489697 
854.5      0.01099389 1          0.1486207 
854.6      0.06223402 1          0.1524047 
854.7      0.03713568 1          0.1297387 
854.8      0.04293117 1          0.1060344 
854.9      0.02640017 1          0.09023972
855        0.03087777 1          0.08901582
855.1      0.02290227 1          0.07413222
855.2      0.02620891 1          0.06688986
855.3      0.0249957  1          0.04901493
855.4      0.01737039 1          0.03694087
855.5      0.02067921 1          0.0476907 
855.6      0.02780106 1          0.03747638
855.7      0.01961742 1          0.04130103
855.8      0.03140227 1          0.03523247
855.9      0.02612915 1          0.0331611 
856        0.0272955  1          0.03919526
856.1      0.03039023 1          0.04467344
856.2      0.04261022 1          0.0491255 
856.3      0.03866227 1          0.04254853
856.4      0.05672307 0.7090409  0.03914143
856.5      0.03988235 1          0.04440033
856.6      0.03006216 1          0.04178869
856.7      0.03282347 1          0.04440033
856.8      0.05426649 0.8207197  0.04549393
856.9      0.02964841 1          0.03919526
857        0.04433669 1          0.04325549
857.1      0.02990149 1          0.03833481
857.2      0.01543575 1          0.03951845
857.3      0.01495342 1          0.02915831
857.4      0          1          0.03411565
857.5      0          1          0.03358504
857.6      0          1          0.03710142
857.7      0.03103825 1          0.03047011
857.8      0.01076698 1          0.0353923 
857.9      0.01125471 1          0.03973406
858        0          1          0.04456416
858.1      0          1          0.04401832
858.2      0          1          0.04565823
858.3      0          1          0.05162168
858.4      0          1          0.04560345
858.5      0          1          0.05486325
858.6      0          1          0.04543917
858.7      0          1          0.04780088
858.8      0          1          0.04604192
858.9      0          1          0.04686541
859        0          1          0.0492914 
859.1      0.01998021 1          0.05206717
859.2      0.03628865 1          0.0446188 
859.3      0.04961314 1          0.03731564
859.4      0.04983836 1          0.03854974
859.5      0.04242201 1          0.03576548
859.6      0.0167814  1          0.03094355
859.7      0          1          0.03199783
859.8      0.01587966 1          0.03400947
859.9      0.01082038 1          0.02921068
860        0.006139494 1          0.03512595
860.1      0.01594175 1          0.03779804
860.2      0.02096277 1          0.03672687
860.3      0.04719909 0.9507337  0.03152303
860.4      0.05746962 0.7643015  0.03860349
860.5      0.04071156 1          0.04758056
860.6      0.0389411  1          0.0616005 
860.7      0.05343554 0.9819074  0.07031949
860.8      0.06200281 1          0.07319034
860.9      0.05141199 1          0.08919917
861        0.08358983 1          0.1017947 
861.1      0.06493668 1          0.1112155 
861.2      0.1111298  1          0.1221588 
861.3      0.08084368 1          0.1271314 
861.4      0.06947111 1          0.1277985 
861.5      0.07532503 1          0.1218951 
861.6      0.0915113  1          0.1068618 
861.7      0.0976931  0.9661778  0.1058436 
861.8      0.1345295  0.5245997  0.09659971
861.9      0.1435616  0.4661122  0.1015429 
862        0.1562834  0.4877394  0.1065434 
862.1      0.1894279  0.459441   0.1200537 
862.2      0.2327202  0.411217   0.1306784 
862.3      0.2552908  0.3954353  0.1665371 
862.4      0.2743286  0.3996948  0.195213  
862.5      0.2815559  0.3987891  0.2164651 
862.6      0.27925    0.4116051  0.233706  
862.7      0.2775809  0.4097571  0.235435  
862.8      0.2305933  0.5010157  0.2199828 
862.9      0.233151   0.4842438  0.2132867 
863        0.2384714  0.4778348  0.223927  
863.1      0.2506279  0.4588374  0.2104419 
863.2      0.2375478  0.4829018  0.2086322 
863.3      0.1877216  0.6244873  0.1977467 
863.4      0.2064717  0.5407994  0.2019966 
863.5      0.2256753  0.4833882  0.2167042 
863.6      0.231954   0.4757116  0.2347757 
863.7      0.2617468  0.4261597  0.2367559 
863.8      0.2628053  0.4477572  0.2381627 
863.9      0.2596021  0.4868229  0.2469296 
864        0.2270907  0.5929701  0.2314089 
864.1      0.2155256  0.6488792  0.233213  
864.2      0.1026142  1          0.215112  
864.3      0.05626354 1          0.1867042 
864.4      0.05521081 1          0.1622831 
864.5      0.008089555 1          0.1324958 
864.6      0          1          0.1210392 
864.7      0          1          0.1242738 
864.8      0          1          0.1419667 
864.9      0.003531986 1          0.1599912 
865        0.004448956 1          0.2148736 
865.1      0          1          0.2915653 
865.2      0          1          0.3354681 
865.3      0          1          0.5601833 
865.4      0          1          0.7108161 
865.5      0          1          1         
865.6      0          1          1         
865.7      0          1          1         
865.8      0          1          1         
865.9      0          1          1         
866        -9999      -9999      1         
866.1      -9999      -9999      1         
866.2      -9999      -9999      1         
866.3      -9999      -9999      0.95553   
866.4      -9999      -9999      0.8331477 
866.5      -9999      -9999      0.7202693 
866.6      -9999      -9999      0.6238937 
866.7      -9999      -9999      0.6166874 
866.8      -9999      -9999      0.5964736 
866.9      -9999      -9999      0.5647385 
867        -9999      -9999      0.6131046 
867.1      -9999      -9999      0.6860704 
867.2      -9999      -9999      0.7126392 
867.3      -9999      -9999      0.7784969 
867.4      -9999      -9999      0.7664387 
867.5      -9999      -9999      0.761493  
867.6      -9999      -9999      0.7175161 
867.7      -9999      -9999      0.6783944 
867.8      -9999      -9999      0.6100838 
867.9      -9999      -9999      0.5659137 
868        -9999      -9999      0.5451235 
868.1      -9999      -9999      0.4769664 
868.2      -9999      -9999      0.4933709 
868.3      -9999      -9999      0.4956555 
868.4      -9999      -9999      0.4720387 
868.5      -9999      -9999      0.4219717 
868.6      -9999      -9999      0.3375092 
868.7      -9999      -9999      0.2355175 
868.8      -9999      -9999      0.1244726 
868.9      -9999      -9999      0.07590417
869        -9999      -9999      0.0214383 
869.1      -9999      -9999      0.009846007
869.2      -9999      -9999      0.0008963355
869.3      -9999      -9999      0         
869.4      -9999      -9999      0         
869.5      -9999      -9999      0         
869.6      -9999      -9999      0         
869.7      -9999      -9999      0         
869.8      -9999      -9999      0         
869.9      -9999      -9999      0         
870        -9999      -9999      0         
870.1      -9999      -9999      0         
870.2      -9999      -9999      0         
870.3      -9999      -9999      0         
870.4      -9999      -9999      0         
870.5      -9999      -9999      0         
870.6      -9999      -9999      0         
870.7      -9999      -9999      0         
870.8      -9999      -9999      0         
870.9      -9999      -9999      0         
871        -9999      -9999      0         
