~Version
 VERS              .         3.0                           : CWLS LOG ASCII STANDARD - VERSION 3.0
 WRAP              .         NO                            : ONE LINE PER DEPTH STEP
 DLM               .         SPACE                         : DELIMITING CHARACTER(SPACE TAB OR COMMA)
~Well Information
#_______________________________________________________________________________
#
#PARAMETER_NAME    .UNIT     VALUE                         : DESCRIPTION
#_______________________________________________________________________________
STRT               .M        0                             : First reference value
STOP               .M        905                           : Last reference value
STEP               .M        0.1                           : Step increment
NULL               .         -9999                         : Missing value
COMP               .         ICPetroleum                   : Company
WELL               .         321                           : Well name
FLD                .         Karatobe                      : Field
LOC                .                                       : Location
SRVC               .         JSC"Kazpromgeophysica"        : Service Company
CTRY               .         KZ                            : Country
DATE               .         15.05.05                      : Service Date
LATI               .         0                             : Latitude
LONG               .         0                             : Longitude
GDAT               .         WGS 84                        : Geodetic Datum
CNTY               .                                       : 
COORDIN            .                                       : Grid System
COUNT              .         KAZAKHSTAN                    : Country
COUNTRY            .         Kazakhstan                    : 
COUNTRY            .         Kazakhstan                    : 
EREF               .m        146.4                         : 
FN                 .         KARATUBE                      : 
KB                 .         145.7                         : KB Elevation
LGCN               .                                       : 
ORIGINALWELLNAME   .         Скважина                      : 
PROV               .                                       : Province
RWS                .         -999                          : Def_Rw
UWI                .                                       : Уникальный идентификатор скважины
WN                 .         321                           : 
WST                .         -999                          : Def_Rwt
X                  .km       466364.5                      : 
XCOORD             .                                       : X or East-West Coordinate
Y                  .km       5307853.22                    : 
YCOORD             .                                       : Y or North-South Coordinate
~Parameter Information Block
#_______________________________________________________________________________
#
#PARAMETER_NAME    .UNIT     VALUE                         : DESCRIPTION
#_______________________________________________________________________________
SET                .         Las                           : 
BS                 .MM       215.9                         : Bit Size
DFD                .G/C3     1.14                          : Drilling Fluid Density
DFV                .S        45                            : Drilling Fluid Viscosity
TLFamily_DEPT      .         Measured Depth                : 
TLFamily_PHI_FINAL .         Porosity                      : 
TLFamily_SW_AR     .         Water Saturation              : 
TLFamily_VSH_FINAL .         Shale Volume                  : 
~Curve Information
#_______________________________________________________________________________
#
#LOGNAME           .UNIT     LOG_ID                        : DESCRIPTION
#_______________________________________________________________________________
DEPT               .M                                      : Depth curve {F}
PHI_FINAL          .m3/m3                                  : Porosity {F}
SW_AR              .m3/m3                                  :  {F}
VSH_FINAL          .unitless                               : Vshale {F}
~Ascii
# ...
489        0.1539316  1          0.5264022 
489.1      0.1477789  1          0.5158592 
489.2      0.1498734  1          0.4489924 
489.3      0.1302055  1          0.4397944 
489.4      0.1410206  1          0.405764  
489.5      0.1584673  1          0.371503  
489.6      0.1573014  1          0.3645854 
489.7      0.1473999  1          0.4042855 
489.8      0.1420552  1          0.4337451 
489.9      0.1517974  1          0.38591   
490        0.1465877  1          0.3868385 
490.1      0.1436124  1          0.3921449 
490.2      0.1349625  1          0.4157765 
490.3      0.1333723  1          0.4452891 
490.4      0.1344857  1          0.4566991 
490.5      0.1360322  1          0.4688478 
490.6      0.1416015  1          0.4468368 
490.7      0.122541   1          0.4832225 
490.8      0.1455308  1          0.4106955 
490.9      0.1396711  1          0.418207  
491        0.1391107  1          0.4334785 
491.1      0.1607609  1          0.3778012 
491.2      0.1612327  1          0.3843945 
491.3      0.1402285  1          0.4230815 
491.4      0.1306501  1          0.4460161 
491.5      0.131734   1          0.4660433 
491.6      0.1325504  1          0.4783929 
491.7      0.1218458  1          0.532868  
491.8      0.1274396  1          0.50973   
491.9      0.1019126  1          0.5470077 
492        0.1154436  1          0.5433676 
492.1      0.1342189  1          0.4644998 
492.2      0.1275993  1          0.4813337 
492.3      0.1271995  1          0.4816006 
492.4      0.1223921  1          0.5029599 
492.5      0.1072648  1          0.5335188 
492.6      0.1248522  1          0.4876497 
492.7      0.113106   1          0.5217165 
492.8      0.09046214 1          0.5881025 
492.9      0.08647413 1          0.6023586 
493        0.08941922 1          0.6413119 
493.1      0.08622939 1          0.651423  
493.2      0.1094619  1          0.6160991 
493.3      0.1276631  1          0.5767545 
493.4      0.1151316  1          0.5796204 
493.5      0.1179549  1          0.6042534 
493.6      0.1016827  1          0.643948  
493.7      0.08207188 1          0.6905233 
493.8      0.06140614 1          0.7454856 
493.9      0.05487616 1          0.7860416 
494        0.03992499 1          0.8356618 
494.1      0.03947184 1          0.8504066 
494.2      0.05173557 1          0.8196572 
494.3      0.03983353 1          0.8346902 
494.4      0.06879598 1          0.7405739 
494.5      0.05356112 1          0.7946099 
494.6      0.01895458 1          0.9238223 
494.7      0.009085998 1          0.9655533 
494.8      0.001663445 1          1         
494.9      0.0001941075 1          1         
495        0          1          1         
495.1      0.0000840  1          1         
495.2      0.0006221276 1          1         
495.3      0.001184264 1          1         
495.4      0.001765717 1          1         
495.5      0.002581134 1          1         
495.6      0.09863523 1          0.659826  
495.7      0.1647185  1          0.4576001 
495.8      0.2038929  0.8637255  0.338674  
495.9      0.1944971  0.8937055  0.3771525 
496        0.1947242  0.8791749  0.3719321 
496.1      0.185093   0.9178463  0.3997541 
496.2      0.1767024  0.9570867  0.4160441 
496.3      0.149106   1          0.4707069 
496.4      0.1306587  1          0.4634448 
496.5      0.1115009  1          0.4521269 
496.6      0.1050922  1          0.4576588 
496.7      0.1075367  1          0.4687952 
496.8      0.09904903 1          0.4612364 
496.9      0.1054788  1          0.4581069 
497        0.1290775  1          0.4363029 
497.1      0.1707337  1          0.3776407 
497.2      0.1789045  1          0.3593488 
497.3      0.2009334  0.9545835  0.3264204 
497.4      0.2039881  0.9552018  0.3496372 
497.5      0.2131604  0.9193324  0.3510074 
497.6      0.2053344  0.9450997  0.3473668 
497.7      0.1864296  1          0.3947508 
497.8      0.1539403  1          0.4774683 
497.9      0.09023843 1          0.6649471 
498        0.05992607 1          0.7541838 
498.1      0.01677327 1          0.9526827 
498.2      0.009101941 1          1         
498.3      0.01000146 1          1         
498.4      0.009700526 1          1         
498.5      0.009648492 1          1         
498.6      0.009105915 1          1         
498.7      0.006978705 1          1         
498.8      0.006926976 1          1         
498.9      0.01107878 1          1         
499        0.009544042 1          1         
499.1      0.005729655 1          1         
499.2      0.008055058 1          1         
499.3      0.006162275 1          1         
499.4      0.1119672  1          0.6268675 
499.5      0.1931739  1          0.438328  
499.6      0.2332588  0.9054906  0.3348986 
499.7      0.2299609  0.9373553  0.3379659 
499.8      0.2215822  0.9840429  0.3705931 
499.9      0.2111092  1          0.3778669 
500        0.2170157  1          0.3949382 
500.1      0.2257168  1          0.3920584 
500.2      0.2368686  0.9712349  0.3365015 
500.3      0.2525344  0.891617   0.2887683 
500.4      0.2609477  0.847864   0.246667  
500.5      0.2600372  0.8562766  0.2384339 
500.6      0.2806401  0.8047628  0.1914252 
500.7      0.2868963  0.7933835  0.1870462 
500.8      0.3037463  0.7575892  0.1637554 
500.9      0.3121811  0.7654541  0.1418752 
501        0.3095428  0.7996784  0.1411954 
501.1      0.3079963  0.825244   0.1358632 
501.2      0.3185634  0.8049347  0.1319287 
501.3      0.33228    0.7709088  0.1141582 
501.4      0.3330623  0.7699443  0.09185135
501.5      0.3412021  0.7524113  0.0738731 
501.6      0.3479077  0.7428882  0.07597228
501.7      0.349613   0.7649403  0.07395334
501.8      0.3487073  0.7703747  0.07131887
501.9      0.3338426  0.7770571  0.07623528
502        0.3398474  0.7199767  0.0774122 
502.1      0.3349545  0.7108925  0.0768363 
502.2      0.3393167  0.7154536  0.06705794
502.3      0.3410029  0.7373272  0.05985362
502.4      0.3417448  0.7746428  0.06082499
502.5      0.3497926  0.7919999  0.05921063
502.6      0.3548183  0.8050677  0.05318896
502.7      0.35088    0.8253788  0.05533861
502.8      0.3512124  0.8339879  0.04718775
502.9      0.3541756  0.8427385  0.04756998
503        0.3561679  0.8423873  0.04462369
503.1      0.3617009  0.8289078  0.03882489
503.2      0.3665634  0.8161914  0.04151966
503.3      0.366173   0.8193283  0.04285027
503.4      0.3743249  0.8040995  0.03096838
503.5      0.3756744  0.8007455  0.02432114
503.6      0.3710588  0.8120547  0.02556511
503.7      0.3695295  0.8251338  0.02591719
503.8      0.3710083  0.8356435  0.02406214
503.9      0.369363   0.8678174  0.02258199
504        0.3756222  0.8752398  0.02026353
504.1      0.3773609  0.8903027  0.01784698
504.2      0.3803782  0.8904139  0.01904605
504.3      0.3725349  0.9081373  0.02102561
504.4      0.3790891  0.8904202  0.01995281
504.5      0.3750785  0.8982768  0.02235393
504.6      0.3602565  0.9331985  0.02179301
504.7      0.3731022  0.9010553  0.0206818 
504.8      0.3638762  0.9105735  0.03049901
504.9      0.3568282  0.878133   0.03056388
505        0.3605639  0.8294579  0.0280712 
505.1      0.3582845  0.8141831  0.02287509
505.2      0.3542217  0.8182098  0.02006331
505.3      0.3548206  0.8198918  0.01732654
505.4      0.3596779  0.8178413  0.01512575
505.5      0.3498701  0.8560605  0.0175319 
505.6      0.3568465  0.8505942  0.01800716
505.7      0.3570772  0.8659775  0.01675998
505.8      0.3590702  0.8695417  0.01308434
505.9      0.3584698  0.8762938  0.01399627
506        0.3548407  0.8845206  0.01402397
506.1      0.3498355  0.891735   0.01826977
506.2      0.3502546  0.880723   0.01871825
506.3      0.3502276  0.8678576  0.0172848 
506.4      0.3533938  0.8402063  0.02102492
506.5      0.3478965  0.8461254  0.01695709
506.6      0.346434   0.8542158  0.01931558
506.7      0.3441564  0.870623   0.02360177
506.8      0.3480226  0.8735215  0.01805168
506.9      0.3480042  0.880603   0.01656939
507        0.3409585  0.9031748  0.01855766
507.1      0.3370024  0.9169549  0.0199147 
