~Version
 VERS              .         3.0                           : CWLS LOG ASCII STANDARD - VERSION 3.0
 WRAP              .         NO                            : ONE LINE PER DEPTH STEP
 DLM               .         SPACE                         : DELIMITING CHARACTER(SPACE TAB OR COMMA)
~Well Information
#_______________________________________________________________________________
#
#PARAMETER_NAME    .UNIT     VALUE                         : DESCRIPTION
#_______________________________________________________________________________
STRT               .M        0                             : First reference value
STOP               .M        905                           : Last reference value
STEP               .M        0.1                           : Step increment
NULL               .         -9999                         : Missing value
COMP               .         ICPetroleum                   : Company
WELL               .         321                           : Well name
FLD                .         Karatobe                      : Field
LOC                .                                       : Location
SRVC               .         JSC"Kazpromgeophysica"        : Service Company
CTRY               .         KZ                            : Country
DATE               .         15.05.05                      : Service Date
LATI               .         0                             : Latitude
LONG               .         0                             : Longitude
GDAT               .         WGS 84                        : Geodetic Datum
CNTY               .                                       : 
COORDIN            .                                       : Grid System
COUNT              .         KAZAKHSTAN                    : Country
COUNTRY            .         Kazakhstan                    : 
COUNTRY            .         Kazakhstan                    : 
EREF               .m        146.4                         : 
FN                 .         KARATUBE                      : 
KB                 .         145.7                         : KB Elevation
LGCN               .                                       : 
ORIGINALWELLNAME   .         Скважина                      : 
PROV               .                                       : Province
RWS                .         -999                          : Def_Rw
UWI                .                                       : Уникальный идентификатор скважины
WN                 .         321                           : 
WST                .         -999                          : Def_Rwt
X                  .km       466364.5                      : 
XCOORD             .                                       : X or East-West Coordinate
Y                  .km       5307853.22                    : 
YCOORD             .                                       : Y or North-South Coordinate
~Parameter Information Block
#_______________________________________________________________________________
#
#PARAMETER_NAME    .UNIT     VALUE                         : DESCRIPTION
#_______________________________________________________________________________
SET                .         Las                           : 
BS                 .MM       215.9                         : Bit Size
DFD                .G/C3     1.14                          : Drilling Fluid Density
DFV                .S        45                            : Drilling Fluid Viscosity
TLFamily_DEPT      .         Measured Depth                : 
TLFamily_PHI_FINAL .         Porosity                      : 
TLFamily_SW_AR     .         Water Saturation              : 
TLFamily_VSH_FINAL .         Shale Volume                  : 
~Curve Information
#_______________________________________________________________________________
#
#LOGNAME           .UNIT     LOG_ID                        : DESCRIPTION
#_______________________________________________________________________________
DEPT               .M                                      : Depth curve {F}
PHI_FINAL          .m3/m3                                  : Porosity {F}
SW_AR              .m3/m3                                  :  {F}
VSH_FINAL          .unitless                               : Vshale {F}
~Ascii
# ...
543.6      0.2312314  1          0.5023307 
543.7      0.2405986  1          0.4579274 
543.8      0.2187285  1          0.4916478 
543.9      0.1974006  1          0.4969077 
544        0.1641833  1          0.5527303 
544.1      0.1500584  1          0.5954704 
544.2      0.127797   1          0.6739672 
544.3      0.1254272  1          0.6866313 
544.4      0.0597456  1          0.8809336 
544.5      0.05305435 1          0.8782883 
544.6      0.06778314 1          0.8185382 
544.7      0.04388314 1          0.8631473 
544.8      0.002575203 1          1         
544.9      0.005181411 1          1         
545        0.00797125 1          0.9743468 
545.1      0.004155044 1          1         
545.2      0.007756669 1          0.9615935 
545.3      0.00332861 1          1         
545.4      0.004609738 1          1         
545.5      0.004979406 1          1         
545.6      0.003544985 1          1         
545.7      0.009536975 1          0.9559701 
545.8      0.02292123 1          0.8925579 
545.9      0.01215481 1          0.924981  
546        0.01035522 1          0.9297733 
546.1      0.01752313 1          0.8935158 
546.2      0.0217273  1          0.8496514 
546.3      0.02921136 1          0.8401567 
546.4      0.03644757 1          0.8182122 
546.5      0.01543256 1          0.9310292 
546.6      0.0140715  1          0.9527127 
546.7      0.01322799 1          0.977297  
546.8      0.01627208 1          0.9586687 
546.9      0.008890816 1          1         
547        0.005120182 1          1         
547.1      0.0005558075 1          1         
547.2      0.0002184262 1          1         
547.3      0          1          1         
547.4      0          1          1         
547.5      0.0009018878 1          1         
547.6      0.0006055277 1          1         
547.7      0.002304856 1          1         
547.8      0.002470294 1          1         
547.9      0.002396583 1          1         
548        0.003561918 1          1         
548.1      0.002953186 1          1         
548.2      0.003228912 1          1         
548.3      0.003152325 1          1         
548.4      0.003386889 1          1         
548.5      0.002478519 1          1         
548.6      0.002335587 1          1         
548.7      0.004124293 1          1         
548.8      0.002990633 1          1         
548.9      0.002576584 1          1         
549        0.002505371 1          1         
549.1      0.002472594 1          1         
549.2      0.002526441 1          1         
549.3      0.002611527 1          1         
549.4      0.002733001 1          1         
549.5      0.002874845 1          1         
549.6      0.002897436 1          1         
549.7      0.002661282 1          1         
549.8      0.002225965 1          1         
549.9      0.001964543 1          1         
550        0.002034867 1          1         
550.1      0.002373853 1          1         
550.2      0.002585212 1          1         
550.3      0.00243389 1          1         
550.4      0.002083057 1          1         
550.5      0.001959512 1          1         
550.6      0.002231503 1          1         
550.7      0.002645099 1          1         
550.8      0.002711375 1          1         
550.9      0.02731704 1          0.8880584 
551        0.02424305 1          0.8935043 
551.1      0.02951828 1          0.8972893 
551.2      0.05848154 1          0.8013723 
551.3      0.0497511  1          0.8181625 
551.4      0.08365208 1          0.7309368 
551.5      0.1156771  1          0.654489  
551.6      0.1372987  1          0.6300293 
551.7      0.1264683  1          0.6722869 
551.8      0.1407024  1          0.6522876 
551.9      0.1187713  1          0.6528217 
552        0.1525559  1          0.5578398 
552.1      0.1770828  1          0.4983467 
552.2      0.1874872  1          0.4893371 
552.3      0.2051259  1          0.4501054 
552.4      0.2270719  1          0.3882968 
552.5      0.2370295  1          0.3592878 
552.6      0.2349066  1          0.3804183 
552.7      0.2235712  1          0.4217328 
552.8      0.2192862  1          0.4332462 
552.9      0.2183678  1          0.4457785 
553        0.2198014  1          0.4262168 
553.1      0.2009554  1          0.4735118 
553.2      0.1910385  1          0.4896387 
553.3      0.1793298  1          0.4936908 
553.4      0.1732149  1          0.5267893 
553.5      0.1780688  1          0.5079494 
553.6      0.1905627  1          0.4717509 
553.7      0.1988365  1          0.445143  
553.8      0.2039706  1          0.4380137 
553.9      0.1965026  1          0.42323   
554        0.1884636  1          0.4586068 
554.1      0.1812127  1          0.4857534 
554.2      0.1690806  1          0.5163152 
554.3      0.182421   1          0.5083924 
554.4      0.1760002  1          0.5269119 
554.5      0.1714818  1          0.5133545 
554.6      0.157698   1          0.5165376 
554.7      0.165919   1          0.5173239 
554.8      0.176437   1          0.4674889 
554.9      0.1734279  1          0.5015625 
555        0.1573251  1          0.5504974 
555.1      0.1576849  1          0.5419456 
555.2      0.1465613  1          0.5666944 
555.3      0.1436914  1          0.5703444 
555.4      0.1242504  1          0.6075916 
555.5      0.1315115  1          0.5906999 
555.6      0.09424283 1          0.6627073 
555.7      0.06791217 1          0.7346367 
555.8      0.05993917 1          0.7706491 
555.9      0.09745932 1          0.6779326 
556        0.07716895 1          0.7289257 
556.1      0.09800196 1          0.6891358 
556.2      0.07865918 1          0.7458405 
556.3      0.09312924 1          0.6962504 
556.4      0.1005177  1          0.6297731 
556.5      0.09833284 1          0.6352078 
556.6      0.09735715 1          0.625719  
556.7      0.0994347  1          0.5827605 
556.8      0.1101345  1          0.5123693 
556.9      0.1302571  1          0.4266175 
557        0.1443767  0.8331044  0.3793172 
557.1      0.126405   0.8112438  0.3712693 
557.2      0.1295864  0.6815456  0.3714816 
557.3      0.1546599  0.6318225  0.3692289 
557.4      0.1724949  0.7613546  0.3746478 
557.5      0.1916447  1          0.3681008 
557.6      0.2277087  1          0.3912086 
557.7      0.2609862  0.9943591  0.3759452 
557.8      0.3048688  0.8918623  0.3536171 
557.9      0.371006   0.7342901  0.266777  
558        0.3914691  0.671744   0.2318976 
558.1      0.433955   0.6053648  0.1813169 
558.2      0.4345776  0.6190459  0.2009655 
558.3      0.4046224  0.6836961  0.237726  
558.4      0.3235274  0.8534552  0.341899  
558.5      0.2772389  0.9733819  0.4226612 
558.6      0.1895455  1          0.5530792 
558.7      0.1380735  1          0.6505141 
558.8      0.1096396  1          0.7299088 
558.9      0.08438352 1          0.7942536 
559        0.09965239 1          0.7345726 
559.1      0.04902295 1          0.8621888 
559.2      0.04321347 1          0.8886113 
559.3      0.05185953 1          0.8818243 
559.4      0.05371079 1          0.8797507 
559.5      0.07842167 1          0.8155504 
559.6      0.08866217 1          0.7503834 
559.7      0.09789761 1          0.7015191 
559.8      0.1032342  1          0.674976  
559.9      0.1210738  1          0.6297272 
560        0.1213148  1          0.6369987 
560.1      0.1498432  1          0.5723347 
560.2      0.1640838  1          0.5408407 
560.3      0.1689405  1          0.5195763 
560.4      0.1847318  1          0.482169  
560.5      0.1829952  1          0.486476  
560.6      0.1895911  1          0.4732312 
560.7      0.198359   1          0.4637195 
560.8      0.1957348  1          0.4849747 
560.9      0.1858298  1          0.5140007 
561        0.2083208  1          0.4610388 
561.1      0.208583   1          0.4523495 
561.2      0.2103673  1          0.4536649 
561.3      0.2201685  1          0.4153673 
561.4      0.2153714  1          0.4345905 
561.5      0.2145344  1          0.4244413 
561.6      0.2040368  1          0.4277258 
