~Version
 VERS              .         3.0                           : CWLS LOG ASCII STANDARD - VERSION 3.0
 WRAP              .         NO                            : ONE LINE PER DEPTH STEP
 DLM               .         SPACE                         : DELIMITING CHARACTER(SPACE TAB OR COMMA)
~Well Information
#_______________________________________________________________________________
#
#PARAMETER_NAME    .UNIT     VALUE                         : DESCRIPTION
#_______________________________________________________________________________
STRT               .M        0                             : First reference value
STOP               .M        905                           : Last reference value
STEP               .M        0.1                           : Step increment
NULL               .         -9999                         : Missing value
COMP               .         ICPetroleum                   : Company
WELL               .         321                           : Well name
FLD                .         Karatobe                      : Field
LOC                .                                       : Location
SRVC               .         JSC"Kazpromgeophysica"        : Service Company
CTRY               .         KZ                            : Country
DATE               .         15.05.05                      : Service Date
LATI               .         0                             : Latitude
LONG               .         0                             : Longitude
GDAT               .         WGS 84                        : Geodetic Datum
CNTY               .                                       : 
COORDIN            .                                       : Grid System
COUNT              .         KAZAKHSTAN                    : Country
COUNTRY            .         Kazakhstan                    : 
COUNTRY            .         Kazakhstan                    : 
EREF               .m        146.4                         : 
FN                 .         KARATUBE                      : 
KB                 .         145.7                         : KB Elevation
LGCN               .                                       : 
ORIGINALWELLNAME   .         Скважина                      : 
PROV               .                                       : Province
RWS                .         -999                          : Def_Rw
UWI                .                                       : Уникальный идентификатор скважины
WN                 .         321                           : 
WST                .         -999                          : Def_Rwt
X                  .km       466364.5                      : 
XCOORD             .                                       : X or East-West Coordinate
Y                  .km       5307853.22                    : 
YCOORD             .                                       : Y or North-South Coordinate
~Parameter Information Block
#_______________________________________________________________________________
#
#PARAMETER_NAME    .UNIT     VALUE                         : DESCRIPTION
#_______________________________________________________________________________
SET                .         Las                           : 
BS                 .MM       215.9                         : Bit Size
DFD                .G/C3     1.14                          : Drilling Fluid Density
DFV                .S        45                            : Drilling Fluid Viscosity
TLFamily_DEPT      .         Measured Depth                : 
TLFamily_PHI_FINAL .         Porosity                      : 
TLFamily_SW_AR     .         Water Saturation              : 
TLFamily_VSH_FINAL .         Shale Volume                  : 
~Curve Information
#_______________________________________________________________________________
#
#LOGNAME           .UNIT     LOG_ID                        : DESCRIPTION
#_______________________________________________________________________________
DEPT               .M                                      : Depth curve {F}
PHI_FINAL          .m3/m3                                  : Porosity {F}
SW_AR              .m3/m3                                  :  {F}
VSH_FINAL          .unitless                               : Vshale {F}
~Ascii
# ...
270.6      0.06238138 1          0.788939  
270.7      0.09018102 1          0.6964819 
270.8      0.0810798  1          0.6987926 
270.9      0.06707907 1          0.7407728 
271        0.05433939 1          0.7726173 
271.1      0.03983036 1          0.7670785 
271.2      0.0424913  1          0.7517731 
271.3      0.04152706 1          0.7431462 
271.4      0.04610823 1          0.7101045 
271.5      0.05687163 1          0.6717666 
271.6      0.07103036 1          0.6378391 
271.7      0.09116598 1          0.6113441 
271.8      0.1038665  1          0.5892591 
271.9      0.1087169  1          0.5885354 
272        0.1135281  1          0.5859311 
272.1      0.1287703  1          0.5665367 
272.2      0.1140727  1          0.5701244 
272.3      0.1283491  1          0.54002   
272.4      0.1510658  0.8963     0.5007696 
272.5      0.160362   0.8244224  0.4894076 
272.6      0.1671961  0.7832636  0.4791814 
272.7      0.1698129  0.7393159  0.4692517 
272.8      0.1843579  0.6626318  0.4490629 
272.9      0.1736995  0.6896949  0.4426328 
273        0.1736579  0.6790531  0.440752  
273.1      0.1715566  0.683752   0.4433388 
273.2      0.1710033  0.6849403  0.4351323 
273.3      0.1700031  0.685744   0.4262128 
273.4      0.1697724  0.6732092  0.4045545 
273.5      0.1715377  0.6387214  0.3867988 
273.6      0.1687661  0.6344606  0.3853391 
273.7      0.1529732  0.6848497  0.3876661 
273.8      0.1276619  0.8238309  0.4041597 
273.9      0.1329174  0.8047594  0.4266622 
274        0.1295302  0.8480445  0.4396152 
274.1      0.1462636  0.7297915  0.439963  
274.2      0.1537063  0.6304116  0.4413208 
274.3      0.1544148  0.590577   0.4436149 
274.4      0.1398404  0.6626964  0.4638561 
274.5      0.1215612  0.8207068  0.5074244 
274.6      0.1260923  0.8264735  0.5055335 
274.7      0.1341494  0.7980704  0.5119932 
274.8      0.1583165  0.6910375  0.5182719 
274.9      0.170584   0.6485322  0.5284429 
275        0.1810896  0.6201982  0.5256433 
275.1      0.1888074  0.6044643  0.5270737 
275.2      0.1975203  0.5861602  0.5258706 
275.3      0.1903654  0.6277321  0.5269325 
275.4      0.1912908  0.6580997  0.5130778 
275.5      0.1898234  0.6813935  0.5253153 
275.6      0.1867962  0.696375   0.5290067 
275.7      0.189721   0.6860139  0.5126304 
275.8      0.1863473  0.691367   0.5135486 
275.9      0.1812885  0.6975304  0.5169985 
276        0.1854153  0.6463649  0.5016208 
276.1      0.1839562  0.6262284  0.475745  
276.2      0.1873841  0.5662748  0.4630624 
276.3      0.201237   0.4996175  0.4417147 
276.4      0.2002193  0.480071   0.4249608 
276.5      0.206625   0.4535454  0.4091903 
276.6      0.2217936  0.4154893  0.389541  
276.7      0.2336778  0.3830406  0.3639643 
276.8      0.2360537  0.3706296  0.3590962 
276.9      0.2398638  0.3589982  0.3442463 
277        0.239406   0.3561886  0.3271599 
277.1      0.2264119  0.3749949  0.3418837 
277.2      0.2333194  0.3637996  0.3230883 
277.3      0.2350333  0.3596417  0.303056  
277.4      0.23525    0.3589385  0.2969658 
277.5      0.2297497  0.3703535  0.2933028 
277.6      0.2313555  0.3703976  0.2922257 
277.7      0.2309515  0.3713954  0.2981508 
277.8      0.2415327  0.3512716  0.2933477 
277.9      0.2441462  0.3415424  0.3053924 
278        0.2505669  0.3305511  0.3016632 
278.1      0.2580025  0.3224594  0.3039327 
278.2      0.2566116  0.3247109  0.3110395 
278.3      0.2587224  0.3197062  0.316499  
278.4      0.2532432  0.3217199  0.3145234 
278.5      0.2544276  0.3050167  0.3194123 
278.6      0.2714663  0.2752017  0.3018601 
278.7      0.2747291  0.257385   0.2976747 
278.8      0.2753458  0.2503709  0.2957288 
278.9      0.2817343  0.2452628  0.2960416 
279        0.2670152  0.26893    0.3315406 
279.1      0.258051   0.2888338  0.3543126 
279.2      0.2519391  0.3054778  0.3754149 
279.3      0.2516017  0.3085811  0.3602604 
279.4      0.2616089  0.2997071  0.3464611 
279.5      0.2637217  0.3055772  0.3451216 
279.6      0.2653063  0.31089    0.3334114 
279.7      0.2612878  0.3201957  0.3431782 
279.8      0.2565209  0.3209762  0.3354214 
279.9      0.2603629  0.3095006  0.3221011 
280        0.2588902  0.3058298  0.3091879 
280.1      0.2707896  0.2974288  0.2923591 
280.2      0.2719214  0.3059721  0.2863789 
280.3      0.2783888  0.303963   0.2844593 
280.4      0.2722629  0.3101757  0.2947213 
280.5      0.2706164  0.3077106  0.2936069 
280.6      0.2830734  0.2883193  0.2568662 
280.7      0.2872246  0.2791759  0.2547997 
280.8      0.2888584  0.2684691  0.2428286 
280.9      0.2985592  0.2508119  0.2151849 
281        0.3022589  0.2455623  0.1994374 
281.1      0.3006637  0.2480169  0.2016033 
281.2      0.2905566  0.2566278  0.2004398 
281.3      0.2924909  0.2544351  0.2089958 
281.4      0.2893691  0.2626048  0.2191473 
281.5      0.2834773  0.2867252  0.23599   
281.6      0.2888585  0.2972318  0.2445083 
281.7      0.276163   0.3376786  0.2748531 
281.8      0.2808489  0.3380635  0.2658423 
281.9      0.2626185  0.350561   0.303656  
282        0.2627318  0.3338444  0.2955837 
282.1      0.269366   0.3143958  0.2731108 
282.2      0.2769758  0.2884475  0.2521206 
282.3      0.2794243  0.2748519  0.2404837 
282.4      0.2846119  0.2597149  0.2388692 
282.5      0.2816571  0.2567064  0.2480538 
282.6      0.2726884  0.2627426  0.2778161 
282.7      0.2665631  0.2693869  0.2848967 
282.8      0.2634048  0.2749757  0.289835  
282.9      0.2563955  0.2852035  0.3183936 
283        0.2518198  0.2933107  0.3157839 
283.1      0.2584758  0.2862125  0.3109114 
283.2      0.2683915  0.2689591  0.2770621 
283.3      0.2672526  0.2656337  0.2671787 
283.4      0.2656709  0.263307   0.2745644 
283.5      0.2649949  0.2653306  0.2750563 
283.6      0.2664769  0.2702977  0.2658097 
283.7      0.2584882  0.3009507  0.2837781 
283.8      0.2528396  0.3234958  0.2805279 
283.9      0.254944   0.3260528  0.2641177 
284        0.2576406  0.3246042  0.2618169 
284.1      0.2606919  0.3278927  0.269003  
284.2      0.2505252  0.3552188  0.2937094 
284.3      0.249664   0.3651698  0.307557  
284.4      0.2460532  0.3758407  0.3127366 
284.5      0.2471867  0.3873428  0.3290959 
284.6      0.2241304  0.4462197  0.3739882 
284.7      0.2079386  0.5583149  0.4194439 
284.8      0.1897098  0.6526657  0.4526198 
284.9      0.1880304  0.7230325  0.4796697 
285        0.1824394  0.7695906  0.5017748 
285.1      0.1884806  0.7457305  0.4975109 
285.2      0.187772   0.7368386  0.5079498 
285.3      0.1862239  0.7342623  0.5086605 
285.4      0.1751737  0.7737742  0.5196446 
285.5      0.1667919  0.8035095  0.5295563 
285.6      0.1624364  0.8044247  0.5538692 
285.7      0.1631438  0.7849036  0.5529295 
285.8      0.1581915  0.7726581  0.559699  
285.9      0.1438118  0.8426372  0.6083025 
286        0.1263625  0.9908497  0.6532423 
286.1      0.1062005  1          0.662982  
286.2      0.105681   1          0.6877513 
286.3      0.09963395 1          0.7221167 
286.4      0.1014823  1          0.7299339 
286.5      0.1158904  1          0.6991058 
286.6      0.1222037  1          0.6888233 
286.7      0.1271046  1          0.6808772 
286.8      0.1107081  1          0.7118844 
286.9      0.09892984 1          0.7616463 
287        0.087767   1          0.7892849 
287.1      0.06305674 1          0.8681058 
287.2      0.0567102  1          0.8900952 
287.3      0.04659288 1          0.9083131 
287.4      0.05652428 1          0.921316  
287.5      0.07428864 1          0.9243271 
287.6      0.0902684  1          0.9165945 
287.7      0.09623011 1          0.9096057 
287.8      0.1063329  1          0.8975455 
287.9      0.102231   1          0.8991492 
288        0.07139608 1          1         
288.1      0.08169913 1          0.9514946 
288.2      0.06319309 1          1         
288.3      0.06186215 1          1         
288.4      0.0678016  1          1         
288.5      0.0663215  1          1         
288.6      0.06423968 1          1         
288.7      0.05547889 1          1         
