~Version
 VERS              .         3.0                           : CWLS LOG ASCII STANDARD - VERSION 3.0
 WRAP              .         NO                            : ONE LINE PER DEPTH STEP
 DLM               .         SPACE                         : DELIMITING CHARACTER(SPACE TAB OR COMMA)
~Well Information
#_______________________________________________________________________________
#
#PARAMETER_NAME    .UNIT     VALUE                         : DESCRIPTION
#_______________________________________________________________________________
STRT               .M        0                             : First reference value
STOP               .M        905                           : Last reference value
STEP               .M        0.1                           : Step increment
NULL               .         -9999                         : Missing value
COMP               .         ICPetroleum                   : Company
WELL               .         321                           : Well name
FLD                .         Karatobe                      : Field
LOC                .                                       : Location
SRVC               .         JSC"Kazpromgeophysica"        : Service Company
CTRY               .         KZ                            : Country
DATE               .         15.05.05                      : Service Date
LATI               .         0                             : Latitude
LONG               .         0                             : Longitude
GDAT               .         WGS 84                        : Geodetic Datum
CNTY               .                                       : 
COORDIN            .                                       : Grid System
COUNT              .         KAZAKHSTAN                    : Country
COUNTRY            .         Kazakhstan                    : 
COUNTRY            .         Kazakhstan                    : 
EREF               .m        146.4                         : 
FN                 .         KARATUBE                      : 
KB                 .         145.7                         : KB Elevation
LGCN               .                                       : 
ORIGINALWELLNAME   .         Скважина                      : 
PROV               .                                       : Province
RWS                .         -999                          : Def_Rw
UWI                .                                       : Уникальный идентификатор скважины
WN                 .         321                           : 
WST                .         -999                          : Def_Rwt
X                  .km       466364.5                      : 
XCOORD             .                                       : X or East-West Coordinate
Y                  .km       5307853.22                    : 
YCOORD             .                                       : Y or North-South Coordinate
~Parameter Information Block
#_______________________________________________________________________________
#
#PARAMETER_NAME    .UNIT     VALUE                         : DESCRIPTION
#_______________________________________________________________________________
SET                .         Las                           : 
BS                 .MM       215.9                         : Bit Size
DFD                .G/C3     1.14                          : Drilling Fluid Density
DFV                .S        45                            : Drilling Fluid Viscosity
TLFamily_DEPT      .         Measured Depth                : 
TLFamily_PHI_FINAL .         Porosity                      : 
TLFamily_SW_AR     .         Water Saturation              : 
TLFamily_VSH_FINAL .         Shale Volume                  : 
~Curve Information
#_______________________________________________________________________________
#
#LOGNAME           .UNIT     LOG_ID                        : DESCRIPTION
#_______________________________________________________________________________
DEPT               .M                                      : Depth curve {F}
PHI_FINAL          .m3/m3                                  : Porosity {F}
SW_AR              .m3/m3                                  :  {F}
VSH_FINAL          .unitless                               : Vshale {F}
~Ascii
# ...
307        0.03976334 1          0.9418124 
307.1      0.06462566 1          0.8762072 
307.2      0.07533362 1          0.817853  
307.3      0.057493   1          0.8477414 
307.4      0.06232126 1          0.8353818 
307.5      0.0628687  1          0.7716848 
307.6      0.07800768 1          0.7099969 
307.7      0.05887803 1          0.7656353 
307.8      0.07698807 1          0.6619145 
307.9      0.08181614 1          0.6190018 
308        0.08275875 1          0.5600425 
308.1      0.09252974 1          0.5032609 
308.2      0.08417267 1          0.505759  
308.3      0.05076984 1          0.6207027 
308.4      0.03937015 1          0.6665013 
308.5      0.04754301 1          0.6861398 
308.6      0.03878786 1          0.7456514 
308.7      0.0410549  1          0.7667795 
308.8      0.05094257 1          0.7476159 
308.9      0.04677196 1          0.7942022 
309        0.02406344 1          0.8885935 
309.1      0.01256865 1          0.9715324 
309.2      0.009234794 1          1         
309.3      0.01112458 1          1         
309.4      0.01690801 1          1         
309.5      0.02038981 1          1         
309.6      0.01741468 1          1         
309.7      0.01720261 1          1         
309.8      0.01995984 1          1         
309.9      0.01987601 1          1         
310        0.02212744 1          1         
310.1      0.0214928  1          1         
310.2      0.02249506 1          1         
310.3      0.0295337  1          1         
310.4      0.02707234 1          1         
310.5      0.03999762 1          0.9332139 
310.6      0.02124354 1          1         
310.7      0.0255193  1          1         
310.8      0.03101742 1          1         
310.9      0.04262454 1          1         
311        0.03220919 1          0.9980406 
311.1      0.01768091 1          1         
311.2      0.0308915  1          1         
311.3      0.03128444 1          1         
311.4      0.03713996 1          1         
311.5      0.02282515 1          1         
311.6      0.02095357 1          1         
311.7      0.0213108  1          1         
311.8      0.02140292 1          1         
311.9      0.01940123 1          1         
312        0.01854229 1          1         
312.1      0.01960584 1          1         
312.2      0.02809311 1          1         
312.3      0.02559332 1          1         
312.4      0.02676314 1          1         
312.5      0.02153732 1          1         
312.6      0.01997302 1          1         
312.7      0.0152336  1          1         
312.8      0.0175271  1          1         
312.9      0.01613729 1          1         
313        0.01666634 1          1         
313.1      0.01380872 1          1         
313.2      0.01116334 1          1         
313.3      0.02105105 1          0.937288  
313.4      0.02561246 1          0.896368  
313.5      0.05804588 1          0.7774135 
313.6      0.04922177 1          0.7912854 
313.7      0.07717455 1          0.7219196 
313.8      0.0768279  1          0.7180023 
313.9      0.0569858  1          0.8092685 
314        0.04323649 1          0.8610219 
314.1      0.009844112 1          0.9682012 
314.2      0.007768109 1          1         
314.3      0.01358654 1          0.97812   
314.4      0.04270098 1          0.8676866 
314.5      0.05201807 1          0.828365  
314.6      0.05642596 1          0.8251454 
314.7      0.08587215 1          0.7345025 
314.8      0.08775564 1          0.748233  
314.9      0.09381335 1          0.7475352 
315        0.1418542  1          0.6331508 
315.1      0.1771117  1          0.5228062 
315.2      0.1879613  1          0.5028819 
315.3      0.2080752  0.9185176  0.4719228 
315.4      0.2050063  0.9228107  0.4769075 
315.5      0.1840912  1          0.5085707 
315.6      0.1846472  1          0.505115  
315.7      0.1854858  1          0.5018768 
315.8      0.1969762  0.9487916  0.4610153 
315.9      0.1857269  1          0.5005332 
316        0.1839235  1          0.5169585 
316.1      0.1650637  1          0.524992  
316.2      0.1714686  1          0.4938521 
316.3      0.1763501  1          0.5041365 
316.4      0.1912281  0.9643462  0.4468642 
316.5      0.2159535  0.8537599  0.3710695 
316.6      0.1922743  0.9460299  0.4324993 
316.7      0.1839168  0.9880463  0.4684412 
316.8      0.1571281  1          0.5346671 
316.9      0.1414885  1          0.5678044 
317        0.1171255  1          0.6110567 
317.1      0.1308069  1          0.5768536 
317.2      0.1192456  1          0.5899583 
317.3      0.07682049 1          0.6694717 
317.4      0.0762808  1          0.6540974 
317.5      0.0585893  1          0.63807   
317.6      0.03038308 1          0.7284041 
317.7      0.05316161 1          0.6444081 
317.8      0.1147363  1          0.4845003 
317.9      0.146773   1          0.4789244 
318        0.1953167  0.9239618  0.4100727 
318.1      0.2002613  0.9196576  0.4108372 
318.2      0.1951005  0.9410871  0.4109393 
318.3      0.2048438  0.8943424  0.3997329 
318.4      0.1951072  0.9359921  0.4174848 
318.5      0.1862797  0.971527   0.4114112 
318.6      0.1841379  0.929267   0.3840967 
318.7      0.1694788  0.9678152  0.4066621 
318.8      0.1855303  0.8678311  0.3575021 
318.9      0.1814147  0.9246238  0.3654999 
319        0.1707479  0.9989374  0.4059813 
319.1      0.1803814  0.8763677  0.3745052 
319.2      0.1646125  0.8936208  0.3892577 
319.3      0.1685637  0.8734021  0.376853  
319.4      0.168896   0.9565983  0.4126624 
319.5      0.1961612  0.9036669  0.4011017 
319.6      0.2120686  0.8663497  0.4005535 
319.7      0.2352408  0.7907162  0.3686823 
319.8      0.2521622  0.7397718  0.3396237 
319.9      0.2462442  0.7505137  0.3550053 
320        0.2622346  0.702094   0.3318065 
320.1      0.254916   0.7211467  0.3546066 
320.2      0.263044   0.7022526  0.3028803 
320.3      0.2700969  0.6900071  0.3064748 
320.4      0.280927   0.6709     0.2788773 
320.5      0.2739056  0.6927635  0.2967249 
320.6      0.2774551  0.6862521  0.3046523 
320.7      0.2767413  0.6865934  0.3191593 
320.8      0.279774   0.6744981  0.3062575 
320.9      0.2732335  0.6849294  0.331373  
321        0.2658612  0.6970307  0.3310474 
321.1      0.267181   0.6872727  0.3274101 
321.2      0.2746433  0.6691646  0.3153125 
321.3      0.2825596  0.6552171  0.2769609 
321.4      0.2874109  0.6480564  0.2678791 
321.5      0.2911208  0.642776   0.2657345 
321.6      0.3004814  0.6258892  0.2500663 
321.7      0.3032476  0.622421   0.2235005 
321.8      0.2930588  0.6463376  0.2232665 
321.9      0.2856084  0.6646734  0.2514181 
322        0.2850636  0.6673131  0.2349051 
322.1      0.2839088  0.6703382  0.245143  
322.2      0.2655341  0.7105833  0.2770998 
322.3      0.2626589  0.707076   0.277906  
322.4      0.251647   0.7184454  0.2740246 
322.5      0.2607183  0.6754629  0.2466631 
322.6      0.2512863  0.6994914  0.2604774 
322.7      0.2455405  0.7315093  0.2840833 
322.8      0.2591085  0.7229275  0.2700748 
322.9      0.2595885  0.7296834  0.3087396 
323        0.2650221  0.7217976  0.2929093 
323.1      0.2629037  0.7258703  0.294885  
323.2      0.2740438  0.6950451  0.2853619 
323.3      0.2601522  0.7271113  0.3041379 
323.4      0.2592197  0.7315829  0.2795406 
323.5      0.240149   0.7929677  0.3172111 
323.6      0.2437665  0.7854824  0.3211992 
323.7      0.2548679  0.7544044  0.3063015 
323.8      0.2669845  0.7209626  0.2940917 
323.9      0.2690747  0.7120872  0.2912882 
324        0.2704405  0.7065573  0.2840629 
324.1      0.254594   0.7478306  0.3212389 
324.2      0.2610311  0.7307109  0.3409761 
324.3      0.2783285  0.6890323  0.2967937 
324.4      0.2802047  0.6870571  0.2800038 
324.5      0.2875318  0.6738676  0.2733566 
324.6      0.2918977  0.6670011  0.2563573 
324.7      0.292763   0.6643494  0.2481485 
324.8      0.2913181  0.6626238  0.248669  
324.9      0.2848023  0.6710287  0.2495233 
325        0.2843048  0.6671026  0.2395372 
325.1      0.2836079  0.6687289  0.2485698 
