~Version
 VERS              .         3.0                           : CWLS LOG ASCII STANDARD - VERSION 3.0
 WRAP              .         NO                            : ONE LINE PER DEPTH STEP
 DLM               .         SPACE                         : DELIMITING CHARACTER(SPACE TAB OR COMMA)
~Well Information
#_______________________________________________________________________________
#
#PARAMETER_NAME    .UNIT     VALUE                         : DESCRIPTION
#_______________________________________________________________________________
STRT               .M        0                             : First reference value
STOP               .M        905                           : Last reference value
STEP               .M        0.1                           : Step increment
NULL               .         -9999                         : Missing value
COMP               .         ICPetroleum                   : Company
WELL               .         321                           : Well name
FLD                .         Karatobe                      : Field
LOC                .                                       : Location
SRVC               .         JSC"Kazpromgeophysica"        : Service Company
CTRY               .         KZ                            : Country
DATE               .         15.05.05                      : Service Date
LATI               .         0                             : Latitude
LONG               .         0                             : Longitude
GDAT               .         WGS 84                        : Geodetic Datum
CNTY               .                                       : 
COORDIN            .                                       : Grid System
COUNT              .         KAZAKHSTAN                    : Country
COUNTRY            .         Kazakhstan                    : 
COUNTRY            .         Kazakhstan                    : 
EREF               .m        146.4                         : 
FN                 .         KARATUBE                      : 
KB                 .         145.7                         : KB Elevation
LGCN               .                                       : 
ORIGINALWELLNAME   .         Скважина                      : 
PROV               .                                       : Province
RWS                .         -999                          : Def_Rw
UWI                .                                       : Уникальный идентификатор скважины
WN                 .         321                           : 
WST                .         -999                          : Def_Rwt
X                  .km       466364.5                      : 
XCOORD             .                                       : X or East-West Coordinate
Y                  .km       5307853.22                    : 
YCOORD             .                                       : Y or North-South Coordinate
~Parameter Information Block
#_______________________________________________________________________________
#
#PARAMETER_NAME    .UNIT     VALUE                         : DESCRIPTION
#_______________________________________________________________________________
SET                .         Las                           : 
BS                 .MM       215.9                         : Bit Size
DFD                .G/C3     1.14                          : Drilling Fluid Density
DFV                .S        45                            : Drilling Fluid Viscosity
TLFamily_DEPT      .         Measured Depth                : 
TLFamily_PHI_FINAL .         Porosity                      : 
TLFamily_SW_AR     .         Water Saturation              : 
TLFamily_VSH_FINAL .         Shale Volume                  : 
~Curve Information
#_______________________________________________________________________________
#
#LOGNAME           .UNIT     LOG_ID                        : DESCRIPTION
#_______________________________________________________________________________
DEPT               .M                                      : Depth curve {F}
PHI_FINAL          .m3/m3                                  : Porosity {F}
SW_AR              .m3/m3                                  :  {F}
VSH_FINAL          .unitless                               : Vshale {F}
~Ascii
# ...
816.5      0.08780447 1          0.1274649 
816.6      0.07399714 1          0.1304097 
816.7      0.07471732 1          0.121961  
816.8      0.08628802 1          0.1226206 
816.9      0.08460946 1          0.1163281 
817        0.08346463 1          0.1362203 
817.1      0.08960368 1          0.1413476 
817.2      0.09706416 1          0.133982  
817.3      0.09803817 1          0.1466702 
817.4      0.1168255  1          0.1427933 
817.5      0.1112316  1          0.1358126 
817.6      0.09742775 1          0.1307455 
817.7      0.08972608 1          0.1269315 
817.8      0.09580497 1          0.116263  
817.9      0.09162524 1          0.1004744 
818        0.1110799  1          0.09232859
818.1      0.1041374  1          0.09393293
818.2      0.07435318 1          0.08919917
818.3      0.08061446 1          0.08591096
818.4      0.0640703  1          0.08816119
818.5      0.06189648 1          0.08755182
818.6      0.05256867 1          0.08126675
818.7      0.06678141 1          0.08694335
818.8      0.06544382 1          0.08749094
818.9      0.07243495 1          0.097721  
819        0.05544623 1          0.1154827 
819.1      0.05735158 1          0.1190048 
819.2      0.06244196 1          0.1216974 
819.3      0.05654903 1          0.1257336 
819.4      0.06700438 1          0.1341851 
819.5      0.07601399 1          0.1435524 
819.6      0.06742782 1          0.1307455 
819.7      0.06862966 1          0.1346592 
819.8      0.0920982  1          0.1448663 
819.9      0.09764875 1          0.1579945 
820        0.09478084 1          0.1757453 
820.1      0.1036673  1          0.181531  
820.2      0.09483075 1          0.1895755 
820.3      0.1110784  1          0.1903338 
820.4      0.1204341  1          0.1945241 
820.5      0.1086916  1          0.1844486 
820.6      0.0860889  1          0.1792979 
820.7      0.08756164 1          0.1722907 
820.8      0.08652545 1          0.1658135 
820.9      0.05495843 1          0.1411414 
821        0.04970451 1          0.1190048 
821.1      0.05464875 1          0.1041942 
821.2      0.05405239 1          0.08822218
821.3      0.04717426 1          0.0856078 
821.4      0.0446406  1          0.08822218
821.5      0.0297687  1          0.09678638
821.6      0.02248475 1          0.08355218
821.7      0.008230533 1          0.07201609
821.8      0          1          0.06694774
821.9      0.001344344 1          0.06142921
822        0.002541137 1          0.04736036
822.1      0.005481148 1          0.04336437
822.2      0.02387241 1          0.03683385
822.3      0.003193754 1          0.03914143
822.4      0.009917331 1          0.0382811 
822.5      0.01223316 1          0.04840742
822.6      0.04881706 1          0.05402228
822.7      0.03588498 1          0.06799111
822.8      0.04691334 1          0.07049467
822.9      0.0628729  1          0.06023229
823        0.05836965 1          0.06154339
823.1      0.06501599 1          0.0569455 
823.2      0.0536618  1          0.05954999
823.3      0.0582225  1          0.05604368
823.4      0.07233314 1          0.05206717
823.5      0.06712778 1          0.03576548
823.6      0.04783267 1          0.03736921
823.7      0.04060104 1          0.03395638
823.8      0.03798883 1          0.03083829
823.9      0.01849009 1          0.02313367
824        0.002953332 1          0.02395859
824.1      0          1          0.02519963
824.2      0          1          0.02246482
824.3      0          1          0.02748614
824.4      0          1          0.0313649 
824.5      0          1          0.03279058
824.6      0          1          0.03678036
824.7      0          1          0.03747638
824.8      0.001613906 1          0.03651301
824.9      0          1          0.02732977
825        0          1          0.02380378
825.1      0.007997308 1          0.02680905
825.2      0.000537208 1          0.01817347
825.3      0          1          0.02576987
825.4      0          1          0.03406255
825.5      0.01874441 1          0.028269  
825.6      0.01531603 1          0.02592556
825.7      0.02349653 1          0.04011169
825.8      0.0307272  1          0.04352776
825.9      0.04785656 1          0.0512879 
826        0.04085647 1          0.06308813
826.1      0.04766675 1          0.06793308
826.2      0.06513059 1          0.07655583
826.3      0.07467137 1          0.09011717
826.4      0.1039204  0.7728003  0.1066707 
826.5      0.1026162  0.9307605  0.137105  
826.6      0.1372292  0.7825792  0.1514207 
826.7      0.1462191  0.8294461  0.186855  
826.8      0.1798026  0.7296807  0.198671  
826.9      0.2009136  0.6697779  0.1888941 
827        0.1947526  0.7313927  0.2018415 
827.1      0.223662   0.6344314  0.1915493 
827.2      0.2120607  0.6989609  0.2109939 
827.3      0.1914591  0.8244972  0.2230391 
827.4      0.1427057  1          0.1828007 
827.5      0.1352732  1          0.172071  
827.6      0.07416794 1          0.141829  
827.7      0.07509697 1          0.1466702 
827.8      0.09859141 1          0.1507893 
827.9      0.09226159 1          0.1423109 
828        0.08935776 1          0.1461839 
828.1      0.1277715  1          0.1635771 
828.2      0.1084857  1          0.1771486 
828.3      0.1120804  1          0.1769267 
828.4      0.1069452  1          0.1923867 
828.5      0.1106857  1          0.2156688 
828.6      0.1175585  1          0.2183011 
828.7      0.113482   1          0.2081611 
828.8      0.1140711  1          0.1921581 
828.9      0.1136016  1          0.1817548 
829        0.121916   1          0.1714856 
829.1      0.09136201 1          0.1693692 
829.2      0.1280587  1          0.1466007 
829.3      0.1142205  1          0.1376504 
829.4      0.1049418  1          0.1271981 
829.5      0.1023839  1          0.1218951 
829.6      0.09060793 1          0.125933  
829.7      0.0847968  1          0.1076908 
829.8      0.08782108 1          0.1114086 
829.9      0.09201623 1          0.105145  
830        0.08822523 1          0.1060344 
830.1      0.07331599 1          0.1007255 
830.2      0.08601681 1          0.1015429 
830.3      0.1044799  1          0.1147687 
830.4      0.1004514  1          0.1264652 
830.5      0.09421282 1          0.1356767 
830.6      0.09075128 1          0.1374458 
830.7      0.09173402 1          0.1421043 
830.8      0.09219482 1          0.1385378 
830.9      0.09193073 1          0.1474355 
831        0.08213047 1          0.1527565 
831.1      0.09773245 1          0.1577099 
831.2      0.09394541 1          0.1645858 
831.3      0.0920476  1          0.1530382 
831.4      0.09485151 1          0.1475051 
831.5      0.09604088 1          0.153461  
831.6      0.08657688 1          0.1576388 
831.7      0.06830308 1          0.1677696 
831.8      0.06256561 1          0.1592772 
831.9      0.06979266 1          0.176705  
832        0.06022866 1          0.1772225 
832.1      0.06393236 1          0.1786299 
832.2      0.08539396 1          0.1696606 
832.3      0.08142629 1          0.1691507 
832.4      0.08313706 1          0.1673343 
832.5      0.09700855 1          0.1701709 
832.6      0.08927009 1          0.1784816 
832.7      0.08016165 1          0.1754504 
832.8      0.04453414 1          0.1725838 
832.9      0.03609436 1          0.1612791 
833        0.04383184 1          0.1669717 
833.1      0.06721193 1          0.1674793 
833.2      0.05245615 1          0.1636491 
833.3      0.04056733 1          0.172071  
833.4      0.06059195 1          0.1679874 
833.5      0.06776419 1          0.1536021 
833.6      0.0881711  1          0.1562186 
833.7      0.08212168 1          0.1567861 
833.8      0.09204713 1          0.1490396 
833.9      0.06899516 1          0.1414164 
834        0.08542577 1          0.1435524 
834.1      0.06323052 1          0.1390163 
834.2      0.05601364 1          0.1415539 
834.3      0.06039731 1          0.1506491 
834.4      0.06400599 1          0.1423798 
834.5      0.04491876 1          0.1432762 
834.6      0.05307619 1          0.1355409 
