~Version
 VERS              .         3.0                           : CWLS LOG ASCII STANDARD - VERSION 3.0
 WRAP              .         NO                            : ONE LINE PER DEPTH STEP
 DLM               .         SPACE                         : DELIMITING CHARACTER(SPACE TAB OR COMMA)
~Well Information
#_______________________________________________________________________________
#
#PARAMETER_NAME    .UNIT     VALUE                         : DESCRIPTION
#_______________________________________________________________________________
STRT               .M        0                             : First reference value
STOP               .M        905                           : Last reference value
STEP               .M        0.1                           : Step increment
NULL               .         -9999                         : Missing value
COMP               .         ICPetroleum                   : Company
WELL               .         321                           : Well name
FLD                .         Karatobe                      : Field
LOC                .                                       : Location
SRVC               .         JSC"Kazpromgeophysica"        : Service Company
CTRY               .         KZ                            : Country
DATE               .         15.05.05                      : Service Date
LATI               .         0                             : Latitude
LONG               .         0                             : Longitude
GDAT               .         WGS 84                        : Geodetic Datum
CNTY               .                                       : 
COORDIN            .                                       : Grid System
COUNT              .         KAZAKHSTAN                    : Country
COUNTRY            .         Kazakhstan                    : 
COUNTRY            .         Kazakhstan                    : 
EREF               .m        146.4                         : 
FN                 .         KARATUBE                      : 
KB                 .         145.7                         : KB Elevation
LGCN               .                                       : 
ORIGINALWELLNAME   .         Скважина                      : 
PROV               .                                       : Province
RWS                .         -999                          : Def_Rw
UWI                .                                       : Уникальный идентификатор скважины
WN                 .         321                           : 
WST                .         -999                          : Def_Rwt
X                  .km       466364.5                      : 
XCOORD             .                                       : X or East-West Coordinate
Y                  .km       5307853.22                    : 
YCOORD             .                                       : Y or North-South Coordinate
~Parameter Information Block
#_______________________________________________________________________________
#
#PARAMETER_NAME    .UNIT     VALUE                         : DESCRIPTION
#_______________________________________________________________________________
SET                .         Las                           : 
BS                 .MM       215.9                         : Bit Size
DFD                .G/C3     1.14                          : Drilling Fluid Density
DFV                .S        45                            : Drilling Fluid Viscosity
TLFamily_DEPT      .         Measured Depth                : 
TLFamily_PHI_FINAL .         Porosity                      : 
TLFamily_SW_AR     .         Water Saturation              : 
TLFamily_VSH_FINAL .         Shale Volume                  : 
~Curve Information
#_______________________________________________________________________________
#
#LOGNAME           .UNIT     LOG_ID                        : DESCRIPTION
#_______________________________________________________________________________
DEPT               .M                                      : Depth curve {F}
PHI_FINAL          .m3/m3                                  : Porosity {F}
SW_AR              .m3/m3                                  :  {F}
VSH_FINAL          .unitless                               : Vshale {F}
~Ascii
# ...
452.6      0.1444564  1          0.8127881 
452.7      0.06675588 1          0.9728422 
452.8      0.03392302 1          1         
452.9      0.01752214 1          1         
453        0.009031319 1          1         
453.1      0.008612383 1          1         
453.2      0.004393016 1          1         
453.3      0.003925371 1          0.9919652 
453.4      0.009277565 1          0.9499073 
453.5      0.02667279 1          0.8941464 
453.6      0.03504536 1          0.8771135 
453.7      0.03197333 1          0.8713999 
453.8      0.0589214  1          0.7405375 
453.9      0.05721791 1          0.75156   
454        0.06506503 1          0.760148  
454.1      0.0539644  1          0.7795624 
454.2      0.03201449 1          0.8873864 
454.3      0.01542511 1          0.9565899 
454.4      0.01270031 1          0.9779118 
454.5      0.01063422 1          0.989136  
454.6      0.01671103 1          0.9694877 
454.7      0.03386317 1          0.9305099 
454.8      0.04510197 1          0.878189  
454.9      0.03731609 1          0.9108684 
455        0.05167265 1          0.8287101 
455.1      0.0415156  1          0.8739181 
455.2      0.06823876 1          0.7950947 
455.3      0.1021513  1          0.694734  
455.4      0.09318162 1          0.7388008 
455.5      0.07263709 1          0.7946858 
455.6      0.0543095  1          0.8535054 
455.7      0.02882721 1          0.9254506 
455.8      0.08688781 1          0.7637597 
455.9      0.09725616 1          0.7840271 
456        0.1293094  1          0.7229135 
456.1      0.1580213  1          0.6565749 
456.2      0.1759116  1          0.6441616 
456.3      0.1866872  1          0.632613  
456.4      0.2086296  1          0.6137688 
456.5      0.2516668  1          0.5167524 
456.6      0.2915631  0.8808005  0.4384779 
456.7      0.3384955  0.7395896  0.3841872 
456.8      0.373525   0.6227875  0.3395312 
456.9      0.3849129  0.5845253  0.345586  
457        0.3543105  0.6150542  0.4069345 
457.1      0.3085674  0.7303327  0.5005936 
457.2      0.2440214  0.9550341  0.5953877 
457.3      0.1819088  1          0.7079724 
457.4      0.1420154  1          0.7889084 
457.5      0.1417309  1          0.7662129 
457.6      0.1482797  1          0.7596361 
457.7      0.1686478  1          0.7026989 
457.8      0.1882715  1          0.6576994 
457.9      0.2060434  1          0.6537653 
458        0.2390775  0.9997268  0.5596384 
458.1      0.2357886  1          0.5780247 
458.2      0.2693867  0.8985587  0.5150645 
458.3      0.3087884  0.7997652  0.4719685 
458.4      0.3491773  0.7079673  0.3869954 
458.5      0.3932837  0.6257463  0.3238699 
458.6      0.3978588  0.6333463  0.3250687 
458.7      0.3974869  0.6426418  0.31194   
458.8      0.4115804  0.6008943  0.3006352 
458.9      0.4425118  0.5244956  0.2395544 
459        0.4605165  0.4658079  0.2091283 
459.1      0.4579232  0.4468879  0.2179541 
459.2      0.4185502  0.4883179  0.2722599 
459.3      0.3715903  0.563117   0.3614706 
459.4      0.301183   0.70189    0.4661679 
459.5      0.1795209  1          0.6968067 
459.6      0.1249939  1          0.8046706 
459.7      0.09533974 1          0.7994134 
459.8      0.04998264 1          0.8763177 
459.9      0.04127558 1          0.8941404 
460        0.03905094 1          0.9038452 
460.1      0.0555189  1          0.8476775 
460.2      0.1021579  1          0.7156903 
460.3      0.124205   1          0.6588731 
460.4      0.1274317  1          0.66991   
460.5      0.1269631  1          0.6776298 
460.6      0.127548   1          0.6782135 
460.7      0.1230919  1          0.7209465 
460.8      0.1386178  1          0.6791509 
460.9      0.1645769  1          0.6275449 
461        0.1888797  1          0.5812552 
461.1      0.1846597  1          0.6066929 
461.2      0.185859   1          0.6302755 
461.3      0.1931381  1          0.6375874 
461.4      0.2120235  1          0.6240284 
461.5      0.2291033  1          0.5988054 
461.6      0.2635402  1          0.5328777 
461.7      0.2995361  0.9431789  0.4760454 
461.8      0.3245327  0.7957575  0.4166562 
461.9      0.3367703  0.6920323  0.4096597 
462        0.3378175  0.6390442  0.4229574 
462.1      0.3163396  0.6795331  0.4497265 
462.2      0.2462898  0.9154382  0.5679874 
462.3      0.1887385  1          0.7163582 
462.4      0.1344589  1          0.8119014 
462.5      0.1055433  1          0.8410534 
462.6      0.09910663 1          0.8195412 
462.7      0.07027095 1          0.8797339 
462.8      0.09811205 1          0.7782772 
462.9      0.04715957 1          0.8885318 
463        0.01328352 1          0.9685298 
463.1      0.001418114 1          1         
463.2      0          1          0.9904436 
463.3      0.0002330492 1          0.9779476 
463.4      0.02717456 1          0.9041013 
463.5      0.05665297 1          0.8340101 
463.6      0.0680221  1          0.8042839 
463.7      0.07561231 1          0.7799683 
463.8      0.1170011  1          0.6799984 
463.9      0.1285775  1          0.6609033 
464        0.1601398  1          0.5862241 
464.1      0.1655769  1          0.591435  
464.2      0.2006452  0.9812848  0.5300364 
464.3      0.2350114  0.8572195  0.4777974 
464.4      0.2653817  0.770707   0.4284612 
464.5      0.3212335  0.6614691  0.3450795 
464.6      0.3469304  0.6370614  0.3068388 
464.7      0.3495223  0.642301   0.3335836 
464.8      0.3490506  0.640411   0.353598  
464.9      0.3023849  0.749324   0.4094327 
465        0.2664415  0.8696607  0.4695419 
465.1      0.218568   1          0.4939682 
465.2      0.1888392  1          0.4952966 
465.3      0.1888201  1          0.4987418 
465.4      0.2029151  0.8729295  0.4568466 
465.5      0.2152808  0.7488576  0.4352832 
465.6      0.2174279  0.6727087  0.4390069 
465.7      0.2121193  0.6644892  0.4433948 
465.8      0.2158535  0.6440059  0.4194703 
465.9      0.2030737  0.6817444  0.4303443 
466        0.1981214  0.6991805  0.443683  
466.1      0.1921421  0.7189904  0.452474  
466.2      0.2046492  0.6795382  0.4058644 
466.3      0.1850073  0.8154988  0.4726806 
466.4      0.1443456  1          0.5427114 
466.5      0.1386235  1          0.5605145 
466.6      0.1294117  1          0.5824422 
466.7      0.1393351  1          0.5697692 
466.8      0.1566697  1          0.5320445 
466.9      0.1716254  1          0.4891761 
467        0.186111   1          0.4526983 
467.1      0.1977628  0.907136   0.4194632 
467.2      0.1893574  0.9087547  0.4509478 
467.3      0.1971252  0.8719292  0.4335422 
467.4      0.1883345  0.9126143  0.4634154 
467.5      0.2064225  0.8031927  0.4098834 
467.6      0.2106392  0.7283788  0.397155  
467.7      0.2124843  0.6907387  0.382214  
467.8      0.2000877  0.7394521  0.4061434 
467.9      0.1746831  0.8965102  0.4439113 
468        0.1698422  1          0.4523708 
468.1      0.1524942  1          0.4862395 
468.2      0.1334577  1          0.5253691 
468.3      0.114986   1          0.5419023 
468.4      0.1065707  1          0.6201166 
468.5      0.08115974 1          0.6884802 
468.6      0.09493951 1          0.6942269 
468.7      0.1242097  1          0.6938782 
468.8      0.1141552  1          0.7457364 
468.9      0.1285014  1          0.7413601 
469        0.1130642  1          0.7995759 
469.1      0.1360974  1          0.7715861 
469.2      0.09240341 1          0.8729581 
469.3      0.03338373 1          0.9934804 
469.4      0.02638796 1          1         
469.5      0.01845866 1          1         
469.6      0.01385279 1          1         
469.7      0.03077281 1          0.9490958 
469.8      0.0308118  1          0.9411535 
469.9      0.07547052 1          0.8093485 
470        0.1101793  1          0.6924071 
470.1      0.1326764  1          0.6315122 
470.2      0.1164155  1          0.6346596 
470.3      0.1291569  1          0.5829244 
470.4      0.1410455  1          0.5443367 
470.5      0.1551215  1          0.5410388 
470.6      0.1574438  1          0.5620526 
470.7      0.165969   1          0.5391798 
