~Version
 VERS              .         3.0                           : CWLS LOG ASCII STANDARD - VERSION 3.0
 WRAP              .         NO                            : ONE LINE PER DEPTH STEP
 DLM               .         SPACE                         : DELIMITING CHARACTER(SPACE TAB OR COMMA)
~Well Information
#_______________________________________________________________________________
#
#PARAMETER_NAME    .UNIT     VALUE                         : DESCRIPTION
#_______________________________________________________________________________
STRT               .M        0                             : First reference value
STOP               .M        905                           : Last reference value
STEP               .M        0.1                           : Step increment
NULL               .         -9999                         : Missing value
COMP               .         ICPetroleum                   : Company
WELL               .         321                           : Well name
FLD                .         Karatobe                      : Field
LOC                .                                       : Location
SRVC               .         JSC"Kazpromgeophysica"        : Service Company
CTRY               .         KZ                            : Country
DATE               .         15.05.05                      : Service Date
LATI               .         0                             : Latitude
LONG               .         0                             : Longitude
GDAT               .         WGS 84                        : Geodetic Datum
CNTY               .                                       : 
COORDIN            .                                       : Grid System
COUNT              .         KAZAKHSTAN                    : Country
COUNTRY            .         Kazakhstan                    : 
COUNTRY            .         Kazakhstan                    : 
EREF               .m        146.4                         : 
FN                 .         KARATUBE                      : 
KB                 .         145.7                         : KB Elevation
LGCN               .                                       : 
ORIGINALWELLNAME   .         Скважина                      : 
PROV               .                                       : Province
RWS                .         -999                          : Def_Rw
UWI                .                                       : Уникальный идентификатор скважины
WN                 .         321                           : 
WST                .         -999                          : Def_Rwt
X                  .km       466364.5                      : 
XCOORD             .                                       : X or East-West Coordinate
Y                  .km       5307853.22                    : 
YCOORD             .                                       : Y or North-South Coordinate
~Parameter Information Block
#_______________________________________________________________________________
#
#PARAMETER_NAME    .UNIT     VALUE                         : DESCRIPTION
#_______________________________________________________________________________
SET                .         Las                           : 
BS                 .MM       215.9                         : Bit Size
DFD                .G/C3     1.14                          : Drilling Fluid Density
DFV                .S        45                            : Drilling Fluid Viscosity
TLFamily_DEPT      .         Measured Depth                : 
TLFamily_PHI_FINAL .         Porosity                      : 
TLFamily_SW_AR     .         Water Saturation              : 
TLFamily_VSH_FINAL .         Shale Volume                  : 
~Curve Information
#_______________________________________________________________________________
#
#LOGNAME           .UNIT     LOG_ID                        : DESCRIPTION
#_______________________________________________________________________________
DEPT               .M                                      : Depth curve {F}
PHI_FINAL          .m3/m3                                  : Porosity {F}
SW_AR              .m3/m3                                  :  {F}
VSH_FINAL          .unitless                               : Vshale {F}
~Ascii
# ...
398        0.1871529  0.9060196  0.532252  
398.1      0.1876541  0.91377    0.5288587 
398.2      0.1649263  1          0.587092  
398.3      0.1434955  1          0.637023  
398.4      0.1398966  1          0.6213309 
398.5      0.1279559  1          0.662368  
398.6      0.1114268  1          0.7012995 
398.7      0.1171519  1          0.6742944 
398.8      0.1416082  1          0.6140329 
398.9      0.1619973  1          0.5832464 
399        0.1615549  1          0.5950854 
399.1      0.1634095  1          0.5820016 
399.2      0.1802278  1          0.5111313 
399.3      0.1865496  1          0.4974618 
399.4      0.1795666  1          0.5258406 
399.5      0.1713488  1          0.5461596 
399.6      0.1716494  1          0.567154  
399.7      0.1536451  1          0.6111386 
399.8      0.143093   1          0.6317971 
399.9      0.1670054  1          0.5668797 
400        0.1962641  1          0.4680798 
400.1      0.1835717  1          0.4997921 
400.2      0.1645381  1          0.5535668 
400.3      0.1495516  1          0.6100956 
400.4      0.1494333  1          0.6148416 
400.5      0.1371925  1          0.6385649 
400.6      0.1318269  1          0.6678324 
400.7      0.1288707  1          0.6643983 
400.8      0.1277634  1          0.664523  
400.9      0.1222191  1          0.6734589 
401        0.1186142  1          0.6841991 
401.1      0.1027294  1          0.7493749 
401.2      0.1173441  1          0.7346185 
401.3      0.1291925  1          0.6850647 
401.4      0.1439963  1          0.6360123 
401.5      0.1363261  1          0.6372728 
401.6      0.1491517  1          0.6118642 
401.7      0.1404181  1          0.6186137 
401.8      0.1654396  1          0.5547714 
401.9      0.1557817  1          0.5895013 
402        0.182269   1          0.518341  
402.1      0.1941912  1          0.4975095 
402.2      0.1926305  1          0.502968  
402.3      0.1852723  1          0.5411586 
402.4      0.1811561  1          0.5510221 
402.5      0.1638078  1          0.5868038 
402.6      0.1359266  1          0.6168094 
402.7      0.0760723  1          0.7690987 
402.8      0.06729865 1          0.7638596 
402.9      0.06322644 1          0.8037355 
403        0.0592998  1          0.8128923 
403.1      0.07531339 1          0.7669439 
403.2      0.06784974 1          0.7529519 
403.3      0.06866463 1          0.7602519 
403.4      0.05503914 1          0.8077943 
403.5      0.06144172 1          0.7810285 
403.6      0.08517031 1          0.7295083 
403.7      0.09267593 1          0.7219702 
403.8      0.08387218 1          0.7377712 
403.9      0.1274594  1          0.6154891 
404        0.1562521  1          0.5454344 
404.1      0.1657663  1          0.5323797 
404.2      0.1651322  1          0.5092167 
404.3      0.1643924  1          0.4851308 
404.4      0.1612326  1          0.4761542 
404.5      0.1661826  1          0.4534182 
404.6      0.1558889  1          0.4406277 
404.7      0.1416424  1          0.3736396 
404.8      0.1249729  1          0.3517737 
404.9      0.1083808  1          0.3300434 
405        0.08981133 1          0.3198228 
405.1      0.0870477  1          0.2966852 
405.2      0.07674762 1          0.2871765 
405.3      0.0642573  1          0.3055797 
405.4      0.05081829 1          0.3803817 
405.5      0.05436086 1          0.4349439 
405.6      0.07971651 1          0.4667154 
405.7      0.09262434 1          0.5467411 
405.8      0.09828033 1          0.5876805 
405.9      0.1376119  1          0.6090854 
406        0.1345282  1          0.6648441 
406.1      0.1666128  1          0.5773171 
406.2      0.1400696  1          0.6208959 
406.3      0.1259068  1          0.6574669 
406.4      0.1254177  1          0.6601645 
406.5      0.1086237  1          0.7027233 
406.6      0.0911388  1          0.741448  
406.7      0.06644004 1          0.784808  
406.8      0.05659645 1          0.8043184 
406.9      0.03184161 1          0.8990018 
407        0.0560919  1          0.8382431 
407.1      0.06879096 1          0.8069717 
407.2      0.08711728 1          0.733179  
407.3      0.05952559 1          0.8196818 
407.4      0.0679894  1          0.7841131 
407.5      0.09417645 1          0.7187759 
407.6      0.08749124 1          0.7430218 
407.7      0.1086817  1          0.6848955 
407.8      0.10189    1          0.6898779 
407.9      0.06887416 1          0.7661213 
408        0.05657449 1          0.8217888 
408.1      0.06124802 1          0.7924759 
408.2      0.03997447 1          0.8922412 
408.3      0.02971595 1          0.9220217 
408.4      0.01404223 1          0.9990713 
408.5      0.01736774 1          0.9656618 
408.6      0.03145047 1          0.880599  
408.7      0.03693021 1          0.8856114 
408.8      0.02513141 1          0.9278353 
408.9      0.01885447 1          0.9705655 
409        0.01463404 1          1         
409.1      0.01316099 1          1         
409.2      0.01357583 1          1         
409.3      0.01288867 1          1         
409.4      0.01790406 1          0.9594331 
409.5      0.05904258 1          0.8379613 
409.6      0.06933381 1          0.8134989 
409.7      0.07096893 1          0.8116632 
409.8      0.1057318  1          0.701984  
409.9      0.06340639 1          0.7985191 
410        0.04842094 1          0.8409824 
410.1      0.06547249 1          0.7833881 
410.2      0.03680905 1          0.8926638 
410.3      0.04153003 1          0.881817  
410.4      0.07349164 1          0.782158  
410.5      0.04620345 1          0.8590048 
410.6      0.03035697 1          0.9307966 
410.7      0.04265155 1          0.9236345 
410.8      0.03627238 1          0.9374901 
410.9      0.03531969 1          0.9557731 
411        0.02289399 1          1         
411.1      0.02032109 1          1         
411.2      0.03854448 1          0.9095874 
411.3      0.05645016 1          0.8527493 
411.4      0.07245    1          0.8196551 
411.5      0.05341108 1          0.8920794 
411.6      0.04658851 1          0.9005361 
411.7      0.02972112 1          0.9336898 
411.8      0.01237155 1          0.9876287 
411.9      0.01386857 1          1         
412        0.008209536 1          1         
412.1      0.008710652 1          1         
412.2      0.01020634 1          1         
412.3      0.01035672 1          1         
412.4      0.01201698 1          1         
412.5      0.0114008  1          1         
412.6      0.01134231 1          1         
412.7      0.01213687 1          1         
412.8      0.01313637 1          1         
412.9      0.01375909 1          1         
413        0.01616671 1          1         
413.1      0.01240138 1          1         
413.2      0.01044592 1          1         
413.3      0.009866728 1          1         
413.4      0.01095489 1          1         
413.5      0.01118567 1          0.9959395 
413.6      0.01204805 1          0.9920331 
413.7      0.01158892 1          1         
413.8      0.01246998 1          1         
413.9      0.03242221 1          0.9491615 
414        0.0263731  1          0.967284  
414.1      0.02022221 1          1         
414.2      0.03770209 1          0.9492814 
414.3      0.0198015  1          0.9826744 
414.4      0.01967319 1          0.9705224 
414.5      0.01351881 1          1         
414.6      0.03312396 1          0.8907146 
414.7      0.01602644 1          0.9709709 
414.8      0.03021276 1          0.9054675 
414.9      0.02701876 1          0.9218695 
415        0.01242885 1          1         
415.1      0.0113145  1          1         
415.2      0.01300304 1          1         
415.3      0.0128735  1          1         
415.4      0.01193282 1          1         
415.5      0.01255924 1          1         
415.6      0.0149607  1          1         
415.7      0.01416862 1          1         
415.8      0.01906618 1          1         
415.9      0.02411581 1          1         
416        0.02180321 1          1         
416.1      0.019023   1          1         
