~Version
 VERS              .         3.0                           : CWLS LOG ASCII STANDARD - VERSION 3.0
 WRAP              .         NO                            : ONE LINE PER DEPTH STEP
 DLM               .         SPACE                         : DELIMITING CHARACTER(SPACE TAB OR COMMA)
~Well Information
#_______________________________________________________________________________
#
#PARAMETER_NAME    .UNIT     VALUE                         : DESCRIPTION
#_______________________________________________________________________________
STRT               .M        0                             : First reference value
STOP               .M        905                           : Last reference value
STEP               .M        0.1                           : Step increment
NULL               .         -9999                         : Missing value
COMP               .         ICPetroleum                   : Company
WELL               .         321                           : Well name
FLD                .         Karatobe                      : Field
LOC                .                                       : Location
SRVC               .         JSC"Kazpromgeophysica"        : Service Company
CTRY               .         KZ                            : Country
DATE               .         15.05.05                      : Service Date
LATI               .         0                             : Latitude
LONG               .         0                             : Longitude
GDAT               .         WGS 84                        : Geodetic Datum
CNTY               .                                       : 
COORDIN            .                                       : Grid System
COUNT              .         KAZAKHSTAN                    : Country
COUNTRY            .         Kazakhstan                    : 
COUNTRY            .         Kazakhstan                    : 
EREF               .m        146.4                         : 
FN                 .         KARATUBE                      : 
KB                 .         145.7                         : KB Elevation
LGCN               .                                       : 
ORIGINALWELLNAME   .         Скважина                      : 
PROV               .                                       : Province
RWS                .         -999                          : Def_Rw
UWI                .                                       : Уникальный идентификатор скважины
WN                 .         321                           : 
WST                .         -999                          : Def_Rwt
X                  .km       466364.5                      : 
XCOORD             .                                       : X or East-West Coordinate
Y                  .km       5307853.22                    : 
YCOORD             .                                       : Y or North-South Coordinate
~Parameter Information Block
#_______________________________________________________________________________
#
#PARAMETER_NAME    .UNIT     VALUE                         : DESCRIPTION
#_______________________________________________________________________________
SET                .         Las                           : 
BS                 .MM       215.9                         : Bit Size
DFD                .G/C3     1.14                          : Drilling Fluid Density
DFV                .S        45                            : Drilling Fluid Viscosity
TLFamily_DEPT      .         Measured Depth                : 
TLFamily_PHI_FINAL .         Porosity                      : 
TLFamily_SW_AR     .         Water Saturation              : 
TLFamily_VSH_FINAL .         Shale Volume                  : 
~Curve Information
#_______________________________________________________________________________
#
#LOGNAME           .UNIT     LOG_ID                        : DESCRIPTION
#_______________________________________________________________________________
DEPT               .M                                      : Depth curve {F}
PHI_FINAL          .m3/m3                                  : Porosity {F}
SW_AR              .m3/m3                                  :  {F}
VSH_FINAL          .unitless                               : Vshale {F}
~Ascii
# ...
361.6      0.1221844  1          0.5679208 
361.7      0.1169532  1          0.6088806 
361.8      0.1178146  1          0.6405453 
361.9      0.09656502 1          0.6956294 
362        0.1094322  1          0.7064734 
362.1      0.1074839  1          0.7148674 
362.2      0.0987942  1          0.727293  
362.3      0.09894985 1          0.7351073 
362.4      0.0620974  1          0.8474023 
362.5      0.06442729 1          0.8448278 
362.6      0.06156065 1          0.8614107 
362.7      0.03355839 1          0.9472218 
362.8      0.04733717 1          0.9255006 
362.9      0.04224991 1          0.9358684 
363        0.05064325 1          0.9297463 
363.1      0.03396022 1          1         
363.2      0.0319731  1          1         
363.3      0.03062052 1          1         
363.4      0.03392303 1          1         
363.5      0.03341495 1          1         
363.6      0.03421879 1          1         
363.7      0.03307109 1          1         
363.8      0.02779284 1          1         
363.9      0.02656259 1          1         
364        0.03024296 1          1         
364.1      0.03924857 1          0.9463515 
364.2      0.0419526  1          0.9184702 
364.3      0.05732849 1          0.8586811 
364.4      0.0466221  1          0.8770468 
364.5      0.04925508 1          0.873149  
364.6      0.06870947 1          0.8370486 
364.7      0.04603516 1          0.8856313 
364.8      0.07529853 1          0.7970119 
364.9      0.1082054  1          0.7036381 
365        0.1086043  1          0.6979172 
365.1      0.1214928  1          0.6496668 
365.2      0.1268404  1          0.6349608 
365.3      0.1163687  1          0.6388242 
365.4      0.1318174  1          0.5962186 
365.5      0.1399723  1          0.5776424 
365.6      0.08498415 1          0.7339722 
365.7      0.07585321 1          0.7528773 
365.8      0.05967446 1          0.8260047 
365.9      0.05374506 1          0.8724121 
366        0.03429418 1          0.9445789 
366.1      0.03892871 1          0.9308246 
366.2      0.0427137  1          0.910467  
366.3      0.01428972 1          1         
366.4      0.01030757 1          1         
366.5      0.01068339 1          1         
366.6      0.01400291 1          1         
366.7      0.01735506 1          1         
366.8      0.01681364 1          1         
366.9      0.02365543 1          0.9788225 
367        0.02403126 1          0.976914  
367.1      0.02943642 1          0.9264324 
367.2      0.01480032 1          0.9669644 
367.3      0.008057757 1          1         
367.4      0.006793657 1          1         
367.5      0.005698828 1          1         
367.6      0.005400398 1          1         
367.7      0.005105644 1          1         
367.8      0.002890258 1          1         
367.9      0.001418833 1          1         
368        0          1          1         
368.1      0          1          1         
368.2      0          1          1         
368.3      0.008416059 1          0.8189957 
368.4      0.08071154 1          0.5978494 
368.5      0.1216725  1          0.4690717 
368.6      0.1311924  0.9190191  0.3883159 
368.7      0.1186476  0.7832352  0.3637429 
368.8      0.09791488 0.7844034  0.3253745 
368.9      0.1112088  0.5536647  0.3073618 
369        0.09888057 0.5816787  0.3364022 
369.1      0.09052867 0.6099811  0.3626668 
369.2      0.1025445  0.5420194  0.370912  
369.3      0.1058099  0.53202    0.4540445 
369.4      0.08016121 0.7635493  0.5650556 
369.5      0.07994958 0.8764685  0.6459638 
369.6      0.06988268 1          0.7167825 
369.7      0.08204719 1          0.7402845 
369.8      0.07056743 1          0.8373564 
369.9      0.08784505 1          0.8291991 
370        0.07425686 1          0.8982227 
370.1      0.09195695 0.9973047  0.8634542 
370.2      0.07961723 1          0.8978847 
370.3      0.03767212 1          1         
370.4      0.03220091 1          1         
370.5      0.02599147 1          1         
370.6      0.02193771 1          1         
370.7      0.01693676 1          1         
370.8      0.01573903 1          1         
370.9      0.01323888 1          1         
371        0.01208298 1          1         
371.1      0.01260218 1          1         
371.2      0.01267366 1          1         
371.3      0.01252892 1          1         
371.4      0.01194275 1          1         
371.5      0.01066841 1          1         
371.6      0.009444271 1          1         
371.7      0.01023867 1          1         
371.8      0.006741712 1          1         
371.9      0.005026826 1          1         
372        0.004488825 1          1         
372.1      0.007543538 1          1         
372.2      0.008806502 1          1         
372.3      0.01063946 1          1         
372.4      0.01155907 1          1         
372.5      0.01103243 1          1         
372.6      0.01012285 1          1         
372.7      0.01110084 1          1         
372.8      0.01438468 1          1         
372.9      0.01443402 1          1         
373        0.03633225 1          0.8843924 
373.1      0.1024336  1          0.6848832 
373.2      0.09016178 1          0.7171484 
373.3      0.09887511 1          0.6953734 
373.4      0.0946903  1          0.6937467 
373.5      0.1012298  1          0.690125  
373.6      0.07159031 1          0.7776927 
373.7      0.1059892  1          0.6958931 
373.8      0.1379655  1          0.6202877 
373.9      0.1573787  1          0.5858854 
374        0.1618368  1          0.5823452 
374.1      0.1825033  1          0.5451283 
374.2      0.1827907  1          0.5507376 
374.3      0.1903272  1          0.4929537 
374.4      0.2114616  0.9960735  0.4401079 
374.5      0.1922655  1          0.4942859 
374.6      0.176316   1          0.5233993 
374.7      0.1684988  1          0.5587175 
374.8      0.1621985  1          0.5680031 
374.9      0.1693961  1          0.5542065 
375        0.1694009  1          0.5413077 
375.1      0.1320002  1          0.6773482 
375.2      0.1272544  1          0.7087415 
375.3      0.1006414  1          0.7542796 
375.4      0.08157283 1          0.7987279 
375.5      0.07735863 1          0.8031405 
375.6      0.03300214 1          0.9132547 
375.7      0.01426497 1          1         
375.8      0.01447942 1          1         
375.9      0.02239813 1          0.9715084 
376        0.03213007 1          0.9186793 
376.1      0.01523474 1          1         
376.2      0.03992007 1          0.9115825 
376.3      0.06413848 1          0.8789642 
376.4      0.053698   1          0.9157326 
376.5      0.05853334 1          0.9018285 
376.6      0.0752191  1          0.8534184 
376.7      0.06841777 1          0.8638719 
376.8      0.03340403 1          0.9921007 
376.9      0.03664614 1          0.9853548 
377        0.04183503 1          0.9348116 
377.1      0.02699173 1          0.9669102 
377.2      0.05995108 1          0.8880628 
377.3      0.05349573 1          0.8922814 
377.4      0.04838708 1          0.8864821 
377.5      0.06470412 1          0.8232674 
377.6      0.08220428 1          0.7790318 
377.7      0.05680229 1          0.8382525 
377.8      0.08039748 1          0.7904759 
377.9      0.0763951  1          0.7788892 
378        0.1031815  1          0.6949528 
378.1      0.1037446  1          0.7079521 
378.2      0.09710485 1          0.7070657 
378.3      0.08629843 1          0.720265  
378.4      0.09143877 1          0.7083446 
378.5      0.06969254 1          0.79822   
378.6      0.05058336 1          0.8721373 
378.7      0.03711495 1          0.9396715 
378.8      0.03252536 1          0.9490715 
378.9      0.05127989 1          0.8889952 
379        0.04054918 1          0.9420989 
379.1      0.02595276 1          0.983256  
379.2      0.02032397 1          0.9895976 
379.3      0.04254371 1          0.9278259 
379.4      0.04635766 1          0.9102628 
379.5      0.05030751 1          0.9081789 
379.6      0.05164867 1          0.8822367 
379.7      0.0639846  1          0.8414024 
