~Version
 VERS              .         3.0                           : CWLS LOG ASCII STANDARD - VERSION 3.0
 WRAP              .         NO                            : ONE LINE PER DEPTH STEP
 DLM               .         SPACE                         : DELIMITING CHARACTER(SPACE TAB OR COMMA)
~Well Information
#_______________________________________________________________________________
#
#PARAMETER_NAME    .UNIT     VALUE                         : DESCRIPTION
#_______________________________________________________________________________
STRT               .M        0                             : First reference value
STOP               .M        905                           : Last reference value
STEP               .M        0.1                           : Step increment
NULL               .         -9999                         : Missing value
COMP               .         ICPetroleum                   : Company
WELL               .         321                           : Well name
FLD                .         Karatobe                      : Field
LOC                .                                       : Location
SRVC               .         JSC"Kazpromgeophysica"        : Service Company
CTRY               .         KZ                            : Country
DATE               .         15.05.05                      : Service Date
LATI               .         0                             : Latitude
LONG               .         0                             : Longitude
GDAT               .         WGS 84                        : Geodetic Datum
CNTY               .                                       : 
COORDIN            .                                       : Grid System
COUNT              .         KAZAKHSTAN                    : Country
COUNTRY            .         Kazakhstan                    : 
COUNTRY            .         Kazakhstan                    : 
EREF               .m        146.4                         : 
FN                 .         KARATUBE                      : 
KB                 .         145.7                         : KB Elevation
LGCN               .                                       : 
ORIGINALWELLNAME   .         Скважина                      : 
PROV               .                                       : Province
RWS                .         -999                          : Def_Rw
UWI                .                                       : Уникальный идентификатор скважины
WN                 .         321                           : 
WST                .         -999                          : Def_Rwt
X                  .km       466364.5                      : 
XCOORD             .                                       : X or East-West Coordinate
Y                  .km       5307853.22                    : 
YCOORD             .                                       : Y or North-South Coordinate
~Parameter Information Block
#_______________________________________________________________________________
#
#PARAMETER_NAME    .UNIT     VALUE                         : DESCRIPTION
#_______________________________________________________________________________
SET                .         Las                           : 
BS                 .MM       215.9                         : Bit Size
DFD                .G/C3     1.14                          : Drilling Fluid Density
DFV                .S        45                            : Drilling Fluid Viscosity
TLFamily_DEPT      .         Measured Depth                : 
TLFamily_PHI_FINAL .         Porosity                      : 
TLFamily_SW_AR     .         Water Saturation              : 
TLFamily_VSH_FINAL .         Shale Volume                  : 
~Curve Information
#_______________________________________________________________________________
#
#LOGNAME           .UNIT     LOG_ID                        : DESCRIPTION
#_______________________________________________________________________________
DEPT               .M                                      : Depth curve {F}
PHI_FINAL          .m3/m3                                  : Porosity {F}
SW_AR              .m3/m3                                  :  {F}
VSH_FINAL          .unitless                               : Vshale {F}
~Ascii
# ...
634.5      0.0640452  1          0.8303644 
634.6      0.05747581 1          0.8658276 
634.7      0.07287683 1          0.8662101 
634.8      0.06011982 1          0.9196208 
634.9      0.03375081 1          1         
635        0.03185545 1          1         
635.1      0.02687645 1          1         
635.2      0.02338441 1          0.9965662 
635.3      0.02583826 1          0.9681964 
635.4      0.03303973 1          0.9535092 
635.5      0.02142447 1          1         
635.6      0.03684587 1          0.9366484 
635.7      0.04176351 1          0.9079675 
635.8      0.08311489 1          0.7492656 
635.9      0.0978963  1          0.6688241 
636        0.0900823  1          0.6677016 
636.1      0.05652295 1          0.7356414 
636.2      0.05482107 1          0.7315212 
636.3      0.05896656 1          0.7269804 
636.4      0.06408129 1          0.7052917 
636.5      0.06175396 1          0.7140522 
636.6      0.06798091 1          0.7098264 
636.7      0.04288208 1          0.7948563 
636.8      0.06947582 1          0.7388955 
636.9      0.06096503 1          0.7700707 
637        0.06625842 1          0.7882917 
637.1      0.04282433 1          0.8159238 
637.2      0.0310797  1          0.8765851 
637.3      0.04492109 1          0.791977  
637.4      0.03113216 1          0.8074982 
637.5      0.0367533  1          0.7700675 
637.6      0.05593212 1          0.714625  
637.7      0.06350484 1          0.7097504 
637.8      0.08177614 1          0.6727227 
637.9      0.0815728  1          0.6755134 
638        0.08233047 1          0.6704699 
638.1      0.09578439 1          0.6240201 
638.2      0.1012801  1          0.6092514 
638.3      0.08370184 1          0.6747058 
638.4      0.08202281 1          0.6494371 
638.5      0.07695282 1          0.6693667 
638.6      0.09263572 1          0.623768  
638.7      0.09650242 1          0.6451774 
638.8      0.09964463 1          0.6496608 
638.9      0.08920345 1          0.6838717 
639        0.1043904  1          0.6615432 
639.1      0.1454801  1          0.559274  
639.2      0.1630223  1          0.5218475 
639.3      0.1978135  1          0.4392087 
639.4      0.2332621  1          0.3467683 
639.5      0.2478345  1          0.3120477 
639.6      0.2445261  1          0.3140604 
639.7      0.239603   1          0.3298995 
639.8      0.1777731  1          0.4211886 
639.9      0.1600416  1          0.5385407 
640        0.1485538  1          0.5822355 
640.1      0.1367224  1          0.6586701 
640.2      0.1219047  1          0.7192667 
640.3      0.1247252  1          0.7388288 
640.4      0.1442655  1          0.7049887 
640.5      0.1669566  1          0.6696728 
640.6      0.1723017  1          0.6658983 
640.7      0.1894682  1          0.6230575 
640.8      0.1676231  1          0.6491846 
640.9      0.1315584  1          0.6768952 
641        0.1272044  1          0.6776237 
641.1      0.1073622  1          0.7068357 
641.2      0.09519064 1          0.7140697 
641.3      0.0925135  1          0.7148314 
641.4      0.09955123 1          0.6945873 
641.5      0.09876093 1          0.7010686 
641.6      0.07276774 1          0.7134303 
641.7      0.08242539 1          0.7315041 
641.8      0.08726579 1          0.6866081 
641.9      0.1170351  1          0.6164572 
642        0.1352667  1          0.5608841 
642.1      0.1371117  1          0.5669625 
642.2      0.1572806  0.9791049  0.5421028 
642.3      0.1826192  0.8183287  0.48762   
642.4      0.1695572  0.8531412  0.5087225 
642.5      0.1865367  0.781132   0.4639534 
642.6      0.178607   0.8266256  0.4595988 
642.7      0.169395   0.8904977  0.4821157 
642.8      0.1882701  0.8206524  0.4317577 
642.9      0.1833509  0.8579419  0.4588306 
643        0.1697426  0.9260496  0.4976452 
643.1      0.1741206  0.9024901  0.4719722 
643.2      0.1926555  0.8208254  0.4283318 
643.3      0.1810009  0.871102   0.4473794 
643.4      0.1777911  0.8832996  0.4710339 
643.5      0.166325   0.9337875  0.5003178 
643.6      0.1543065  1          0.5412381 
643.7      0.1489345  1          0.5616702 
643.8      0.1143702  1          0.6881563 
643.9      0.1196712  1          0.692045  
644        0.112499   1          0.7392113 
644.1      0.1185033  1          0.6998798 
644.2      0.117204   1          0.7221995 
644.3      0.117774   1          0.7353168 
644.4      0.09088907 1          0.7752584 
644.5      0.1028761  1          0.7238477 
644.6      0.1087734  1          0.6867244 
644.7      0.090896   1          0.7227573 
644.8      0.1137403  1          0.6663215 
644.9      0.09073275 1          0.7118995 
645        0.1068096  1          0.6267379 
645.1      0.1010608  1          0.5974134 
645.2      0.08823568 1          0.6149091 
645.3      0.088642   1          0.5842639 
645.4      0.09549672 1          0.5530662 
645.5      0.09353178 1          0.5373099 
645.6      0.1196819  1          0.4611998 
645.7      0.1363914  1          0.4242145 
645.8      0.1304435  1          0.4026164 
645.9      0.1292897  1          0.3677812 
646        0.1196663  1          0.316156  
646.1      0.1133877  1          0.2685357 
646.2      0.1060239  0.9385665  0.2364975 
646.3      0.09692157 0.8898396  0.2406586 
646.4      0.1007291  0.817806   0.2578392 
646.5      0.1089553  0.8334347  0.2563355 
646.6      0.1118166  0.9469663  0.2657294 
646.7      0.1037655  1          0.2935126 
646.8      0.09869414 1          0.3172713 
646.9      0.09759066 1          0.3229173 
647        0.1049967  1          0.3494634 
647.1      0.1346911  0.9903136  0.3491874 
647.2      0.1623929  0.8961712  0.3613819 
647.3      0.1843482  0.8579387  0.3752837 
647.4      0.1808736  0.8977603  0.4197477 
647.5      0.1920562  0.8394714  0.4257255 
647.6      0.2049638  0.7862977  0.3820267 
647.7      0.2033757  0.8090571  0.376593  
647.8      0.2103287  0.7929852  0.3622051 
647.9      0.2362889  0.7149989  0.3136294 
648        0.2369747  0.6925411  0.3143461 
648.1      0.253667   0.6018435  0.2496125 
648.2      0.2668603  0.5650969  0.2194976 
648.3      0.2838181  0.5592595  0.1940569 
648.4      0.2862492  0.5834972  0.1813536 
648.5      0.2932042  0.5660577  0.1580129 
648.6      0.306512   0.3944905  0.1325499 
648.7      0.3119167  0.321065   0.1301576 
648.8      0.3047754  0.3093062  0.1383229 
648.9      0.2869547  0.3881222  0.1714324 
649        0.2616089  0.4894746  0.2202168 
649.1      0.2435599  0.5788573  0.2855614 
649.2      0.2363832  0.6317653  0.2930897 
649.3      0.2370793  0.6599767  0.3201559 
649.4      0.2419454  0.6805162  0.3035522 
649.5      0.2422577  0.6870193  0.2897472 
649.6      0.2331489  0.6741514  0.2550143 
649.7      0.2548246  0.5638989  0.2061134 
649.8      0.2718364  0.5113958  0.1825372 
649.9      0.2621042  0.4785491  0.1871586 
650        0.2543937  0.5175754  0.2091964 
650.1      0.2527684  0.5697997  0.2396836 
650.2      0.2452341  0.6193645  0.2479709 
650.3      0.24507    0.6373417  0.2604429 
650.4      0.2175312  0.7723979  0.2960619 
650.5      0.1996193  0.9202101  0.3360498 
650.6      0.1851543  1          0.3497198 
650.7      0.1642212  1          0.3800787 
650.8      0.16239    1          0.3864647 
650.9      0.1637043  1          0.3887086 
651        0.1606571  1          0.3972864 
651.1      0.1517123  1          0.4008878 
651.2      0.1599287  1          0.386402  
651.3      0.1675797  1          0.3493112 
651.4      0.1671576  1          0.3410492 
651.5      0.1576922  1          0.3539286 
651.6      0.1652642  1          0.3452317 
651.7      0.1709888  1          0.3450749 
651.8      0.1548497  1          0.3954682 
651.9      0.1571853  1          0.4136049 
652        0.1689508  1          0.4250951 
652.1      0.1764875  1          0.4358668 
652.2      0.1779678  1          0.4643337 
652.3      0.1635329  1          0.5662156 
652.4      0.1500509  1          0.608703  
652.5      0.1579077  1          0.6350918 
652.6      0.1313183  1          0.7079344 
