~Version
 VERS              .         3.0                           : CWLS LOG ASCII STANDARD - VERSION 3.0
 WRAP              .         NO                            : ONE LINE PER DEPTH STEP
 DLM               .         SPACE                         : DELIMITING CHARACTER(SPACE TAB OR COMMA)
~Well Information
#_______________________________________________________________________________
#
#PARAMETER_NAME    .UNIT     VALUE                         : DESCRIPTION
#_______________________________________________________________________________
STRT               .M        0                             : First reference value
STOP               .M        905                           : Last reference value
STEP               .M        0.1                           : Step increment
NULL               .         -9999                         : Missing value
COMP               .         ICPetroleum                   : Company
WELL               .         321                           : Well name
FLD                .         Karatobe                      : Field
LOC                .                                       : Location
SRVC               .         JSC"Kazpromgeophysica"        : Service Company
CTRY               .         KZ                            : Country
DATE               .         15.05.05                      : Service Date
LATI               .         0                             : Latitude
LONG               .         0                             : Longitude
GDAT               .         WGS 84                        : Geodetic Datum
CNTY               .                                       : 
COORDIN            .                                       : Grid System
COUNT              .         KAZAKHSTAN                    : Country
COUNTRY            .         Kazakhstan                    : 
COUNTRY            .         Kazakhstan                    : 
EREF               .m        146.4                         : 
FN                 .         KARATUBE                      : 
KB                 .         145.7                         : KB Elevation
LGCN               .                                       : 
ORIGINALWELLNAME   .         Скважина                      : 
PROV               .                                       : Province
RWS                .         -999                          : Def_Rw
UWI                .                                       : Уникальный идентификатор скважины
WN                 .         321                           : 
WST                .         -999                          : Def_Rwt
X                  .km       466364.5                      : 
XCOORD             .                                       : X or East-West Coordinate
Y                  .km       5307853.22                    : 
YCOORD             .                                       : Y or North-South Coordinate
~Parameter Information Block
#_______________________________________________________________________________
#
#PARAMETER_NAME    .UNIT     VALUE                         : DESCRIPTION
#_______________________________________________________________________________
SET                .         Las                           : 
BS                 .MM       215.9                         : Bit Size
DFD                .G/C3     1.14                          : Drilling Fluid Density
DFV                .S        45                            : Drilling Fluid Viscosity
TLFamily_DEPT      .         Measured Depth                : 
TLFamily_PHI_FINAL .         Porosity                      : 
TLFamily_SW_AR     .         Water Saturation              : 
TLFamily_VSH_FINAL .         Shale Volume                  : 
~Curve Information
#_______________________________________________________________________________
#
#LOGNAME           .UNIT     LOG_ID                        : DESCRIPTION
#_______________________________________________________________________________
DEPT               .M                                      : Depth curve {F}
PHI_FINAL          .m3/m3                                  : Porosity {F}
SW_AR              .m3/m3                                  :  {F}
VSH_FINAL          .unitless                               : Vshale {F}
~Ascii
# ...
579.9      0.1906917  1          0.4626366 
580        0.1868966  1          0.4906755 
580.1      0.1723673  1          0.5172656 
580.2      0.1893892  1          0.4578519 
580.3      0.1991522  1          0.4144652 
580.4      0.2062844  1          0.4241878 
580.5      0.2082999  1          0.3988896 
580.6      0.2052975  1          0.4048553 
580.7      0.2112094  1          0.3819656 
580.8      0.205789   1          0.4086171 
580.9      0.213578   1          0.372139  
581        0.2234048  1          0.3364748 
581.1      0.2192249  1          0.3516035 
581.2      0.2063868  1          0.365249  
581.3      0.2067427  1          0.351271  
581.4      0.2254199  1          0.3215619 
581.5      0.2347848  1          0.3078468 
581.6      0.2352335  1          0.3117962 
581.7      0.2291684  1          0.3231588 
581.8      0.2346938  1          0.3057591 
581.9      0.2408617  1          0.3001751 
582        0.2339773  1          0.3074428 
582.1      0.2247512  1          0.3265645 
582.2      0.2239753  1          0.3267557 
582.3      0.2354046  1          0.298095  
582.4      0.224457   1          0.3136147 
582.5      0.2150568  1          0.3353842 
582.6      0.2256403  1          0.3454818 
582.7      0.2356796  1          0.3204876 
582.8      0.2472386  1          0.2884877 
582.9      0.2400383  1          0.3113105 
583        0.2510852  1          0.2987072 
583.1      0.2583625  1          0.2700284 
583.2      0.2698734  1          0.2591335 
583.3      0.2806598  1          0.2269947 
583.4      0.2763607  1          0.2367212 
583.5      0.2762884  1          0.2327587 
583.6      0.2754017  1          0.2438587 
583.7      0.2682933  1          0.2396262 
583.8      0.259052   1          0.2524733 
583.9      0.2625211  1          0.2346173 
584        0.2569     1          0.255928  
584.1      0.2664108  1          0.2483533 
584.2      0.2703747  1          0.2344503 
584.3      0.2677292  1          0.2471807 
584.4      0.2734323  1          0.2205099 
584.5      0.2738209  1          0.2198888 
584.6      0.2758847  1          0.2237242 
584.7      0.2780614  1          0.221122  
584.8      0.2776788  1          0.2531336 
584.9      0.2607685  1          0.258154  
585        0.2690789  1          0.2421038 
585.1      0.2677195  1          0.2302279 
585.2      0.2673864  1          0.2177702 
585.3      0.2634833  1          0.2298253 
585.4      0.2553424  1          0.2403551 
585.5      0.2529153  1          0.2583626 
585.6      0.2417588  1          0.2909985 
585.7      0.2276834  1          0.29872   
585.8      0.2253094  1          0.2934621 
585.9      0.2203794  1          0.2860916 
586        0.2284518  1          0.2670585 
586.1      0.2365766  1          0.2566559 
586.2      0.2421404  1          0.2515103 
586.3      0.2434163  1          0.2535569 
586.4      0.2399527  1          0.2572376 
586.5      0.2256063  1          0.2820752 
586.6      0.2152378  1          0.318757  
586.7      0.2266887  1          0.312224  
586.8      0.2216603  1          0.3167659 
586.9      0.2130842  1          0.3410244 
587        0.212914   1          0.3659942 
587.1      0.2137483  1          0.3532653 
587.2      0.2080296  1          0.3613853 
587.3      0.2292988  1          0.313445  
587.4      0.2383012  1          0.3253882 
587.5      0.249995   1          0.2980857 
587.6      0.2633683  1          0.2836667 
587.7      0.2647024  1          0.2789276 
587.8      0.2821781  1          0.2398074 
587.9      0.2761723  1          0.2474853 
588        0.2774335  1          0.238488  
588.1      0.2651881  1          0.2557914 
588.2      0.2506326  1          0.2780561 
588.3      0.2437016  1          0.2722926 
588.4      0.2346438  1          0.2803302 
588.5      0.2359015  1          0.2745309 
588.6      0.2375174  1          0.2806733 
588.7      0.2389147  1          0.2938371 
588.8      0.2428833  1          0.2930631 
588.9      0.2607676  1          0.2633452 
589        0.2601745  1          0.2646786 
589.1      0.2572472  1          0.2626058 
589.2      0.2592322  1          0.2484258 
589.3      0.2622937  1          0.242044  
589.4      0.2644215  1          0.2379395 
589.5      0.2567031  1          0.2657    
589.6      0.2743065  1          0.2284856 
589.7      0.2774633  1          0.2320635 
589.8      0.2717622  1          0.2207573 
589.9      0.2729369  1          0.2294607 
590        0.2780478  1          0.2358983 
590.1      0.2794409  1          0.2192414 
590.2      0.2850963  1          0.2018544 
590.3      0.2760424  1          0.199368  
590.4      0.2630929  1          0.2211257 
590.5      0.2565055  1          0.2440063 
590.6      0.2588051  1          0.2283239 
590.7      0.251194   1          0.2634867 
590.8      0.2515973  1          0.2704214 
590.9      0.2508963  1          0.2845343 
591        0.2528373  1          0.2880203 
591.1      0.2536699  1          0.2885069 
591.2      0.2533755  1          0.2916096 
591.3      0.2535463  1          0.2938919 
591.4      0.2652782  1          0.2761244 
591.5      0.2614159  1          0.2573796 
591.6      0.2594648  1          0.259551  
591.7      0.2582647  1          0.2839615 
591.8      0.2520254  1          0.2838258 
591.9      0.2538444  1          0.268207  
592        0.2683925  1          0.2366313 
592.1      0.2696735  1          0.2416582 
592.2      0.2611481  1          0.252916  
592.3      0.2720171  1          0.2236643 
592.4      0.2752079  1          0.2113551 
592.5      0.2852657  1          0.2087885 
592.6      0.2883351  1          0.1885072 
592.7      0.286961   1          0.1825484 
592.8      0.2848971  1          0.1684916 
592.9      0.288801   1          0.1654655 
593        0.2897779  1          0.1635091 
593.1      0.2983814  1          0.1643916 
593.2      0.3037519  1          0.1520226 
593.3      0.3034615  1          0.1446911 
593.4      0.3019929  1          0.1466613 
593.5      0.2979332  1          0.1529008 
593.6      0.2985285  1          0.1528199 
593.7      0.2989381  1          0.1634649 
593.8      0.3000349  1          0.1708679 
593.9      0.291662   1          0.1714197 
594        0.2839438  1          0.1847672 
594.1      0.2788631  1          0.2003151 
594.2      0.2835636  1          0.1960467 
594.3      0.2805823  1          0.1968081 
594.4      0.2781982  1          0.1972575 
594.5      0.2782109  1          0.1920342 
594.6      0.282142   1          0.1923992 
594.7      0.2808388  1          0.2036956 
594.8      0.2856354  1          0.1916672 
594.9      0.2858644  1          0.1918011 
595        0.3016213  1          0.1661637 
595.1      0.3040016  1          0.1538523 
595.2      0.299177   1          0.1695671 
595.3      0.3033463  1          0.1661839 
595.4      0.2985528  1          0.1761847 
595.5      0.2988046  1          0.1791542 
595.6      0.2917977  1          0.1795027 
595.7      0.282457   1          0.1834761 
595.8      0.2903084  1          0.1689017 
595.9      0.2961142  1          0.158207  
596        0.2944326  1          0.1575184 
596.1      0.2982587  1          0.1604782 
596.2      0.2934556  1          0.164786  
596.3      0.2854249  1          0.1777675 
596.4      0.2838399  1          0.1819351 
596.5      0.2873648  1          0.1927909 
596.6      0.2832539  1          0.1951694 
596.7      0.2919553  1          0.1785709 
596.8      0.29703    1          0.1739188 
596.9      0.3083493  1          0.1531871 
597        0.2937458  1          0.1783706 
597.1      0.3001086  1          0.1742972 
597.2      0.3016649  1          0.1942725 
597.3      0.2999293  1          0.2234856 
597.4      0.3076208  1          0.2238897 
597.5      0.3143975  1          0.217339  
597.6      0.3249028  1          0.1953553 
597.7      0.3309505  1          0.1672513 
597.8      0.3302855  1          0.164111  
597.9      0.320526   1          0.1745881 
598        0.3137609  1          0.1800925 
