~Version
 VERS              .         3.0                           : CWLS LOG ASCII STANDARD - VERSION 3.0
 WRAP              .         NO                            : ONE LINE PER DEPTH STEP
 DLM               .         SPACE                         : DELIMITING CHARACTER(SPACE TAB OR COMMA)
~Well Information
#_______________________________________________________________________________
#
#PARAMETER_NAME    .UNIT     VALUE                         : DESCRIPTION
#_______________________________________________________________________________
STRT               .M        0                             : First reference value
STOP               .M        905                           : Last reference value
STEP               .M        0.1                           : Step increment
NULL               .         -9999                         : Missing value
COMP               .         ICPetroleum                   : Company
WELL               .         321                           : Well name
FLD                .         Karatobe                      : Field
LOC                .                                       : Location
SRVC               .         JSC"Kazpromgeophysica"        : Service Company
CTRY               .         KZ                            : Country
DATE               .         15.05.05                      : Service Date
LATI               .         0                             : Latitude
LONG               .         0                             : Longitude
GDAT               .         WGS 84                        : Geodetic Datum
CNTY               .                                       : 
COORDIN            .                                       : Grid System
COUNT              .         KAZAKHSTAN                    : Country
COUNTRY            .         Kazakhstan                    : 
COUNTRY            .         Kazakhstan                    : 
EREF               .m        146.4                         : 
FN                 .         KARATUBE                      : 
KB                 .         145.7                         : KB Elevation
LGCN               .                                       : 
ORIGINALWELLNAME   .         Скважина                      : 
PROV               .                                       : Province
RWS                .         -999                          : Def_Rw
UWI                .                                       : Уникальный идентификатор скважины
WN                 .         321                           : 
WST                .         -999                          : Def_Rwt
X                  .km       466364.5                      : 
XCOORD             .                                       : X or East-West Coordinate
Y                  .km       5307853.22                    : 
YCOORD             .                                       : Y or North-South Coordinate
~Parameter Information Block
#_______________________________________________________________________________
#
#PARAMETER_NAME    .UNIT     VALUE                         : DESCRIPTION
#_______________________________________________________________________________
SET                .         Las                           : 
BS                 .MM       215.9                         : Bit Size
DFD                .G/C3     1.14                          : Drilling Fluid Density
DFV                .S        45                            : Drilling Fluid Viscosity
TLFamily_DEPT      .         Measured Depth                : 
TLFamily_PHI_FINAL .         Porosity                      : 
TLFamily_SW_AR     .         Water Saturation              : 
TLFamily_VSH_FINAL .         Shale Volume                  : 
~Curve Information
#_______________________________________________________________________________
#
#LOGNAME           .UNIT     LOG_ID                        : DESCRIPTION
#_______________________________________________________________________________
DEPT               .M                                      : Depth curve {F}
PHI_FINAL          .m3/m3                                  : Porosity {F}
SW_AR              .m3/m3                                  :  {F}
VSH_FINAL          .unitless                               : Vshale {F}
~Ascii
# ...
670.9      0.2662424  0.4810413  0.1725145 
671        0.274994   0.4647321  0.163902  
671.1      0.2761244  0.4570145  0.1729599 
671.2      0.2672882  0.4671909  0.1929845 
671.3      0.2614776  0.477031   0.2165683 
671.4      0.2624017  0.4789012  0.2135188 
671.5      0.2658417  0.4766548  0.208936  
671.6      0.2620459  0.4810561  0.1952779 
671.7      0.2498606  0.5003306  0.1854697 
671.8      0.2519701  0.4963937  0.1866019 
671.9      0.2418671  0.5202214  0.1853617 
672        0.2492298  0.5118211  0.1859177 
672.1      0.2409424  0.5329643  0.1999788 
672.2      0.2313067  0.5518476  0.2094124 
672.3      0.2420839  0.5153301  0.1961099 
672.4      0.2409686  0.5074539  0.1963888 
672.5      0.2430066  0.4978085  0.1904623 
672.6      0.2484316  0.4880079  0.1861678 
672.7      0.258514   0.4728601  0.1691676 
672.8      0.2687662  0.4620711  0.1615897 
672.9      0.2627351  0.4770823  0.1595579 
673        0.2654364  0.4740487  0.143939  
673.1      0.2634336  0.4707918  0.1429583 
673.2      0.2721324  0.4484932  0.1464106 
673.3      0.2756275  0.4313797  0.1314696 
673.4      0.2739102  0.42668    0.1261425 
673.5      0.2655984  0.4310495  0.1271388 
673.6      0.275587   0.4127927  0.1234576 
673.7      0.2697487  0.4195766  0.1306799 
673.8      0.2619816  0.4290479  0.1413649 
673.9      0.2706656  0.4146686  0.1314566 
674        0.2742599  0.4104645  0.1329958 
674.1      0.2740797  0.4121846  0.1434921 
674.2      0.2763169  0.4065717  0.1554498 
674.3      0.2698778  0.402343   0.1601257 
674.4      0.2740324  0.3918288  0.1376667 
674.5      0.2843343  0.3784462  0.1188403 
674.6      0.2878999  0.376921   0.1126267 
674.7      0.2863294  0.3795335  0.1320503 
674.8      0.2850951  0.3802595  0.1293024 
674.9      0.2904784  0.3716814  0.1364893 
675        0.2811911  0.3814492  0.1620386 
675.1      0.2874681  0.3760666  0.16111   
675.2      0.2849455  0.385498   0.155496  
675.3      0.278916   0.4057212  0.1702981 
675.4      0.2831638  0.405676   0.1638795 
675.5      0.2804578  0.4117622  0.1655154 
675.6      0.2871856  0.3950231  0.1564576 
675.7      0.2950492  0.3740169  0.1199574 
675.8      0.2941247  0.3537105  0.11085   
675.9      0.2948751  0.3342442  0.1142291 
676        0.2939914  0.3275983  0.118095  
676.1      0.3025937  0.3134604  0.1129518 
676.2      0.3184992  0.2947084  0.09841397
676.3      0.3222923  0.2880651  0.09180758
676.4      0.3157906  0.2942605  0.09513951
676.5      0.3165255  0.295637   0.08837903
676.6      0.3151499  0.3004355  0.09090237
676.7      0.3112129  0.3054042  0.1034206 
676.8      0.3147185  0.3090276  0.09336084
676.9      0.3150022  0.310477   0.09330622
677        0.3112444  0.3102044  0.1021078 
677.1      0.3171513  0.2954076  0.1002835 
677.2      0.323079   0.2828948  0.09446136
677.3      0.3201644  0.2785918  0.092339  
677.4      0.3084444  0.2916545  0.1063625 
677.5      0.2983734  0.3138041  0.1159182 
677.6      0.2902914  0.336497   0.1191664 
677.7      0.2804311  0.3544797  0.1305005 
677.8      0.2849     0.3595697  0.1295245 
677.9      0.2912966  0.3603303  0.1213545 
678        0.2866308  0.3711683  0.1214528 
678.1      0.2994126  0.3541196  0.1141186 
678.2      0.2898724  0.3614996  0.1126447 
678.3      0.2955359  0.3490263  0.1130523 
678.4      0.2915042  0.3490751  0.1045673 
678.5      0.2900694  0.3459349  0.09846818
678.6      0.2961254  0.3363824  0.09525231
678.7      0.3037549  0.3261019  0.08790348
678.8      0.3042199  0.3242734  0.1001907 
678.9      0.3117007  0.3178249  0.09235863
679        0.3095523  0.3205495  0.1027761 
679.1      0.3144419  0.3147577  0.1006538 
679.2      0.3088552  0.3187388  0.1034523 
679.3      0.3186634  0.3091312  0.08845311
679.4      0.3104995  0.3187192  0.09853978
679.5      0.3075733  0.3329527  0.1022397 
679.6      0.2921601  0.3623043  0.1086987 
679.7      0.2805406  0.3769611  0.1287992 
679.8      0.2675065  0.3882602  0.1287878 
679.9      0.2631536  0.3939207  0.1296796 
680        0.2839879  0.3725881  0.1211872 
680.1      0.2874274  0.3738962  0.1290918 
680.2      0.2944978  0.3735518  0.1201911 
680.3      0.3012859  0.3758571  0.118888  
680.4      0.2947274  0.3889692  0.120603  
680.5      0.2876597  0.4039643  0.1277533 
680.6      0.2788011  0.4185681  0.1340547 
680.7      0.2880014  0.403991   0.1286292 
680.8      0.2892895  0.3971367  0.1154313 
680.9      0.295087   0.3862439  0.1197404 
681        0.3027342  0.3712374  0.09937661
681.1      0.3113718  0.3544175  0.09624446
681.2      0.3128482  0.3460508  0.09311962
681.3      0.3165791  0.336588   0.09134225
681.4      0.3162075  0.3340127  0.09254367
681.5      0.3184957  0.3289586  0.09822438
681.6      0.3158548  0.3307703  0.1001528 
681.7      0.3066532  0.3373531  0.1155003 
681.8      0.3055221  0.3333589  0.1209978 
681.9      0.2985249  0.3390605  0.1150064 
682        0.2964115  0.3475306  0.1110903 
682.1      0.3029234  0.3488854  0.1042435 
682.2      0.3143986  0.3400558  0.1012741 
682.3      0.3171642  0.3273914  0.1006305 
682.4      0.3302896  0.2933045  0.08158786
682.5      0.3311659  0.2526774  0.06781005
682.6      0.3261844  0.2363933  0.06593417
682.7      0.3332224  0.2255639  0.06517957
682.8      0.3296402  0.2317911  0.06159839
682.9      0.3269673  0.2360972  0.06952108
683        0.3277073  0.2333408  0.07453735
683.1      0.3209173  0.2360768  0.07444795
683.2      0.323246   0.2280582  0.08010099
683.3      0.3241994  0.2288926  0.07586393
683.4      0.3310928  0.2240559  0.07426356
683.5      0.3325137  0.2190791  0.07602088
683.6      0.3345127  0.2169324  0.07567768
683.7      0.3397739  0.2198876  0.07821892
683.8      0.3412383  0.2388707  0.08931815
683.9      0.3237079  0.2753327  0.1040371 
684        0.3146136  0.3342343  0.1160635 
684.1      0.312658   0.3703932  0.1270704 
684.2      0.3037876  0.3784409  0.1366934 
684.3      0.3008794  0.3573723  0.1400289 
684.4      0.3094352  0.3387082  0.1295596 
684.5      0.3122435  0.3071867  0.1216898 
684.6      0.3019782  0.3149605  0.1345568 
684.7      0.3083658  0.3094854  0.1286813 
684.8      0.3149505  0.3115413  0.1145115 
684.9      0.3140426  0.3204004  0.09694436
685        0.3104087  0.3365703  0.08736905
685.1      0.3188147  0.3237011  0.08453923
685.2      0.3231035  0.2983026  0.06847239
685.3      0.3317157  0.247617   0.06352874
685.4      0.3401339  0.216747   0.0513899 
685.5      0.3458496  0.1907051  0.04260028
685.6      0.3494311  0.1815302  0.04137123
685.7      0.3505889  0.1769416  0.04322858
685.8      0.3486267  0.1770954  0.03491202
685.9      0.3571972  0.172085   0.03228255
686        0.3559299  0.1683851  0.0252036 
686.1      0.3492641  0.1655819  0.0240892 
686.2      0.3602552  0.1532591  0.02644051
686.3      0.3515431  0.1508799  0.02431337
686.4      0.3595341  0.1472875  0.02371624
686.5      0.3550589  0.1479198  0.02490907
686.6      0.350834   0.1466649  0.02376974
686.7      0.354298   0.145088   0.01958072
686.8      0.3491362  0.1528104  0.01847119
686.9      0.3476701  0.1574331  0.01615794
687        0.3448721  0.1618143  0.01482622
687.1      0.3368868  0.186653   0.01665625
687.2      0.3389119  0.1926157  0.01979212
687.3      0.3431306  0.1910761  0.02271781
687.4      0.3505252  0.1873688  0.01503005
687.5      0.3579227  0.1868052  0.01044071
687.6      0.3484839  0.2034193  0.01239034
687.7      0.3454762  0.2272633  0.009872065
687.8      0.3354367  0.2564742  0.01241408
687.9      0.3181138  0.2835501  0.01953869
688        0.3118603  0.3096647  0.01672607
688.1      0.3117846  0.3171241  0.01497163
688.2      0.3187874  0.3082893  0.01329923
688.3      0.3206487  0.2645604  0.01055942
688.4      0.3312746  0.2428518  0.008162916
688.5      0.3391608  0.2244884  0.005875106
688.6      0.3392433  0.2245106  0.0041279 
688.7      0.3396943  0.23749    0.006820289
688.8      0.3365229  0.2632012  0.007010257
688.9      0.3331807  0.2834816  0.007991769
689        0.3161909  0.3260167  0.007895026
