~Version
 VERS              .         3.0                           : CWLS LOG ASCII STANDARD - VERSION 3.0
 WRAP              .         NO                            : ONE LINE PER DEPTH STEP
 DLM               .         SPACE                         : DELIMITING CHARACTER(SPACE TAB OR COMMA)
~Well Information
#_______________________________________________________________________________
#
#PARAMETER_NAME    .UNIT     VALUE                         : DESCRIPTION
#_______________________________________________________________________________
STRT               .M        0                             : First reference value
STOP               .M        905                           : Last reference value
STEP               .M        0.1                           : Step increment
NULL               .         -9999                         : Missing value
COMP               .         ICPetroleum                   : Company
WELL               .         321                           : Well name
FLD                .         Karatobe                      : Field
LOC                .                                       : Location
SRVC               .         JSC"Kazpromgeophysica"        : Service Company
CTRY               .         KZ                            : Country
DATE               .         15.05.05                      : Service Date
LATI               .         0                             : Latitude
LONG               .         0                             : Longitude
GDAT               .         WGS 84                        : Geodetic Datum
CNTY               .                                       : 
COORDIN            .                                       : Grid System
COUNT              .         KAZAKHSTAN                    : Country
COUNTRY            .         Kazakhstan                    : 
COUNTRY            .         Kazakhstan                    : 
EREF               .m        146.4                         : 
FN                 .         KARATUBE                      : 
KB                 .         145.7                         : KB Elevation
LGCN               .                                       : 
ORIGINALWELLNAME   .         Скважина                      : 
PROV               .                                       : Province
RWS                .         -999                          : Def_Rw
UWI                .                                       : Уникальный идентификатор скважины
WN                 .         321                           : 
WST                .         -999                          : Def_Rwt
X                  .km       466364.5                      : 
XCOORD             .                                       : X or East-West Coordinate
Y                  .km       5307853.22                    : 
YCOORD             .                                       : Y or North-South Coordinate
~Parameter Information Block
#_______________________________________________________________________________
#
#PARAMETER_NAME    .UNIT     VALUE                         : DESCRIPTION
#_______________________________________________________________________________
SET                .         Las                           : 
BS                 .MM       215.9                         : Bit Size
DFD                .G/C3     1.14                          : Drilling Fluid Density
DFV                .S        45                            : Drilling Fluid Viscosity
TLFamily_DEPT      .         Measured Depth                : 
TLFamily_PHI_FINAL .         Porosity                      : 
TLFamily_SW_AR     .         Water Saturation              : 
TLFamily_VSH_FINAL .         Shale Volume                  : 
~Curve Information
#_______________________________________________________________________________
#
#LOGNAME           .UNIT     LOG_ID                        : DESCRIPTION
#_______________________________________________________________________________
DEPT               .M                                      : Depth curve {F}
PHI_FINAL          .m3/m3                                  : Porosity {F}
SW_AR              .m3/m3                                  :  {F}
VSH_FINAL          .unitless                               : Vshale {F}
~Ascii
# ...
761.9      0.02653932 1          0.3577663 
762        0.01735691 1          0.3769864 
762.1      0.02321525 1          0.3530683 
762.2      0.05342016 1          0.3523713 
762.3      0.0436165  1          0.337704  
762.4      0.02911873 1          0.3489963 
762.5      0.0664731  1          0.3619917 
762.6      0.0614011  1          0.3712362 
762.7      0.03088374 1          0.4009953 
762.8      0.0183098  1          0.4157469 
762.9      0.05498539 1          0.3950499 
763        0.04060135 1          0.4019554 
763.1      0.0618397  1          0.381745  
763.2      0.05565852 1          0.4107609 
763.3      0.02783597 1          0.4093579 
763.4      0.03159607 1          0.4325733 
763.5      0.03541605 1          0.4275853 
763.6      0.04475035 1          0.4018487 
763.7      0.01579397 1          0.4223008 
763.8      0.005611021 1          0.4369228 
763.9      0.01713326 1          0.4157469 
764        0.02927586 1          0.4324621 
764.1      0          1          0.4316842 
764.2      0.003694559 1          0.4494384 
764.3      0          1          0.4490975 
764.4      0.01505942 1          0.4187983 
764.5      0.03760872 1          0.4061303 
764.6      0.04154906 1          0.3887334 
764.7      0.04609747 1          0.4252688 
764.8      0.03303128 1          0.4356935 
764.9      0.05020174 1          0.4213141 
765        0.05387763 1          0.4128163 
765.1      0.04327385 1          0.410869  
765.2      0.04097774 1          0.4006757 
765.3      0.03694134 1          0.4163997 
765.4      0.04850319 1          0.3770894 
765.5      0.05150494 1          0.3768832 
765.6      0.08120356 1          0.347908  
765.7      0.04933883 1          0.3302481 
765.8      0.07692157 1          0.3324665 
765.9      0.03906072 1          0.3691939 
766        0.06712694 1          0.3437684 
766.1      0.02921229 1          0.3386784 
766.2      0.03489994 1          0.3013403 
766.3      0.06804051 1          0.2966622 
766.4      0.066842   1          0.2787373 
766.5      0.07069429 1          0.2836396 
766.6      0.0540827  1          0.2601191 
766.7      0.07823911 1          0.2419869 
766.8      0.09220955 1          0.2404874 
766.9      0.09296639 1          0.2379142 
767        0.1011912  1          0.2259502 
767.1      0.09658132 1          0.2336238 
767.2      0.08296181 1          0.23593   
767.3      0.08928606 1          0.2304273 
767.4      0.09584251 1          0.2501357 
767.5      0.0907629  1          0.2514061 
767.6      0.1025084  1          0.2934717 
767.7      0.06723396 1          0.3054044 
767.8      0.05889718 1          0.3277495 
767.9      0.05423763 1          0.3735921 
768        0.06368416 1          0.3434738 
768.1      0.06977061 1          0.3767802 
768.2      0.08346926 1          0.3942045 
768.3      0.09768002 1          0.3498881 
768.4      0.126017   1          0.3235424 
768.5      0.1247788  1          0.3397519 
768.6      0.1470153  1          0.3101479 
768.7      0.1594161  1          0.3019851 
768.8      0.1678798  1          0.3152089 
768.9      0.1608472  1          0.3371199 
769        0.1430976  1          0.3354681 
769.1      0.1207688  1          0.3613864 
769.2      0.1036495  1          0.3735921 
769.3      0.09224643 1          0.372362  
769.4      0.1090803  1          0.3651271 
769.5      0.09620952 1          0.3828877 
769.6      0.1098078  1          0.3986539 
769.7      0.09656427 1          0.4096814 
769.8      0.09708367 1          0.4059156 
769.9      0.09762926 1          0.4400608 
770        0.08090294 1          0.4589302 
770.1      0.07621795 1          0.4808592 
770.2      0.07569063 1          0.484652  
770.3      0.0881888  1          0.4621582 
770.4      0.0849728  1          0.4910927 
770.5      0.08641849 1          0.484177  
770.6      0.07425965 1          0.4995175 
770.7      0.08479774 1          0.4716879 
770.8      0.06823329 1          0.450007  
770.9      0.06328641 1          0.4388265 
771        0.08029725 1          0.4069896 
771.1      0.05913071 1          0.3969557 
771.2      0.09015725 1          0.3794652 
771.3      0.1221842  1          0.3765741 
771.4      0.1109167  1          0.3768832 
771.5      0.0923824  1          0.3739001 
771.6      0.1052776  1          0.3820565 
771.7      0.1204953  1          0.3703164 
771.8      0.07960881 1          0.38133   
771.9      0.05452066 1          0.42263   
772        0.0684133  1          0.4473951 
772.1      0.06360371 1          0.4657475 
772.2      0.03842102 1          0.5173687 
772.3      0.05544899 1          0.5494733 
772.4      0.0569039  1          0.5845266 
772.5      0.05918552 1          0.6107695 
772.6      0.0495243  1          0.5776177 
772.7      0.08186562 1          0.489657  
772.8      0.07721119 1          0.4374822 
772.9      0.1129431  1          0.3939933 
773        0.1214443  1          0.3770894 
773.1      0.1181937  1          0.3661416 
773.2      0.1227408  1          0.3606811 
773.3      0.1102407  1          0.3731819 
773.4      0.09118488 1          0.3679714 
773.5      0.09982876 1          0.3685824 
773.6      0.09042718 1          0.3665478 
773.7      0.114398   1          0.3450471 
773.8      0.1156241  1          0.3248781 
773.9      0.0824512  1          0.3536662 
774        0.1113018  1          0.3595739 
774.1      0.1275837  1          0.3642154 
774.2      0.1381839  1          0.368175  
774.3      0.1417291  1          0.3781214 
774.4      0.1106315  1          0.3758532 
774.5      0.09173931 1          0.3800862 
774.6      0.04940883 1          0.3700101 
774.7      0.07526689 1          0.3620926 
774.8      0.0549104  1          0.3633048 
774.9      0.07196615 1          0.3473151 
775        0.05051536 1          0.3302481 
775.1      0.0352027  1          0.3743108 
775.2      0.03971095 1          0.3349831 
775.3      0.04387409 1          0.3368281 
775.4      0.0551946  1          0.3403382 
775.5      0.0521666  1          0.3306334 
775.6      0.05488199 1          0.3094015 
775.7      0.05942341 1          0.2999608 
775.8      0.04377508 1          0.3251647 
775.9      0.07097838 1          0.3126734 
776        0.0552046  1          0.3223046 
776.1      0.03633408 1          0.3544643 
776.2      0.02695193 1          0.3563634 
776.3      0.04690129 1          0.3865356 
776.4      0.05308574 1          0.4235086 
776.5      0.06489107 1          0.4373703 
776.6      0.07581344 1          0.4502345 
776.7      0.07265695 1          0.4769664 
776.8      0.07146131 1          0.4870315 
776.9      0.07771282 1          0.4897766 
777        0.079639   1          0.4832276 
777.1      0.07844851 1          0.4592754 
777.2      0.07816849 1          0.4442272 
777.3      0.06390757 1          0.4387144 
777.4      0.06643603 1          0.4141174 
777.5      0.05113805 1          0.4301307 
777.6      0.06505328 1          0.408819  
777.7      0.06185662 1          0.4296874 
777.8      0.05721387 1          0.395473  
777.9      0.07536991 1          0.4077424 
778        0.0383798  1          0.4235086 
778.1      0.007678571 1          0.4498932 
778.2      0.02914198 1          0.4509175 
778.3      0.01379874 1          0.4530843 
778.4      0.009744015 1          0.4488702 
778.5      0          1          0.4697028 
778.6      0          1          0.5096191 
778.7      0          1          0.5121945 
778.8      0          1          0.5192243 
778.9      0          1          0.4545702 
779        0.0210801  1          0.3783279 
779.1      0.02259452 1          0.3851785 
779.2      0.03135127 1          0.363406  
779.3      0.03242262 1          0.3557631 
779.4      0.02928873 1          0.3704186 
779.5      0.03509381 1          0.3606811 
779.6      0.01803412 1          0.3686843 
779.7      0.01093401 1          0.3748245 
779.8      0.01428775 1          0.4014219 
779.9      0.01788456 1          0.3771927 
780        0.02743474 1          0.3747218 
