~Version
 VERS              .         3.0                           : CWLS LOG ASCII STANDARD - VERSION 3.0
 WRAP              .         NO                            : ONE LINE PER DEPTH STEP
 DLM               .         SPACE                         : DELIMITING CHARACTER(SPACE TAB OR COMMA)
~Well Information
#_______________________________________________________________________________
#
#PARAMETER_NAME    .UNIT     VALUE                         : DESCRIPTION
#_______________________________________________________________________________
STRT               .M        0                             : First reference value
STOP               .M        905                           : Last reference value
STEP               .M        0.1                           : Step increment
NULL               .         -9999                         : Missing value
COMP               .         ICPetroleum                   : Company
WELL               .         321                           : Well name
FLD                .         Karatobe                      : Field
LOC                .                                       : Location
SRVC               .         JSC"Kazpromgeophysica"        : Service Company
CTRY               .         KZ                            : Country
DATE               .         15.05.05                      : Service Date
LATI               .         0                             : Latitude
LONG               .         0                             : Longitude
GDAT               .         WGS 84                        : Geodetic Datum
CNTY               .                                       : 
COORDIN            .                                       : Grid System
COUNT              .         KAZAKHSTAN                    : Country
COUNTRY            .         Kazakhstan                    : 
COUNTRY            .         Kazakhstan                    : 
EREF               .m        146.4                         : 
FN                 .         KARATUBE                      : 
KB                 .         145.7                         : KB Elevation
LGCN               .                                       : 
ORIGINALWELLNAME   .         Скважина                      : 
PROV               .                                       : Province
RWS                .         -999                          : Def_Rw
UWI                .                                       : Уникальный идентификатор скважины
WN                 .         321                           : 
WST                .         -999                          : Def_Rwt
X                  .km       466364.5                      : 
XCOORD             .                                       : X or East-West Coordinate
Y                  .km       5307853.22                    : 
YCOORD             .                                       : Y or North-South Coordinate
~Parameter Information Block
#_______________________________________________________________________________
#
#PARAMETER_NAME    .UNIT     VALUE                         : DESCRIPTION
#_______________________________________________________________________________
SET                .         Las                           : 
BS                 .MM       215.9                         : Bit Size
DFD                .G/C3     1.14                          : Drilling Fluid Density
DFV                .S        45                            : Drilling Fluid Viscosity
TLFamily_DEPT      .         Measured Depth                : 
TLFamily_PHI_FINAL .         Porosity                      : 
TLFamily_SW_AR     .         Water Saturation              : 
TLFamily_VSH_FINAL .         Shale Volume                  : 
~Curve Information
#_______________________________________________________________________________
#
#LOGNAME           .UNIT     LOG_ID                        : DESCRIPTION
#_______________________________________________________________________________
DEPT               .M                                      : Depth curve {F}
PHI_FINAL          .m3/m3                                  : Porosity {F}
SW_AR              .m3/m3                                  :  {F}
VSH_FINAL          .unitless                               : Vshale {F}
~Ascii
# ...
179.6      -9999      -9999      0.7480958 
179.7      -9999      -9999      0.7362474 
179.8      -9999      -9999      0.7471684 
179.9      -9999      -9999      0.743925  
180        -9999      -9999      0.7167839 
180.1      -9999      -9999      0.763583  
180.2      -9999      -9999      0.775182  
180.3      -9999      -9999      0.8036372 
180.4      -9999      -9999      0.8774416 
180.5      -9999      -9999      0.933987  
180.6      -9999      -9999      0.9894457 
180.7      -9999      -9999      0.968254  
180.8      -9999      -9999      0.9810447 
180.9      -9999      -9999      1         
181        -9999      -9999      1         
181.1      -9999      -9999      1         
181.2      -9999      -9999      0.9119588 
181.3      -9999      -9999      0.8605084 
181.4      -9999      -9999      1         
181.5      -9999      -9999      0.9653686 
181.6      -9999      -9999      1         
181.7      -9999      -9999      0.9696351 
181.8      -9999      -9999      1         
181.9      -9999      -9999      0.972345  
182        -9999      -9999      0.9919549 
182.1      -9999      -9999      0.9528459 
182.2      -9999      -9999      0.886601  
182.3      -9999      -9999      0.9687402 
182.4      -9999      -9999      1         
182.5      -9999      -9999      0.9397545 
182.6      -9999      -9999      0.9047663 
182.7      -9999      -9999      0.7072624 
182.8      -9999      -9999      0.6415085 
182.9      -9999      -9999      0.6051314 
183        -9999      -9999      0.5602143 
183.1      -9999      -9999      0.5605873 
183.2      -9999      -9999      0.6119815 
183.3      -9999      -9999      0.6049206 
183.4      -9999      -9999      0.6332569 
183.5      -9999      -9999      0.7839644 
183.6      -9999      -9999      0.7909212 
183.7      -9999      -9999      0.7284434 
183.8      -9999      -9999      0.7267889 
183.9      -9999      -9999      0.6838702 
184        -9999      -9999      0.737703  
184.1      -9999      -9999      0.7740219 
184.2      -9999      -9999      0.7258972 
184.3      -9999      -9999      0.7765713 
184.4      -9999      -9999      0.7671994 
184.5      -9999      -9999      0.767041  
184.6      -9999      -9999      0.7540348 
184.7      -9999      -9999      0.7397001 
184.8      -9999      -9999      0.7684613 
184.9      -9999      -9999      0.6971456 
185        -9999      -9999      0.5102257 
185.1      -9999      -9999      0.4821767 
185.2      -9999      -9999      0.4797864 
185.3      -9999      -9999      0.4610043 
185.4      -9999      -9999      0.4219953 
185.5      -9999      -9999      0.4292864 
185.6      -9999      -9999      0.4380337 
185.7      -9999      -9999      0.4221514 
185.8      -9999      -9999      0.4603935 
185.9      -9999      -9999      0.5008736 
186        0.2281342  0.5678336  0.5233039 
186.1      0.2034688  0.6366099  0.5826303 
186.2      0.1823152  0.7121364  0.6274313 
186.3      0.1700204  0.7863081  0.6710319 
186.4      0.1975527  0.7010843  0.6071871 
186.5      0.2248366  0.6362823  0.5459508 
186.6      0.2378416  0.6034878  0.5107135 
186.7      0.2286124  0.6250912  0.5431873 
186.8      0.2340432  0.6121591  0.5263631 
186.9      0.2175081  0.6573575  0.5869415 
187        0.2230957  0.649101   0.5908155 
187.1      0.2297314  0.6395906  0.5714976 
187.2      0.1982981  0.7395425  0.6521829 
187.3      0.2107205  0.6912096  0.5970002 
187.4      0.2099387  0.6842014  0.577754  
187.5      0.2265192  0.6296054  0.5350049 
187.6      0.2155914  0.6568856  0.5497382 
187.7      0.1803816  0.7782626  0.6348569 
187.8      0.176789   0.8024117  0.6533221 
187.9      0.2019346  0.7115675  0.5973227 
188        0.1873681  0.7697428  0.6441203 
188.1      0.1966413  0.7451097  0.6196324 
188.2      0.1871273  0.7935858  0.6479188 
188.3      0.1703775  0.8803633  0.6938514 
188.4      0.1808434  0.8348655  0.6668571 
188.5      0.1948859  0.7723462  0.6254225 
188.6      0.2011706  0.7460217  0.6174756 
188.7      0.2176788  0.6905563  0.5866677 
188.8      0.2299245  0.65271    0.5574566 
188.9      0.2554629  0.5886981  0.4904575 
189        0.2510851  0.5974691  0.4648452 
189.1      0.2416584  0.6264573  0.4803924 
189.2      0.2369649  0.6506206  0.4870185 
189.3      0.2183856  0.7135268  0.5414913 
189.4      0.2018506  0.76678    0.599895  
189.5      0.2028738  0.7505367  0.600033  
189.6      0.202072   0.7335595  0.6004236 
189.7      0.2097998  0.6944762  0.5820991 
189.8      0.2071961  0.6952429  0.5837132 
189.9      0.2024322  0.7087711  0.6059161 
190        0.2102939  0.6866611  0.5867043 
190.1      0.1997041  0.7278508  0.6074692 
190.2      0.2203161  0.6672956  0.5346197 
190.3      0.2114913  0.6918019  0.5787395 
190.4      0.2248018  0.6478219  0.549911  
190.5      0.2549284  0.5720376  0.4715502 
190.6      0.2428672  0.5978662  0.4940557 
190.7      0.2569497  0.566347   0.4490916 
190.8      0.2447995  0.5896064  0.4810138 
190.9      0.2416656  0.5958049  0.488905  
191        0.2427067  0.5924462  0.4924214 
191.1      0.2374903  0.6044986  0.5117925 
191.2      0.2232579  0.6425285  0.5821656 
191.3      0.2268798  0.6345791  0.5747231 
191.4      0.2105065  0.686731   0.6062106 
191.5      0.2150678  0.6819975  0.5882523 
191.6      0.2052489  0.7160907  0.6203814 
191.7      0.2117713  0.7103779  0.6063714 
191.8      0.2078702  0.7333461  0.6121361 
191.9      0.1989806  0.7725289  0.6728057 
192        0.1943993  0.8056983  0.6791193 
192.1      0.2058347  0.7777819  0.6686435 
192.2      0.2124548  0.7654945  0.6469045 
192.3      0.2168797  0.7590709  0.6440888 
192.4      0.2150465  0.7664262  0.6539624 
192.5      0.2098558  0.7841358  0.6321257 
192.6      0.1950935  0.8396983  0.6621855 
192.7      0.2111292  0.7792416  0.6253142 
192.8      0.1978759  0.8300887  0.6735633 
192.9      0.1840275  0.8903427  0.6946608 
193        0.1909135  0.8717967  0.6933756 
193.1      0.1952395  0.8602188  0.6955323 
193.2      0.2350447  0.7245342  0.5915644 
193.3      0.2207563  0.7756628  0.6248506 
193.4      0.2144273  0.8030292  0.643513  
193.5      0.2125818  0.8257551  0.6407133 
193.6      0.2071311  0.8542637  0.6672238 
193.7      0.1899247  0.9295942  0.7191734 
193.8      0.1667275  1          0.7939025 
193.9      0.1794646  0.9770424  0.7598166 
194        0.1552153  1          0.8062713 
194.1      0.1310223  1          0.869922  
194.2      0.1146281  1          0.918358  
194.3      0.12656    1          0.9027774 
194.4      0.1489745  1          0.8690165 
194.5      0.1726591  1          0.7885671 
194.6      0.17374    1          0.7709172 
194.7      0.1566446  1          0.809364  
194.8      0.1720096  0.9955176  0.7677748 
194.9      0.1835054  0.9323877  0.760128  
195        0.1523866  1          0.8464339 
195.1      0.1795762  0.9528856  0.7607496 
195.2      0.1647326  1          0.8539826 
195.3      0.1441624  1          0.9187618 
195.4      0.1131694  1          0.9770185 
195.5      0.1445754  1          0.8610606 
195.6      0.1379691  1          0.888743  
195.7      0.1702795  1          0.7901464 
195.8      0.1760444  1          0.7813472 
195.9      0.1371755  1          0.895712  
196        0.1682456  1          0.8317656 
196.1      0.1929524  0.9314775  0.749335  
196.2      0.1765077  1          0.7944843 
196.3      0.1519645  1          0.8714748 
196.4      0.1873739  0.9712179  0.7893272 
196.5      0.1994684  0.919143   0.7853212 
196.6      0.2200209  0.8372521  0.7155854 
196.7      0.2181566  0.8428143  0.7037764 
196.8      0.2225647  0.8303927  0.6993065 
196.9      0.2034591  0.9083002  0.7542565 
197        0.2211186  0.8432979  0.7019104 
197.1      0.2154703  0.8633211  0.7096037 
197.2      0.1713367  1          0.8466194 
197.3      0.1292764  1          0.9412117 
197.4      0.1861891  0.9736618  0.8064728 
197.5      0.182958   0.9894904  0.7933207 
197.6      0.1636805  1          0.8404585 
197.7      0.169372   1          0.8247983 
