~Version
 VERS              .         3.0                           : CWLS LOG ASCII STANDARD - VERSION 3.0
 WRAP              .         NO                            : ONE LINE PER DEPTH STEP
 DLM               .         SPACE                         : DELIMITING CHARACTER(SPACE TAB OR COMMA)
~Well Information
#_______________________________________________________________________________
#
#PARAMETER_NAME    .UNIT     VALUE                         : DESCRIPTION
#_______________________________________________________________________________
STRT               .M        0                             : First reference value
STOP               .M        905                           : Last reference value
STEP               .M        0.1                           : Step increment
NULL               .         -9999                         : Missing value
COMP               .         ICPetroleum                   : Company
WELL               .         321                           : Well name
FLD                .         Karatobe                      : Field
LOC                .                                       : Location
SRVC               .         JSC"Kazpromgeophysica"        : Service Company
CTRY               .         KZ                            : Country
DATE               .         15.05.05                      : Service Date
LATI               .         0                             : Latitude
LONG               .         0                             : Longitude
GDAT               .         WGS 84                        : Geodetic Datum
CNTY               .                                       : 
COORDIN            .                                       : Grid System
COUNT              .         KAZAKHSTAN                    : Country
COUNTRY            .         Kazakhstan                    : 
COUNTRY            .         Kazakhstan                    : 
EREF               .m        146.4                         : 
FN                 .         KARATUBE                      : 
KB                 .         145.7                         : KB Elevation
LGCN               .                                       : 
ORIGINALWELLNAME   .         Скважина                      : 
PROV               .                                       : Province
RWS                .         -999                          : Def_Rw
UWI                .                                       : Уникальный идентификатор скважины
WN                 .         321                           : 
WST                .         -999                          : Def_Rwt
X                  .km       466364.5                      : 
XCOORD             .                                       : X or East-West Coordinate
Y                  .km       5307853.22                    : 
YCOORD             .                                       : Y or North-South Coordinate
~Parameter Information Block
#_______________________________________________________________________________
#
#PARAMETER_NAME    .UNIT     VALUE                         : DESCRIPTION
#_______________________________________________________________________________
SET                .         Las                           : 
BS                 .MM       215.9                         : Bit Size
DFD                .G/C3     1.14                          : Drilling Fluid Density
DFV                .S        45                            : Drilling Fluid Viscosity
TLFamily_DEPT      .         Measured Depth                : 
TLFamily_PHI_FINAL .         Porosity                      : 
TLFamily_SW_AR     .         Water Saturation              : 
TLFamily_VSH_FINAL .         Shale Volume                  : 
~Curve Information
#_______________________________________________________________________________
#
#LOGNAME           .UNIT     LOG_ID                        : DESCRIPTION
#_______________________________________________________________________________
DEPT               .M                                      : Depth curve {F}
PHI_FINAL          .m3/m3                                  : Porosity {F}
SW_AR              .m3/m3                                  :  {F}
VSH_FINAL          .unitless                               : Vshale {F}
~Ascii
# ...
725.5      0.0734207  1          0.3323699 
725.6      0.08192738 1          0.3234471 
725.7      0.09314182 1          0.299318  
725.8      0.113043   1          0.2936536 
725.9      0.1233621  1          0.2905689 
726        0.09820347 1          0.2941085 
726.1      0.1134679  1          0.2822093 
726.2      0.1024489  1          0.2816739 
726.3      0.1061952  1          0.2969364 
726.4      0.09242071 1          0.2877698 
726.5      0.08821958 1          0.3060534 
726.6      0.09178592 1          0.291928  
726.7      0.1044891  1          0.2787373 
726.8      0.1100176  1          0.27194   
726.9      0.1080021  1          0.262793  
727        0.1022239  1          0.2684388 
727.1      0.09434136 1          0.2432395 
727.2      0.08969915 1          0.2350229 
727.3      0.1026356  1          0.2230391 
727.4      0.1070308  1          0.2040955 
727.5      0.1255715  1          0.1990567 
727.6      0.1568279  1          0.1807855 
727.7      0.1640808  1          0.1741253 
727.8      0.1466398  1          0.1854248 
727.9      0.1482899  1          0.1778146 
728        0.1233427  1          0.2146352 
728.1      0.1164762  1          0.2279808 
728.2      0.1069644  1          0.2403211 
728.3      0.07940209 1          0.2600331 
728.4      0.07755459 1          0.2583147 
728.5      0.06662154 1          0.2414867 
728.6      0.08814186 1          0.2143176 
728.7      0.09774289 1          0.1996742 
728.8      0.08048265 1          0.206359  
728.9      0.06600319 1          0.2155892 
729        0.0751629  1          0.2344464 
729.1      0.06956187 1          0.23949   
729.2      0.08990344 1          0.2383285 
729.3      0.09143191 1          0.2651317 
729.4      0.1003064  1          0.2649581 
729.5      0.07361738 1          0.2857012 
729.6      0.05892865 1          0.3256426 
729.7      0.03066325 1          0.381745  
729.8      0.03915232 1          0.4068821 
729.9      0.03515429 1          0.4364756 
730        0.03943236 1          0.43793   
730.1      0.0252818  1          0.438042  
730.2      0.03612701 1          0.4471684 
730.3      0.04126956 1          0.4136834 
730.4      0.0444254  1          0.3869538 
730.5      0.02989539 1          0.400356  
730.6      0.05699248 1          0.4142258 
730.7      0.08396129 1          0.3965317 
730.8      0.07645348 1          0.4240581 
730.9      0.06605185 1          0.4214236 
731        0.05354996 1          0.43793   
731.1      0.07659005 1          0.4055938 
731.2      0.05726708 1          0.3992918 
731.3      0.0886181  1          0.3626985 
731.4      0.07255406 1          0.3413165 
731.5      0.06458008 1          0.3104279 
731.6      0.07452816 1          0.3006042 
731.7      0.07732999 1          0.3190783 
731.8      0.07579261 1          0.3243054 
731.9      0.06062711 1          0.3058679 
732        0.06180817 1          0.2818523 
732.1      0.0751394  1          0.2685262 
732.2      0.08695555 1          0.264351  
732.3      0.07116877 1          0.2900262 
732.4      0.06635273 1          0.2984009 
732.5      0.05126359 1          0.3697039 
732.6      0.04457612 1          0.3984414 
732.7      0.06041298 1          0.4025961 
732.8      0.06009234 1          0.387686  
732.9      0.06079306 1          0.3833037 
733        0.04598983 1          0.4076347 
733.1      0.05971018 1          0.4209854 
733.2      0.04824359 1          0.4219717 
733.3      0.0811382  1          0.4061303 
733.4      0.04370641 1          0.3993981 
733.5      0.06922676 1          0.4046289 
733.6      0.07803903 1          0.4066672 
733.7      0.04360536 1          0.401742  
733.8      0.04898799 1          0.3454409 
733.9      0.05856289 1          0.3348861 
734        0.04394286 1          0.3205945 
734.1      0.05598888 1          0.3236378 
734.2      0.06466696 1          0.3181324 
734.3      0.0533887  1          0.3044785 
734.4      0.04080328 1          0.3112691 
734.5      0.04071017 1          0.3155854 
734.6      0.02706273 1          0.3139869 
734.7      0.05158389 1          0.3106148 
734.8      0.03923383 1          0.3186051 
734.9      0.04243044 1          0.3117368 
735        0.04615645 1          0.3530683 
735.1      0.0478845  1          0.3771927 
735.2      0.04495073 1          0.3971677 
735.3      0.03789448 1          0.4251586 
735.4      0.01287677 1          0.4202192 
735.5      0.02101548 1          0.3985476 
735.6      0.03711067 1          0.383824  
735.7      0.05313129 1          0.321354  
735.8      0.08281368 1          0.2764336 
735.9      0.09354502 1          0.259947  
736        0.0981337  1          0.2303456 
736.1      0.1066616  1          0.2153505 
736.2      0.1119678  1          0.2113096 
736.3      0.1037685  1          0.2051871 
736.4      0.09715211 1          0.213683  
736.5      0.08909571 1          0.2390749 
736.6      0.08890034 1          0.2397391 
736.7      0.1057192  1          0.2725548 
736.8      0.1067597  1          0.2930173 
736.9      0.09580409 1          0.2842662 
737        0.08777944 1          0.2755498 
737.1      0.07855182 1          0.282924  
737.2      0.07456857 1          0.2724669 
737.3      0.07143181 1          0.2651317 
737.4      0.0801843  1          0.2753733 
737.5      0.08402805 1          0.2503049 
737.6      0.09307536 1          0.2495437 
737.7      0.1165131  1          0.2298555 
737.8      0.1300057  1          0.2279808 
737.9      0.137229   1          0.2054213 
738        0.1406747  1          0.2037062 
738.1      0.1387534  1          0.2142383 
738.2      0.1402031  1          0.2113096 
738.3      0.14306    1          0.1955961 
738.4      0.1335616  1          0.2098905 
738.5      0.1440747  1          0.2161464 
738.6      0.135789   1          0.2143176 
738.7      0.144333   1          0.2212676 
738.8      0.1459989  1          0.2136036 
738.9      0.159972   1          0.2040955 
739        0.1664196  1          0.2041734 
739.1      0.1519791  1          0.215271  
739.2      0.1556829  1          0.2106784 
739.3      0.1381688  1          0.216226  
739.4      0.1335566  1          0.2159075 
739.5      0.1245703  1          0.2184611 
739.6      0.1243349  1          0.2192615 
739.7      0.1320947  1          0.2228778 
739.8      0.1446586  1          0.2081611 
739.9      0.1313699  1          0.2173424 
740        0.1387975  1          0.2240886 
740.1      0.1496496  1          0.2151915 
740.2      0.1608999  1          0.2349405 
740.3      0.1525766  1          0.2432395 
740.4      0.1371607  1          0.2676539 
740.5      0.1207809  1          0.2593451 
740.6      0.1198232  1          0.2566012 
740.7      0.1251069  1          0.2546369 
740.8      0.1321089  1          0.2448301 
740.9      0.1320125  1          0.2391578 
741        0.1119479  1          0.2333773 
741.1      0.1196703  1          0.2291212 
741.2      0.1025261  1          0.2274115 
741.3      0.1049029  1          0.2273302 
741.4      0.06941401 1          0.2439924 
741.5      0.0683044  1          0.2357649 
741.6      0.06848303 1          0.2391578 
741.7      0.1044477  1          0.2228778 
741.8      0.1193453  1          0.216226  
741.9      0.123017   1          0.2197423 
742        0.1135349  1          0.2179814 
742.1      0.1083045  1          0.2357649 
742.2      0.1139475  1          0.2445786 
742.3      0.1114695  1          0.2370039 
742.4      0.1099352  1          0.2502202 
742.5      0.1160269  1          0.2215088 
742.6      0.1056423  1          0.2248163 
742.7      0.1322389  1          0.2283878 
742.8      0.1415586  1          0.2187011 
742.9      0.132503   1          0.23949   
743        0.1540047  1          0.220384  
743.1      0.1601732  1          0.2274115 
743.2      0.16364    1          0.2336238 
743.3      0.1652661  1          0.2360951 
743.4      0.1508618  1          0.2410701 
743.5      0.1593857  1          0.2460889 
743.6      0.1591701  1          0.2428217 
