~Version
 VERS              .         3.0                           : CWLS LOG ASCII STANDARD - VERSION 3.0
 WRAP              .         NO                            : ONE LINE PER DEPTH STEP
 DLM               .         SPACE                         : DELIMITING CHARACTER(SPACE TAB OR COMMA)
~Well Information
#_______________________________________________________________________________
#
#PARAMETER_NAME    .UNIT     VALUE                         : DESCRIPTION
#_______________________________________________________________________________
STRT               .M        0                             : First reference value
STOP               .M        905                           : Last reference value
STEP               .M        0.1                           : Step increment
NULL               .         -9999                         : Missing value
COMP               .         ICPetroleum                   : Company
WELL               .         321                           : Well name
FLD                .         Karatobe                      : Field
LOC                .                                       : Location
SRVC               .         JSC"Kazpromgeophysica"        : Service Company
CTRY               .         KZ                            : Country
DATE               .         15.05.05                      : Service Date
LATI               .         0                             : Latitude
LONG               .         0                             : Longitude
GDAT               .         WGS 84                        : Geodetic Datum
CNTY               .                                       : 
COORDIN            .                                       : Grid System
COUNT              .         KAZAKHSTAN                    : Country
COUNTRY            .         Kazakhstan                    : 
COUNTRY            .         Kazakhstan                    : 
EREF               .m        146.4                         : 
FN                 .         KARATUBE                      : 
KB                 .         145.7                         : KB Elevation
LGCN               .                                       : 
ORIGINALWELLNAME   .         Скважина                      : 
PROV               .                                       : Province
RWS                .         -999                          : Def_Rw
UWI                .                                       : Уникальный идентификатор скважины
WN                 .         321                           : 
WST                .         -999                          : Def_Rwt
X                  .km       466364.5                      : 
XCOORD             .                                       : X or East-West Coordinate
Y                  .km       5307853.22                    : 
YCOORD             .                                       : Y or North-South Coordinate
~Parameter Information Block
#_______________________________________________________________________________
#
#PARAMETER_NAME    .UNIT     VALUE                         : DESCRIPTION
#_______________________________________________________________________________
SET                .         Las                           : 
BS                 .MM       215.9                         : Bit Size
DFD                .G/C3     1.14                          : Drilling Fluid Density
DFV                .S        45                            : Drilling Fluid Viscosity
TLFamily_DEPT      .         Measured Depth                : 
TLFamily_PHI_FINAL .         Porosity                      : 
TLFamily_SW_AR     .         Water Saturation              : 
TLFamily_VSH_FINAL .         Shale Volume                  : 
~Curve Information
#_______________________________________________________________________________
#
#LOGNAME           .UNIT     LOG_ID                        : DESCRIPTION
#_______________________________________________________________________________
DEPT               .M                                      : Depth curve {F}
PHI_FINAL          .m3/m3                                  : Porosity {F}
SW_AR              .m3/m3                                  :  {F}
VSH_FINAL          .unitless                               : Vshale {F}
~Ascii
# ...
216        0.363451   0.517209   0.1076324 
216.1      0.3614634  0.5217723  0.1191456 
216.2      0.3606023  0.5258327  0.1189851 
216.3      0.3666435  0.5202827  0.1093296 
216.4      0.3622214  0.5271717  0.1224998 
216.5      0.3623915  0.5255283  0.1228578 
216.6      0.3628424  0.5244436  0.1235902 
216.7      0.3623425  0.5248365  0.1308075 
216.8      0.3633328  0.5244154  0.1263475 
216.9      0.3557411  0.5393969  0.1466681 
217        0.3560743  0.5432965  0.1484029 
217.1      0.3524043  0.5507367  0.1553577 
217.2      0.3548265  0.5454168  0.148869  
217.3      0.3555009  0.5391931  0.1487665 
217.4      0.3612251  0.5248591  0.1283887 
217.5      0.3554862  0.5281643  0.1385579 
217.6      0.3626655  0.5178188  0.1194473 
217.7      0.3645979  0.5199779  0.113656  
217.8      0.367522   0.5181248  0.1118011 
217.9      0.3587907  0.5275865  0.1310825 
218        0.3577803  0.5282977  0.1376732 
218.1      0.3599356  0.5275703  0.1354322 
218.2      0.3627917  0.5268005  0.1266664 
218.3      0.3602501  0.5304938  0.1294764 
218.4      0.3560465  0.5336706  0.1445765 
218.5      0.3596951  0.5253483  0.1324633 
218.6      0.3586327  0.5272838  0.1331497 
218.7      0.3555019  0.5365925  0.1318866 
218.8      0.3562067  0.5370921  0.1290148 
218.9      0.3588073  0.5316775  0.1242245 
219        0.3623247  0.5255614  0.1239851 
219.1      0.362974   0.524497   0.1308156 
219.2      0.3662275  0.5210161  0.1205426 
219.3      0.3635862  0.5260062  0.1248405 
219.4      0.3650032  0.5246629  0.1185376 
219.5      0.3693911  0.5197008  0.1054898 
219.6      0.3651463  0.5247633  0.1149013 
219.7      0.3584354  0.5311317  0.1244809 
219.8      0.3613711  0.5254714  0.1128826 
219.9      0.3625515  0.5161284  0.1110381 
220        0.3625627  0.5189151  0.1125735 
220.1      0.367914   0.5178328  0.09522156
220.2      0.3668788  0.5291827  0.09773934
220.3      0.364859   0.537615   0.1051895 
220.4      0.371439   0.5300982  0.08936625
220.5      0.3680149  0.5311969  0.09434461
220.6      0.3745044  0.5149051  0.07515302
220.7      0.3719343  0.5089805  0.07878385
220.8      0.3715273  0.5013619  0.07433983
220.9      0.3678398  0.4980492  0.07524342
221        0.3629373  0.5011024  0.08218126
221.1      0.3659322  0.496158   0.0760292 
221.2      0.3667887  0.5028954  0.07728893
221.3      0.3621451  0.513914   0.09426082
221.4      0.3596283  0.5194806  0.1064883 
221.5      0.3576391  0.5221012  0.1187548 
221.6      0.3569981  0.5300921  0.1279723 
221.7      0.3536602  0.5488865  0.1315649 
221.8      0.3579727  0.5475216  0.1198807 
221.9      0.3563103  0.5452131  0.1205998 
222        0.3571134  0.5393908  0.1155093 
222.1      0.3633654  0.527374   0.09649281
222.2      0.3679326  0.520068   0.08611277
222.3      0.3721847  0.514908   0.07905819
222.4      0.371569   0.5177537  0.08057624
222.5      0.3747926  0.5144721  0.0738106 
222.6      0.3795628  0.5026192  0.05936034
222.7      0.3815166  0.4892482  0.04329567
222.8      0.3847941  0.4747666  0.02704441
222.9      0.3861279  0.4559295  0.0153366 
223        0.3834799  0.4541932  0.0156904 
223.1      0.3771621  0.4577484  0.02707684
223.2      0.3748217  0.4582108  0.03285405
223.3      0.371518   0.4645387  0.03963855
223.4      0.3709245  0.4720997  0.04832475
223.5      0.3753383  0.4697122  0.04989077
223.6      0.373471   0.4736213  0.068234  
223.7      0.3711936  0.479723   0.08494096
223.8      0.3685609  0.4882065  0.0966334 
223.9      0.3662339  0.4991345  0.1067309 
224        0.3632983  0.5070927  0.1162427 
224.1      0.3582499  0.5188661  0.1269092 
224.2      0.3603502  0.5249639  0.1172947 
224.3      0.3534411  0.5381087  0.1360675 
224.4      0.3508801  0.5370585  0.1410765 
224.5      0.3458695  0.5439391  0.1508671 
224.6      0.3456867  0.5479362  0.1512696 
224.7      0.3348517  0.5630122  0.1723878 
224.8      0.3290033  0.5670645  0.1881861 
224.9      0.3273644  0.5636786  0.1899236 
225        0.3248039  0.5663808  0.1989835 
225.1      0.3092144  0.592294   0.2371474 
225.2      0.3047352  0.598389   0.2452792 
225.3      0.2842297  0.639148   0.2963259 
225.4      0.2713323  0.6788527  0.3376878 
225.5      0.2386041  0.7873811  0.4440642 
225.6      0.1864128  1          0.5951291 
225.7      0.162913   1          0.6747224 
225.8      0.1769659  1          0.6680814 
225.9      0.1495918  1          0.7742133 
226        0.138479   1          0.8176623 
226.1      0.1836521  1          0.6949011 
226.2      0.1896355  1          0.6681086 
226.3      0.1809223  1          0.6846317 
226.4      0.1994456  0.9675868  0.6382211 
226.5      0.1974519  0.9813502  0.6594048 
226.6      0.1747155  1          0.6984287 
226.7      0.1579086  1          0.7427555 
226.8      0.1763228  1          0.7054904 
226.9      0.1828656  1          0.6653271 
227        0.1921601  1          0.6445209 
227.1      0.1975914  1          0.6472791 
227.2      0.1821773  1          0.681792  
227.3      0.2048181  0.9951952  0.6465088 
227.4      0.154668   1          0.753363  
227.5      0.1698621  1          0.7017055 
227.6      0.1542528  1          0.7387738 
227.7      0.1337869  1          0.7788249 
227.8      0.1098     1          0.8518503 
227.9      0.1271177  1          0.8084073 
228        0.1159929  1          0.8441473 
228.1      0.1284243  1          0.8238942 
228.2      0.1116234  1          0.8762983 
228.3      0.1379495  1          0.8103141 
228.4      0.1284292  1          0.82665   
228.5      0.1401946  1          0.7788135 
228.6      0.1561814  1          0.7215735 
228.7      0.1592119  1          0.6914076 
228.8      0.1793528  1          0.5984243 
228.9      0.1804701  1          0.6081619 
229        0.1918826  1          0.5687957 
229.1      0.2089246  0.9298429  0.5145017 
229.2      0.1869276  0.944272   0.5725737 
229.3      0.1936791  0.9246314  0.5628999 
229.4      0.1744761  1          0.6158181 
229.5      0.159345   1          0.6617594 
229.6      0.1389574  1          0.7201618 
229.7      0.159451   1          0.6585761 
229.8      0.1892541  0.9784619  0.5693672 
229.9      0.1750178  1          0.5664633 
230        0.1655356  1          0.5778676 
230.1      0.1630113  0.999826   0.5454198 
230.2      0.1405566  1          0.5879168 
230.3      0.08804751 1          0.724079  
230.4      0.1187677  1          0.6866531 
230.5      0.1265518  1          0.6796574 
230.6      0.1537195  1          0.6393651 
230.7      0.1348777  1          0.7026907 
230.8      0.1390593  1          0.6977845 
230.9      0.1651643  1          0.6405569 
231        0.1703564  1          0.6451155 
231.1      0.142916   1          0.7126201 
231.2      0.114226   1          0.7913674 
231.3      0.1372935  1          0.733117  
231.4      0.1413714  1          0.7271502 
231.5      0.1752641  1          0.6439847 
231.6      0.2133625  0.8395695  0.5295262 
231.7      0.2150364  0.7922779  0.5382653 
231.8      0.2308809  0.7118941  0.5014926 
231.9      0.2199704  0.7446572  0.5427586 
232        0.217607   0.779561   0.5629132 
232.1      0.1677092  1          0.7223976 
232.2      0.1438509  1          0.7829357 
232.3      0.1753367  1          0.7050129 
232.4      0.1738853  1          0.6936797 
232.5      0.2081099  0.8780783  0.6023871 
232.6      0.2087785  0.8675988  0.5990956 
232.7      0.2202316  0.799809   0.5605844 
232.8      0.2328862  0.721792   0.5246875 
232.9      0.2281148  0.6995331  0.542008  
233        0.2166222  0.7528114  0.6082276 
233.1      0.2191883  0.7788179  0.6063867 
233.2      0.2075037  0.8478594  0.6411427 
233.3      0.223058   0.8179529  0.6073949 
233.4      0.1825115  1          0.7023866 
233.5      0.1708616  1          0.7244567 
233.6      0.1434456  1          0.7909976 
233.7      0.1659125  1          0.7299649 
233.8      0.1568023  1          0.7462558 
233.9      0.1655819  1          0.7192894 
234        0.1745502  1          0.6764655 
234.1      0.183018   1          0.6475881 
