~Version information                                                          
  VERS.                            1.20: CWLS LAS  -  VERSION 1.20            
  WRAP.                             YES: Multiple lines per depth step        
~Well information                                                             
# MNEM.UNIT         DATA TYPE  INFORMATION                                    
# ====.================================: ===================                  
  STRT.M                          .000 : First depth in file                  
  STOP.M                       905.000 : Last  depth in file                  
  STEP.M                          .100 : Depth increment                      
  NULL.                       -999.250 : Null  values                         
  WN  .                            WELL: 321                                     
  FN  .                           FIELD: KARATUBE
  CTRY.                         COUNTRY: KAZAKHSTAN
  SRVC.                 SERVICE COMPANY: JSC"Kazpromgeophysica" 
  LGCN.                 LOGGING COMPANY:   
  DATE.                        LOG DATE: 15.05.05
~Curve information                                                            
# MNEM.UNIT                   API CODE   CURVE DESCRIPTION                    
# ====.================================:====================                  
  DEPT.M                               : Depth curve                          
  GR  .UR/H                            : GAMMA-RAY  
  NGLD.UE                              : NEUTRON-GAMMA LOG  
  LL3 .OHMM                            : Appar.resist.laterolog,3 electrodes
  GZ3 .OHMM                            : App.resistivity by lateral A2.0M0.5N   
  GZ3B.OHMM                            : App.resistivity by lateral N0.5M2A
  MLL .OHMM                            : Microlaterolog sond  
  C1  .MM                              : Diameter from profile1
  C2  .MM                              : Diameter from profile2
  CALI.MM                              : Caliper        
  CILR.MMHO                            : Conduct. by sonde 7I1.6,react.signal   
  CILA.MMHO                            : Conduct. by sonde 7I1.6,active.signal
  RHOB.G/C3                            : Bulk density by gamma-gamma log    
  SP  .MV                              : Spontaneous potential   
  DTP .US/M                            : Interval travel time  
  TP1 .US                              : Travel time 1        
  TP2 .US                              : Travel time 2
~Parameter information block                                                  
# MNEM.UNIT                     VALUE       DESCRIPTION                       
# ====.================================:====================                  
  BS  .MM                         215.9: Bit Size                             
  DFD .G/C3                        1.14: Drilling Fluid Density               
  DFV .S                             45: Drilling Fluid Viscosity             
~Other information                                                            
# ------------------- REMARKS AREA ------------------------                   
# ==========================================================                  
~ASCII Log Data                                                               
# ...
    281.20
        7.378        1.367       27.719       30.920       28.102        3.665
      222.776      225.400      224.088      161.596       40.651        2.128
      438.130      427.339     1616.330     1824.999
    281.30
        7.610        1.348       27.834       31.030       27.472        4.743
      222.334      228.190      225.262      161.576       40.320        2.113
      438.451      423.474     1615.594     1822.331
    281.40
        7.752        1.335       26.782       30.895       26.881        5.107
      221.383      228.454      224.918      161.145       45.112        2.118
      438.842      427.977     1613.336     1822.324
    281.50
        7.811        1.344       23.693       30.221       26.027        4.440
      220.857      225.158      223.008      161.962       45.588        2.122
      439.401      438.012     1611.323     1825.329
    281.60
        7.805        1.307       21.525       29.761       25.801        3.733
      222.276      225.024      223.650      161.795       44.543        2.113
      440.007      450.721     1610.026     1830.386
    281.70
        7.921        1.302       18.507       29.088       25.704        3.202
      229.038      229.651      229.344      162.114       45.625        2.129
      439.980      459.156     1609.894     1834.472
    281.80
        7.577        1.292       17.957       28.700       25.695        2.617
      225.697      224.731      225.214      161.964       49.711        2.130
      439.326      459.457     1610.899     1835.627
    281.90
        8.202        1.274       18.842       28.693       25.729        3.440
      216.670      215.043      215.856      162.067       51.579        2.151
      438.568      454.116     1612.004     1834.061
    282.00
        8.159        1.308       20.534       29.092       25.586        3.935
      217.825      217.356      217.591      161.256       50.013        2.143
      437.732      449.007     1611.825     1831.328
    282.10
        7.790        1.352       21.910       29.284       25.204        3.959
      218.448      220.340      219.394      161.729       47.860        2.134
      436.634      448.971     1609.689     1829.175
    282.20
        7.562        1.414       24.379       29.615       24.382        4.061
      219.761      224.285      222.023      163.342       44.179        2.116
      435.776      451.845     1607.232     1828.155
    282.30
        7.389        1.405       26.188       30.175       23.407        4.425
      218.426      223.919      221.172      163.293       42.937        2.125
      434.896      452.737     1606.616     1827.984
    282.40
        7.366        1.359       28.100       30.585       22.177        4.147
      217.903      222.320      220.111      163.195       41.490        2.120
      433.814      448.129     1609.031     1828.096
    282.50
        7.385        1.366       29.209       31.112       21.122        4.399
      220.455      220.733      220.594      163.619       41.533        2.113
      432.335      439.070     1613.744     1828.279
    282.60
        7.662        1.353       29.599       31.470       20.189        4.650
      221.907      219.689      220.798      163.348       42.055        2.107
      430.557      428.763     1618.883     1828.264
    282.70
        7.618        1.348       29.414       31.804       18.725        4.788
      222.314      219.183      220.748      164.550       43.474        2.118
      429.661      420.193     1622.994     1828.090
    282.80
        7.354        1.339       28.928       31.879       17.746        4.215
      222.033      219.925      220.979      165.042       45.655        2.126
      427.959      414.419     1625.702     1827.912
    282.90
        7.716        1.349       28.361       31.853       17.087        4.014
      221.957      222.394      222.175      165.367       47.572        2.111
      427.316      413.201     1627.441     1829.042
    283.00
        7.506        1.362       27.806       31.902       15.918        3.474
      223.702      229.393      226.547      165.784       48.511        2.130
      426.698      416.087     1628.785     1831.830
    283.10
        7.399        1.326       27.797       32.068       15.274        3.546
      228.324      238.227      233.276      165.770       50.739        2.128
      426.629      421.639     1629.813     1835.633
    283.20
        6.843        1.340       29.157       32.591       14.923        5.150
      223.546      239.631      231.588      166.889       53.060        2.134
      426.701      426.852     1630.413     1838.839
    283.30
        6.852        1.323       30.034       33.601       14.400        7.409
      220.935      236.152      228.543      168.051       54.438        2.156
      427.297      429.427     1631.028     1840.742
    283.40
        7.222        1.342       30.824       34.435       13.516        7.834
      219.937      232.811      226.374      169.537       56.877        2.143
      427.850      427.935     1632.525     1841.492
    283.50
        7.382        1.351       30.534       35.587       12.876        8.265
      219.901      229.850      224.875      169.788       58.865        2.137
      428.772      421.878     1635.407     1841.346
    283.60
        7.311        1.356       29.252       36.158       12.466        7.925
      219.493      224.854      222.174      170.796       60.573        2.136
      430.050      412.893     1639.096     1840.543
    283.70
        7.358        1.349       25.400       36.579       11.734        5.464
      218.960      223.340      221.150      171.552       61.740        2.141
      430.675      405.024     1642.188     1839.700
    283.80
        7.220        1.388       23.171       36.619       11.164        4.420
      220.500      222.543      221.521      172.132       64.462        2.152
      431.774      401.615     1643.721     1839.529
    283.90
        7.000        1.426       22.530       36.403       10.518        4.869
      222.737      221.779      222.258      171.732       66.228        2.155
      432.874      402.996     1643.005     1839.502
    284.00
        7.101        1.413       22.310       36.142        9.974        5.491
      225.856      220.512      223.184      172.798       67.335        2.153
      433.746      406.797     1639.699     1838.097
    284.10
        7.217        1.419       21.482       35.965        9.548        3.952
      226.699      217.603      222.151      174.123       71.092        2.134
      434.167      410.813     1634.217     1834.623
    284.20
        7.432        1.371       19.921       35.912        8.911        3.672
      221.835      218.705      220.270      173.632       74.046        2.156
      433.907      414.294     1627.434     1829.581
    284.30
        7.473        1.353       19.078       35.973        8.532        3.652
      223.072      219.886      221.479      173.296       77.012        2.150
      433.373      416.215     1621.234     1824.342
    284.40
        7.394        1.370       18.577       36.116        8.086        4.142
      225.075      221.217      223.146      175.730       80.458        2.152
      432.831      415.473     1616.427     1819.164
    284.50
        7.414        1.345       17.478       35.955        7.644        5.336
      223.935      220.710      222.322      177.102       85.212        2.135
      432.203      411.096     1613.922     1814.470
    284.60
        7.865        1.332       16.036       35.347        7.336        5.790
      218.016      216.776      217.396      178.044       94.107        2.163
      431.497      404.161     1612.868     1809.949
    284.70
        7.814        1.333       12.276       34.254        6.950        3.397
      215.266      217.635      216.451      179.529       96.698        2.166
      430.707      397.276     1612.476     1806.114
    284.80
        7.879        1.346       10.894       32.635        6.773        2.328
      213.888      219.461      216.675      181.420      100.060        2.185
      429.554      393.079     1611.354     1802.894
