~Version information                                                          
  VERS.                            1.20: CWLS LAS  -  VERSION 1.20            
  WRAP.                             YES: Multiple lines per depth step        
~Well information                                                             
# MNEM.UNIT         DATA TYPE  INFORMATION                                    
# ====.================================: ===================                  
  STRT.M                          .000 : First depth in file                  
  STOP.M                       905.000 : Last  depth in file                  
  STEP.M                          .100 : Depth increment                      
  NULL.                       -999.250 : Null  values                         
  WN  .                            WELL: 321                                     
  FN  .                           FIELD: KARATUBE
  CTRY.                         COUNTRY: KAZAKHSTAN
  SRVC.                 SERVICE COMPANY: JSC"Kazpromgeophysica" 
  LGCN.                 LOGGING COMPANY:   
  DATE.                        LOG DATE: 15.05.05
~Curve information                                                            
# MNEM.UNIT                   API CODE   CURVE DESCRIPTION                    
# ====.================================:====================                  
  DEPT.M                               : Depth curve                          
  GR  .UR/H                            : GAMMA-RAY  
  NGLD.UE                              : NEUTRON-GAMMA LOG  
  LL3 .OHMM                            : Appar.resist.laterolog,3 electrodes
  GZ3 .OHMM                            : App.resistivity by lateral A2.0M0.5N   
  GZ3B.OHMM                            : App.resistivity by lateral N0.5M2A
  MLL .OHMM                            : Microlaterolog sond  
  C1  .MM                              : Diameter from profile1
  C2  .MM                              : Diameter from profile2
  CALI.MM                              : Caliper        
  CILR.MMHO                            : Conduct. by sonde 7I1.6,react.signal   
  CILA.MMHO                            : Conduct. by sonde 7I1.6,active.signal
  RHOB.G/C3                            : Bulk density by gamma-gamma log    
  SP  .MV                              : Spontaneous potential   
  DTP .US/M                            : Interval travel time  
  TP1 .US                              : Travel time 1        
  TP2 .US                              : Travel time 2
~Parameter information block                                                  
# MNEM.UNIT                     VALUE       DESCRIPTION                       
# ====.================================:====================                  
  BS  .MM                         215.9: Bit Size                             
  DFD .G/C3                        1.14: Drilling Fluid Density               
  DFV .S                             45: Drilling Fluid Viscosity             
~Other information                                                            
# ------------------- REMARKS AREA ------------------------                   
# ==========================================================                  
~ASCII Log Data                                                               
# ...
    177.60
        7.134        1.234       11.466       11.823       12.155        5.293
      215.694      217.318      216.506      174.828       91.239     -999.250
      421.985      434.252     1646.004     1858.130
    177.70
        7.334        1.232       11.271       11.890       12.153        5.540
      215.815      217.296      216.555      175.052       91.544     -999.250
      422.177      434.035     1645.389     1857.407
    177.80
        7.290        1.233       11.040       11.983       12.208        5.555
      215.607      217.222      216.415      175.020       92.117     -999.250
      422.526      433.166     1644.227     1855.810
    177.90
        7.283        1.283       11.007       12.139       12.272        5.613
      215.329      217.291      216.310      175.232       93.468     -999.250
      422.987      433.767     1642.301     1854.185
    178.00
        7.384        1.234       11.165       12.276       12.313        5.690
      215.099      217.329      216.214      174.692       94.009     -999.250
      423.615      437.888     1640.104     1854.048
    178.10
        7.196        1.217       11.379       12.430       12.299        6.118
      214.985      217.354      216.170      175.976       93.874     -999.250
      424.061      443.543     1638.429     1855.201
    178.20
        7.115        1.210       11.424       12.527       12.270        5.941
      214.972      217.402      216.187      175.736       94.560     -999.250
      424.549      447.950     1638.092     1857.067
    178.30
        7.088        1.202       11.435       12.614       12.256        6.143
      215.521      217.239      216.380      175.215       94.485     -999.250
      424.655      449.091     1639.855     1859.400
    178.40
        7.152        1.204       11.278       12.656       12.255        6.267
      215.239      217.258      216.249      176.188       94.738     -999.250
      424.310      446.980     1643.207     1861.697
    178.50
        7.235        1.227       11.214       12.700       12.253        6.492
      215.209      217.145      216.177      176.109       93.796     -999.250
      423.552      443.150     1647.492     1864.067
    178.60
        7.250        1.206       11.361       12.777       12.244        6.800
      215.340      216.380      215.860      176.107       94.815     -999.250
      422.955      438.735     1650.967     1865.333
    178.70
        7.515        1.249       11.475       12.878       12.229        6.660
      215.177      214.878      215.028      175.597       96.017     -999.250
      422.271      436.098     1653.118     1866.167
    178.80
        7.345        1.205       11.550       12.969       12.215        7.303
      215.365      214.795      215.080      176.343       96.275     -999.250
      422.112      436.116     1653.437     1866.495
    178.90
        7.646        1.208       11.536       13.030       12.202        7.166
      215.337      215.575      215.456      176.161       96.487     -999.250
      422.061      438.131     1653.044     1867.109
    179.00
        7.807        1.182       11.433       13.046       12.206        7.045
      215.354      216.300      215.827      175.979       95.982     -999.250
      422.030      440.657     1652.548     1867.876
    179.10
        8.254        1.171       11.287       13.156       12.207        6.954
      215.722      216.664      216.193      176.024       97.099     -999.250
      422.211      441.962     1653.340     1869.321
    179.20
        8.211        1.188       11.251       13.177       12.195        7.516
      216.375      217.290      216.832      176.801       97.650     -999.250
      422.719      442.807     1654.822     1871.225
    179.30
        8.452        1.167       11.156       13.150       12.146        7.555
      215.915      217.471      216.693      176.283       98.099     -999.250
      423.269      444.072     1656.649     1873.684
    179.40
        8.601        1.183       11.050       13.022       12.092        7.499
      215.554      217.425      216.489      176.368       99.020     -999.250
      424.452      445.954     1658.031     1876.008
    179.50
        8.889        1.178       10.985       12.950       12.043        7.148
      215.550      217.374      216.462      177.042       99.582     -999.250
      425.480      447.317     1659.453     1878.112
    179.60
        8.701        1.149       10.995       12.874       12.015        6.980
      215.621      217.127      216.374      177.004      100.476     -999.250
      426.298      446.446     1661.136     1879.360
    179.70
        8.663        1.146       11.032       12.828       12.006        6.843
      216.037      216.668      216.353      177.058       99.647     -999.250
      427.217      444.350     1662.655     1879.830
    179.80
        8.699        1.148       11.046       12.780       11.996        7.194
      216.100      216.372      216.236      177.546       98.783     -999.250
      427.244      441.897     1663.871     1879.819
    179.90
        8.689        1.173       11.005       12.713       11.986        7.148
      215.791      216.348      216.069      177.008       99.359     -999.250
      427.124      440.685     1664.648     1879.990
    180.00
        8.600        1.171       10.973       12.680       11.975        7.021
      215.424      216.440      215.932      177.206      100.115     -999.250
      426.712      439.937     1665.438     1880.406
    180.10
        8.753        1.211       10.908       12.624       11.949        7.174
      215.352      216.613      215.983      176.952      100.822     -999.250
      426.191      439.808     1666.179     1881.083
    180.20
        8.790        1.182       10.864       12.604       11.931        6.843
      215.455      217.088      216.271      177.396      101.895     -999.250
      425.690      439.961     1666.650     1881.631
    180.30
        8.878        1.186       10.797       12.593       11.925        7.374
      216.190      217.333      216.761      177.483      100.574     -999.250
      425.051      441.125     1666.905     1882.467
    180.40
        9.093        1.167       10.747       12.554       11.928        7.099
      216.893      217.376      217.135      177.570      100.599     -999.250
      423.764      442.284     1666.881     1883.022
    180.50
        9.247        1.161       10.729       12.515       11.924        7.246
      217.153      217.440      217.296      177.589      100.836     -999.250
      422.504      443.094     1666.644     1883.191
    180.60
        9.390        1.209       10.778       12.466       11.920        7.472
      217.336      217.442      217.389      177.609      101.856     -999.250
      421.656      442.831     1666.133     1882.548
    180.70
        9.337        1.192       10.818       12.427       11.912        7.621
      217.267      217.450      217.358      177.853      102.347     -999.250
      420.447      442.034     1665.533     1881.550
    180.80
        9.370        1.204       10.853       12.372       11.894        7.502
      217.210      217.500      217.355      177.817      101.924     -999.250
      419.443      441.186     1665.022     1880.615
    180.90
        9.459        1.219       10.875       12.340       11.889        7.584
      217.292      217.555      217.424      177.172      101.199     -999.250
      418.322      440.738     1664.377     1879.746
    181.00
        9.564        1.215       10.881       12.323       11.901        7.844
      217.563      217.554      217.558      177.096      101.015     -999.250
      417.685      440.547     1663.971     1879.245
    181.10
        9.585        1.218       10.826       12.289       11.932        7.535
      216.900      217.541      217.221      177.805      100.755     -999.250
      417.557      440.221     1664.334     1879.445
    181.20
        9.192        1.232       10.771       12.263       11.964        7.507
      217.940      217.474      217.707      177.243      101.874     -999.250
      417.484      440.318     1665.631     1880.789
