~Version information                                                          
  VERS.                            1.20: CWLS LAS  -  VERSION 1.20            
  WRAP.                             YES: Multiple lines per depth step        
~Well information                                                             
# MNEM.UNIT         DATA TYPE  INFORMATION                                    
# ====.================================: ===================                  
  STRT.M                          .000 : First depth in file                  
  STOP.M                       905.000 : Last  depth in file                  
  STEP.M                          .100 : Depth increment                      
  NULL.                       -999.250 : Null  values                         
  WN  .                            WELL: 321                                     
  FN  .                           FIELD: KARATUBE
  CTRY.                         COUNTRY: KAZAKHSTAN
  SRVC.                 SERVICE COMPANY: JSC"Kazpromgeophysica" 
  LGCN.                 LOGGING COMPANY:   
  DATE.                        LOG DATE: 15.05.05
~Curve information                                                            
# MNEM.UNIT                   API CODE   CURVE DESCRIPTION                    
# ====.================================:====================                  
  DEPT.M                               : Depth curve                          
  GR  .UR/H                            : GAMMA-RAY  
  NGLD.UE                              : NEUTRON-GAMMA LOG  
  LL3 .OHMM                            : Appar.resist.laterolog,3 electrodes
  GZ3 .OHMM                            : App.resistivity by lateral A2.0M0.5N   
  GZ3B.OHMM                            : App.resistivity by lateral N0.5M2A
  MLL .OHMM                            : Microlaterolog sond  
  C1  .MM                              : Diameter from profile1
  C2  .MM                              : Diameter from profile2
  CALI.MM                              : Caliper        
  CILR.MMHO                            : Conduct. by sonde 7I1.6,react.signal   
  CILA.MMHO                            : Conduct. by sonde 7I1.6,active.signal
  RHOB.G/C3                            : Bulk density by gamma-gamma log    
  SP  .MV                              : Spontaneous potential   
  DTP .US/M                            : Interval travel time  
  TP1 .US                              : Travel time 1        
  TP2 .US                              : Travel time 2
~Parameter information block                                                  
# MNEM.UNIT                     VALUE       DESCRIPTION                       
# ====.================================:====================                  
  BS  .MM                         215.9: Bit Size                             
  DFD .G/C3                        1.14: Drilling Fluid Density               
  DFV .S                             45: Drilling Fluid Viscosity             
~Other information                                                            
# ------------------- REMARKS AREA ------------------------                   
# ==========================================================                  
~ASCII Log Data                                                               
# ...
    791.80
        5.315        1.524        3.583        3.324        3.296        1.213
      252.443      272.415      262.429      256.769      177.246        2.338
      442.317      293.976     1261.458     1403.445
    791.90
        5.403        1.483        3.438        3.189        3.202        1.018
      240.777      286.561      263.669      257.492      182.878        2.309
      442.054      289.129     1258.585     1398.148
    792.00
        5.397        1.514        3.508        3.181        3.158        1.144
      232.518      290.501      261.510      256.958      185.511        2.328
      442.083      287.250     1256.417     1395.043
    792.10
        5.361        1.412        3.601        3.240        3.150        1.032
      228.944      291.449      260.197      256.894      185.469        2.315
      442.250      287.357     1255.373     1394.052
    792.20
        5.416        1.397        3.547        3.333        3.195        1.068
      233.305      298.118      265.711      256.303      183.469        2.299
      442.789      288.066     1255.656     1394.688
    792.30
        5.582        1.355        3.423        3.437        3.225         .981
      242.922      308.307      275.615      254.376      180.228        2.295
      443.428      292.102     1255.849     1396.900
    792.40
        5.729        1.321        3.337        3.563        3.260         .820
      250.028      311.706      280.867      253.998      181.258        2.298
      443.952      304.118     1253.746     1400.806
    792.50
        5.703        1.352        3.349        3.754        3.302        1.039
      250.026      292.385      271.205      254.373      180.509        2.328
      444.515      321.856     1250.486     1406.415
    792.60
        5.684        1.354        3.317        3.889        3.372        1.105
      247.012      266.427      256.719      253.499      182.048        2.309
      444.973      338.203     1249.189     1413.291
    792.70
        5.648        1.346        3.230        3.952        3.447        1.292
      240.094      253.598      246.846      254.461      182.417        2.330
      445.412      348.075     1251.715     1420.752
    792.80
        5.759        1.297        3.124        3.946        3.494        1.337
      239.841      255.114      247.478      255.165      182.672        2.329
      445.830      355.369     1255.762     1428.446
    792.90
        5.934        1.322        3.120        3.951        3.576         .932
      241.542      238.881      240.212      255.469      180.708        2.331
      445.923      365.334     1258.417     1436.084
    793.00
        6.018        1.316        3.207        3.958        3.649         .952
      246.464      228.816      237.640      256.483      178.552        2.359
      445.988      377.447     1259.434     1443.158
    793.10
        5.739        1.302        3.366        3.961        3.711        1.270
      239.303      231.015      235.159      256.693      181.900        2.330
      446.134      387.019     1260.905     1449.415
    793.20
        5.876        1.309        3.433        3.940        3.776        1.458
      227.281      232.953      230.117      256.812      184.539        2.348
      446.451      390.569     1264.623     1454.907
    793.30
        5.994        1.296        3.441        3.914        3.803        1.201
      224.940      230.156      227.548      255.399      176.294        2.381
      447.085      389.586     1270.176     1459.969
    793.40
        6.096        1.323        3.520        3.820        3.824         .878
      223.738      227.284      225.511      256.184      173.374        2.342
      447.446      387.893     1275.944     1464.891
    793.50
        6.096        1.359        3.652        3.753        3.812         .780
      225.765      232.359      229.062      255.238      172.389        2.327
      448.128      387.837     1280.864     1469.782
    793.60
        5.858        1.361        3.963        3.688        3.795        1.084
      241.382      232.848      237.115      252.915      169.181        2.333
      448.505      388.928     1284.935     1474.400
    793.70
        5.771        1.360        4.166        3.689        3.823        1.352
      234.912      232.703      233.808      250.766      165.283        2.373
      448.897      389.017     1288.791     1478.300
    793.80
        5.858        1.357        4.165        3.715        3.887        1.563
      237.420      237.161      237.290      250.632      162.392        2.339
      449.689      387.427     1292.992     1481.705
    793.90
        6.074        1.333        4.081        3.753        4.029        1.330
      238.532      246.621      242.576      251.042      161.673        2.313
      450.431      385.282     1298.028     1485.670
    794.00
        6.287        1.303        4.035        3.780        4.194        1.049
      238.003      247.221      242.612      251.486      162.847        2.373
      450.941      383.612     1304.276     1491.082
    794.10
        6.474        1.274        3.659        3.798        4.399        1.223
      238.235      239.537      238.886      250.510      166.664        2.357
      451.109      381.879     1311.656     1497.596
    794.20
        6.355        1.283        3.554        3.801        4.569        1.082
      238.130      231.661      234.895      251.052      170.321        2.344
      451.409      378.350     1319.667     1503.842
    794.30
        6.609        1.288        3.448        3.800        4.696        1.171
      236.681      235.359      236.020      251.133      170.420        2.330
      451.870      373.089     1327.828     1509.373
    794.40
        6.704        1.281        3.315        3.780        4.875        1.137
      239.713      249.209      244.461      252.829      174.992        2.349
      451.919      366.843     1335.856     1514.278
    794.50
        6.700        1.290        3.246        3.713        4.950         .990
      240.906      256.889      248.898      254.383      181.469        2.316
      452.080      360.198     1343.689     1518.788
    794.60
        6.879        1.292        3.222        3.629        4.989         .891
      245.669      255.122      250.395      253.205      185.176        2.311
      451.942      352.618     1351.340     1522.648
    794.70
        6.782        1.280        3.205        3.563        5.037        1.373
      246.584      247.549      247.066      252.846      185.775        2.317
      451.452      345.498     1358.887     1526.636
    794.80
        6.675        1.274        3.169        3.519        5.077        1.687
      242.919      251.930      247.425      253.990      187.196        2.301
      450.396      341.934     1366.212     1532.179
    794.90
        6.601        1.294        3.127        3.404        5.144        1.196
      238.603      253.230      245.917      255.748      190.396        2.306
      449.565      344.698     1372.522     1539.872
    795.00
        6.777        1.277        3.093        3.331        5.188         .980
      235.587      244.783      240.185      254.252      193.720        2.330
      447.819      351.342     1376.991     1547.662
    795.10
        6.797        1.272        3.080        3.267        5.230         .846
      235.389      239.733      237.561      253.663      194.140        2.300
      446.800      351.479     1380.508     1551.247
    795.20
        6.798        1.281        3.123        3.221        5.282         .905
      237.972      247.675      242.824      253.619      192.305        2.340
      445.270      338.496     1385.403     1549.651
    795.30
        6.059        1.330        3.220        3.169        5.278        1.164
      238.660      252.432      245.546      251.566      186.535        2.358
      443.801      315.281     1392.420     1545.061
    795.40
        5.601        1.295        3.363        3.061        5.190        1.432
      239.290      237.464      238.377      250.385      184.642        2.344
      442.805      288.097     1398.266     1537.315
