~Version information                                                          
  VERS.                            1.20: CWLS LAS  -  VERSION 1.20            
  WRAP.                             YES: Multiple lines per depth step        
~Well information                                                             
# MNEM.UNIT         DATA TYPE  INFORMATION                                    
# ====.================================: ===================                  
  STRT.M                          .000 : First depth in file                  
  STOP.M                       905.000 : Last  depth in file                  
  STEP.M                          .100 : Depth increment                      
  NULL.                       -999.250 : Null  values                         
  WN  .                            WELL: 321                                     
  FN  .                           FIELD: KARATUBE
  CTRY.                         COUNTRY: KAZAKHSTAN
  SRVC.                 SERVICE COMPANY: JSC"Kazpromgeophysica" 
  LGCN.                 LOGGING COMPANY:   
  DATE.                        LOG DATE: 15.05.05
~Curve information                                                            
# MNEM.UNIT                   API CODE   CURVE DESCRIPTION                    
# ====.================================:====================                  
  DEPT.M                               : Depth curve                          
  GR  .UR/H                            : GAMMA-RAY  
  NGLD.UE                              : NEUTRON-GAMMA LOG  
  LL3 .OHMM                            : Appar.resist.laterolog,3 electrodes
  GZ3 .OHMM                            : App.resistivity by lateral A2.0M0.5N   
  GZ3B.OHMM                            : App.resistivity by lateral N0.5M2A
  MLL .OHMM                            : Microlaterolog sond  
  C1  .MM                              : Diameter from profile1
  C2  .MM                              : Diameter from profile2
  CALI.MM                              : Caliper        
  CILR.MMHO                            : Conduct. by sonde 7I1.6,react.signal   
  CILA.MMHO                            : Conduct. by sonde 7I1.6,active.signal
  RHOB.G/C3                            : Bulk density by gamma-gamma log    
  SP  .MV                              : Spontaneous potential   
  DTP .US/M                            : Interval travel time  
  TP1 .US                              : Travel time 1        
  TP2 .US                              : Travel time 2
~Parameter information block                                                  
# MNEM.UNIT                     VALUE       DESCRIPTION                       
# ====.================================:====================                  
  BS  .MM                         215.9: Bit Size                             
  DFD .G/C3                        1.14: Drilling Fluid Density               
  DFV .S                             45: Drilling Fluid Viscosity             
~Other information                                                            
# ------------------- REMARKS AREA ------------------------                   
# ==========================================================                  
~ASCII Log Data                                                               
# ...
    381.10
       10.216        1.223        3.565        3.486        4.106        1.422
      218.961      228.961      223.961      261.662      198.001        2.182
      428.353      438.533     1650.313     1864.580
    381.20
       10.577        1.244        3.577        3.443        4.138        1.629
      216.700      228.701      222.700      260.279      198.131        2.189
      427.789      445.114     1652.269     1869.825
    381.30
       10.801        1.223        3.575        3.405        4.198        1.840
      215.580      228.157      221.868      260.601      197.079        2.202
      427.555      449.992     1653.196     1873.192
    381.40
       10.813        1.212        3.577        3.349        4.261        1.761
      216.553      234.193      225.373      261.401      197.372        2.210
      427.380      451.128     1654.773     1875.337
    381.50
       10.672        1.202        3.614        3.308        4.312        1.586
      218.179      232.104      225.141      259.474      198.122        2.207
      427.429      445.897     1658.876     1876.824
    381.60
       10.564        1.218        3.644        3.292        4.398        1.600
      217.866      232.449      225.157      257.521      197.791        2.217
      427.533      434.000     1665.396     1877.396
    381.70
       10.342        1.213        3.648        3.265        4.474        1.396
      216.759      229.795      223.277      256.059      195.582        2.231
      427.620      423.309     1670.276     1876.930
    381.80
       10.327        1.182        3.692        3.241        4.529        1.563
      216.102      226.170      221.136      255.976      194.659        2.219
      428.130      421.677     1669.299     1875.137
    381.90
       10.341        1.219        3.755        3.208        4.575        1.600
      216.008      226.523      221.266      257.714      192.954        2.225
      428.886      428.638     1662.052     1871.371
    382.00
       10.261        1.227        3.788        3.172        4.574        1.499
      214.391      226.603      220.497      254.839      191.343        2.246
      429.387      437.423     1652.723     1866.434
    382.10
       10.096        1.283        3.882        3.094        4.537        1.579
      214.630      226.731      220.680      252.209      187.243        2.232
      429.419      440.839     1645.570     1860.990
    382.20
        9.819        1.306        4.002        3.046        4.492        1.508
      214.030      227.334      220.682      250.325      183.869        2.226
      429.903      437.469     1641.705     1855.439
    382.30
        9.829        1.297        4.252        2.985        4.421        1.849
      213.016      227.206      220.111      248.209      181.611        2.209
      430.306      428.890     1639.359     1848.805
    382.40
        9.589        1.321        4.506        2.963        4.364        1.938
      212.825      223.889      218.357      247.772      179.795        2.186
      430.065      419.217     1636.622     1841.229
    382.50
        9.101        1.301        4.591        2.970        4.354        1.616
      211.882      221.763      216.822      246.051      178.816        2.192
      428.961      413.106     1632.867     1834.421
    382.60
        9.259        1.291        4.621        2.990        4.381        1.454
      211.442      217.822      214.632      244.612      180.506        2.165
      428.595      410.456     1628.921     1829.149
    382.70
        9.583        1.299        4.589        3.016        4.441        1.341
      211.294      217.736      214.515      244.135      182.293        2.168
      427.441      410.493     1625.496     1825.742
    382.80
        9.583        1.295        4.496        3.055        4.539        1.515
      211.380      218.557      214.969      244.066      181.787        2.194
      426.141      412.214     1622.928     1824.035
    382.90
        9.758        1.275        4.361        3.126        4.656        1.616
      211.867      219.564      215.715      244.554      180.931        2.220
      424.557      416.035     1620.827     1823.845
    383.00
       10.047        1.254        4.263        3.170        4.700        1.636
      212.520      221.239      216.880      243.318      181.685        2.201
      422.818      420.123     1619.125     1824.187
    383.10
       10.285        1.264        4.262        3.174        4.702        1.441
      211.173      220.382      215.777      242.549      183.570        2.208
      422.112      421.997     1618.233     1824.231
    383.20
        9.979        1.247        4.361        3.183        4.648        1.323
      211.648      223.107      217.378      240.718      182.001        2.218
      421.520      423.672     1618.198     1825.034
    383.30
       10.291        1.248        4.408        3.184        4.585        1.395
      213.291      232.413      222.852      238.874      177.857        2.238
      421.160      427.831     1618.799     1827.714
    383.40
       10.116        1.254        4.338        3.155        4.516        1.595
      215.666      248.989      232.328      238.323      175.478        2.243
      420.888      435.273     1618.915     1831.551
    383.50
       10.023        1.275        4.286        3.151        4.481        1.728
      215.665      259.489      237.577      237.839      174.394        2.265
      420.575      440.987     1618.635     1834.127
    383.60
       10.276        1.279        4.245        3.235        4.465        1.736
      217.960      258.959      238.460      237.729      174.478        2.280
      420.409      441.997     1617.991     1833.990
    383.70
       10.255        1.297        4.242        3.282        4.480        1.719
      217.444      258.232      237.838      236.026      174.964        2.274
      420.468      437.668     1617.237     1831.071
    383.80
       10.015        1.265        4.247        3.312        4.504        1.762
      218.207      248.691      233.449      235.554      173.818        2.243
      421.026      431.111     1616.059     1826.614
    383.90
       10.166        1.257        4.260        3.420        4.524        1.839
      219.956      237.386      228.671      235.658      172.421        2.253
      421.764      424.017     1614.119     1821.127
    384.00
       10.664        1.283        4.291        3.474        4.537        1.898
      220.775      237.534      229.154      235.095      170.738        2.252
      422.945      418.112     1610.939     1814.995
    384.10
       10.423        1.257        4.360        3.568        4.542        1.911
      218.805      249.076      233.940      234.671      171.439        2.269
      423.350      412.961     1606.277     1807.758
    384.20
       10.191        1.224        4.389        3.655        4.544        1.880
      219.900      244.819      232.359      234.028      172.255        2.230
      423.432      407.956     1601.309     1800.287
    384.30
       10.118        1.198        4.423        3.733        4.561        1.879
      219.739      242.358      231.048      233.164      172.560        2.229
      423.756      402.104     1597.648     1793.700
    384.40
       10.030        1.226        4.464        3.775        4.592        1.863
      221.156      245.019      233.087      233.401      171.763        2.240
      424.164      398.220     1594.946     1789.055
    384.50
       10.050        1.257        4.492        3.829        4.614        1.825
      224.103      250.358      237.231      234.164      170.262        2.238
      424.598      399.157     1590.683     1785.261
    384.60
       10.116        1.255        4.504        3.927        4.634        1.792
      219.796      243.858      231.827      234.012      169.822        2.228
      424.774      402.699     1584.406     1780.755
    384.70
       10.072        1.238        4.504        3.998        4.672        1.778
      221.962      231.730      226.846      233.614      170.215        2.225
      425.334      402.245     1578.800     1774.921
