~Version information                                                          
  VERS.                            1.20: CWLS LAS  -  VERSION 1.20            
  WRAP.                             YES: Multiple lines per depth step        
~Well information                                                             
# MNEM.UNIT         DATA TYPE  INFORMATION                                    
# ====.================================: ===================                  
  STRT.M                          .000 : First depth in file                  
  STOP.M                       905.000 : Last  depth in file                  
  STEP.M                          .100 : Depth increment                      
  NULL.                       -999.250 : Null  values                         
  WN  .                            WELL: 321                                     
  FN  .                           FIELD: KARATUBE
  CTRY.                         COUNTRY: KAZAKHSTAN
  SRVC.                 SERVICE COMPANY: JSC"Kazpromgeophysica" 
  LGCN.                 LOGGING COMPANY:   
  DATE.                        LOG DATE: 15.05.05
~Curve information                                                            
# MNEM.UNIT                   API CODE   CURVE DESCRIPTION                    
# ====.================================:====================                  
  DEPT.M                               : Depth curve                          
  GR  .UR/H                            : GAMMA-RAY  
  NGLD.UE                              : NEUTRON-GAMMA LOG  
  LL3 .OHMM                            : Appar.resist.laterolog,3 electrodes
  GZ3 .OHMM                            : App.resistivity by lateral A2.0M0.5N   
  GZ3B.OHMM                            : App.resistivity by lateral N0.5M2A
  MLL .OHMM                            : Microlaterolog sond  
  C1  .MM                              : Diameter from profile1
  C2  .MM                              : Diameter from profile2
  CALI.MM                              : Caliper        
  CILR.MMHO                            : Conduct. by sonde 7I1.6,react.signal   
  CILA.MMHO                            : Conduct. by sonde 7I1.6,active.signal
  RHOB.G/C3                            : Bulk density by gamma-gamma log    
  SP  .MV                              : Spontaneous potential   
  DTP .US/M                            : Interval travel time  
  TP1 .US                              : Travel time 1        
  TP2 .US                              : Travel time 2
~Parameter information block                                                  
# MNEM.UNIT                     VALUE       DESCRIPTION                       
# ====.================================:====================                  
  BS  .MM                         215.9: Bit Size                             
  DFD .G/C3                        1.14: Drilling Fluid Density               
  DFV .S                             45: Drilling Fluid Viscosity             
~Other information                                                            
# ------------------- REMARKS AREA ------------------------                   
# ==========================================================                  
~ASCII Log Data                                                               
# ...
    484.70
        8.014        1.274       15.285       16.466       16.464        6.503
      215.213      216.141      215.677      172.256       69.964        2.145
      430.194      389.476     1511.339     1701.077
    484.80
        7.911        1.269       15.069       16.904       15.400        6.405
      215.119      216.268      215.693      173.347       70.246        2.134
      430.212      389.201     1511.333     1700.934
    484.90
        8.006        1.236       15.032       17.237       14.304        6.013
      215.561      216.321      215.941      174.052       73.285        2.133
      430.415      389.500     1510.991     1700.741
    485.00
        7.930        1.250       15.320       17.764       12.949        6.509
      215.697      216.968      216.333      174.728       74.504        2.141
      430.476      389.945     1510.441     1700.414
    485.10
        7.666        1.256       15.527       18.259       12.304        6.496
      215.217      218.012      216.615      175.533       75.071        2.148
      431.126      390.241     1509.765     1699.886
    485.20
        7.464        1.302       15.800       18.694       11.373        6.824
      214.600      218.504      216.552      176.660       76.519        2.148
      431.246      389.936     1509.145     1699.112
    485.30
        7.434        1.289       15.618       19.168       10.771        6.555
      214.144      217.619      215.882      178.682       79.807        2.139
      431.487      389.094     1508.509     1698.056
    485.40
        7.735        1.298       15.376       19.345       10.186        6.672
      213.800      217.336      215.568      179.729       81.087        2.135
      431.899      386.240     1507.923     1696.043
    485.50
        7.603        1.311       15.466       19.544        9.567        6.756
      214.495      217.463      215.979      180.997       89.461        2.121
      431.777      379.328     1507.400     1692.063
    485.60
        7.794        1.304       15.869       19.710        9.155        6.292
      214.693      217.170      215.931      183.951       92.305        2.124
      430.955      368.876     1507.046     1686.483
    485.70
        7.726        1.250       16.751       19.945        8.738        7.369
      214.326      216.891      215.609      183.524       92.097        2.144
      430.125      358.760     1506.768     1681.148
    485.80
        7.822        1.272       17.166       20.281        8.306        7.896
      213.583      217.476      215.529      184.657       94.811        2.150
      429.434      353.617     1506.131     1677.939
    485.90
        7.706        1.284       17.429       20.535        8.050        6.777
      213.456      217.548      215.503      189.143       97.861        2.157
      428.265      353.736     1504.494     1676.362
    486.00
        7.766        1.286       17.992       21.074        7.701        6.096
      214.215      217.555      215.885      191.960      100.538        2.172
      427.335      357.303     1501.064     1674.716
    486.10
        7.377        1.273       18.400       21.572        7.486        5.644
      213.751      217.553      215.652      194.587      103.752        2.134
      425.911      363.382     1495.340     1672.031
    486.20
        7.363        1.287       19.150       22.326        7.248        7.481
      213.517      217.173      215.345      196.177      105.336        2.138
      424.642      370.658     1487.943     1668.272
    486.30
        7.346        1.274       19.883       22.993        6.975        8.038
      213.964      216.062      215.013      199.346      106.374        2.132
      422.549      374.599     1480.662     1662.961
    486.40
        7.079        1.269       21.009       23.766        6.782       10.037
      214.252      214.781      214.517      202.345      111.359        2.151
      421.399      369.953     1475.450     1655.427
    486.50
        7.284        1.293       21.780       24.712        6.434       10.285
      213.111      214.776      213.944      203.418      114.915        2.157
      420.994      358.925     1471.968     1646.430
    486.60
        7.318        1.323       21.601       25.762        6.257        7.743
      214.324      214.019      214.171      208.589      115.316        2.180
      421.328      349.448     1468.740     1638.464
    486.70
        7.344        1.363       21.026       27.055        6.082        6.792
      215.942      214.679      215.310      210.067      115.253        2.192
      421.784      346.349     1464.647     1632.822
    486.80
        7.513        1.346       20.869       28.779        5.964        9.155
      221.294      214.849      218.072      211.387      120.865        2.238
      422.061      345.298     1461.059     1628.708
    486.90
        7.755        1.338       20.275       29.527        5.910        9.687
      223.515      215.825      219.670      212.751      131.754        2.353
      422.828      341.449     1458.947     1624.671
    487.00
        7.835        1.359       16.597       29.813        5.505       13.452
      217.610      218.098      217.854      213.854      143.743        2.347
      423.220      335.447     1458.015     1620.738
    487.10
        8.423        1.365       12.140       29.234        5.321       29.600
      218.115      216.442      217.278      217.123      151.593        2.343
      424.580      332.725     1456.561     1617.923
    487.20
        8.930        1.339        7.927       27.657        5.062        7.800
      218.008      211.440      214.724      225.991      161.434        2.331
      425.419      336.391     1454.115     1617.311
    487.30
        9.412        1.290        6.066       25.321        4.881        2.242
      217.167      211.013      214.090      228.927      164.666        2.309
      426.164      345.805     1451.474     1619.376
    487.40
        9.809        1.248        5.455       22.275        4.844        2.077
      217.785      211.566      214.676      234.717      178.584        2.281
      426.463      357.447     1449.690     1623.414
    487.50
        9.913        1.243        5.103       19.360        4.883        2.051
      218.278      212.070      215.174      238.259      187.520        2.267
      426.757      365.772     1448.860     1626.746
    487.60
       10.169        1.276        5.033       17.521        4.941        2.077
      217.795      212.556      215.175      240.217      193.104        2.274
      427.949      366.624     1448.520     1626.832
    487.70
       10.033        1.268        5.011       15.724        5.064        2.182
      216.565      213.752      215.158      239.495      192.538        2.260
      428.399      361.338     1448.256     1623.926
    487.80
       10.059        1.268        5.080       14.334        5.195        2.205
      215.735      214.271      215.003      238.556      190.463        2.264
      429.542      356.091     1447.993     1621.038
    487.90
        9.999        1.237        5.196       13.315        5.276        2.340
      216.755      213.795      215.275      237.072      183.780        2.281
      430.266      357.241     1447.729     1621.349
    488.00
       10.007        1.271        5.301       12.041        5.405        2.354
      217.656      214.224      215.940      236.552      181.653        2.296
      430.342      364.835     1447.465     1624.882
    488.10
       10.166        1.274        5.311       11.358        5.501        2.210
      218.966      214.699      216.833      236.008      180.896        2.306
      430.615      375.087     1447.202     1629.745
    488.20
       10.265        1.230        5.310       10.537        5.583        2.356
      220.527      214.481      217.504      234.124      182.143        2.292
      430.387      383.025     1446.906     1633.420
    488.30
       10.047        1.234        5.312        9.871        5.682        2.477
      221.995      212.950      217.472      232.473      180.649        2.277
      429.888      388.828     1446.507     1635.921
