~Version information                                                          
  VERS.                            1.20: CWLS LAS  -  VERSION 1.20            
  WRAP.                             YES: Multiple lines per depth step        
~Well information                                                             
# MNEM.UNIT         DATA TYPE  INFORMATION                                    
# ====.================================: ===================                  
  STRT.M                          .000 : First depth in file                  
  STOP.M                       905.000 : Last  depth in file                  
  STEP.M                          .100 : Depth increment                      
  NULL.                       -999.250 : Null  values                         
  WN  .                            WELL: 321                                     
  FN  .                           FIELD: KARATUBE
  CTRY.                         COUNTRY: KAZAKHSTAN
  SRVC.                 SERVICE COMPANY: JSC"Kazpromgeophysica" 
  LGCN.                 LOGGING COMPANY:   
  DATE.                        LOG DATE: 15.05.05
~Curve information                                                            
# MNEM.UNIT                   API CODE   CURVE DESCRIPTION                    
# ====.================================:====================                  
  DEPT.M                               : Depth curve                          
  GR  .UR/H                            : GAMMA-RAY  
  NGLD.UE                              : NEUTRON-GAMMA LOG  
  LL3 .OHMM                            : Appar.resist.laterolog,3 electrodes
  GZ3 .OHMM                            : App.resistivity by lateral A2.0M0.5N   
  GZ3B.OHMM                            : App.resistivity by lateral N0.5M2A
  MLL .OHMM                            : Microlaterolog sond  
  C1  .MM                              : Diameter from profile1
  C2  .MM                              : Diameter from profile2
  CALI.MM                              : Caliper        
  CILR.MMHO                            : Conduct. by sonde 7I1.6,react.signal   
  CILA.MMHO                            : Conduct. by sonde 7I1.6,active.signal
  RHOB.G/C3                            : Bulk density by gamma-gamma log    
  SP  .MV                              : Spontaneous potential   
  DTP .US/M                            : Interval travel time  
  TP1 .US                              : Travel time 1        
  TP2 .US                              : Travel time 2
~Parameter information block                                                  
# MNEM.UNIT                     VALUE       DESCRIPTION                       
# ====.================================:====================                  
  BS  .MM                         215.9: Bit Size                             
  DFD .G/C3                        1.14: Drilling Fluid Density               
  DFV .S                             45: Drilling Fluid Viscosity             
~Other information                                                            
# ------------------- REMARKS AREA ------------------------                   
# ==========================================================                  
~ASCII Log Data                                                               
# ...
    229.40
        8.465        1.254        5.597        5.020        6.481        2.233
      227.038      219.032      223.035      217.979      156.874     -999.250
      424.901      397.949     1685.655     1879.630
    229.50
        8.643        1.244        5.517        4.899        6.490        2.110
      229.277      220.841      225.059      218.345      157.197     -999.250
      425.027      398.095     1683.850     1877.898
    229.60
        8.854        1.230        5.451        4.870        6.526        2.187
      231.175      221.555      226.365      217.394      157.884     -999.250
      424.219      395.169     1681.393     1873.978
    229.70
        8.632        1.228        5.452        4.903        6.606        2.177
      232.692      221.090      226.891      216.731      158.856     -999.250
      423.464      390.375     1678.498     1868.686
    229.80
        8.275        1.217        5.592        4.943        6.675        2.261
      234.184      220.964      227.574      216.276      158.493     -999.250
      422.284      380.871     1675.461     1860.896
    229.90
        8.263        1.262        6.014        5.057        6.728        3.655
      232.389      220.416      226.403      215.566      156.462     -999.250
      421.178      364.491     1672.282     1849.528
    230.00
        8.312        1.225        6.308        5.158        6.728        3.494
      232.628      223.164      227.896      214.410      154.960     -999.250
      420.667      344.393     1668.780     1835.976
    230.10
        8.172        1.250        6.779        5.243        6.728        2.837
      231.992      224.036      228.014      212.627      154.030     -999.250
      420.369      326.550     1665.014     1823.289
    230.20
        8.355        1.251        6.769        5.315        6.794        2.902
      229.964      222.331      226.147      212.349      152.303     -999.250
      419.909      316.451     1660.415     1813.641
    230.30
        8.871        1.260        6.317        5.333        6.856        2.240
      229.843      224.630      227.236      212.290      152.261     -999.250
      419.430      316.303     1654.661     1807.813
    230.40
        8.739        1.191        5.741        5.302        7.000        2.161
      229.290      224.823      227.056      212.689      154.272     -999.250
      419.204      324.027     1647.753     1804.766
    230.50
        8.714        1.201        5.496        5.273        7.131        2.145
      229.290      224.149      226.720      213.315      157.339     -999.250
      418.753      335.154     1641.323     1803.901
    230.60
        8.563        1.173        5.342        5.289        7.239        2.106
      229.113      224.147      226.630      213.205      158.517     -999.250
      418.229      346.036     1635.365     1803.383
    230.70
        8.798        1.183        5.231        5.294        7.300        2.099
      228.947      224.938      226.943      213.199      159.651     -999.250
      417.696      357.835     1628.574     1802.491
    230.80
        8.781        1.206        5.222        5.287        7.337        2.138
      229.535      225.054      227.294      211.937      159.135     -999.250
      417.465      370.740     1619.891     1800.260
    230.90
        8.569        1.211        5.285        5.285        7.362        2.222
      229.351      225.676      227.513      210.749      157.542     -999.250
      417.377      382.668     1610.852     1797.186
    231.00
        8.587        1.194        5.348        5.268        7.322        2.065
      229.116      227.410      228.263      211.045      155.428     -999.250
      417.507      390.272     1604.877     1795.013
    231.10
        8.835        1.221        5.424        5.234        7.240        2.180
      229.336      229.529      229.433      211.719      152.744     -999.250
      419.277      394.696     1602.457     1794.805
    231.20
        9.099        1.232        5.450        5.224        7.122        2.127
      232.719      232.302      232.511      209.665      152.942     -999.250
      420.037      398.378     1602.038     1796.228
    231.30
        8.907        1.234        5.454        5.250        7.101        2.148
      239.310      235.091      237.200      208.950      151.249     -999.250
      421.565      403.090     1600.901     1797.446
    231.40
        8.887        1.236        5.474        5.337        7.166        2.206
      256.578      243.418      249.998      208.077      153.730     -999.250
      422.393      407.992     1598.939     1797.935
    231.50
        8.585        1.225        5.618        5.454        7.209        2.316
      255.122      248.446      251.784      208.011      148.007     -999.250
      423.513      412.464     1596.667     1797.899
    231.60
        8.107        1.257        5.957        5.664        7.181        2.833
      250.754      246.588      248.671      208.246      143.009     -999.250
      424.104      416.420     1594.765     1797.976
    231.70
        8.147        1.238        6.463        5.787        6.961        3.217
      247.107      239.315      243.211      207.895      141.105     -999.250
      424.880      421.262     1592.809     1798.441
    231.80
        7.977        1.239        6.895        5.853        6.741        4.732
      239.069      236.772      237.921      207.559      137.177     -999.250
      425.395      428.188     1590.508     1799.602
    231.90
        8.168        1.238        6.904        5.833        6.269        4.951
      256.487      253.449      254.968      207.926      136.346     -999.250
      425.756      437.933     1587.639     1801.605
    232.00
        8.257        1.234        6.515        5.709        6.019        3.358
      271.617      274.302      272.960      207.901      136.925     -999.250
      426.151      449.291     1584.531     1804.177
    232.10
        8.874        1.213        5.933        5.528        5.721        2.782
      280.042      291.852      285.947      209.007      142.504     -999.250
      426.399      459.154     1582.426     1807.002
    232.20
        9.077        1.242        5.737        5.462        5.578        2.574
      283.158      295.194      289.176      209.193      144.830     -999.250
      426.266      465.663     1582.019     1809.850
    232.30
        8.814        1.223        5.719        5.466        5.549        2.639
      290.512      285.806      288.159      212.867      148.566     -999.250
      425.676      467.783     1583.806     1812.698
    232.40
        8.774        1.262        5.747        5.543        5.609        2.767
      283.413      278.184      280.799      213.756      151.760     -999.250
      425.355      468.755     1586.212     1815.590
    232.50
        8.425        1.252        5.758        5.696        5.743        2.727
      272.843      261.048      266.946      214.604      151.946     -999.250
      425.306      469.716     1588.733     1818.591
    232.60
        8.412        1.260        5.841        6.003        5.906        2.630
      268.196      247.308      257.752      215.226      145.988     -999.250
      425.358      471.555     1590.844     1821.621
    232.70
        8.250        1.282        6.137        6.377        5.969        2.861
      271.005      242.781      256.893      215.488      146.374     -999.250
      425.609      472.886     1593.201     1824.643
    232.80
        8.090        1.301        6.652        6.613        5.915        5.196
      270.547      244.003      257.275      214.503      146.152     -999.250
      425.819      473.899     1595.646     1827.596
    232.90
        8.169        1.283        7.230        6.841        5.783        8.987
      272.561      235.608      254.085      214.047      144.424     -999.250
      425.802      475.075     1598.166     1830.704
    233.00
        8.451        1.200        6.945        6.984        5.649        6.495
      277.744      244.270      261.007      215.622      143.950     -999.250
      425.598      476.590     1600.682     1833.977
