~Version information                                                          
  VERS.                            1.20: CWLS LAS  -  VERSION 1.20            
  WRAP.                             YES: Multiple lines per depth step        
~Well information                                                             
# MNEM.UNIT         DATA TYPE  INFORMATION                                    
# ====.================================: ===================                  
  STRT.M                          .000 : First depth in file                  
  STOP.M                       905.000 : Last  depth in file                  
  STEP.M                          .100 : Depth increment                      
  NULL.                       -999.250 : Null  values                         
  WN  .                            WELL: 321                                     
  FN  .                           FIELD: KARATUBE
  CTRY.                         COUNTRY: KAZAKHSTAN
  SRVC.                 SERVICE COMPANY: JSC"Kazpromgeophysica" 
  LGCN.                 LOGGING COMPANY:   
  DATE.                        LOG DATE: 15.05.05
~Curve information                                                            
# MNEM.UNIT                   API CODE   CURVE DESCRIPTION                    
# ====.================================:====================                  
  DEPT.M                               : Depth curve                          
  GR  .UR/H                            : GAMMA-RAY  
  NGLD.UE                              : NEUTRON-GAMMA LOG  
  LL3 .OHMM                            : Appar.resist.laterolog,3 electrodes
  GZ3 .OHMM                            : App.resistivity by lateral A2.0M0.5N   
  GZ3B.OHMM                            : App.resistivity by lateral N0.5M2A
  MLL .OHMM                            : Microlaterolog sond  
  C1  .MM                              : Diameter from profile1
  C2  .MM                              : Diameter from profile2
  CALI.MM                              : Caliper        
  CILR.MMHO                            : Conduct. by sonde 7I1.6,react.signal   
  CILA.MMHO                            : Conduct. by sonde 7I1.6,active.signal
  RHOB.G/C3                            : Bulk density by gamma-gamma log    
  SP  .MV                              : Spontaneous potential   
  DTP .US/M                            : Interval travel time  
  TP1 .US                              : Travel time 1        
  TP2 .US                              : Travel time 2
~Parameter information block                                                  
# MNEM.UNIT                     VALUE       DESCRIPTION                       
# ====.================================:====================                  
  BS  .MM                         215.9: Bit Size                             
  DFD .G/C3                        1.14: Drilling Fluid Density               
  DFV .S                             45: Drilling Fluid Viscosity             
~Other information                                                            
# ------------------- REMARKS AREA ------------------------                   
# ==========================================================                  
~ASCII Log Data                                                               
# ...
    895.40
        1.100        7.979    19906.650     -999.250     -999.250      313.797
      236.468      237.078      236.773      157.750       -2.451        2.203
     -999.250      214.797     1001.387     1103.785
    895.50
        1.089        7.717    21685.720     -999.250     -999.250      181.045
      237.523      237.591      237.557      156.581       -2.028        2.206
     -999.250      216.533     1000.695     1103.961
    895.60
        1.113        7.553    22336.520     -999.250     -999.250      141.146
      237.949      242.772      240.361      157.652        -.686        2.188
     -999.250      218.965     1000.367     1104.849
    895.70
        1.249        7.417    22608.510     -999.250     -999.250      180.170
      239.536      242.451      240.993      157.666        1.005        2.184
     -999.250      222.421     1000.161     1106.371
    895.80
        1.232        7.311    22018.540     -999.250     -999.250       84.231
      245.211      254.202      249.707      157.236        2.816        2.176
     -999.250      225.365     1000.223     1107.905
    895.90
        1.198        7.131    22013.340     -999.250     -999.250       21.406
      255.445      257.768      256.606      157.562        7.198        2.176
     -999.250      225.488     1000.671     1108.415
    896.00
        1.293        7.282    20925.680     -999.250     -999.250        9.598
      266.313      266.860      266.586      157.996       14.911        2.198
     -999.250      221.982     1001.559     1107.550
    896.10
        1.294        7.378    19652.670     -999.250     -999.250        5.810
      255.882      256.496      256.189      157.345       18.075        2.191
     -999.250      216.733     1002.835     1106.202
    896.20
        1.181        7.619    17576.450     -999.250     -999.250        1.993
      244.115      244.593      244.354      157.331       15.569        2.181
     -999.250      212.602     1004.276     1105.576
    896.30
        1.158        7.708    17539.450     -999.250     -999.250        3.119
      240.550      241.015      240.783      157.559       14.056        2.185
     -999.250      211.039     1005.464     1105.983
    896.40
        1.099        7.887    17713.580     -999.250     -999.250        3.377
      237.750      240.956      239.353      157.812       13.781        2.198
     -999.250      211.941     1005.798     1106.770
    896.50
        1.087        7.931    18733.560     -999.250     -999.250        2.889
      237.932      240.284      239.108      156.939       15.016        2.164
     -999.250      213.997     1005.211     1107.210
    896.60
        1.059        7.906    18927.550     -999.250     -999.250        2.991
      238.241      238.136      238.189      157.468       13.878        2.170
     -999.250      216.074     1004.071     1107.108
    896.70
        1.158        7.907    18989.250     -999.250     -999.250        3.007
      240.180      237.172      238.676      157.292       14.090        2.163
     -999.250      217.374     1003.116     1106.802
    896.80
        1.196        7.855    18855.910     -999.250     -999.250        2.664
      243.541      237.150      240.346      157.511       14.556        2.167
     -999.250      217.957     1002.646     1106.625
    896.90
        1.224        7.761    18885.250     -999.250     -999.250        2.271
      238.015      240.762      239.389      157.678       14.175        2.161
     -999.250      218.383     1002.586     1106.777
    897.00
        1.148        7.606    18857.890     -999.250     -999.250        1.827
      240.020      241.591      240.805      157.281       13.824        2.156
     -999.250      218.819     1002.642     1107.052
    897.10
        1.076        7.477    18893.770     -999.250     -999.250        1.269
      235.017      244.567      239.792      156.836       14.392        2.137
     -999.250      219.186     1002.660     1107.253
    897.20
        1.091        7.546    18852.120     -999.250     -999.250         .543
      237.353      242.273      239.813      157.478       13.938        2.104
     -999.250      219.305     1002.639     1107.292
    897.30
        1.253        7.551    18793.590     -999.250     -999.250         .335
      237.037      239.952      238.495      157.433       13.930        2.103
     -999.250      219.241     1002.600     1107.221
    897.40
        1.222        7.399    18862.160     -999.250     -999.250         .035
      238.565      243.509      241.037      157.229       14.251        2.076
     -999.250      218.924     1002.618     1107.081
    897.50
        1.212        7.128    18863.130     -999.250     -999.250        -.027
      242.610      248.280      245.445      157.682       13.832        2.065
     -999.250      218.487     1002.661     1106.905
    897.60
        1.157        6.962    18974.170     -999.250     -999.250         .019
      243.916      249.646      246.781     -999.250     -999.250        2.004
     -999.250      218.137     1002.726     1106.794
    897.70
     -999.250        6.636    18907.700     -999.250     -999.250        -.007
      257.532      256.099      256.815     -999.250     -999.250        1.970
     -999.250      218.138     1002.745     1106.814
    897.80
     -999.250        6.335    18914.590     -999.250     -999.250        -.040
      263.782      264.831      264.307     -999.250     -999.250        1.948
     -999.250      218.286     1002.771     1106.914
    897.90
     -999.250        6.178    18842.300     -999.250     -999.250         .026
      264.978      267.837      266.408     -999.250     -999.250        1.860
     -999.250      218.437     1002.805     1107.024
    898.00
     -999.250        5.950    18810.240     -999.250     -999.250        -.058
      267.614      271.915      269.764     -999.250     -999.250        1.801
     -999.250      218.528     1002.891     1107.156
    898.10
     -999.250        5.945    18893.700     -999.250     -999.250         .012
      282.702      287.326      285.014     -999.250     -999.250        1.781
     -999.250      218.611     1002.984     1107.290
    898.20
     -999.250        5.839    18883.130     -999.250     -999.250        -.069
      300.127      304.707      302.417     -999.250     -999.250        1.808
     -999.250      218.718     1003.042     1107.402
    898.30
     -999.250        5.916    18836.010     -999.250     -999.250        -.056
      266.355      296.300      281.328     -999.250     -999.250        1.784
     -999.250      218.716     1003.048     1107.406
    898.40
     -999.250        5.870    18881.850     -999.250     -999.250        -.070
      259.254      290.183      274.718     -999.250     -999.250        1.785
     -999.250      218.716     1003.048     1107.406
    898.50
     -999.250        5.881    18893.760     -999.250     -999.250        -.069
      259.008      287.902      273.455     -999.250     -999.250        1.793
     -999.250     -999.250     -999.250     -999.250
    898.60
     -999.250        5.851    18828.180     -999.250     -999.250        -.020
      259.263      288.052      273.658     -999.250     -999.250        1.809
     -999.250     -999.250     -999.250     -999.250
    898.70
     -999.250        5.805    18795.590     -999.250     -999.250         .024
      259.125      288.086      273.605     -999.250     -999.250        1.812
     -999.250     -999.250     -999.250     -999.250
    898.80
     -999.250        5.783    18851.680     -999.250     -999.250         .062
      259.068      288.048      273.558     -999.250     -999.250        1.815
     -999.250     -999.250     -999.250     -999.250
    898.90
     -999.250        5.885    18876.340     -999.250     -999.250         .082
      259.191      288.106      273.649     -999.250     -999.250        1.789
     -999.250     -999.250     -999.250     -999.250
    899.00
     -999.250        5.847    18700.880     -999.250     -999.250         .123
      259.166      288.152      273.659     -999.250     -999.250        1.795
     -999.250     -999.250     -999.250     -999.250
