~Version information                                                          
  VERS.                            1.20: CWLS LAS  -  VERSION 1.20            
  WRAP.                             YES: Multiple lines per depth step        
~Well information                                                             
# MNEM.UNIT         DATA TYPE  INFORMATION                                    
# ====.================================: ===================                  
  STRT.M                          .000 : First depth in file                  
  STOP.M                       905.000 : Last  depth in file                  
  STEP.M                          .100 : Depth increment                      
  NULL.                       -999.250 : Null  values                         
  WN  .                            WELL: 321                                     
  FN  .                           FIELD: KARATUBE
  CTRY.                         COUNTRY: KAZAKHSTAN
  SRVC.                 SERVICE COMPANY: JSC"Kazpromgeophysica" 
  LGCN.                 LOGGING COMPANY:   
  DATE.                        LOG DATE: 15.05.05
~Curve information                                                            
# MNEM.UNIT                   API CODE   CURVE DESCRIPTION                    
# ====.================================:====================                  
  DEPT.M                               : Depth curve                          
  GR  .UR/H                            : GAMMA-RAY  
  NGLD.UE                              : NEUTRON-GAMMA LOG  
  LL3 .OHMM                            : Appar.resist.laterolog,3 electrodes
  GZ3 .OHMM                            : App.resistivity by lateral A2.0M0.5N   
  GZ3B.OHMM                            : App.resistivity by lateral N0.5M2A
  MLL .OHMM                            : Microlaterolog sond  
  C1  .MM                              : Diameter from profile1
  C2  .MM                              : Diameter from profile2
  CALI.MM                              : Caliper        
  CILR.MMHO                            : Conduct. by sonde 7I1.6,react.signal   
  CILA.MMHO                            : Conduct. by sonde 7I1.6,active.signal
  RHOB.G/C3                            : Bulk density by gamma-gamma log    
  SP  .MV                              : Spontaneous potential   
  DTP .US/M                            : Interval travel time  
  TP1 .US                              : Travel time 1        
  TP2 .US                              : Travel time 2
~Parameter information block                                                  
# MNEM.UNIT                     VALUE       DESCRIPTION                       
# ====.================================:====================                  
  BS  .MM                         215.9: Bit Size                             
  DFD .G/C3                        1.14: Drilling Fluid Density               
  DFV .S                             45: Drilling Fluid Viscosity             
~Other information                                                            
# ------------------- REMARKS AREA ------------------------                   
# ==========================================================                  
~ASCII Log Data                                                               
# ...
    691.90
        6.154        1.472        4.246        7.405        3.243        2.668
      231.964      227.706      229.835      271.699      194.230        2.378
      440.217      329.362     1377.950     1537.631
    692.00
        6.045        1.437        4.295        6.871        3.303        2.766
      228.341      227.230      227.786      272.350      195.378        2.393
      438.922      335.706     1375.499     1538.352
    692.10
        6.107        1.467        4.251        6.374        3.384        2.738
      226.622      227.900      227.261      273.073      195.519        2.403
      437.241      340.953     1373.859     1539.336
    692.20
        6.075        1.409        4.158        6.104        3.494        2.538
      228.170      231.609      229.889      272.045      193.844        2.445
      436.190      342.508     1373.105     1539.358
    692.30
        5.852        1.403        4.217        5.882        3.595        2.374
      232.298      235.371      233.834      270.775      194.131        2.453
      435.486      337.314     1373.959     1537.617
    692.40
        6.022        1.439        4.386        5.786        3.666        2.418
      225.141      226.448      225.794      269.515      192.823        2.482
      435.113      327.597     1375.995     1534.794
    692.50
        5.733        1.412        4.820        5.681        3.766        2.872
      224.443      226.257      225.350      269.471      190.099        2.500
      434.905      319.038     1377.623     1532.141
    692.60
        5.569        1.405        4.934        5.636        3.814        3.106
      224.032      226.162      225.097      267.972      189.181        2.507
      434.495      315.422     1376.326     1529.036
    692.70
        5.389        1.451        4.993        5.558        3.826        3.022
      224.441      225.772      225.107      266.170      191.703        2.491
      434.600      315.271     1371.701     1524.336
    692.80
        5.452        1.471        4.992        5.398        3.798        2.803
      224.838      225.859      225.349      265.479      191.246        2.499
      435.205      315.122     1364.744     1517.305
    692.90
        5.646        1.452        4.992        5.223        3.774        2.773
      226.473      225.731      226.102      265.258      188.290        2.517
      436.196      313.234     1357.541     1509.158
    693.00
        5.734        1.439        4.808        4.985        3.749        2.940
      229.315      225.232      227.273      265.411      188.411        2.532
      437.015      312.318     1350.168     1501.327
    693.10
        5.492        1.422        4.610        4.774        3.738        2.583
      226.307      227.012      226.660      266.046      190.318        2.535
      438.796      313.784     1342.183     1494.075
    693.20
        5.445        1.430        4.359        4.593        3.728        2.335
      225.769      226.790      226.279      264.910      192.960        2.510
      439.831      317.415     1333.227     1486.935
    693.30
        5.451        1.456        4.266        4.333        3.720        2.356
      225.753      227.961      226.857      264.294      193.211        2.507
      441.021      321.174     1324.105     1479.692
    693.40
        5.347        1.465        4.261        4.219        3.714        2.384
      227.836      225.089      226.462      261.243      194.157        2.516
      442.061      323.227     1316.537     1473.151
    693.50
        5.455        1.484        4.276        4.094        3.701        2.817
      230.674      225.642      228.158      259.620      192.378        2.509
      442.941      323.470     1311.224     1467.959
    693.60
        5.365        1.453        4.383        4.029        3.677        2.406
      230.225      225.368      227.796      258.140      192.656        2.556
      443.773      321.419     1308.034     1463.743
    693.70
        5.432        1.465        4.608        3.975        3.654        2.528
      227.636      224.410      226.023      254.985      190.742        2.522
      444.331      318.555     1305.422     1459.699
    693.80
        5.397        1.441        4.646        3.911        3.641        3.083
      227.216      227.660      227.438      253.570      192.078        2.485
      444.612      313.500     1303.584     1455.335
    693.90
        5.714        1.411        4.461        3.852        3.633        3.646
      237.290      233.482      235.386      251.837      190.384        2.511
      445.476      303.702     1303.499     1450.350
    694.00
        5.798        1.378        4.200        3.757        3.656        2.213
      234.438      232.765      233.602      251.438      190.190        2.524
      445.965      290.691     1306.043     1446.388
    694.10
        5.628        1.367        4.076        3.635        3.702        2.396
      230.151      231.323      230.737      250.734      188.282        2.477
      446.944      281.371     1309.609     1445.295
    694.20
        5.779        1.398        3.984        3.553        3.760        2.155
      235.782      231.884      233.833      249.664      188.847        2.490
      447.199      282.609     1311.872     1448.177
    694.30
        5.810        1.370        3.985        3.498        3.886        2.136
      240.147      233.126      236.637      249.849      186.717        2.519
      447.401      293.706     1312.379     1454.232
    694.40
        5.680        1.431        4.015        3.500        3.983        2.179
      237.885      233.614      235.749      248.194      185.207        2.519
      447.680      307.917     1311.966     1460.924
    694.50
        5.887        1.446        4.084        3.532        4.214        2.259
      223.623      231.677      227.650      246.876      182.623        2.530
      447.519      320.277     1311.666     1466.804
    694.60
        6.155        1.500        4.117        3.597        4.400        2.245
      223.563      230.869      227.216      245.723      177.958        2.534
      447.412      327.660     1311.012     1469.842
    694.70
        6.038        1.501        4.200        3.661        4.631        2.096
      226.183      229.476      227.830      244.573      172.497        2.549
      447.710      329.262     1309.573     1469.203
    694.80
        6.036        1.517        4.399        3.875        4.825        2.037
      225.896      229.081      227.488      243.679      168.488        2.587
      448.145      324.090     1308.203     1465.248
    694.90
        6.112        1.487        4.860        4.068        4.876        2.154
      225.095      229.161      227.128      239.419      164.716        2.633
      448.790      313.429     1308.141     1459.856
    695.00
        6.080        1.511        6.089        4.270        4.901        2.940
      223.206      227.763      225.485      236.549      160.685        2.651
      449.020      301.030     1309.602     1455.117
    695.10
        5.748        1.505        6.451        4.422        4.887        4.200
      222.938      225.689      224.314      234.756      154.103        2.593
      449.915      289.278     1311.233     1450.872
    695.20
        5.743        1.459        6.491        4.554        4.833        4.160
      227.902      224.298      226.100      234.407      151.563        2.603
      450.124      281.141     1310.990     1446.561
    695.30
        5.781        1.448        6.402        4.650        4.745        3.106
      237.265      225.020      231.142      234.309      151.388        2.552
      450.084      275.590     1308.995     1441.790
    695.40
        5.843        1.438        6.577        4.700        4.657        3.298
      227.020      224.865      225.942      232.764      153.569        2.532
      450.046      273.704     1305.547     1437.399
    695.50
        5.998        1.423        6.735        4.710        4.471        3.561
      222.460      224.018      223.239      230.800      156.594        2.503
      449.639      274.238     1300.856     1432.975
