~Version information                                                          
  VERS.                            1.20: CWLS LAS  -  VERSION 1.20            
  WRAP.                             YES: Multiple lines per depth step        
~Well information                                                             
# MNEM.UNIT         DATA TYPE  INFORMATION                                    
# ====.================================: ===================                  
  STRT.M                          .000 : First depth in file                  
  STOP.M                       905.000 : Last  depth in file                  
  STEP.M                          .100 : Depth increment                      
  NULL.                       -999.250 : Null  values                         
  WN  .                            WELL: 321                                     
  FN  .                           FIELD: KARATUBE
  CTRY.                         COUNTRY: KAZAKHSTAN
  SRVC.                 SERVICE COMPANY: JSC"Kazpromgeophysica" 
  LGCN.                 LOGGING COMPANY:   
  DATE.                        LOG DATE: 15.05.05
~Curve information                                                            
# MNEM.UNIT                   API CODE   CURVE DESCRIPTION                    
# ====.================================:====================                  
  DEPT.M                               : Depth curve                          
  GR  .UR/H                            : GAMMA-RAY  
  NGLD.UE                              : NEUTRON-GAMMA LOG  
  LL3 .OHMM                            : Appar.resist.laterolog,3 electrodes
  GZ3 .OHMM                            : App.resistivity by lateral A2.0M0.5N   
  GZ3B.OHMM                            : App.resistivity by lateral N0.5M2A
  MLL .OHMM                            : Microlaterolog sond  
  C1  .MM                              : Diameter from profile1
  C2  .MM                              : Diameter from profile2
  CALI.MM                              : Caliper        
  CILR.MMHO                            : Conduct. by sonde 7I1.6,react.signal   
  CILA.MMHO                            : Conduct. by sonde 7I1.6,active.signal
  RHOB.G/C3                            : Bulk density by gamma-gamma log    
  SP  .MV                              : Spontaneous potential   
  DTP .US/M                            : Interval travel time  
  TP1 .US                              : Travel time 1        
  TP2 .US                              : Travel time 2
~Parameter information block                                                  
# MNEM.UNIT                     VALUE       DESCRIPTION                       
# ====.================================:====================                  
  BS  .MM                         215.9: Bit Size                             
  DFD .G/C3                        1.14: Drilling Fluid Density               
  DFV .S                             45: Drilling Fluid Viscosity             
~Other information                                                            
# ------------------- REMARKS AREA ------------------------                   
# ==========================================================                  
~ASCII Log Data                                                               
# ...
    432.90
       10.082        1.106        4.902        3.146        3.650        2.140
      220.411      227.077      223.744      233.773      166.585        2.297
      431.436      396.364     1658.195     1851.376
    433.00
       10.161        1.129        4.925        3.242        3.586        2.134
      220.124      226.426      223.275      235.031      166.484        2.286
      431.331      397.293     1654.511     1848.158
    433.10
       10.071        1.152        4.945        3.341        3.542        2.088
      218.965      225.849      222.407      236.985      166.986        2.284
      431.870      396.785     1650.997     1844.389
    433.20
       10.173        1.139        4.962        3.458        3.503        2.105
      220.057      226.022      223.040      238.405      167.928        2.273
      431.916      395.883     1646.639     1839.581
    433.30
       10.384        1.157        4.952        3.531        3.492        2.153
      220.794      225.136      222.965      239.508      170.759        2.276
      431.794      394.293     1641.321     1833.468
    433.40
       10.416        1.150        4.856        3.806        3.491        2.060
      220.259      224.512      222.386      240.633      172.854        2.269
      431.748      389.443     1635.759     1825.480
    433.50
       10.412        1.163        4.769        3.979        3.489        2.001
      220.762      225.057      222.909      241.602      173.537        2.273
      431.600      380.829     1630.036     1815.451
    433.60
       10.391        1.184        4.698        4.089        3.512        1.964
      223.179      225.976      224.578      244.672      173.738        2.275
      431.497      371.793     1622.415     1803.311
    433.70
       10.492        1.181        4.624        4.329        3.576        1.910
      221.650      225.403      223.526      247.443      175.614        2.269
      431.711      367.816     1612.710     1791.618
    433.80
       10.399        1.153        4.547        4.457        3.638        1.886
      222.776      223.151      222.964      249.991      179.140        2.262
      431.752      370.301     1602.281     1782.432
    433.90
       10.558        1.145        4.419        4.610        3.707        1.817
      219.927      222.238      221.083      250.203      181.407        2.244
      431.961      373.016     1594.316     1775.824
    434.00
       10.408        1.177        4.332        4.742        3.760        1.615
      216.399      222.504      219.452      251.051      182.880        2.222
      431.706      370.242     1588.715     1768.836
    434.10
       10.629        1.184        4.346        4.832        3.790        1.515
      216.166      222.610      219.388      254.410      183.736        2.184
      431.470      361.853     1584.405     1760.331
    434.20
       10.725        1.161        4.554        4.932        3.812        1.865
      218.790      222.751      220.771      253.794      184.869        2.148
      431.271      358.906     1579.586     1754.039
    434.30
       10.136        1.152        4.715        5.010        3.832        2.130
      217.972      219.566      218.769      253.304      184.966        2.114
      430.789      367.541     1574.677     1753.448
    434.40
       10.050        1.135        4.724        5.078        3.858        2.244
      220.996      219.932      220.464      252.567      185.075        2.087
      430.336      381.438     1570.181     1755.900
    434.50
        9.780        1.164        4.609        5.106        3.884        2.109
      220.273      221.013      220.643      253.497      186.127        2.044
      429.578      396.248     1566.538     1759.661
    434.60
        9.647        1.135        4.452        5.098        3.917        2.201
      218.488      222.778      220.633      255.185      186.564        2.009
      428.870      414.816     1563.430     1765.839
    434.70
        9.693        1.146        4.259        5.068        3.999        1.982
      218.908      227.187      223.047      253.932      187.138        2.006
      427.925      432.914     1561.602     1773.059
    434.80
       10.229        1.094        4.106        5.007        4.073        1.422
      221.798      229.512      225.655      254.190      189.314        2.058
      426.880      446.298     1562.841     1780.990
    434.90
       10.270        1.104        3.918        4.902        4.263        1.579
      219.383      229.053      224.218      255.104      192.603        2.047
      426.185      453.050     1568.606     1790.131
    435.00
       10.492        1.109        3.793        4.861        4.446        1.477
      216.451      225.284      220.867      255.194      195.048        2.049
      425.498      452.875     1577.841     1799.278
    435.10
       10.364        1.073        3.698        4.837        4.641        1.357
      214.471      222.599      218.535      254.172      196.752        2.014
      424.377      447.359     1588.083     1806.762
    435.20
        9.900        1.077        3.636        4.700        4.839        1.369
      214.426      225.243      219.834      252.612      198.053        1.968
      423.398      441.120     1597.375     1812.935
    435.30
        9.716        1.075        3.608        4.567        4.955        1.404
      214.831      229.959      222.395      253.227      197.797        1.917
      422.588      437.966     1605.969     1819.952
    435.40
        9.312        1.047        3.604        4.443        5.002        1.369
      214.634      224.498      219.566      253.151      198.280        1.920
      423.127      440.615     1613.650     1828.958
    435.50
        9.264        1.068        3.689        4.281        4.974        1.520
      214.512      226.266      220.389      251.759      198.790        1.887
      423.176      446.385     1620.264     1838.456
    435.60
        9.460        1.086        3.976        4.153        4.923        2.029
      215.113      226.627      220.870      249.029      195.472        1.897
      423.280      449.670     1625.392     1845.228
    435.70
        9.358        1.092        4.106        3.951        4.849        2.064
      215.935      225.536      220.735      246.650      192.578        1.911
      423.482      447.987     1629.456     1848.450
    435.80
        9.730        1.066        4.100        3.886        4.826        1.753
      216.438      224.418      220.428      245.426      189.040        2.020
      424.553      444.132     1633.091     1850.157
    435.90
        9.933        1.106        3.885        3.785        4.843        1.439
      216.126      225.013      220.570      244.673      188.484        2.028
      425.649      443.109     1636.835     1853.390
    436.00
        9.884        1.074        3.866        3.739        4.908        1.411
      214.696      224.795      219.746      243.269      188.297        2.156
      426.816      443.647     1641.641     1858.465
    436.10
       10.258        1.104        3.868        3.667        5.036        1.573
      214.597      225.511      220.054      242.997      186.852        2.163
      426.967      442.086     1647.445     1863.489
    436.20
       10.120        1.105        3.853        3.631        5.170        1.603
      216.202      226.192      221.197      243.646      184.708        2.144
      427.368      435.763     1653.384     1866.266
    436.30
       10.174        1.120        3.866        3.601        5.235        1.532
      217.536      222.564      220.050      243.241      182.652        2.123
      427.888      425.803     1658.131     1866.032
    436.40
       10.118        1.155        4.044        3.588        5.231        1.656
      219.709      221.678      220.694      239.725      180.732        2.096
      428.156      412.694     1661.541     1862.888
    436.50
       10.152        1.169        4.272        3.601        5.173        1.427
      221.985      222.589      222.287      238.443      179.391        2.089
      428.347      397.767     1663.534     1857.417
