~Version information                                                          
  VERS.                            1.20: CWLS LAS  -  VERSION 1.20            
  WRAP.                             YES: Multiple lines per depth step        
~Well information                                                             
# MNEM.UNIT         DATA TYPE  INFORMATION                                    
# ====.================================: ===================                  
  STRT.M                          .000 : First depth in file                  
  STOP.M                       905.000 : Last  depth in file                  
  STEP.M                          .100 : Depth increment                      
  NULL.                       -999.250 : Null  values                         
  WN  .                            WELL: 321                                     
  FN  .                           FIELD: KARATUBE
  CTRY.                         COUNTRY: KAZAKHSTAN
  SRVC.                 SERVICE COMPANY: JSC"Kazpromgeophysica" 
  LGCN.                 LOGGING COMPANY:   
  DATE.                        LOG DATE: 15.05.05
~Curve information                                                            
# MNEM.UNIT                   API CODE   CURVE DESCRIPTION                    
# ====.================================:====================                  
  DEPT.M                               : Depth curve                          
  GR  .UR/H                            : GAMMA-RAY  
  NGLD.UE                              : NEUTRON-GAMMA LOG  
  LL3 .OHMM                            : Appar.resist.laterolog,3 electrodes
  GZ3 .OHMM                            : App.resistivity by lateral A2.0M0.5N   
  GZ3B.OHMM                            : App.resistivity by lateral N0.5M2A
  MLL .OHMM                            : Microlaterolog sond  
  C1  .MM                              : Diameter from profile1
  C2  .MM                              : Diameter from profile2
  CALI.MM                              : Caliper        
  CILR.MMHO                            : Conduct. by sonde 7I1.6,react.signal   
  CILA.MMHO                            : Conduct. by sonde 7I1.6,active.signal
  RHOB.G/C3                            : Bulk density by gamma-gamma log    
  SP  .MV                              : Spontaneous potential   
  DTP .US/M                            : Interval travel time  
  TP1 .US                              : Travel time 1        
  TP2 .US                              : Travel time 2
~Parameter information block                                                  
# MNEM.UNIT                     VALUE       DESCRIPTION                       
# ====.================================:====================                  
  BS  .MM                         215.9: Bit Size                             
  DFD .G/C3                        1.14: Drilling Fluid Density               
  DFV .S                             45: Drilling Fluid Viscosity             
~Other information                                                            
# ------------------- REMARKS AREA ------------------------                   
# ==========================================================                  
~ASCII Log Data                                                               
# ...
    536.50
        9.612        1.296        4.469        3.560        2.973        2.647
      222.756      212.525      217.641      281.189      190.579        2.322
      435.056      376.182     1478.604     1661.695
    536.60
        9.389        1.238        4.722        3.650        2.956        2.917
      220.812      212.394      216.603      281.311      190.659        2.254
      434.694      383.552     1477.490     1664.266
    536.70
        9.307        1.264        4.799        3.732        2.924        3.187
      220.938      212.635      216.786      281.073      190.786        2.196
      434.673      392.257     1478.650     1669.778
    536.80
        8.986        1.264        4.606        3.847        2.859        3.143
      223.645      212.818      218.231      285.134      186.662        2.198
      434.546      399.410     1481.156     1675.860
    536.90
        8.656        1.275        4.334        3.928        2.778        2.542
      225.495      214.170      219.833      289.848      183.003        2.138
      433.776      405.404     1483.848     1681.550
    537.00
        8.454        1.200        3.922        3.950        2.718        2.873
      228.189      221.103      224.646      293.826      182.487        2.128
      432.459      411.706     1486.183     1687.036
    537.10
        8.334        1.210        3.667        3.916        2.644        2.196
      223.054      226.887      224.971      297.443      186.053        2.141
      430.800      416.448     1489.091     1692.315
    537.20
        7.818        1.207        3.523        3.880        2.588        1.699
      224.968      222.713      223.841      302.429      191.879        2.185
      429.137      413.662     1493.948     1695.780
    537.30
        7.480        1.233        3.463        3.792        2.498        2.010
      225.291      217.452      221.371      306.518      195.303        2.176
      428.646      400.839     1500.662     1696.082
    537.40
        7.069        1.241        3.451        3.709        2.434        2.177
      220.395      216.752      218.573      312.311      197.222        2.202
      426.405      379.872     1508.442     1693.379
    537.50
        5.535        1.258        3.477        3.613        2.340        2.366
      220.042      216.572      218.307      322.847      201.956        2.252
      425.752      358.966     1514.911     1689.394
    537.60
        5.280        1.247        3.507        3.454        2.257        2.318
      216.868      213.737      215.302      326.166      205.928        2.228
      425.392      344.458     1518.726     1685.955
    537.70
        4.589        1.260        3.505        3.302        2.210        2.314
      217.260      213.786      215.523      334.312      213.227        2.205
      425.029      343.217     1518.042     1684.651
    537.80
        4.208        1.307        3.436        3.178        2.195        2.596
      216.806      213.664      215.235      339.145      216.106        2.198
      425.026      355.148     1513.348     1685.922
    537.90
        4.091        1.332        3.359        3.050        2.206        2.595
      215.881      213.058      214.470      349.219      217.242        2.167
      425.595      372.908     1506.723     1688.177
    538.00
        4.313        1.295        3.270        2.977        2.226        2.212
      214.895      212.034      213.464      358.117      215.186        2.170
      426.425      384.275     1501.223     1688.361
    538.10
        4.416        1.274        3.331        2.882        2.246        2.285
      213.696      211.062      212.379      359.846      214.128        2.173
      427.209      383.277     1498.201     1684.840
    538.20
        4.497        1.321        3.445        2.829        2.254        2.565
      214.101      211.071      212.586      361.146      214.869        2.181
      427.987      372.570     1496.897     1678.182
    538.30
        4.620        1.310        3.688        2.801        2.262        2.842
      215.195      211.144      213.170      362.165      213.826        2.192
      428.395      361.127     1495.498     1671.062
    538.40
        4.342        1.297        3.800        2.789        2.266        2.873
      216.436      211.159      213.797      363.424      212.514        2.197
      429.410      354.396     1493.200     1665.399
    538.50
        4.055        1.259        3.810        2.766        2.271        2.912
      217.889      211.090      214.490      363.213      212.990        2.228
      430.198      354.516     1489.501     1661.760
    538.60
        3.967        1.242        3.742        2.744        2.267        2.663
      219.292      210.978      215.135      361.779      215.472        2.230
      430.778      358.401     1485.235     1659.435
    538.70
        3.876        1.298        3.742        2.738        2.248        2.468
      219.355      211.049      215.202      362.081      219.083        2.229
      431.481      363.160     1481.094     1657.675
    538.80
        3.863        1.320        3.821        2.742        2.207        2.714
      218.586      211.041      214.814      358.702      221.527        2.229
      432.320      368.022     1477.813     1656.824
    538.90
        3.823        1.336        3.852        2.731        2.154        2.806
      218.620      210.955      214.787      357.429      224.804        2.220
      432.653      373.352     1475.256     1656.932
    539.00
        3.708        1.338        3.678        2.678        2.100        2.779
      217.855      210.787      214.321      356.184      227.612        2.201
      432.542      379.941     1472.934     1657.904
    539.10
        3.632        1.341        3.289        2.571        2.061        2.536
      217.047      211.107      214.077      356.333      230.238        2.194
      432.055      384.235     1471.924     1659.042
    539.20
        3.555        1.311        2.991        2.477        2.065        1.963
      217.092      211.986      214.539      356.772      238.726        2.193
      431.547      385.313     1473.358     1661.015
    539.30
        3.453        1.323        2.610        2.328        2.110        1.806
      216.886      212.801      214.844      359.217      246.172        2.200
      431.140      382.605     1477.544     1663.846
    539.40
        3.499        1.346        2.490        2.184        2.171        1.743
      217.207      212.810      215.008      358.700      254.170        2.189
      431.694      378.905     1482.065     1666.517
    539.50
        3.490        1.319        2.410        2.052        2.269        1.618
      217.066      212.882      214.974      353.119      257.325        2.179
      431.785      376.802     1483.766     1667.167
    539.60
        3.666        1.322        2.409        2.009        2.392        1.708
      216.396      212.900      214.648      349.805      257.532        2.154
      432.008      378.070     1481.010     1665.045
    539.70
        3.894        1.350        2.432        1.966        2.521        1.646
      215.927      212.831      214.379      344.228      256.327        2.163
      432.705      381.707     1474.288     1660.142
    539.80
        4.222        1.360        2.422        1.888        2.774        1.667
      216.020      212.728      214.374      336.234      250.305        2.142
      433.595      384.908     1466.578     1654.031
    539.90
        4.545        1.344        2.311        1.869        2.991        1.552
      215.728      212.800      214.264      328.892      247.305        2.142
      434.732      386.263     1460.224     1648.355
    540.00
        4.804        1.317        2.341        1.889        3.190        1.514
      215.742      212.802      214.272      318.289      244.266        2.161
      434.773      384.889     1457.406     1644.851
    540.10
        4.982        1.318        2.623        1.930        3.396        1.628
      214.725      212.816      213.771      308.048      238.766        2.176
      434.779      380.934     1457.364     1642.831
