~Version information                                                          
  VERS.                            1.20: CWLS LAS  -  VERSION 1.20            
  WRAP.                             YES: Multiple lines per depth step        
~Well information                                                             
# MNEM.UNIT         DATA TYPE  INFORMATION                                    
# ====.================================: ===================                  
  STRT.M                          .000 : First depth in file                  
  STOP.M                       905.000 : Last  depth in file                  
  STEP.M                          .100 : Depth increment                      
  NULL.                       -999.250 : Null  values                         
  WN  .                            WELL: 321                                     
  FN  .                           FIELD: KARATUBE
  CTRY.                         COUNTRY: KAZAKHSTAN
  SRVC.                 SERVICE COMPANY: JSC"Kazpromgeophysica" 
  LGCN.                 LOGGING COMPANY:   
  DATE.                        LOG DATE: 15.05.05
~Curve information                                                            
# MNEM.UNIT                   API CODE   CURVE DESCRIPTION                    
# ====.================================:====================                  
  DEPT.M                               : Depth curve                          
  GR  .UR/H                            : GAMMA-RAY  
  NGLD.UE                              : NEUTRON-GAMMA LOG  
  LL3 .OHMM                            : Appar.resist.laterolog,3 electrodes
  GZ3 .OHMM                            : App.resistivity by lateral A2.0M0.5N   
  GZ3B.OHMM                            : App.resistivity by lateral N0.5M2A
  MLL .OHMM                            : Microlaterolog sond  
  C1  .MM                              : Diameter from profile1
  C2  .MM                              : Diameter from profile2
  CALI.MM                              : Caliper        
  CILR.MMHO                            : Conduct. by sonde 7I1.6,react.signal   
  CILA.MMHO                            : Conduct. by sonde 7I1.6,active.signal
  RHOB.G/C3                            : Bulk density by gamma-gamma log    
  SP  .MV                              : Spontaneous potential   
  DTP .US/M                            : Interval travel time  
  TP1 .US                              : Travel time 1        
  TP2 .US                              : Travel time 2
~Parameter information block                                                  
# MNEM.UNIT                     VALUE       DESCRIPTION                       
# ====.================================:====================                  
  BS  .MM                         215.9: Bit Size                             
  DFD .G/C3                        1.14: Drilling Fluid Density               
  DFV .S                             45: Drilling Fluid Viscosity             
~Other information                                                            
# ------------------- REMARKS AREA ------------------------                   
# ==========================================================                  
~ASCII Log Data                                                               
# ...
    640.10
       10.570        1.220        3.026        2.261        3.900        1.421
      214.935      232.657      223.796      280.117      202.695        2.164
      432.095      349.384     1465.332     1635.024
    640.20
       10.859        1.217        2.929        2.334        4.266        1.304
      212.039      227.498      219.768      275.845      204.595        2.147
      432.100      355.384     1461.718     1634.410
    640.30
       10.948        1.227        2.946        2.397        4.427        1.269
      213.986      223.189      218.588      272.825      204.622        2.076
      432.299      359.406     1459.516     1634.219
    640.40
       10.794        1.225        3.047        2.501        4.690        1.239
      215.320      220.650      217.985      267.178      204.273        2.031
      432.644      362.929     1458.261     1634.725
    640.50
       10.626        1.211        3.145        2.580        4.900        1.437
      217.957      218.776      218.367      262.251      203.283        1.987
      432.691      369.117     1457.588     1637.146
    640.60
       10.608        1.194        3.104        2.629        5.053        1.705
      218.026      218.758      218.392      259.627      200.657        2.007
      433.281      379.246     1456.907     1641.531
    640.70
       10.392        1.202        2.903        2.631        5.193        1.489
      217.455      218.436      217.945      255.874      199.700        2.005
      433.587      389.992     1456.016     1646.012
    640.80
       10.526        1.230        2.827        2.567        5.269        1.131
      221.136      220.139      220.638      252.689      200.289        2.074
      433.328      393.769     1456.221     1648.106
    640.90
       10.663        1.243        2.874        2.501        5.384        1.137
      225.329      222.292      223.811      248.514      201.446        2.170
      433.689      385.637     1459.439     1647.257
    641.00
       10.667        1.214        2.933        2.414        5.512        1.289
      225.433      222.573      224.003      244.209      200.792        2.190
      433.816      367.285     1466.219     1644.862
    641.10
       10.806        1.225        3.024        2.361        5.644        1.450
      222.195      222.392      222.294      240.185      198.484        2.206
      435.026      348.319     1474.309     1643.469
    641.20
       10.840        1.268        3.020        2.298        5.906        1.592
      227.027      226.200      226.613      237.230      197.166        2.210
      435.574      338.415     1480.474     1644.682
    641.30
       10.844        1.308        3.002        2.267        6.231        1.437
      225.452      227.079      226.266      235.745      193.217        2.202
      435.836      340.878     1482.291     1647.730
    641.40
       10.750        1.323        2.993        2.247        6.610        1.602
      223.192      225.532      224.362      231.908      188.231        2.202
      435.748      351.578     1480.112     1650.901
    641.50
       10.781        1.318        3.071        2.299        6.884        1.587
      222.220      223.165      222.692      230.339      185.294        2.206
      435.540      362.033     1476.123     1652.139
    641.60
       10.839        1.358        3.363        2.386        7.243        1.644
      220.404      219.649      220.027      223.348      178.424        2.268
      435.365      367.291     1473.463     1652.108
    641.70
       10.922        1.353        4.124        2.518        7.386        2.151
      213.634      212.337      212.985      220.703      168.550        2.216
      435.208      365.891     1473.461     1651.406
    641.80
       10.714        1.368        4.779        2.631        7.414        2.932
      214.070      211.863      212.967      216.618      154.336        2.242
      434.384      361.187     1475.158     1650.751
    641.90
       10.363        1.336        5.658        2.741        7.385        3.354
      214.626      215.516      215.071      213.956      141.667        2.230
      433.714      357.597     1475.937     1649.734
    642.00
       10.059        1.341        6.118        2.899        7.327        3.615
      215.467      214.923      215.195      210.908      133.783        2.229
      432.187      357.368     1474.552     1648.236
    642.10
       10.094        1.376        6.400        3.014        7.252        3.416
      216.045      214.424      215.235      209.896      125.497        2.205
      430.267      360.496     1471.772     1647.020
    642.20
        9.951        1.331        7.417        3.195        7.129        3.664
      215.886      214.184      215.035      207.963      121.317        2.183
      428.868      363.842     1469.829     1646.750
    642.30
        9.616        1.302        7.900        3.326        6.953        3.821
      215.365      213.552      214.458      206.825      117.365        2.172
      427.488      366.752     1470.456     1648.831
    642.40
        9.750        1.349        8.285        3.477        6.719        3.750
      215.439      212.445      213.942      208.307      116.704        2.175
      426.937      368.940     1473.641     1653.111
    642.50
        9.461        1.362        8.256        3.641        6.461        3.714
      216.586      212.879      214.732      210.457      117.503        2.164
      425.668      370.762     1478.767     1659.148
    642.60
        9.432        1.355        8.045        3.773        6.290        3.721
      216.254      215.654      215.954      213.553      120.657        2.200
      425.045      372.479     1483.503     1664.743
    642.70
        9.582        1.381        7.726        3.933        6.059        3.602
      216.955      215.930      216.442      213.951      123.076        2.197
      424.770      373.257     1486.787     1668.416
    642.80
        9.239        1.393        7.496        4.044        5.925        3.371
      216.680      215.920      216.301      215.769      126.451        2.186
      424.765      373.929     1487.490     1669.456
    642.90
        9.428        1.360        7.260        4.181        5.743        3.248
      216.894      215.855      216.374      220.149      130.609        2.183
      425.055      373.035     1486.844     1668.361
    643.00
        9.683        1.382        7.219        4.311        5.571        3.130
      217.939      215.453      216.696      222.729      133.560        2.177
      426.006      372.186     1484.652     1665.745
    643.10
        9.517        1.356        7.239        4.427        5.477        3.315
      218.964      215.033      216.998      225.753      139.449        2.200
      426.674      370.914     1480.667     1661.124
    643.20
        9.216        1.359        7.229        4.588        5.401        3.305
      217.845      215.978      216.911      227.737      141.892        2.185
      426.996      370.741     1474.942     1655.312
    643.30
        9.351        1.344        7.224        4.645        5.367        3.333
      217.607      215.733      216.670      230.222      144.847        2.209
      428.003      371.120     1468.920     1649.479
    643.40
        9.512        1.320        7.260        4.796        5.335        3.327
      216.759      213.418      215.088      232.418      147.888        2.203
      428.797      372.068     1464.858     1645.892
    643.50
        9.702        1.325        7.350        5.198        5.315        3.419
      215.969      214.292      215.131      234.299      150.322        2.207
      429.502      372.319     1463.104     1644.263
    643.60
        9.952        1.341        7.338        5.410        5.294        3.440
      215.545      214.786      215.165      235.431      155.403        2.195
      429.739      371.778     1463.388     1644.277
    643.70
       10.071        1.348        7.035        5.697        5.226        3.305
      215.545      215.106      215.325      235.698      160.687        2.188
      430.407      372.851     1464.346     1645.772
