~Version information                                                          
  VERS.                            1.20: CWLS LAS  -  VERSION 1.20            
  WRAP.                             YES: Multiple lines per depth step        
~Well information                                                             
# MNEM.UNIT         DATA TYPE  INFORMATION                                    
# ====.================================: ===================                  
  STRT.M                          .000 : First depth in file                  
  STOP.M                       905.000 : Last  depth in file                  
  STEP.M                          .100 : Depth increment                      
  NULL.                       -999.250 : Null  values                         
  WN  .                            WELL: 321                                     
  FN  .                           FIELD: KARATUBE
  CTRY.                         COUNTRY: KAZAKHSTAN
  SRVC.                 SERVICE COMPANY: JSC"Kazpromgeophysica" 
  LGCN.                 LOGGING COMPANY:   
  DATE.                        LOG DATE: 15.05.05
~Curve information                                                            
# MNEM.UNIT                   API CODE   CURVE DESCRIPTION                    
# ====.================================:====================                  
  DEPT.M                               : Depth curve                          
  GR  .UR/H                            : GAMMA-RAY  
  NGLD.UE                              : NEUTRON-GAMMA LOG  
  LL3 .OHMM                            : Appar.resist.laterolog,3 electrodes
  GZ3 .OHMM                            : App.resistivity by lateral A2.0M0.5N   
  GZ3B.OHMM                            : App.resistivity by lateral N0.5M2A
  MLL .OHMM                            : Microlaterolog sond  
  C1  .MM                              : Diameter from profile1
  C2  .MM                              : Diameter from profile2
  CALI.MM                              : Caliper        
  CILR.MMHO                            : Conduct. by sonde 7I1.6,react.signal   
  CILA.MMHO                            : Conduct. by sonde 7I1.6,active.signal
  RHOB.G/C3                            : Bulk density by gamma-gamma log    
  SP  .MV                              : Spontaneous potential   
  DTP .US/M                            : Interval travel time  
  TP1 .US                              : Travel time 1        
  TP2 .US                              : Travel time 2
~Parameter information block                                                  
# MNEM.UNIT                     VALUE       DESCRIPTION                       
# ====.================================:====================                  
  BS  .MM                         215.9: Bit Size                             
  DFD .G/C3                        1.14: Drilling Fluid Density               
  DFV .S                             45: Drilling Fluid Viscosity             
~Other information                                                            
# ------------------- REMARKS AREA ------------------------                   
# ==========================================================                  
~ASCII Log Data                                                               
# ...
    740.00
        5.456        1.517        3.334        2.557        2.270        3.009
      217.666      215.011      216.339      372.951      216.559        2.352
      433.198      326.822     1295.828     1454.239
    740.10
        5.345        1.490        3.192        2.474        2.253        2.497
      217.605      215.123      216.364      374.669      219.343        2.338
      432.959      325.408     1298.911     1456.615
    740.20
        5.589        1.459        3.168        2.415        2.249        2.351
      217.754      213.982      215.868      374.673      223.767        2.309
      432.894      325.571     1300.524     1458.310
    740.30
        5.689        1.471        3.175        2.348        2.253        2.391
      217.869      213.651      215.760      375.731      223.308        2.319
      432.815      324.175     1302.171     1459.258
    740.40
        5.975        1.490        3.210        2.299        2.258        2.439
      217.884      214.515      216.200      376.994      222.931        2.333
      432.919      320.623     1304.449     1459.761
    740.50
        5.879        1.507        3.253        2.272        2.266        2.553
      218.261      216.405      217.333      378.168      221.643        2.365
      432.925      316.690     1306.878     1460.224
    740.60
        5.847        1.524        3.260        2.244        2.284        2.630
      218.697      217.933      218.315      378.084      221.664        2.368
      433.112      315.112     1308.229     1460.785
    740.70
        5.824        1.552        3.243        2.226        2.297        3.095
      217.780      216.847      217.314      377.262      220.554        2.360
      433.581      316.973     1307.975     1461.461
    740.80
        5.708        1.518        3.233        2.209        2.322        2.519
      219.267      216.704      217.986      377.119      220.057        2.353
      434.147      320.724     1306.697     1462.058
    740.90
        5.640        1.497        3.225        2.185        2.357        2.719
      219.307      215.925      217.616      378.563      218.868        2.356
      435.227      323.761     1305.675     1462.555
    741.00
        5.570        1.519        3.211        2.189        2.392        2.750
      218.641      216.224      217.433      381.052      215.197        2.393
      436.153      323.576     1305.849     1462.637
    741.10
        5.518        1.523        3.258        2.220        2.425        2.674
      218.397      215.674      217.035      381.402      212.066        2.382
      436.266      319.314     1306.569     1461.226
    741.20
        5.497        1.517        3.453        2.271        2.412        2.533
      218.379      215.137      216.758      378.432      205.295        2.412
      437.115      311.771     1305.913     1456.799
    741.30
        5.496        1.516        3.890        2.374        2.372        2.553
      218.315      215.546      216.930      373.455      198.528        2.408
      437.215      302.487     1302.467     1448.712
    741.40
        5.698        1.515        4.666        2.487        2.283        3.618
      218.443      216.479      217.461      371.240      193.979        2.460
      436.654      294.142     1296.980     1439.052
    741.50
        5.599        1.533        5.252        2.558        2.230        5.867
      217.933      217.342      217.637      372.054      190.399        2.466
      436.049      290.194     1291.017     1431.114
    741.60
        5.640        1.583        4.934        2.631        2.086        7.161
      217.664      218.159      217.912      374.955      190.287        2.464
      435.490      292.382     1285.619     1426.810
    741.70
        5.441        1.530        4.379        2.647        2.026        6.895
      217.545      216.534      217.039      384.519      195.324        2.411
      434.852      301.511     1280.307     1426.063
    741.80
        5.358        1.467        3.775        2.619        1.972        4.030
      217.656      214.575      216.116      391.092      199.481        2.389
      434.458      312.235     1275.754     1426.872
    741.90
        5.402        1.491        3.613        2.568        1.939        2.514
      217.893      213.794      215.844      399.096      203.280        2.381
      434.091      320.882     1272.667     1428.108
    742.00
        5.380        1.495        3.527        2.526        1.926        2.446
      218.148      213.529      215.838      406.971      204.543        2.398
      433.631      324.753     1271.531     1428.908
    742.10
        5.599        1.524        3.363        2.502        1.929        2.366
      218.796      213.372      216.084      413.145      204.297        2.398
      432.974      326.198     1271.732     1429.831
    742.20
        5.705        1.516        3.306        2.394        1.935        2.245
      220.078      214.263      217.171      421.019      203.184        2.384
      432.367      326.520     1272.976     1431.236
    742.30
        5.614        1.509        3.309        2.322        1.945        2.383
      220.000      214.562      217.281      424.051      202.675        2.392
      431.969      325.340     1275.117     1432.787
    742.40
        5.772        1.467        3.284        2.280        1.954        2.351
      219.773      214.094      216.934      426.076      201.524        2.388
      431.628      322.785     1277.154     1433.546
    742.50
        5.424        1.465        3.238        2.250        1.954        2.191
      219.555      214.207      216.881      428.591      200.768        2.392
      431.984      320.480     1277.784     1433.024
    742.60
        5.465        1.425        3.236        2.221        1.938        2.115
      219.515      214.507      217.011      430.588      200.553        2.408
      432.636      318.776     1276.938     1431.326
    742.70
        5.509        1.408        3.238        2.203        1.911        2.339
      219.301      214.638      216.970      430.269      202.855        2.361
      434.182      317.159     1275.914     1429.493
    742.80
        5.389        1.438        3.213        2.180        1.869        2.425
      217.657      214.229      215.943      428.213      206.747        2.350
      435.334      315.791     1275.281     1428.176
    742.90
        5.644        1.451        3.208        2.156        1.831        2.351
      217.760      214.445      216.102      423.855      210.607        2.355
      436.662      316.257     1274.599     1427.728
    743.00
        5.410        1.411        3.205        2.135        1.789        2.245
      217.678      214.967      216.322      418.374      214.566        2.328
      438.507      319.493     1272.836     1427.583
    743.10
        5.497        1.393        3.176        2.112        1.751        2.224
      217.606      213.900      215.753      416.187      218.271        2.314
      439.489      323.503     1270.330     1427.082
    743.20
        5.573        1.393        3.163        2.091        1.731        2.205
      217.757      214.766      216.262      412.599      225.958        2.305
      440.346      326.932     1268.051     1426.516
    743.30
        5.603        1.407        3.008        2.065        1.710        2.179
      217.374      214.538      215.956      410.648      231.759        2.301
      441.146      329.649     1267.121     1426.945
    743.40
        5.663        1.423        2.827        2.046        1.703        2.358
      217.237      214.066      215.652      407.483      239.969        2.323
      441.959      333.375     1267.232     1428.920
    743.50
        5.723        1.471        2.625        1.994        1.719        2.215
      217.133      213.875      215.504      406.349      252.805        2.306
      442.395      338.956     1267.451     1431.928
    743.60
        5.684        1.459        2.469        1.908        1.789        2.073
      216.707      213.919      215.313      406.301      257.466        2.308
      442.633      346.210     1267.124     1435.229
