~Version information                                                          
  VERS.                            1.20: CWLS LAS  -  VERSION 1.20            
  WRAP.                             YES: Multiple lines per depth step        
~Well information                                                             
# MNEM.UNIT         DATA TYPE  INFORMATION                                    
# ====.================================: ===================                  
  STRT.M                          .000 : First depth in file                  
  STOP.M                       905.000 : Last  depth in file                  
  STEP.M                          .100 : Depth increment                      
  NULL.                       -999.250 : Null  values                         
  WN  .                            WELL: 321                                     
  FN  .                           FIELD: KARATUBE
  CTRY.                         COUNTRY: KAZAKHSTAN
  SRVC.                 SERVICE COMPANY: JSC"Kazpromgeophysica" 
  LGCN.                 LOGGING COMPANY:   
  DATE.                        LOG DATE: 15.05.05
~Curve information                                                            
# MNEM.UNIT                   API CODE   CURVE DESCRIPTION                    
# ====.================================:====================                  
  DEPT.M                               : Depth curve                          
  GR  .UR/H                            : GAMMA-RAY  
  NGLD.UE                              : NEUTRON-GAMMA LOG  
  LL3 .OHMM                            : Appar.resist.laterolog,3 electrodes
  GZ3 .OHMM                            : App.resistivity by lateral A2.0M0.5N   
  GZ3B.OHMM                            : App.resistivity by lateral N0.5M2A
  MLL .OHMM                            : Microlaterolog sond  
  C1  .MM                              : Diameter from profile1
  C2  .MM                              : Diameter from profile2
  CALI.MM                              : Caliper        
  CILR.MMHO                            : Conduct. by sonde 7I1.6,react.signal   
  CILA.MMHO                            : Conduct. by sonde 7I1.6,active.signal
  RHOB.G/C3                            : Bulk density by gamma-gamma log    
  SP  .MV                              : Spontaneous potential   
  DTP .US/M                            : Interval travel time  
  TP1 .US                              : Travel time 1        
  TP2 .US                              : Travel time 2
~Parameter information block                                                  
# MNEM.UNIT                     VALUE       DESCRIPTION                       
# ====.================================:====================                  
  BS  .MM                         215.9: Bit Size                             
  DFD .G/C3                        1.14: Drilling Fluid Density               
  DFV .S                             45: Drilling Fluid Viscosity             
~Other information                                                            
# ------------------- REMARKS AREA ------------------------                   
# ==========================================================                  
~ASCII Log Data                                                               
# ...
    588.30
        7.704        1.392        2.473        1.588        1.343        1.553
      214.704      214.449      214.577      409.508      225.932        2.125
      428.871      312.796     1433.014     1584.411
    588.40
        7.784        1.405        2.443        1.520        1.336        1.565
      215.872      214.543      215.207      408.993      228.710        2.135
      427.731      304.424     1456.798     1604.010
    588.50
        7.727        1.399        2.407        1.470        1.338        1.603
      214.978      214.552      214.765      408.775      227.315        2.137
      426.444      301.886     1475.450     1621.393
    588.60
        7.788        1.387        2.325        1.455        1.339        1.625
      215.530      214.628      215.079      408.218      224.857        2.143
      425.679      310.039     1485.150     1635.169
    588.70
        7.915        1.382        2.242        1.440        1.342        1.608
      215.894      214.657      215.275      408.521      222.167        2.144
      424.997      325.779     1487.669     1645.559
    588.80
        7.908        1.403        2.162        1.421        1.353        1.427
      216.574      214.665      215.620      412.023      219.340        2.137
      424.613      346.062     1486.182     1654.213
    588.90
        7.615        1.361        2.056        1.411        1.379        1.463
      217.529      214.721      216.125      414.472      218.986        2.133
      424.927      361.363     1483.957     1659.638
    589.00
        7.629        1.382        2.001        1.404        1.409        1.614
      217.936      214.813      216.375      415.321      217.493        2.130
      425.398      368.204     1482.040     1661.142
    589.10
        7.608        1.411        1.936        1.403        1.485        1.258
      217.313      215.108      216.211      415.470      216.507        2.134
      426.045      368.832     1480.873     1660.290
    589.20
        7.459        1.397        1.932        1.470        1.536        1.195
      216.612      215.597      216.104      413.506      214.587        2.147
      426.848      368.059     1480.055     1659.084
    589.30
        7.390        1.414        2.036        1.505        1.578        1.306
      215.949      215.944      215.947      409.218      212.029        2.139
      427.851      367.740     1479.266     1658.136
    589.40
        7.345        1.410        2.287        1.550        1.599        1.618
      216.683      215.947      216.315      408.184      211.966        2.137
      428.948      367.013     1478.327     1656.834
    589.50
        7.641        1.378        2.384        1.593        1.604        1.985
      217.289      215.729      216.509      407.501      210.247        2.142
      429.986      367.268     1476.942     1655.576
    589.60
        7.239        1.317        2.331        1.611        1.595        2.100
      217.141      215.200      216.170      407.719      208.311        2.148
      430.687      369.110     1475.229     1654.784
    589.70
        7.280        1.320        2.224        1.605        1.566        1.496
      217.480      214.140      215.810      407.532      208.340        2.133
      431.443      371.947     1473.467     1654.440
    589.80
        7.150        1.385        2.328        1.600        1.530         .923
      216.299      213.093      214.696      408.385      211.778        2.143
      432.605      373.528     1472.317     1654.081
    589.90
        7.251        1.373        2.587        1.600        1.479        1.351
      215.879      212.718      214.298      409.680      215.169        2.133
      433.656      374.826     1471.649     1654.062
    590.00
        7.324        1.364        2.606        1.604        1.444        1.930
      215.637      213.232      214.434      412.922      216.010        2.112
      434.509      377.008     1470.860     1654.364
    590.10
        7.133        1.379        2.449        1.564        1.371        1.894
      215.795      214.488      215.142      415.785      217.109        2.124
      434.887      380.393     1469.365     1654.563
    590.20
        6.922        1.397        2.290        1.493        1.324        1.746
      215.958      215.110      215.534      419.594      222.719        2.121
      435.006      382.963     1467.529     1654.010
    590.30
        6.891        1.410        2.091        1.439        1.298        1.461
      215.736      214.447      215.092      423.999      223.579        2.153
      434.917      384.478     1465.696     1652.934
    590.40
        7.156        1.429        1.955        1.365        1.300        1.494
      215.532      213.975      214.753      426.226      225.299        2.168
      434.853      385.306     1464.379     1652.032
    590.50
        7.415        1.448        1.908        1.318        1.311        1.319
      216.020      214.855      215.437      431.550      225.639        2.160
      434.710      386.514     1463.360     1651.617
    590.60
        7.240        1.438        1.898        1.283        1.354        1.310
      216.410      214.546      215.478      432.590      225.370        2.173
      434.649      386.724     1463.027     1651.390
    590.70
        7.622        1.463        1.960        1.271        1.380        1.524
      216.337      214.279      215.308      430.504      225.421        2.151
      434.540      385.013     1463.241     1650.748
    590.80
        7.693        1.430        2.068        1.273        1.407        1.288
      216.000      214.408      215.204      426.557      225.404        2.148
      434.652      381.930     1463.918     1649.884
    590.90
        7.833        1.429        2.231        1.293        1.421        1.387
      215.708      215.036      215.372      422.886      223.541        2.133
      434.689      380.197     1464.140     1649.239
    591.00
        7.867        1.399        2.351        1.305        1.422        1.559
      215.775      215.846      215.810      420.043      218.612        2.131
      435.270      381.188     1463.972     1649.566
    591.10
        7.872        1.378        2.445        1.321        1.416        1.638
      213.433      217.523      215.478      420.745      215.785        2.135
      435.818      383.292     1463.942     1650.587
    591.20
        7.902        1.376        2.449        1.327        1.410        1.559
      211.913      216.283      214.098      420.564      214.787        2.134
      436.445      384.900     1464.616     1652.067
    591.30
        7.924        1.358        2.437        1.332        1.403        1.628
      211.933      216.427      214.180      422.422      215.483        2.137
      436.631      385.144     1466.219     1653.791
    591.40
        7.752        1.344        2.407        1.336        1.399        1.549
      212.660      216.179      214.419      423.102      216.569        2.122
      436.623      385.256     1468.208     1655.836
    591.50
        7.561        1.336        2.365        1.335        1.401        1.764
      213.180      215.075      214.127      424.852      213.461        2.160
      436.219      384.628     1470.736     1658.050
    591.60
        7.584        1.389        2.347        1.352        1.405        1.628
      214.924      215.253      215.089      427.088      210.992        2.146
      435.779      384.028     1473.126     1660.140
    591.70
        7.830        1.370        2.399        1.388        1.413        1.523
      215.880      215.456      215.668      429.350      211.479        2.126
      434.692      382.418     1475.635     1661.844
    591.80
        7.829        1.365        2.471        1.390        1.420        1.633
      215.840      217.045      216.442      428.901      211.140        2.149
      434.138      380.451     1478.021     1663.247
    591.90
        7.674        1.385        2.512        1.411        1.426        1.711
      215.497      217.581      216.539      427.873      209.550        2.153
      433.464      378.308     1480.314     1664.469
