~Version information                                                          
  VERS.                            1.20: CWLS LAS  -  VERSION 1.20            
  WRAP.                             YES: Multiple lines per depth step        
~Well information                                                             
# MNEM.UNIT         DATA TYPE  INFORMATION                                    
# ====.================================: ===================                  
  STRT.M                          .000 : First depth in file                  
  STOP.M                       905.000 : Last  depth in file                  
  STEP.M                          .100 : Depth increment                      
  NULL.                       -999.250 : Null  values                         
  WN  .                            WELL: 321                                     
  FN  .                           FIELD: KARATUBE
  CTRY.                         COUNTRY: KAZAKHSTAN
  SRVC.                 SERVICE COMPANY: JSC"Kazpromgeophysica" 
  LGCN.                 LOGGING COMPANY:   
  DATE.                        LOG DATE: 15.05.05
~Curve information                                                            
# MNEM.UNIT                   API CODE   CURVE DESCRIPTION                    
# ====.================================:====================                  
  DEPT.M                               : Depth curve                          
  GR  .UR/H                            : GAMMA-RAY  
  NGLD.UE                              : NEUTRON-GAMMA LOG  
  LL3 .OHMM                            : Appar.resist.laterolog,3 electrodes
  GZ3 .OHMM                            : App.resistivity by lateral A2.0M0.5N   
  GZ3B.OHMM                            : App.resistivity by lateral N0.5M2A
  MLL .OHMM                            : Microlaterolog sond  
  C1  .MM                              : Diameter from profile1
  C2  .MM                              : Diameter from profile2
  CALI.MM                              : Caliper        
  CILR.MMHO                            : Conduct. by sonde 7I1.6,react.signal   
  CILA.MMHO                            : Conduct. by sonde 7I1.6,active.signal
  RHOB.G/C3                            : Bulk density by gamma-gamma log    
  SP  .MV                              : Spontaneous potential   
  DTP .US/M                            : Interval travel time  
  TP1 .US                              : Travel time 1        
  TP2 .US                              : Travel time 2
~Parameter information block                                                  
# MNEM.UNIT                     VALUE       DESCRIPTION                       
# ====.================================:====================                  
  BS  .MM                         215.9: Bit Size                             
  DFD .G/C3                        1.14: Drilling Fluid Density               
  DFV .S                             45: Drilling Fluid Viscosity             
~Other information                                                            
# ------------------- REMARKS AREA ------------------------                   
# ==========================================================                  
~ASCII Log Data                                                               
# ...
    125.80
        4.009        1.093     -999.250     -999.250     -999.250     -999.250
      226.713      231.073      228.893     -999.250     -999.250     -999.250
     -999.250      190.156      947.457     1037.535
    125.90
        3.809        1.075     -999.250     -999.250     -999.250     -999.250
      226.158      231.464      228.811     -999.250     -999.250     -999.250
     -999.250      190.626      947.261     1037.575
    126.00
        3.877        1.085     -999.250     -999.250     -999.250     -999.250
      226.375      230.630      228.502     -999.250     -999.250     -999.250
     -999.250      191.111      946.982     1037.537
    126.10
        3.864        1.073     -999.250     -999.250     -999.250     -999.250
      226.013      228.978      227.495     -999.250     -999.250     -999.250
     -999.250      191.428      946.751     1037.465
    126.20
        4.058        1.039     -999.250     -999.250     -999.250     -999.250
      225.870      228.455      227.162     -999.250     -999.250     -999.250
     -999.250      191.558      946.719     1037.498
    126.30
        3.888        1.063     -999.250     -999.250     -999.250     -999.250
      225.771      228.949      227.360     -999.250     -999.250     -999.250
     -999.250      191.709      946.785     1037.640
    126.40
        3.985        1.075     -999.250     -999.250     -999.250     -999.250
      224.513      230.308      227.410     -999.250     -999.250     -999.250
     -999.250      191.974      946.833     1037.820
    126.50
        3.971        1.082     -999.250     -999.250     -999.250     -999.250
      224.161      231.047      227.604     -999.250     -999.250     -999.250
     -999.250      192.206      946.783     1037.885
    126.60
        4.035        1.096     -999.250     -999.250     -999.250     -999.250
      224.216      231.505      227.861     -999.250     -999.250     -999.250
     -999.250      192.318      946.664     1037.823
    126.70
        4.179        1.114     -999.250     -999.250     -999.250     -999.250
      225.403      231.492      228.447     -999.250     -999.250     -999.250
     -999.250      192.530      946.500     1037.766
    126.80
        4.197        1.125     -999.250     -999.250     -999.250     -999.250
      225.856      231.530      228.693     -999.250     -999.250     -999.250
     -999.250      192.984      946.339     1037.831
    126.90
        4.297        1.163     -999.250     -999.250     -999.250     -999.250
      225.772      231.553      228.663     -999.250     -999.250     -999.250
     -999.250      193.434      946.240     1037.957
    127.00
        4.325        1.139     -999.250     -999.250     -999.250     -999.250
      225.795      231.308      228.552     -999.250     -999.250     -999.250
     -999.250      193.433      946.288     1038.005
    127.10
        4.156        1.161     -999.250     -999.250     -999.250     -999.250
      226.159      230.527      228.343     -999.250     -999.250     -999.250
     -999.250      192.917      946.513     1037.971
    127.20
        3.992        1.146     -999.250     -999.250     -999.250     -999.250
      226.244      230.436      228.340     -999.250     -999.250     -999.250
     -999.250      192.234      946.860     1037.977
    127.30
        3.990        1.143     -999.250     -999.250     -999.250     -999.250
      226.218      230.517      228.368     -999.250     -999.250     -999.250
     -999.250      191.615      947.235     1038.042
    127.40
        3.919        1.118     -999.250     -999.250     -999.250     -999.250
      226.164      230.732      228.448     -999.250     -999.250     -999.250
     -999.250      191.225      947.492     1038.104
    127.50
        3.671        1.076     -999.250     -999.250     -999.250     -999.250
      226.015      230.624      228.319     -999.250     -999.250     -999.250
     -999.250      191.001      947.542     1038.042
    127.60
        3.605        1.070     -999.250     -999.250     -999.250     -999.250
      225.894      230.027      227.960     -999.250     -999.250     -999.250
     -999.250      191.043      947.423     1037.944
    127.70
        3.615        1.032     -999.250     -999.250     -999.250     -999.250
      226.005      228.597      227.301     -999.250     -999.250     -999.250
     -999.250      191.095      947.236     1037.783
    127.80
        3.712        1.027     -999.250     -999.250     -999.250     -999.250
      225.895      229.352      227.624     -999.250     -999.250     -999.250
     -999.250      191.080      947.110     1037.650
    127.90
        3.488        1.011     -999.250     -999.250     -999.250     -999.250
      225.834      229.940      227.887     -999.250     -999.250     -999.250
     -999.250      191.001      947.012     1037.513
    128.00
        3.545         .996     -999.250     -999.250     -999.250     -999.250
      226.160      230.007      228.084     -999.250     -999.250     -999.250
     -999.250      192.240      946.924     1038.044
    128.10
        3.533         .978     -999.250     -999.250     -999.250     -999.250
      226.242      229.808      228.025     -999.250     -999.250     -999.250
     -999.250      195.910      946.766     1039.721
    128.20
        3.403         .972     -999.250     -999.250     -999.250     -999.250
      226.271      229.051      227.661     -999.250     -999.250     -999.250
     -999.250      200.322      946.503     1041.664
    128.30
        3.471         .985     -999.250     -999.250     -999.250     -999.250
      226.086      228.374      227.230     -999.250     -999.250     -999.250
     -999.250      203.109      946.291     1042.846
    128.40
        3.336         .954     -999.250     -999.250     -999.250     -999.250
      225.934      228.430      227.182     -999.250     -999.250     -999.250
     -999.250      201.943      946.530     1042.502
    128.50
        3.664         .973     -999.250     -999.250     -999.250     -999.250
      222.972      226.666      224.819     -999.250     -999.250     -999.250
     -999.250      199.906      947.360     1042.313
    128.60
        3.525         .984     -999.250     -999.250     -999.250     -999.250
      223.000      226.711      224.856     -999.250     -999.250     -999.250
     -999.250      197.882      948.602     1042.543
    128.70
        3.743        1.001     -999.250     -999.250     -999.250     -999.250
      223.134      226.838      224.986     -999.250     -999.250     -999.250
     -999.250      196.665      949.820     1043.153
    128.80
        3.900         .992     -999.250     -999.250     -999.250     -999.250
      223.204      226.838      225.021     -999.250     -999.250     -999.250
     -999.250      194.721      950.910     1043.271
    128.90
        3.950        1.000     -999.250     -999.250     -999.250     -999.250
      223.176      226.836      225.006     -999.250     -999.250     -999.250
     -999.250      192.637      951.767     1043.085
    129.00
        4.080        1.011     -999.250     -999.250     -999.250     -999.250
      223.023      226.776      224.900     -999.250     -999.250     -999.250
     -999.250      191.256      952.296     1042.924
    129.10
        4.222        1.021     -999.250     -999.250     -999.250     -999.250
      223.136      226.837      224.987     -999.250     -999.250     -999.250
     -999.250      190.436      952.606     1042.824
    129.20
        4.236        1.016     -999.250     -999.250     -999.250     -999.250
      223.886      227.058      225.472     -999.250     -999.250     -999.250
     -999.250      190.118      952.764     1042.823
    129.30
        4.129        1.017     -999.250     -999.250     -999.250     -999.250
      223.765      227.927      225.846     -999.250     -999.250     -999.250
     -999.250      189.952      952.883     1042.859
    129.40
        4.141        1.025     -999.250     -999.250     -999.250     -999.250
      223.855      228.217      226.036     -999.250     -999.250     -999.250
     -999.250      190.286      952.835     1042.978
