~Version information                                                          
  VERS.                            1.20: CWLS LAS  -  VERSION 1.20            
  WRAP.                             YES: Multiple lines per depth step        
~Well information                                                             
# MNEM.UNIT         DATA TYPE  INFORMATION                                    
# ====.================================: ===================                  
  STRT.M                          .000 : First depth in file                  
  STOP.M                       905.000 : Last  depth in file                  
  STEP.M                          .100 : Depth increment                      
  NULL.                       -999.250 : Null  values                         
  WN  .                            WELL: 321                                     
  FN  .                           FIELD: KARATUBE
  CTRY.                         COUNTRY: KAZAKHSTAN
  SRVC.                 SERVICE COMPANY: JSC"Kazpromgeophysica" 
  LGCN.                 LOGGING COMPANY:   
  DATE.                        LOG DATE: 15.05.05
~Curve information                                                            
# MNEM.UNIT                   API CODE   CURVE DESCRIPTION                    
# ====.================================:====================                  
  DEPT.M                               : Depth curve                          
  GR  .UR/H                            : GAMMA-RAY  
  NGLD.UE                              : NEUTRON-GAMMA LOG  
  LL3 .OHMM                            : Appar.resist.laterolog,3 electrodes
  GZ3 .OHMM                            : App.resistivity by lateral A2.0M0.5N   
  GZ3B.OHMM                            : App.resistivity by lateral N0.5M2A
  MLL .OHMM                            : Microlaterolog sond  
  C1  .MM                              : Diameter from profile1
  C2  .MM                              : Diameter from profile2
  CALI.MM                              : Caliper        
  CILR.MMHO                            : Conduct. by sonde 7I1.6,react.signal   
  CILA.MMHO                            : Conduct. by sonde 7I1.6,active.signal
  RHOB.G/C3                            : Bulk density by gamma-gamma log    
  SP  .MV                              : Spontaneous potential   
  DTP .US/M                            : Interval travel time  
  TP1 .US                              : Travel time 1        
  TP2 .US                              : Travel time 2
~Parameter information block                                                  
# MNEM.UNIT                     VALUE       DESCRIPTION                       
# ====.================================:====================                  
  BS  .MM                         215.9: Bit Size                             
  DFD .G/C3                        1.14: Drilling Fluid Density               
  DFV .S                             45: Drilling Fluid Viscosity             
~Other information                                                            
# ------------------- REMARKS AREA ------------------------                   
# ==========================================================                  
~ASCII Log Data                                                               
# ...
    843.60
        6.331        1.671        4.672        5.358       10.640        2.367
      235.867      256.319      246.093      206.237      119.684        2.527
      442.234      313.388     1139.630     1291.324
    843.70
        6.674        1.690        5.103        5.337       11.701        2.569
      243.177      244.233      243.705      205.438      114.962        2.491
      441.183      312.711     1143.133     1294.488
    843.80
        7.006        1.648        5.439        5.344       12.504        2.081
      248.420      229.456      238.938      204.081      110.815        2.561
      439.958      310.371     1147.467     1297.652
    843.90
        7.290        1.678        5.853        5.340       13.072        2.954
      239.304      222.839      231.071      203.767      106.252        2.579
      438.774      309.709     1150.962     1300.817
    844.00
        7.230        1.725        6.187        5.324       14.020        3.899
      229.443      221.947      225.695      203.688      102.953        2.568
      437.570      311.260     1153.188     1303.818
    844.10
        7.466        1.753        6.363        5.315       14.522        3.512
      224.657      222.934      223.796      203.191      100.026        2.585
      435.933      312.706     1154.653     1306.005
    844.20
        7.717        1.729        6.553        5.296       15.243        3.713
      222.716      222.340      222.528      203.424       96.785        2.552
      435.414      312.025     1155.463     1306.475
    844.30
        7.627        1.727        6.547        5.272       15.916        2.789
      223.152      220.252      221.702      202.570       97.205        2.522
      434.908      309.172     1155.064     1304.649
    844.40
        7.434        1.737        6.250        5.176       16.667        1.880
      223.883      219.551      221.717      202.347       98.906        2.525
      434.681      305.015     1153.417     1300.925
    844.50
        6.943        1.728        5.481        5.008       17.785        1.654
      223.254      219.968      221.611      201.881      101.686        2.513
      434.905      300.192     1151.110     1296.206
    844.60
        6.188        1.715        5.038        4.870       18.116        1.655
      223.696      221.650      222.673      202.563      103.956        2.538
      435.498      295.119     1148.649     1291.209
    844.70
        5.961        1.711        4.800        4.702       19.066        1.755
      223.294      222.120      222.707      202.239      108.117        2.531
      435.950      289.792     1146.188     1286.084
    844.80
        5.550        1.750        5.143        4.607       20.289        1.911
      223.432      222.386      222.909      200.994      110.876        2.554
      436.934      284.018     1143.727     1280.736
    844.90
        5.162        1.774        5.686        4.538       21.021       11.378
      224.595      222.433      223.514      200.010      111.813        2.557
      437.944      277.746     1141.157     1275.030
    845.00
        5.026        1.802        6.107        4.509       22.773        9.569
      225.292      221.314      223.303      199.875      112.736        2.608
      438.877      270.737     1138.243     1268.612
    845.10
        4.937        1.803        6.384        4.482       23.607        4.681
      224.471      219.597      222.034      199.486      114.420        2.621
      439.768      263.244     1134.783     1261.405
    845.20
        4.863        1.818        7.360        4.483       24.712        4.440
      222.502      219.331      220.917      199.573      113.654        2.612
      440.276      257.021     1130.097     1253.608
    845.30
        4.629        1.808        8.656        4.542       25.027        3.915
      221.096      221.488      221.292      199.193      110.582        2.631
      440.701      254.705     1123.596     1245.948
    845.40
        4.653        1.820       12.960        4.577       24.738        7.300
      220.261      223.017      221.639      198.519      106.597        2.613
      440.798      258.154     1114.510     1238.586
    845.50
        4.710        1.866       19.728        5.014       23.720       18.992
      219.621      222.382      221.001      198.286      102.981        2.596
      440.933      266.683     1103.125     1231.465
    845.60
        4.400        1.909       26.058        5.290       22.552       27.505
      218.558      219.073      218.815      197.752       98.627        2.579
      441.659      279.683     1089.931     1224.772
    845.70
        4.367        1.897       31.946        5.675       21.057       29.016
      218.242      219.402      218.822      196.379       95.433        2.574
      441.826      296.570     1075.907     1219.192
    845.80
        4.011        1.889       33.040        6.119       19.738       32.505
      218.139      219.515      218.827      194.682       91.672        2.565
      441.971      315.026     1062.459     1214.972
    845.90
        3.855        1.917       31.379        6.462       18.310       26.187
      218.369      219.422      218.895      193.867       90.971        2.576
      441.799      328.833     1051.184     1210.601
    846.00
        3.646        1.923       29.754        7.104       16.814       23.771
      218.758      219.628      219.193      194.950       90.320        2.603
      441.740      332.419     1043.109     1204.319
    846.10
        3.464        1.932       29.912        7.630       15.572       17.603
      219.333      220.637      219.985      193.665       89.609        2.589
      441.679      325.495     1037.679     1195.427
    846.20
        3.272        1.905       32.173        8.368       13.793       23.697
      219.898      220.403      220.150      192.727       89.302        2.585
      441.872      313.819     1033.635     1185.545
    846.30
        3.308        1.916       35.091        9.133       12.995       23.264
      218.934      216.260      217.597      191.322       89.350        2.617
      442.320      303.212     1029.942     1176.548
    846.40
        3.196        1.936       41.414        9.860       11.836       39.698
      217.830      215.839      216.835      190.866       88.150        2.611
      442.919      296.479     1026.238     1169.477
    846.50
        3.205        1.918       49.117       11.037       10.868       37.988
      219.613      216.045      217.829      189.832       87.240        2.608
      443.283      293.692     1022.512     1164.357
    846.60
        3.230        2.013       51.537       11.834       10.360       43.756
      219.671      216.443      218.057      190.395       87.993        2.605
      443.386      292.369     1018.755     1159.939
    846.70
        3.314        2.003       40.972       12.252        9.790       50.872
      220.793      217.889      219.341      189.564       89.168        2.616
      443.736      290.144     1014.974     1155.046
    846.80
        3.532        1.999       26.155       13.864        9.606       61.687
      220.681      218.143      219.412      187.388       90.055        2.582
      444.077      284.900     1011.217     1148.667
    846.90
        3.872        1.973       13.857       14.315        9.692       46.597
      220.410      218.617      219.514      187.848       89.092        2.570
      444.134      277.671     1007.638     1141.474
    847.00
        4.016        1.967        9.421       14.496       10.208       38.587
      222.542      220.152      221.347      188.792       86.034        2.565
      444.018      269.893     1004.399     1134.346
    847.10
        3.792        1.907        7.190       14.331       10.673       15.167
      228.346      221.313      224.830      189.167       83.005        2.556
      443.678      262.367     1001.470     1127.654
    847.20
        3.779        1.886        6.652       13.944       11.807        3.929
      242.095      219.805      230.950      189.538       80.145        2.573
      443.539      254.888      998.672     1121.116
