~Version information                                                          
  VERS.                            1.20: CWLS LAS  -  VERSION 1.20            
  WRAP.                             YES: Multiple lines per depth step        
~Well information                                                             
# MNEM.UNIT         DATA TYPE  INFORMATION                                    
# ====.================================: ===================                  
  STRT.M                          .000 : First depth in file                  
  STOP.M                       905.000 : Last  depth in file                  
  STEP.M                          .100 : Depth increment                      
  NULL.                       -999.250 : Null  values                         
  WN  .                            WELL: 321                                     
  FN  .                           FIELD: KARATUBE
  CTRY.                         COUNTRY: KAZAKHSTAN
  SRVC.                 SERVICE COMPANY: JSC"Kazpromgeophysica" 
  LGCN.                 LOGGING COMPANY:   
  DATE.                        LOG DATE: 15.05.05
~Curve information                                                            
# MNEM.UNIT                   API CODE   CURVE DESCRIPTION                    
# ====.================================:====================                  
  DEPT.M                               : Depth curve                          
  GR  .UR/H                            : GAMMA-RAY  
  NGLD.UE                              : NEUTRON-GAMMA LOG  
  LL3 .OHMM                            : Appar.resist.laterolog,3 electrodes
  GZ3 .OHMM                            : App.resistivity by lateral A2.0M0.5N   
  GZ3B.OHMM                            : App.resistivity by lateral N0.5M2A
  MLL .OHMM                            : Microlaterolog sond  
  C1  .MM                              : Diameter from profile1
  C2  .MM                              : Diameter from profile2
  CALI.MM                              : Caliper        
  CILR.MMHO                            : Conduct. by sonde 7I1.6,react.signal   
  CILA.MMHO                            : Conduct. by sonde 7I1.6,active.signal
  RHOB.G/C3                            : Bulk density by gamma-gamma log    
  SP  .MV                              : Spontaneous potential   
  DTP .US/M                            : Interval travel time  
  TP1 .US                              : Travel time 1        
  TP2 .US                              : Travel time 2
~Parameter information block                                                  
# MNEM.UNIT                     VALUE       DESCRIPTION                       
# ====.================================:====================                  
  BS  .MM                         215.9: Bit Size                             
  DFD .G/C3                        1.14: Drilling Fluid Density               
  DFV .S                             45: Drilling Fluid Viscosity             
~Other information                                                            
# ------------------- REMARKS AREA ------------------------                   
# ==========================================================                  
~ASCII Log Data                                                               
# ...
    329.30
        9.145        1.313        5.308        4.717        7.378        2.451
      218.162      217.917      218.039      200.704      145.396        2.140
      417.519      425.292     1566.328     1773.974
    329.40
        9.317        1.329        5.389        4.766        7.575        2.443
      218.310      217.992      218.151      201.661      141.664        2.174
      418.739      425.941     1566.845     1774.815
    329.50
        9.618        1.350        5.613        4.839        7.837        2.443
      218.266      217.964      218.115      201.447      137.202        2.194
      419.900      419.194     1568.620     1773.217
    329.60
        9.825        1.368        6.053        5.077        8.060        2.524
      218.239      217.931      218.085      201.687      135.600        2.190
      421.400      407.613     1569.799     1768.606
    329.70
       10.362        1.413        6.681        5.241        8.170        3.160
      217.974      217.964      217.969      200.495      127.155        2.258
      423.497      396.354     1568.012     1761.189
    329.80
       10.437        1.422        7.809        5.582        8.277        3.844
      217.548      217.910      217.729      199.343      125.013        2.300
      424.885      384.738     1564.978     1752.347
    329.90
       10.208        1.422        8.302        5.872        8.403        3.940
      218.648      217.923      218.286      199.652      121.034        2.341
      426.090      370.119     1562.246     1742.305
    330.00
       10.385        1.454        8.344        6.284        8.770        3.697
      218.357      218.037      218.197      201.236      116.376        2.361
      426.145      357.855     1558.927     1732.854
    330.10
       10.112        1.450        8.005        6.729        9.144        3.203
      218.496      218.217      218.357      202.618      114.555        2.355
      425.077      352.891     1553.172     1724.617
    330.20
        9.489        1.480        7.971        7.163        9.276        2.679
      218.493      218.894      218.693      203.974      115.283        2.353
      423.292      355.889     1544.689     1717.634
    330.30
        9.769        1.522        9.606        7.867        9.294        3.113
      218.690      220.088      219.389      203.649      116.447        2.405
      422.026      361.184     1534.232     1709.825
    330.40
        9.871        1.571       12.135        8.316        9.092       16.283
      219.749      220.980      220.364      203.083      113.430        2.461
      420.027      364.981     1521.424     1698.915
    330.50
        9.569        1.534       16.063        8.833        8.733       15.375
      220.128      219.024      219.576      202.904      108.993        2.471
      417.597      364.569     1506.436     1683.720
    330.60
        9.306        1.521       16.557        9.349        8.181        9.822
      219.561      220.086      219.823      203.345      107.704        2.487
      415.223      355.475     1491.273     1664.011
    330.70
        9.428        1.532       16.321        9.726        7.805        6.549
      219.045      222.262      220.654      204.562      108.964        2.469
      412.233      337.686     1476.983     1640.826
    330.80
        9.546        1.545       16.288        9.906        7.194        7.896
      219.234      223.905      221.570      204.449      114.752        2.458
      410.124      313.870     1464.135     1616.071
    330.90
        9.408        1.532       15.600       10.425        6.787       10.767
      220.348      223.432      221.890      205.395      126.893        2.438
      408.052      292.754     1451.291     1592.669
    331.00
        9.228        1.500       12.500       10.410        6.321        9.581
      221.523      217.401      219.462      208.401      133.855        2.414
      406.491      283.375     1437.897     1574.585
    331.10
        9.149        1.469        9.243       10.121        5.852        6.633
      219.509      215.588      217.548      211.797      139.163        2.374
      404.773      293.120     1421.922     1563.481
    331.20
        9.196        1.382        6.835        9.535        5.528        1.837
      218.231      215.504      216.868      217.659      149.189        2.315
      403.785      317.760     1404.464     1558.344
    331.30
        8.833        1.356        5.408        8.642        5.148        2.085
      218.156      216.445      217.300      220.228      155.876        2.308
      403.796      344.554     1387.961     1555.239
    331.40
        8.596        1.312        5.185        7.993        4.976        2.300
      218.159      216.308      217.234      221.064      165.206        2.235
      404.397      360.125     1375.732     1550.795
    331.50
        8.536        1.302        5.090        7.520        4.761        1.983
      215.688      216.089      215.889      222.525      169.523        2.212
      404.558      365.180     1367.744     1545.334
    331.60
        8.558        1.311        5.056        7.104        4.658        2.134
      215.088      216.036      215.562      223.640      169.937        2.186
      404.929      367.886     1362.104     1541.047
    331.70
        8.615        1.296        5.049        6.920        4.582        2.202
      215.518      215.971      215.745      224.601      168.264        2.169
      405.572      377.329     1357.168     1540.833
    331.80
        8.643        1.288        5.053        6.719        4.535        2.135
      215.777      215.865      215.821      224.980      167.086        2.166
      406.162      391.652     1352.858     1543.684
    331.90
        8.601        1.304        5.041        6.653        4.512        1.885
      215.301      215.772      215.536      223.676      167.060        2.148
      407.879      403.226     1350.646     1547.260
    332.00
        8.704        1.267        5.037        6.603        4.503        1.796
      217.260      214.756      216.008      221.459      166.998        2.165
      408.953      408.050     1350.775     1549.800
    332.10
        8.712        1.278        5.079        6.568        4.517        1.666
      216.952      215.628      216.290      220.460      165.983        2.184
      410.029      406.830     1353.511     1551.926
    332.20
        9.063        1.294        5.131        6.540        4.551        1.942
      216.445      216.270      216.357      222.101      165.146        2.189
      411.118      401.669     1358.781     1554.615
    332.30
        9.271        1.277        5.059        6.492        4.599        1.746
      215.567      217.022      216.294      224.021      164.249        2.212
      412.103      394.380     1366.813     1559.003
    332.40
        9.538        1.279        4.957        6.452        4.631        1.678
      214.333      219.226      216.779      224.107      166.028        2.240
      412.882      388.138     1375.885     1564.953
    332.50
        9.417        1.265        4.903        6.448        4.672        1.563
      214.384      222.604      218.494      223.952      166.809        2.238
      412.894      389.176     1383.240     1572.828
    332.60
        9.254        1.292        4.895        6.471        4.740        1.440
      214.581      225.966      220.273      223.566      166.250        2.272
      412.948      398.721     1388.095     1582.456
    332.70
        9.042        1.310        4.917        6.475        4.782        1.369
      214.765      229.445      222.105      223.123      163.741        2.289
      413.074      411.481     1393.470     1594.211
    332.80
        9.061        1.311        5.058        6.440        4.825        1.523
      216.050      232.774      224.412      223.122      161.870        2.280
      413.023      421.418     1402.600     1608.309
    332.90
        9.183        1.347        5.286        6.425        4.857        1.891
      215.801      233.392      224.597      222.513      159.284        2.297
      413.212      423.465     1416.194     1622.926
