~Version
 VERS              .         3.0                           : CWLS LOG ASCII STANDARD - VERSION 3.0
 WRAP              .         NO                            : ONE LINE PER DEPTH STEP
 DLM               .         SPACE                         : DELIMITING CHARACTER(SPACE TAB OR COMMA)
~Well Information
#_______________________________________________________________________________
#
#PARAMETER_NAME    .UNIT     VALUE                         : DESCRIPTION
#_______________________________________________________________________________
STRT               .M        0                             : First reference value
STOP               .M        865                           : Last reference value
STEP               .M        0.2                           : Step increment
NULL               .         -9999                         : Missing value
COMP               .         ICPetroleum                   : Company
WELL               .         305                           : Well name
FLD                .         Karatobe                      : Field
LOC                .                                       : Location
SRVC               .         LOGGING COMPANY NAME          : Service Company
CTRY               .         KZ                            : Country
DATE               .         LOG DATE                      : Service Date
LATI               .         0                             : Latitude
LONG               .         0                             : Longitude
GDAT               .         WGS 84                        : Geodetic Datum
COORDIN            .                                       : Grid System
COUNTRY            .         Kazakhstan                    : KAZAKHSTAN
COUNTRY            .         Kazakhstan                    : KAZAKHSTAN
EREF               .m        145.7                         : 
KB                 .         145.7                         : KB Elevation
ORIGINALWELLNAME   .         305                           : 
PROV               .                                       : Province
RWS                .         -999                          : Def_Rw
UWI                .         1_305                         : Unique Well Identifier (UWI)
WST                .         -999                          : Def_Rwt
X                  .km       466481.54                     : 
XCOORD             .                                       : X or East-West Coordinate
Y                  .km       5308116.56                    : 
YCOORD             .                                       : Y or North-South Coordinate
~Parameter Information Block
#_______________________________________________________________________________
#
#PARAMETER_NAME    .UNIT     VALUE                         : DESCRIPTION
#_______________________________________________________________________________
SET                .         Las                           : 
TLFamily_DEPT      .         Measured Depth                : 
TLFamily_PHI_FINAL .         Porosity                      : 
TLFamily_SW_AR     .         Water Saturation              : 
TLFamily_VSH_FINAL .         Shale Volume                  : 
~Curve Information
#_______________________________________________________________________________
#
#LOGNAME           .UNIT     LOG_ID                        : DESCRIPTION
#_______________________________________________________________________________
DEPT               .M                                      : Depth curve {F}
PHI_FINAL          .m3/m3                                  : Porosity {F}
SW_AR              .m3/m3                                  :  {F}
VSH_FINAL          .unitless                               : Vshale {F}
~Ascii
# ...
507.4      0.1772254  1          0.5458757 
507.6      0.1141142  1          0.6885248 
507.8      0.133774   1          0.680335  
508        0.1514078  1          0.6449305 
508.2      0.2090137  1          0.6295596 
508.4      0.4237367  0.5590244  0.3341905 
508.6      0.500142   0.5053005  0.1785517 
508.8      0.382132   0.7030081  0.2696318 
509        0.2029052  1          0.5716553 
509.2      0.1705671  1          0.5852377 
509.4      0.204687   1          0.4819429 
509.6      0.2474471  1          0.4150436 
509.8      0.2393987  1          0.3919928 
510        0.2191936  1          0.4611638 
510.2      0.1951537  1          0.5025605 
510.4      0.2198005  1          0.422495  
510.6      0.2529322  1          0.316246  
510.8      0.2384341  1          0.3376758 
511        0.2206296  1          0.4355187 
511.2      0.1838134  1          0.4927523 
511.4      0.1904984  1          0.501731  
511.6      0.12259    1          0.6340184 
511.8      0.1870113  1          0.5107061 
512        0.1765333  1          0.5105649 
512.2      0.1533968  1          0.5793637 
512.4      0.1545408  1          0.56542   
512.6      0.1242619  1          0.6330848 
512.8      0.1295184  1          0.6479009 
513        0.1141393  1          0.6829336 
513.2      0.1459214  1          0.5923934 
513.4      0.2089534  1          0.4052783 
513.6      0.2163478  1          0.3683456 
513.8      0.1773326  1          0.4646189 
514        0.159696   1          0.5883169 
514.2      0.143379   1          0.6428905 
514.4      0.1536448  1          0.6093537 
514.6      0.1526356  1          0.5878093 
514.8      0.1908254  1          0.5805439 
515        0.1742036  1          0.5667784 
515.2      0.1526137  1          0.5906872 
515.4      0.1662064  1          0.5495952 
515.6      0.1196253  1          0.7087642 
515.8      0.1513661  1          0.6008066 
516        0.1212943  1          0.6563306 
516.2      0.09203265 1          0.7163479 
516.4      0.1504169  1          0.5792147 
516.6      0.1746922  1          0.5010959 
516.8      0.1780303  1          0.510174  
517        0.1253336  1          0.6477588 
517.2      0.08759452 1          0.7112514 
517.4      0.1368326  1          0.6248667 
517.6      0.1511166  1          0.5414047 
517.8      0.1362373  1          0.5576877 
518        0.1333603  1          0.4912434 
518.2      0.1764041  1          0.4940038 
518.4      0.149203   1          0.5707684 
518.6      0.1251794  1          0.6200308 
518.8      0.2732109  1          0.5469708 
519        0.3973431  0.6723355  0.3801274 
519.2      0.3616145  0.7951857  0.2948674 
519.4      0.2019253  1          0.5734295 
519.6      0.2046873  1          0.4959637 
519.8      0.2551833  1          0.3066522 
520        0.2795997  1          0.2698358 
520.2      0.2330624  1          0.3492302 
520.4      0.1606375  1          0.4222202 
520.6      0.1203341  1          0.3187194 
520.8      0.1330351  1          0.249995  
521        0.1401982  1          0.3227321 
521.2      0.1679186  1          0.5195677 
521.4      0.1291276  1          0.7191635 
521.6      0.08964305 1          0.8208289 
521.8      0.1435521  1          0.5956268 
522        0.08898377 1          0.6778022 
522.2      0.01001151 1          0.9242964 
522.4      0.02985623 1          1         
522.6      0.06829741 1          0.8243243 
522.8      0.106958   1          0.7602157 
523        0.1295791  1          0.6967308 
523.2      0.1385229  1          0.6532594 
523.4      0.1897025  1          0.5701779 
523.6      0.1317469  1          0.672179  
523.8      0.1169891  1          0.6153579 
524        0.1521595  1          0.4931619 
524.2      0.2139837  1          0.3542851 
524.4      0.1449211  1          0.5592806 
524.6      0.09250775 1          0.6480356 
524.8      0.1216423  1          0.6002517 
525        0.1780016  1          0.4604368 
525.2      0.1939551  1          0.3844014 
525.4      0.1635418  1          0.4517961 
525.6      0.1523402  1          0.5040507 
525.8      0.1736286  1          0.480091  
526        0.1612341  1          0.5129833 
526.2      0.1931793  1          0.5067448 
526.4      0.1786475  1          0.5444876 
526.6      0.1486009  1          0.6461317 
526.8      0.09327194 1          0.7049322 
527        0.09408876 1          0.7684584 
527.2      0.1828136  1          0.5570801 
527.4      0.3134325  0.9112307  0.3395402 
527.6      0.3313879  0.878409   0.1945704 
527.8      0.3010954  0.9424633  0.1345306 
528        0.2969269  1          0.1460999 
528.2      0.3181243  0.9944589  0.1619947 
528.4      0.3285114  1          0.1277972 
528.6      0.3492024  0.9725128  0.08305316
528.8      0.3532301  0.9918004  0.05988637
529        0.3518014  1          0.04715504
529.2      0.3690555  0.9959606  0.03556071
529.4      0.3939613  0.9437538  0.01849291
529.6      0.3907349  0.9446716  0.01486787
529.8      0.375435   0.9089981  0.02114053
530        0.3518421  0.8529703  0.04981857
530.2      0.2933884  0.896679   0.1088477 
530.4      0.1846429  1          0.3990964 
530.6      0.1528186  1          0.6349494 
530.8      0.3199188  0.7796556  0.3963619 
531        0.4557342  0.5572552  0.2101632 
531.2      0.3535328  0.7841728  0.3025689 
531.4      0.2479388  1          0.4319991 
531.6      0.1856861  1          0.4970475 
531.8      0.0685275  1          0.8404469 
532        0.01812144 1          1         
532.2      0.01501654 1          1         
532.4      0.02442317 1          1         
532.6      0.04704912 1          1         
532.8      0.2870304  1          0.3856563 
533        0.3299851  0.9177895  0.2300087 
533.2      0.3075175  1          0.2881542 
533.4      0.2370485  1          0.3901878 
533.6      0.2413819  1          0.3708494 
533.8      0.2128709  1          0.4749683 
534        0.2232471  1          0.5649312 
534.2      0.2039977  1          0.5818413 
534.4      0.1132211  1          0.6654379 
534.6      0.06765102 1          0.7952166 
534.8      0.01128321 1          0.9795877 
535        0.001768364 1          1         
535.2      0.005935038 1          1         
535.4      0.007946363 1          1         
535.6      0.007450188 1          1         
535.8      0.0094637  1          1         
536        0.0688097  1          0.8351489 
536.2      0.1558169  1          0.6793128 
536.4      0.2289122  1          0.5564587 
536.6      0.117499   1          0.6987418 
536.8      0.1095868  1          0.6787089 
537        0.04945792 1          0.761154  
537.2      0.04751737 1          0.7963762 
537.4      0.09232604 1          0.6899681 
537.6      0.09191594 1          0.677905  
537.8      0.1057733  1          0.6394254 
538        0.06025954 1          0.781913  
538.2      0.1025111  1          0.6929932 
538.4      0.08746921 1          0.7859759 
538.6      0.02217839 1          0.9521238 
538.8      0.008656076 1          1         
539        0.02722879 1          0.91478   
539.2      0.1156143  1          0.6723329 
539.4      0.147313   1          0.5878608 
539.6      0.1279746  1          0.6796799 
539.8      0.1023092  1          0.7406871 
540        0.0635841  1          0.8112314 
540.2      0.0197459  1          1         
540.4      0.014928   1          0.9761429 
540.6      0.1178737  1          0.6866953 
540.8      0.1459906  1          0.5764387 
541        0.2130972  1          0.481997  
541.2      0.2648783  1          0.3492653 
541.4      0.2835118  1          0.3029117 
541.6      0.2976038  1          0.289268  
541.8      0.3040828  1          0.2949874 
542        0.2680434  1          0.3007931 
542.2      0.2280988  1          0.3931914 
542.4      0.235882   1          0.4003575 
542.6      0.270367   1          0.3313234 
542.8      0.2347952  1          0.4362899 
543        0.2632194  1          0.3354047 
543.2      0.2605135  1          0.344049  
543.4      0.2051643  1          0.466068  
543.6      0.1776583  1          0.5284646 
