~Version
 VERS              .         3.0                           : CWLS LOG ASCII STANDARD - VERSION 3.0
 WRAP              .         NO                            : ONE LINE PER DEPTH STEP
 DLM               .         SPACE                         : DELIMITING CHARACTER(SPACE TAB OR COMMA)
~Well Information
#_______________________________________________________________________________
#
#PARAMETER_NAME    .UNIT     VALUE                         : DESCRIPTION
#_______________________________________________________________________________
STRT               .M        0                             : First reference value
STOP               .M        865                           : Last reference value
STEP               .M        0.2                           : Step increment
NULL               .         -9999                         : Missing value
COMP               .         ICPetroleum                   : Company
WELL               .         305                           : Well name
FLD                .         Karatobe                      : Field
LOC                .                                       : Location
SRVC               .         LOGGING COMPANY NAME          : Service Company
CTRY               .         KZ                            : Country
DATE               .         LOG DATE                      : Service Date
LATI               .         0                             : Latitude
LONG               .         0                             : Longitude
GDAT               .         WGS 84                        : Geodetic Datum
COORDIN            .                                       : Grid System
COUNTRY            .         Kazakhstan                    : KAZAKHSTAN
COUNTRY            .         Kazakhstan                    : KAZAKHSTAN
EREF               .m        145.7                         : 
KB                 .         145.7                         : KB Elevation
ORIGINALWELLNAME   .         305                           : 
PROV               .                                       : Province
RWS                .         -999                          : Def_Rw
UWI                .         1_305                         : Unique Well Identifier (UWI)
WST                .         -999                          : Def_Rwt
X                  .km       466481.54                     : 
XCOORD             .                                       : X or East-West Coordinate
Y                  .km       5308116.56                    : 
YCOORD             .                                       : Y or North-South Coordinate
~Parameter Information Block
#_______________________________________________________________________________
#
#PARAMETER_NAME    .UNIT     VALUE                         : DESCRIPTION
#_______________________________________________________________________________
SET                .         Las                           : 
TLFamily_DEPT      .         Measured Depth                : 
TLFamily_PHI_FINAL .         Porosity                      : 
TLFamily_SW_AR     .         Water Saturation              : 
TLFamily_VSH_FINAL .         Shale Volume                  : 
~Curve Information
#_______________________________________________________________________________
#
#LOGNAME           .UNIT     LOG_ID                        : DESCRIPTION
#_______________________________________________________________________________
DEPT               .M                                      : Depth curve {F}
PHI_FINAL          .m3/m3                                  : Porosity {F}
SW_AR              .m3/m3                                  :  {F}
VSH_FINAL          .unitless                               : Vshale {F}
~Ascii
# ...
543.8      0.2150351  1          0.5189738 
544        0.3223692  0.975059   0.3458353 
544.2      0.2355569  1          0.4146797 
544.4      0.1456607  1          0.5667025 
544.6      0.1315856  1          0.6259017 
544.8      0.07222617 1          0.7393893 
545        0.02368438 1          0.8613557 
545.2      0.01331286 1          0.8561652 
545.4      0.04587198 1          0.7820582 
545.6      0.05560263 1          0.7952305 
545.8      0.08147566 1          0.7299644 
546        0.1562969  1          0.5857015 
546.2      0.2339762  1          0.3862997 
546.4      0.2915496  1          0.3582027 
546.6      0.3727674  0.7595286  0.3276002 
546.8      0.5113652  0.5097336  0.122483  
547        0.452281   0.6218728  0.05127699
547.2      0.4403247  0.7280657  0.1321371 
547.4      0.2783273  1          0.4129944 
547.6      0.1179211  1          0.6796271 
547.8      0.070473   1          0.7791833 
548        0.06592402 1          0.7275535 
548.2      0.09290029 1          0.5221546 
548.4      0.04583094 1          0.5536891 
548.6      0.0494058  1          0.5155974 
548.8      0.09670906 1          0.503432  
549        0.1105294  1          0.6401697 
549.2      0.1377071  1          0.6217788 
549.4      0.07380223 1          0.7905889 
549.6      0.0549543  1          0.8129007 
549.8      0.1095308  1          0.767891  
550        0.0954041  1          0.759073  
550.2      0.1129297  1          0.6847793 
550.4      0.1771061  1          0.5490329 
550.6      0.1941629  1          0.502214  
550.8      0.1790345  1          0.5389408 
551        0.1359238  1          0.6273416 
551.2      0.11       1          0.6797912 
551.4      0.1424415  1          0.6269816 
551.6      0.1555015  1          0.6952124 
551.8      0.1254122  1          0.74422   
552        0.06765422 1          0.7917394 
552.2      0.1127704  1          0.6750488 
552.4      0.1523831  1          0.5873895 
552.6      0.1586492  1          0.5702017 
552.8      0.2322036  1          0.4439442 
553        0.2062701  1          0.4743781 
553.2      0.1820309  1          0.5798025 
553.4      0.1753554  1          0.5183142 
553.6      0.07415112 1          0.3596617 
553.8      0.03873258 1          0.2947581 
554        0.00842757 1          0.287023  
554.2      0.01040562 1          0.2740383 
554.4      0.01801922 1          0.2155291 
554.6      0.05941613 1          0.3393751 
554.8      0.1027703  1          0.5554125 
555        0.1746564  1          0.5360179 
555.2      0.2057807  1          0.4425692 
555.4      0.2072097  1          0.4505568 
555.6      0.2745237  1          0.3367856 
555.8      0.2506447  1          0.3913453 
556        0.2261613  1          0.4584247 
556.2      0.1033594  1          0.7268266 
556.4      0.1043329  1          0.7305991 
556.6      0.1730147  1          0.5378917 
556.8      0.2057724  1          0.4720091 
557        0.1904139  1          0.525187  
557.2      0.1579315  1          0.5902104 
557.4      0.1100945  1          0.7297289 
557.6      0.1525571  1          0.6251069 
557.8      0.1837234  1          0.5276086 
558        0.208717   1          0.4628616 
558.2      0.1549082  1          0.6138446 
558.4      0.1097153  1          0.7411314 
558.6      0.08827314 1          0.8815824 
558.8      0.1757901  1          0.6997371 
559        0.2043075  1          0.4936029 
559.2      0.1809671  1          0.5455081 
559.4      0.09278826 1          0.7400206 
559.6      0.1045923  1          0.7029719 
559.8      0.1236277  1          0.6712899 
560        0.1309822  1          0.6448481 
560.2      0.1309359  1          0.674812  
560.4      0.1324581  1          0.6785468 
560.6      0.1411503  1          0.6668224 
560.8      0.09024031 1          0.7769327 
561        0.04912616 1          0.8882536 
561.2      0.05035497 1          0.825803  
561.4      0.09710874 1          0.7418398 
561.6      0.1796067  1          0.573048  
561.8      0.124196   1          0.7045435 
562        0.1186227  1          0.792985  
562.2      0.1476353  1          0.7369246 
562.4      0.08252566 1          0.8910533 
562.6      0.06027167 1          0.9209027 
562.8      0.1046142  1          0.7238775 
563        0.125138   1          0.6346169 
563.2      0.145284   1          0.6129098 
563.4      0.1657653  1          0.5716185 
563.6      0.1954653  1          0.5327858 
563.8      0.1904105  1          0.545324  
564        0.1951005  1          0.5140381 
564.2      0.1903665  1          0.5079265 
564.4      0.1510768  1          0.6225273 
564.6      0.2069208  1          0.4987338 
564.8      0.2270098  1          0.4559911 
565        0.185819   1          0.5476783 
565.2      0.1765518  1          0.5636618 
565.4      0.216288   1          0.4837046 
565.6      0.235571   1          0.4473903 
565.8      0.206113   1          0.5158801 
566        0.1920405  1          0.5374233 
566.2      0.2418391  1          0.4183487 
566.4      0.2446315  1          0.3886701 
566.6      0.2327585  1          0.4415201 
566.8      0.2189713  1          0.4414071 
567        0.2638523  1          0.3883825 
567.2      0.2561661  1          0.3834521 
567.4      0.2476709  1          0.3857682 
567.6      0.2376994  1          0.3953069 
567.8      0.2259985  1          0.4329449 
568        0.2522516  1          0.3879041 
568.2      0.2271999  1          0.4406163 
568.4      0.2136613  1          0.4485138 
568.6      0.1708049  1          0.5262092 
568.8      0.2074866  1          0.3995356 
569        0.1366368  1          0.3508032 
569.2      0.1262786  1          0.359626  
569.4      0.1885016  1          0.4243067 
569.6      0.2449147  1          0.3871407 
569.8      0.2600828  1          0.3228483 
570        0.2512951  1          0.3798745 
570.2      0.2440575  1          0.3891516 
570.4      0.233021   1          0.4315156 
570.6      0.2474501  1          0.4109286 
570.8      0.267312   1          0.3392808 
571        0.2651146  1          0.347745  
571.2      0.288752   1          0.2909076 
571.4      0.2955356  1          0.274222  
571.6      0.2778466  1          0.298338  
571.8      0.2341458  1          0.3980514 
572        0.2547107  1          0.3605727 
572.2      0.2578754  1          0.3604861 
572.4      0.2010279  1          0.4849342 
572.6      0.2448826  1          0.3976572 
572.8      0.2379262  1          0.402392  
573        0.2388051  1          0.3974604 
573.2      0.2784202  1          0.3340138 
573.4      0.2497876  1          0.3424762 
573.6      0.2718192  1          0.3554721 
573.8      0.2852929  1          0.278931  
574        0.2801729  1          0.2937392 
574.2      0.2647053  1          0.3379221 
574.4      0.2998782  1          0.2609199 
574.6      0.316581   1          0.2456037 
574.8      0.2591892  1          0.3149114 
575        0.2505888  1          0.3209026 
575.2      0.2895257  1          0.2421798 
575.4      0.285821   1          0.2572189 
575.6      0.3017527  1          0.2605785 
575.8      0.3123182  1          0.2307298 
576        0.2957519  1          0.2930765 
576.2      0.2858487  1          0.2987373 
576.4      0.3148723  1          0.2418699 
576.6      0.3181104  1          0.2166381 
576.8      0.3204749  1          0.2150613 
577        0.3299806  1          0.2135732 
577.2      0.3356816  1          0.1947137 
577.4      0.2887759  1          0.281436  
577.6      0.3024815  1          0.2759114 
577.8      0.3081093  1          0.2302452 
578        0.3146834  1          0.1959835 
578.2      0.2984545  1          0.2058945 
578.4      0.3078206  1          0.207336  
578.6      0.3233935  1          0.1755928 
578.8      0.3553418  1          0.1449793 
579        0.3432141  1          0.1628189 
579.2      0.3221808  1          0.187461  
579.4      0.3280469  1          0.1806609 
579.6      0.3322614  1          0.1819785 
579.8      0.3310057  1          0.1702203 
580        0.3377116  1          0.1727232 
