~Version
 VERS              .         3.0                           : CWLS LOG ASCII STANDARD - VERSION 3.0
 WRAP              .         NO                            : ONE LINE PER DEPTH STEP
 DLM               .         SPACE                         : DELIMITING CHARACTER(SPACE TAB OR COMMA)
~Well Information
#_______________________________________________________________________________
#
#PARAMETER_NAME    .UNIT     VALUE                         : DESCRIPTION
#_______________________________________________________________________________
STRT               .M        0                             : First reference value
STOP               .M        865                           : Last reference value
STEP               .M        0.2                           : Step increment
NULL               .         -9999                         : Missing value
COMP               .         ICPetroleum                   : Company
WELL               .         305                           : Well name
FLD                .         Karatobe                      : Field
LOC                .                                       : Location
SRVC               .         LOGGING COMPANY NAME          : Service Company
CTRY               .         KZ                            : Country
DATE               .         LOG DATE                      : Service Date
LATI               .         0                             : Latitude
LONG               .         0                             : Longitude
GDAT               .         WGS 84                        : Geodetic Datum
COORDIN            .                                       : Grid System
COUNTRY            .         Kazakhstan                    : KAZAKHSTAN
COUNTRY            .         Kazakhstan                    : KAZAKHSTAN
EREF               .m        145.7                         : 
KB                 .         145.7                         : KB Elevation
ORIGINALWELLNAME   .         305                           : 
PROV               .                                       : Province
RWS                .         -999                          : Def_Rw
UWI                .         1_305                         : Unique Well Identifier (UWI)
WST                .         -999                          : Def_Rwt
X                  .km       466481.54                     : 
XCOORD             .                                       : X or East-West Coordinate
Y                  .km       5308116.56                    : 
YCOORD             .                                       : Y or North-South Coordinate
~Parameter Information Block
#_______________________________________________________________________________
#
#PARAMETER_NAME    .UNIT     VALUE                         : DESCRIPTION
#_______________________________________________________________________________
SET                .         Las                           : 
TLFamily_DEPT      .         Measured Depth                : 
TLFamily_PHI_FINAL .         Porosity                      : 
TLFamily_SW_AR     .         Water Saturation              : 
TLFamily_VSH_FINAL .         Shale Volume                  : 
~Curve Information
#_______________________________________________________________________________
#
#LOGNAME           .UNIT     LOG_ID                        : DESCRIPTION
#_______________________________________________________________________________
DEPT               .M                                      : Depth curve {F}
PHI_FINAL          .m3/m3                                  : Porosity {F}
SW_AR              .m3/m3                                  :  {F}
VSH_FINAL          .unitless                               : Vshale {F}
~Ascii
# ...
835        0.005400911 1          0         
835.2      0          1          0         
835.4      0.003503861 1          0         
835.6      0.06268284 1          0.00758362
835.8      0.02416905 1          0.04636263
836        0.04380063 1          0.06573341
836.2      0.009162425 1          0.03912498
836.4      0.02260821 1          0.03397846
836.6      0.02041312 1          0.04117064
836.8      0.01526715 1          0.03912498
837        0.03766098 1          0.03197245
837.2      0.03221938 1          0.02697896
837.4      0.005037869 1          0.03397846
837.6      0.007406904 1          0.02400543
837.8      0.02214156 1          0.02006178
838        0.04123637 1          0.02997748
838.2      0.04476167 1          0.05271184
838.4      0.01597788 1          0.08152723
838.6      0.06751037 1          0.08263516
838.8      0.06226511 1          0.09312076
839        0.03927978 1          0.05271184
839.2      0.01288507 1          0.01425423
839.4      0.003423013 1          0.006677197
839.6      0.0132464  1          0.001091702
839.8      0.001641357 1          0         
840        0          1          0.01138669
840.2      0          1          0         
840.4      0          1          0         
840.6      0          1          0         
840.8      0          1          0         
841        0          1          0         
841.2      0          1          0         
841.4      0          1          0         
841.6      0          1          0         
841.8      0          1          0.001091702
842        0          1          0         
842.2      0          1          0         
842.4      0          1          0         
842.6      0          1          0         
842.8      0          1          0.004771637
843        0          1          0.008543035
843.2      0          1          0.01138669
843.4      0.0220274  1          0.01523261
843.6      0.06430261 0.5994609  0         
843.8      0.06021695 0.6318355  0.001983078
844        0.07497461 0.5008895  0         
844.2      0.06858872 0.545846   0         
844.4      0.06074112 0.6163679  0.001091702
844.6      0.05455255 0.6862901  0.005723061
844.8      0.06526921 0.573607   0.005723061
845        0.07493939 0.4995887  0         
845.2      0.05328374 0.7026322  0.006677197
845.4      0.0431976  0.8666888  0.006677197
845.6      0.04506119 0.8308453  0.002926585
845.8      0.0389584  0.9609963  0         
846        0.04724948 0.7923659  0         
846.2      0.06753391 0.5543715  0.01138669
846.4      0.05863958 0.6384575  0.009505177
846.6      0.02894465 1          0.001983078
846.8      0.01677543 1          0.008543035
847        0.06047041 0.6191272  0.001091702
847.2      0.07472964 0.500991   0.005723061
847.4      0.06344406 0.5901085  0.001091702
847.6      0.05143652 0.7278656  0.006677197
847.8      0.04187555 0.894051   0         
848        0.04278204 0.8751073  0.001091702
848.2      0.04682989 0.7994655  0         
848.4      0.04606264 0.8127818  0.001091702
848.6      0.0409161  0.9150158  0.001983078
848.8      0.04023243 0.9305647  0.004771637
849        0.03172108 1          0.002926585
849.2      0.0440216  0.8504661  0         
849.4      0.04387748 0.8532594  0         
849.6      0.04870456 0.7686934  0         
849.8      0.04430088 0.8451046  0.0001534028
850        0.0323828  1          0         
850.2      0.04469354 0.8376799  0         
850.4      0.06133931 0.610357   0.002926585
850.6      0.0548097  0.6830702  0         
850.8      0.04766116 0.7855218  0         
851        0.03696254 1          0.001983078
851.2      0.03569768 1          0.004771637
851.4      0.05178662 0.722945   0.02105666
851.6      0.07419802 0.5045806  0.01523261
851.8      0.0629037  0.5951777  0.01906971
852        0.04031452 0.9286698  0.01425423
852.2      0.04523585 0.8276374  0         
852.4      0.04485836 0.834602   0         
852.6      0.0393732  0.9508722  0.009505177
852.8      0.03586241 1          0.01138669
853        0.02380385 1          0.008543035
853.2      0.03220091 1          0.001983078
853.4      0.03757387 0.9964073  0.01235692
853.6      0.0385429  0.971356   0.01327862
853.8      0.0349183  1          0.01327862
854        0.03919829 0.955115   0.00758362
854.2      0.04323553 0.8659286  0.005723061
854.4      0.03470106 1          0.01425423
854.6      0.03841389 0.9746182  0.01138669
854.8      0.03131188 1          0.02997748
855        0.008809602 1          0.08152723
855.2      0.0151599  1          0.1186351 
855.4      0.02456927 1          0.1063425 
855.6      0.01868879 1          0.09198468
855.8      0.01284071 1          0.09312076
856        0.01082063 1          0.0895963 
856.2      0.01545246 1          0.08610115
856.4      0.007221472 1          0.1087606 
856.6      0.003873922 1          0.1100076 
856.8      0          1          0.1124461 
857        0          1          0.09667485
857.2      0          1          0.08498392
857.4      0.001138199 1          0.0907888 
857.6      0.006038558 1          0.09432328
857.8      0          1          0.09667485
858        0.01215915 1          0.07132894
858.2      0          1          0.1014816 
858.4      0          1          0.09432328
858.6      0.002679145 1          0.08036096
858.8      0          1          0.1111922 
859        0          1          0.08498392
859.2      0          1          0.1124461 
859.4      0          1          0.1100076 
859.6      -9999      -9999      -9999     
859.8      -9999      -9999      -9999     
860        -9999      -9999      -9999     
860.2      -9999      -9999      -9999     
860.4      -9999      -9999      -9999     
860.6      -9999      -9999      -9999     
860.8      -9999      -9999      -9999     
861        -9999      -9999      -9999     
861.2      -9999      -9999      -9999     
861.4      -9999      -9999      -9999     
861.6      -9999      -9999      -9999     
861.8      -9999      -9999      -9999     
862        -9999      -9999      -9999     
862.2      -9999      -9999      -9999     
862.4      -9999      -9999      -9999     
862.6      -9999      -9999      -9999     
862.8      -9999      -9999      -9999     
863        -9999      -9999      -9999     
863.2      -9999      -9999      -9999     
863.4      -9999      -9999      -9999     
863.6      -9999      -9999      -9999     
863.8      -9999      -9999      -9999     
864        -9999      -9999      -9999     
864.2      -9999      -9999      -9999     
864.4      -9999      -9999      -9999     
864.6      -9999      -9999      -9999     
864.8      -9999      -9999      -9999     
865        -9999      -9999      -9999     
