~Version
 VERS              .         3.0                           : CWLS LOG ASCII STANDARD - VERSION 3.0
 WRAP              .         NO                            : ONE LINE PER DEPTH STEP
 DLM               .         SPACE                         : DELIMITING CHARACTER(SPACE TAB OR COMMA)
~Well Information
#_______________________________________________________________________________
#
#PARAMETER_NAME    .UNIT     VALUE                         : DESCRIPTION
#_______________________________________________________________________________
STRT               .M        0                             : First reference value
STOP               .M        865                           : Last reference value
STEP               .M        0.2                           : Step increment
NULL               .         -9999                         : Missing value
COMP               .         ICPetroleum                   : Company
WELL               .         305                           : Well name
FLD                .         Karatobe                      : Field
LOC                .                                       : Location
SRVC               .         LOGGING COMPANY NAME          : Service Company
CTRY               .         KZ                            : Country
DATE               .         LOG DATE                      : Service Date
LATI               .         0                             : Latitude
LONG               .         0                             : Longitude
GDAT               .         WGS 84                        : Geodetic Datum
COORDIN            .                                       : Grid System
COUNTRY            .         Kazakhstan                    : KAZAKHSTAN
COUNTRY            .         Kazakhstan                    : KAZAKHSTAN
EREF               .m        145.7                         : 
KB                 .         145.7                         : KB Elevation
ORIGINALWELLNAME   .         305                           : 
PROV               .                                       : Province
RWS                .         -999                          : Def_Rw
UWI                .         1_305                         : Unique Well Identifier (UWI)
WST                .         -999                          : Def_Rwt
X                  .km       466481.54                     : 
XCOORD             .                                       : X or East-West Coordinate
Y                  .km       5308116.56                    : 
YCOORD             .                                       : Y or North-South Coordinate
~Parameter Information Block
#_______________________________________________________________________________
#
#PARAMETER_NAME    .UNIT     VALUE                         : DESCRIPTION
#_______________________________________________________________________________
SET                .         Las                           : 
TLFamily_DEPT      .         Measured Depth                : 
TLFamily_PHI_FINAL .         Porosity                      : 
TLFamily_SW_AR     .         Water Saturation              : 
TLFamily_VSH_FINAL .         Shale Volume                  : 
~Curve Information
#_______________________________________________________________________________
#
#LOGNAME           .UNIT     LOG_ID                        : DESCRIPTION
#_______________________________________________________________________________
DEPT               .M                                      : Depth curve {F}
PHI_FINAL          .m3/m3                                  : Porosity {F}
SW_AR              .m3/m3                                  :  {F}
VSH_FINAL          .unitless                               : Vshale {F}
~Ascii
# ...
216.2      0.3787693  0.7204456  0.08413588
216.4      0.3605035  0.7451839  0.1167895 
216.6      0.3271651  0.7616155  0.1714649 
216.8      0.2858649  0.8923951  0.2995537 
217        0.2842452  0.941192   0.3093833 
217.2      0.3086009  0.8707713  0.3067586 
217.4      0.2818183  0.9274462  0.3066699 
217.6      0.2489651  1          0.4037837 
217.8      0.1713907  1          0.5903415 
218        0.1745648  1          0.6254623 
218.2      0.1022603  1          0.8076122 
218.4      0.05981618 1          0.8536938 
218.6      0.1168373  1          0.7736545 
218.8      0.11524    1          0.7786306 
219        0.06251709 1          0.9203949 
219.2      0.111831   1          0.7727738 
219.4      0.1768808  1          0.6375171 
219.6      0.1313303  1          0.7506176 
219.8      0.1049135  1          0.8337123 
220        0.1356831  1          0.7500532 
220.2      0.2297884  1          0.5711722 
220.4      0.1764652  1          0.659514  
220.6      0.156172   1          0.7129167 
220.8      0.1699276  1          0.7594679 
221        0.2152409  1          0.6587982 
221.2      0.1624354  1          0.7972656 
221.4      0.1319166  1          0.9035088 
221.6      0.09330875 1          0.8367352 
221.8      0.1075379  1          0.5862206 
222        0.174009   1          0.3599119 
222.2      0.1863174  1          0.4878227 
222.4      0.1983734  1          0.602871  
222.6      0.1419437  1          0.7102845 
222.8      0.1899335  1          0.5811234 
223        0.2138941  1          0.4588472 
223.2      0.1468659  1          0.6331967 
223.4      0.1766503  1          0.6559485 
223.6      0.1702794  1          0.6940547 
223.8      0.0863639  1          0.9180843 
224        0.09456337 1          0.7930159 
224.2      0.1294412  1          0.7233748 
224.4      0.1221435  1          0.6980587 
224.6      0.1240703  1          0.6005436 
224.8      0.1816964  1          0.6732998 
225        0.105198   1          0.8312505 
225.2      0.08715853 1          0.8663203 
225.4      0.1082457  1          0.8779659 
225.6      0.111676   1          0.7741706 
225.8      0.2541069  0.9159961  0.4237801 
226        0.2866172  0.8329798  0.4740965 
226.2      0.2150258  1          0.6298209 
226.4      0.1843516  1          0.7411175 
226.6      0.1589943  1          0.7891036 
226.8      0.160913   1          0.8055035 
227        0.2028543  1          0.7560569 
227.2      0.1799053  1          0.8048883 
227.4      0.1959938  1          0.7450486 
227.6      0.2013774  1          0.7498314 
227.8      0.2214744  1          0.7289512 
228        0.2175022  1          0.744215  
228.2      0.2352358  1          0.6503113 
228.4      0.2597676  0.9526295  0.6453796 
228.6      0.2237492  1          0.7380871 
228.8      0.2389629  1          0.6636252 
229        0.1945362  1          0.7747179 
229.2      0.1793903  1          0.7689332 
229.4      0.1812414  1          0.8015198 
229.6      0.2379929  1          0.7113407 
229.8      0.1976527  1          0.8178036 
230        0.2221373  1          0.7259879 
230.2      0.2470458  0.9956271  0.7153991 
230.4      0.2402043  1          0.6617159 
230.6      0.1873298  1          0.7251832 
230.8      0.1583425  1          0.8220315 
231        0.190104   1          0.7990844 
231.2      0.1924907  1          0.7767258 
231.4      0.2299556  1          0.651295  
231.6      0.2143619  1          0.7287641 
231.8      0.1062394  1          0.8433132 
232        0.1412868  1          0.6143785 
232.2      0.2472376  1          0.4520851 
232.4      0.1876103  1          0.683008  
232.6      0.2689924  0.9692247  0.6050873 
232.8      0.2671689  0.9754812  0.6313624 
233        0.2791801  0.9357347  0.6177766 
233.2      0.3203347  0.8162609  0.5385129 
233.4      0.2889991  0.8920045  0.6396522 
233.6      0.2789937  0.9222361  0.5955131 
233.8      0.264022   0.9630246  0.6082324 
234        0.2246558  1          0.6622106 
234.2      0.09760296 1          0.8513138 
234.4      0.1398816  1          0.7301971 
234.6      0.1467405  1          0.5944786 
234.8      0.1046787  1          0.5488685 
235        0.1265409  1          0.6243693 
235.2      0.04474838 1          0.9877604 
235.4      0.0448733  1          1         
235.6      0.1342625  1          0.7285824 
235.8      0.1634792  1          0.6788192 
236        0.146051   1          0.6551061 
236.2      0.1018004  1          0.7804371 
236.4      0.0658379  1          0.7429258 
236.6      0.005967   1          0.8184237 
236.8      0          1          1         
237        0.00729243 1          1         
237.2      0.02380783 1          1         
237.4      0.01125169 1          0.9834028 
237.6      0.02601685 1          1         
237.8      0.02389743 1          1         
238        0.02597943 1          1         
238.2      0.02296926 1          1         
238.4      0.03437521 1          1         
238.6      0.0299457  1          1         
238.8      0.02630628 1          1         
239        0.02850934 1          1         
239.2      0.03320594 1          1         
239.4      0.01799765 1          1         
239.6      0.005835031 1          1         
239.8      0.01397893 1          1         
240        0.01060709 1          1         
240.2      0.00590369 1          1         
240.4      0.04671945 1          0.7221835 
240.6      0.0702988  1          0.6826775 
240.8      0.2062713  1          0.6138219 
241        0.2398818  1          0.5590934 
241.2      0.2362244  1          0.5752503 
241.4      0.1518301  1          0.7109527 
241.6      0.2045312  1          0.5544513 
241.8      0.1840554  1          0.5504307 
242        0.200935   1          0.5384724 
242.2      0.2710834  0.8577745  0.3333026 
242.4      0.2192776  1          0.4416166 
242.6      0.1918268  1          0.6074892 
242.8      0.2287256  1          0.5338126 
243        0.1922863  1          0.5985698 
243.2      0.1326732  1          0.7438437 
243.4      0.1191981  1          0.6936717 
243.6      0.1383375  1          0.6194791 
243.8      0.1542571  1          0.5605242 
244        0.1423482  1          0.5725028 
244.2      0.135293   1          0.7121142 
244.4      0.1620267  1          0.6591734 
244.6      0.1955886  1          0.6271322 
244.8      0.2111989  1          0.6359915 
245        0.2078547  1          0.6357679 
245.2      0.1185538  1          0.85651   
245.4      0.09848931 1          0.916764  
245.6      0.206605   1          0.6624881 
245.8      0.1697292  1          0.7878351 
246        0.09716931 1          0.9093689 
246.2      0.0991221  1          0.9030668 
246.4      0.1223261  1          0.8430258 
246.6      0.1612011  1          0.6519237 
246.8      0.1580088  1          0.6655617 
247        0.01535769 1          1         
247.2      0.003190614 1          1         
247.4      0.07230549 1          0.7280399 
247.6      0.1450306  1          0.581304  
247.8      0.1561626  1          0.5893557 
248        0.1605693  1          0.6234139 
248.2      0.08748012 1          0.7898237 
248.4      0.1348253  1          0.618753  
248.6      0.1779406  1          0.5559915 
248.8      0.2537247  1          0.4704706 
249        0.2160246  1          0.6401873 
249.2      0.1495059  1          0.7564155 
249.4      0.2004479  1          0.6765382 
249.6      0.1375983  1          0.8379046 
249.8      0.06656231 1          1         
250        0.05598465 1          1         
250.2      0.079117   1          1         
250.4      0.06290957 1          1         
250.6      0.06531954 1          1         
250.8      0.08069556 1          1         
251        0.08084505 1          1         
251.2      0.05051619 1          1         
251.4      0.1079705  1          1         
251.6      0.07922327 1          1         
251.8      0.08473314 1          1         
252        0.06861176 1          1         
252.2      0.07666006 1          1         
252.4      0.05500253 1          1         
