~Version
 VERS              .         3.0                           : CWLS LOG ASCII STANDARD - VERSION 3.0
 WRAP              .         NO                            : ONE LINE PER DEPTH STEP
 DLM               .         SPACE                         : DELIMITING CHARACTER(SPACE TAB OR COMMA)
~Well Information
#_______________________________________________________________________________
#
#PARAMETER_NAME    .UNIT     VALUE                         : DESCRIPTION
#_______________________________________________________________________________
STRT               .M        0                             : First reference value
STOP               .M        865                           : Last reference value
STEP               .M        0.2                           : Step increment
NULL               .         -9999                         : Missing value
COMP               .         ICPetroleum                   : Company
WELL               .         305                           : Well name
FLD                .         Karatobe                      : Field
LOC                .                                       : Location
SRVC               .         LOGGING COMPANY NAME          : Service Company
CTRY               .         KZ                            : Country
DATE               .         LOG DATE                      : Service Date
LATI               .         0                             : Latitude
LONG               .         0                             : Longitude
GDAT               .         WGS 84                        : Geodetic Datum
COORDIN            .                                       : Grid System
COUNTRY            .         Kazakhstan                    : KAZAKHSTAN
COUNTRY            .         Kazakhstan                    : KAZAKHSTAN
EREF               .m        145.7                         : 
KB                 .         145.7                         : KB Elevation
ORIGINALWELLNAME   .         305                           : 
PROV               .                                       : Province
RWS                .         -999                          : Def_Rw
UWI                .         1_305                         : Unique Well Identifier (UWI)
WST                .         -999                          : Def_Rwt
X                  .km       466481.54                     : 
XCOORD             .                                       : X or East-West Coordinate
Y                  .km       5308116.56                    : 
YCOORD             .                                       : Y or North-South Coordinate
~Parameter Information Block
#_______________________________________________________________________________
#
#PARAMETER_NAME    .UNIT     VALUE                         : DESCRIPTION
#_______________________________________________________________________________
SET                .         Las                           : 
TLFamily_DEPT      .         Measured Depth                : 
TLFamily_PHI_FINAL .         Porosity                      : 
TLFamily_SW_AR     .         Water Saturation              : 
TLFamily_VSH_FINAL .         Shale Volume                  : 
~Curve Information
#_______________________________________________________________________________
#
#LOGNAME           .UNIT     LOG_ID                        : DESCRIPTION
#_______________________________________________________________________________
DEPT               .M                                      : Depth curve {F}
PHI_FINAL          .m3/m3                                  : Porosity {F}
SW_AR              .m3/m3                                  :  {F}
VSH_FINAL          .unitless                               : Vshale {F}
~Ascii
# ...
143.4      0.07581833 1          0.08400658
143.6      0.06706099 1          0.06794503
143.8      0.06764507 1          0.05254958
144        0.06089396 1          0.0955994 
144.2      0.0544588  1          0.126886  
144.4      0.06652051 1          0.07952165
144.6      0.06541015 1          0.08964973
144.8      0.05822284 1          0.1004055 
145        0.06505407 1          0.1028444 
145.2      0.06619458 1          0.0838434 
145.4      0.06506446 1          0.08161645
145.6      0.05668257 1          0.1353058 
145.8      0.05724922 1          0.1169836 
146        0.05062824 1          0.1442214 
146.2      0.02969285 1          0.2244101 
146.4      0.03247737 1          0.214229  
146.6      0.04022422 1          0.191153  
146.8      0.02419592 1          0.2201594 
147        0.02148644 1          0.2346122 
147.2      0.03959064 1          0.1801804 
147.4      0.03469134 1          0.1854871 
147.6      0.02704452 1          0.2365902 
147.8      0.02460766 1          0.25642   
148        0.02631375 1          0.2300894 
148.2      0.02496016 1          0.2517894 
148.4      0.02497314 1          0.2895562 
148.6      0.01362756 1          0.3047661 
148.8      0.02682252 1          0.2426773 
149        0.03855618 1          0.1961035 
149.2      0.04558521 1          0.151354  
149.4      0.05381189 1          0.1289006 
149.6      0.06706808 1          0.1303202 
149.8      0.06552567 1          0.1124702 
150        0.06592462 1          0.08455008
150.2      0.06784616 1          0.08232187
150.4      0.07606985 1          0.1098154 
150.6      0.09715931 1          0.1009384 
150.8      0.09257513 1          0.1009158 
151        0.06321754 1          0.1418011 
151.2      0.06930221 1          0.1403202 
151.4      0.1832536  1          0.1202646 
151.6      0.1250163  1          0.1604864 
151.8      0.2182853  1          0.2288711 
152        0.3749853  1          0.2185856 
152.2      0.4384819  1          0.2458412 
152.4      0.4072022  1          0.2104723 
152.6      0.2383174  1          0.1753755 
152.8      0.06933611 1          0.3267624 
153        0          1          0.3884045 
153.2      0.01489944 1          0.4075624 
153.4      0.1142166  1          0.3636771 
153.6      0.374068   0.5152146  0.2999908 
153.8      0.2447328  0.9003059  0.2848552 
154        0.2105816  1          0.2946397 
154.2      0.3420976  0.651404   0.3179419 
154.4      0.4050339  0.5269228  0.2796384 
154.6      0.2530563  0.7899138  0.2676941 
154.8      0.1725547  1          0.2676162 
155        0.3240547  0.7482841  0.3423524 
155.2      0.4100899  0.529768   0.4651258 
155.4      0.3683285  0.5654147  0.5642887 
155.6      0.2727584  0.7598393  0.762105  
155.8      0.2515985  0.8305545  0.7507064 
156        0.3569015  0.560204   0.5636745 
156.2      0.3437755  0.5831251  0.5810254 
156.4      0.328819   0.6521329  0.6170987 
156.6      0.2641618  0.7532513  0.7548916 
156.8      0.2091405  0.9244968  0.8804377 
157        0.2789633  0.7187096  0.7433073 
157.2      0.3080268  0.6703936  0.6546386 
157.4      0.3663964  0.5592044  0.5246931 
157.6      0.3839394  0.5517982  0.524507  
157.8      0.3611293  0.5463787  0.6202441 
158        0.4073048  0.4955469  0.5575094 
158.2      0.4284075  0.4740537  0.5200649 
158.4      0.381182   0.5404553  0.5874832 
158.6      0.4267007  0.486378   0.5156278 
158.8      0.4452772  0.4591455  0.5076033 
159        0.4937423  0.4121101  0.4994812 
159.2      0.4452554  0.4420263  0.4370953 
159.4      0.3953829  0.4618121  0.4199989 
159.6      0.4199378  0.4306743  0.3315486 
159.8      0.4273784  0.4350706  0.320663  
160        0.4884534  0.401205   0.2366994 
160.2      0.4716977  0.4323139  0.2609653 
160.4      0.4524336  0.4827439  0.3367815 
160.6      0.5288314  0.4265973  0.2517558 
160.8      0.478956   0.433034   0.3898825 
161        0.3752438  0.5417101  0.5715178 
161.2      0.371366   0.5636308  0.5457439 
161.4      0.3638663  0.578527   0.5415358 
161.6      0.4206666  0.4957824  0.4052685 
161.8      0.4329686  0.485797   0.3987535 
162        0.4227712  0.5229964  0.4248345 
162.2      0.3815684  0.5362397  0.5123726 
162.4      0.3457546  0.5667116  0.5965996 
162.6      0.3685656  0.5605293  0.5529119 
162.8      0.3943368  0.506254   0.4924921 
163        0.3703014  0.5606561  0.5236068 
163.2      0.3749194  0.5560079  0.5480425 
163.4      0.4079046  0.4971153  0.4842699 
163.6      0.3998297  0.5008196  0.4729335 
163.8      0.4499151  0.4227326  0.4071095 
164        0.4475726  0.4368328  0.4268565 
164.2      0.2586612  0.7666774  0.7549269 
164.4      0.2834502  0.7169097  0.6955604 
164.6      0.2983236  0.6478633  0.6406729 
164.8      0.33326    0.5915482  0.6031726 
165        0.2666926  0.7491052  0.7317676 
165.2      0.2351919  0.8122202  0.7702311 
165.4      0.2507231  0.8015299  0.7531509 
165.6      0.2515639  0.7780921  0.7203031 
165.8      0.302252   0.6435824  0.5928954 
166        0.2967505  0.6480937  0.5883802 
166.2      0.3749317  0.518878   0.438814  
166.4      0.3526754  0.5730848  0.4930987 
166.6      0.3399541  0.6319089  0.5282605 
166.8      0.4056033  0.474449   0.3648469 
167        0.3558305  0.5333009  0.3617279 
167.2      0.3557254  0.5606577  0.4146293 
167.4      0.3812201  0.5257628  0.4277049 
167.6      0.3676167  0.511751   0.4448453 
167.8      0.3194773  0.5933011  0.5151644 
168        0.307993   0.6477344  0.5687054 
168.2      0.3752234  0.5042376  0.4729609 
168.4      0.328668   0.5696225  0.5512351 
168.6      0.3311505  0.5429784  0.5305121 
168.8      0.2479373  0.7342156  0.6597108 
169        0.2768927  0.6468582  0.6028993 
169.2      0.2940144  0.6530427  0.6258591 
169.4      0.2882249  0.7311593  0.644417  
169.6      0.4330518  0.6239021  0.3544894 
169.8      0.5429671  0.4407099  0.1601229 
170        0.5575795  0.369048   0.1357021 
170.2      0.5315493  0.3665414  0.1216847 
170.4      0.5698119  0.3420325  0.1073549 
170.6      0.6178844  0.3321949  0.1098354 
170.8      0.5944894  0.405818   0.1229782 
171        0.537209   0.446636   0.127064  
171.2      0.5107461  0.4294769  0.1369797 
171.4      0.3579302  0.5736095  0.2188029 
171.6      0.3114381  0.65887    0.331021  
171.8      0.28243    0.7161413  0.3860153 
172        0.2432273  0.8258256  0.5114008 
172.2      0.2784129  0.7093363  0.4079477 
172.4      0.2843671  0.7255232  0.3529433 
172.6      0.3196244  0.6622993  0.3170272 
172.8      0.2302059  0.8530758  0.4655858 
173        0.2841972  0.7494392  0.4107146 
173.2      0.3299028  0.686484   0.2768661 
173.4      0.3072169  0.6914698  0.2936603 
173.6      0.2541806  0.8225713  0.4578555 
173.8      0.2087275  1          0.5888175 
174        0.2472224  0.8387234  0.4905173 
174.2      0.2262861  0.9361669  0.545578  
174.4      0.249229   0.8466476  0.5016013 
174.6      0.2655216  0.7758892  0.4678458 
174.8      0.2217113  0.8890159  0.5575078 
175        0.2187181  0.9110146  0.5245783 
175.2      0.2575206  0.7751948  0.4323014 
175.4      0.2318117  0.8662402  0.4189115 
175.6      0.2211404  0.9150518  0.5005631 
175.8      0.1962478  1          0.5565155 
176        0.2621121  0.7971507  0.4351835 
176.2      0.2328744  0.9090294  0.5039558 
176.4      0.202325   1          0.617606  
176.6      0.166808   1          0.6947728 
176.8      0.1873927  1          0.5989279 
177        0.1503049  1          0.6545736 
177.2      0.1868502  1          0.6689892 
177.4      0.231169   0.9070622  0.5183531 
177.6      0.3025684  0.7375069  0.3824595 
177.8      0.2710876  0.8127367  0.4139431 
178        0.2454813  0.8628551  0.4909873 
178.2      0.2260066  0.927682   0.5377969 
178.4      0.2250567  0.980103   0.5457256 
178.6      0.2125705  1          0.5413529 
178.8      0.2484478  0.8569776  0.4754144 
179        0.1677884  1          0.6190943 
179.2      0.1414819  1          0.7999918 
179.4      0.1363037  1          0.7879816 
179.6      0.2041371  1          0.6465307 
