~Version
 VERS              .         3.0                           : CWLS LOG ASCII STANDARD - VERSION 3.0
 WRAP              .         NO                            : ONE LINE PER DEPTH STEP
 DLM               .         SPACE                         : DELIMITING CHARACTER(SPACE TAB OR COMMA)
~Well Information
#_______________________________________________________________________________
#
#PARAMETER_NAME    .UNIT     VALUE                         : DESCRIPTION
#_______________________________________________________________________________
STRT               .M        0                             : First reference value
STOP               .M        865                           : Last reference value
STEP               .M        0.2                           : Step increment
NULL               .         -9999                         : Missing value
COMP               .         ICPetroleum                   : Company
WELL               .         305                           : Well name
FLD                .         Karatobe                      : Field
LOC                .                                       : Location
SRVC               .         LOGGING COMPANY NAME          : Service Company
CTRY               .         KZ                            : Country
DATE               .         LOG DATE                      : Service Date
LATI               .         0                             : Latitude
LONG               .         0                             : Longitude
GDAT               .         WGS 84                        : Geodetic Datum
COORDIN            .                                       : Grid System
COUNTRY            .         Kazakhstan                    : KAZAKHSTAN
COUNTRY            .         Kazakhstan                    : KAZAKHSTAN
EREF               .m        145.7                         : 
KB                 .         145.7                         : KB Elevation
ORIGINALWELLNAME   .         305                           : 
PROV               .                                       : Province
RWS                .         -999                          : Def_Rw
UWI                .         1_305                         : Unique Well Identifier (UWI)
WST                .         -999                          : Def_Rwt
X                  .km       466481.54                     : 
XCOORD             .                                       : X or East-West Coordinate
Y                  .km       5308116.56                    : 
YCOORD             .                                       : Y or North-South Coordinate
~Parameter Information Block
#_______________________________________________________________________________
#
#PARAMETER_NAME    .UNIT     VALUE                         : DESCRIPTION
#_______________________________________________________________________________
SET                .         Las                           : 
TLFamily_DEPT      .         Measured Depth                : 
TLFamily_PHI_FINAL .         Porosity                      : 
TLFamily_SW_AR     .         Water Saturation              : 
TLFamily_VSH_FINAL .         Shale Volume                  : 
~Curve Information
#_______________________________________________________________________________
#
#LOGNAME           .UNIT     LOG_ID                        : DESCRIPTION
#_______________________________________________________________________________
DEPT               .M                                      : Depth curve {F}
PHI_FINAL          .m3/m3                                  : Porosity {F}
SW_AR              .m3/m3                                  :  {F}
VSH_FINAL          .unitless                               : Vshale {F}
~Ascii
# ...
580.2      0.3384919  1          0.1765752 
580.4      0.324864   1          0.1739678 
580.6      0.3150538  1          0.2112758 
580.8      0.3293774  1          0.2053514 
581        0.3257961  1          0.2294736 
581.2      0.3001456  1          0.2373444 
581.4      0.3189863  1          0.1924854 
581.6      0.3357122  1          0.1624167 
581.8      0.3365598  1          0.1611346 
582        0.3483363  1          0.1736985 
582.2      0.3096213  1          0.2419519 
582.4      0.2925012  1          0.2673134 
582.6      0.3042415  1          0.2402804 
582.8      0.3078323  1          0.2259524 
583        0.3264825  1          0.2035039 
583.2      0.3005849  1          0.2289459 
583.4      0.3164066  1          0.2121758 
583.6      0.3144     1          0.2257643 
583.8      0.3131506  1          0.2616779 
584        0.280422   1          0.3554349 
584.2      0.2020242  1          0.4917002 
584.4      0.1749685  1          0.5553806 
584.6      0.08332859 1          0.8055906 
584.8      0.03657394 1          0.9341191 
585        0.1176644  1          0.7006323 
585.2      0.1391674  1          0.6509411 
585.4      0.150776   1          0.6656812 
585.6      0.1572184  1          0.5974498 
585.8      0.1329605  1          0.6250449 
586        0.2186833  1          0.4877788 
586.2      0.3120866  1          0.2714939 
586.4      0.3319881  1          0.1971121 
586.6      0.3526506  1          0.1592317 
586.8      0.3423557  1          0.1887443 
587        0.3379192  1          0.202684  
587.2      0.3262992  1          0.227992  
587.4      0.3424969  1          0.1941514 
587.6      0.3389617  1          0.1727619 
587.8      0.3286062  1          0.2082424 
588        0.342581   1          0.1804894 
588.2      0.3525227  1          0.1392186 
588.4      0.3701387  1          0.08745436
588.6      0.3679205  1          0.1231068 
588.8      0.3658804  1          0.1200157 
589        0.3849064  1          0.09975554
589.2      0.364643   1          0.1240934 
589.4      0.3677917  1          0.1230202 
589.6      0.3844215  1          0.1034129 
589.8      0.3935722  1          0.09968891
590        0.3817404  1          0.1033781 
590.2      0.3741026  1          0.1129292 
590.4      0.3598651  1          0.1229122 
590.6      0.3142736  1          0.2180254 
590.8      0.2027316  1          0.4437454 
591        0.1278511  1          0.6032119 
591.2      0.1041153  1          0.6454249 
591.4      0.1459519  1          0.6863027 
591.6      0.1983149  1          0.5628245 
591.8      0.09887856 1          0.693556  
592        0.003835854 1          0.9806112 
592.2      0.01018412 1          0.9695478 
592.4      0.0085129  1          1         
592.6      0.02169084 1          1         
592.8      0.009489401 1          1         
593        0.009413226 1          0.9950675 
593.2      0.002806874 1          1         
593.4      0.006080307 1          1         
593.6      0.004413653 1          1         
593.8      0.004640925 1          1         
594        0.02325799 1          0.7230212 
594.2      0.09254847 1          0.5480726 
594.4      0.06746599 1          0.7225994 
594.6      0.1494466  1          0.6532638 
594.8      0.08231568 1          0.8291194 
595        0.07294174 1          0.7888677 
595.2      0.08223907 1          0.6564505 
595.4      0.1549297  1          0.5503936 
595.6      0.2557517  1          0.4056669 
595.8      0.2285173  1          0.5133583 
596        0.2111563  1          0.464861  
596.2      0.1979198  1          0.4729879 
596.4      0.1627442  1          0.4983477 
596.6      0.2023939  1          0.4199744 
596.8      0.1580756  1          0.515709  
597        0.201504   1          0.3883414 
597.2      0.1836351  1          0.3882472 
597.4      0.1901088  1          0.3696806 
597.6      0.1873825  1          0.3903252 
597.8      0.1779528  1          0.4320969 
598        0.2010558  1          0.3627129 
598.2      0.2026146  1          0.3716242 
598.4      0.2167082  1          0.3388538 
598.6      0.1935116  1          0.3647159 
598.8      0.1729122  1          0.3736637 
599        0.1457383  1          0.4163267 
599.2      0.1279809  1          0.4965314 
599.4      0.1392208  1          0.5320206 
599.6      0.1402202  1          0.51972   
599.8      0.113337   1          0.5566179 
600        0.1357327  1          0.5724991 
600.2      0.1524988  1          0.5530924 
600.4      0.1466964  1          0.5467114 
600.6      0.1844332  1          0.4129903 
600.8      0.1815962  1          0.3704725 
601        0.1870631  1          0.3254754 
601.2      0.2143706  1          0.3095272 
601.4      0.1983152  1          0.3956102 
601.6      0.1294665  1          0.5810763 
601.8      0.07849005 1          0.7108461 
602        0.1714904  1          0.4861862 
602.2      0.2151544  1          0.3766486 
602.4      0.1983547  1          0.4169706 
602.6      0.2497347  1          0.316827  
602.8      0.2982852  1          0.1966654 
603        0.3033105  1          0.1980422 
603.2      0.3219398  1          0.1627768 
603.4      0.3252154  1          0.1439767 
603.6      0.3239751  1          0.1752324 
603.8      0.3186784  1          0.1676294 
604        0.3480747  1          0.09674528
604.2      0.3480197  1          0.06513037
604.4      0.3610432  1          0.07036436
604.6      0.3630043  1          0.07265105
604.8      0.349237   1          0.07417638
605        0.3671411  1          0.06655294
605.2      0.3687718  1          0.05244553
605.4      0.3785912  1          0.05790152
605.6      0.3726979  1          0.06072547
605.8      0.3845222  1          0.05650798
606        0.3664404  1          0.04778923
606.2      0.3589513  1          0.04334878
606.4      0.3622817  1          0.05857063
606.6      0.360062   1          0.04909352
606.8      0.3777122  1          0.04776204
607        0.3888809  1          0.03544107
607.2      0.3891156  1          0.03543627
607.4      0.3679414  1          0.02216826
607.6      0.3815171  1          0.02916272
607.8      0.3635541  1          0.05506455
608        0.3549738  1          0.05034564
608.2      0.3605214  1          0.04643912
608.4      0.3742051  1          0.0438858 
608.6      0.3710918  1          0.05099679
608.8      0.3767663  1          0.0634625 
609        0.3648054  1          0.070849  
609.2      0.3568879  1          0.08189197
609.4      0.3585771  1          0.08105154
609.6      0.3335726  1          0.09106257
609.8      0.3584662  1          0.06930632
610        0.345399   1          0.08929119
610.2      0.3496036  1          0.1100446 
610.4      0.3309884  1          0.1129082 
610.6      0.3441147  1          0.1090394 
610.8      0.3517245  1          0.09268597
611        0.3537078  1          0.09619158
611.2      0.3515975  1          0.1015641 
611.4      0.3568784  1          0.1052449 
611.6      0.3565848  1          0.09881747
611.8      0.3496226  1          0.1226989 
612        0.3441269  1          0.1257459 
612.2      0.3428502  1          0.1127357 
612.4      0.3489847  1          0.1042144 
612.6      0.3605526  1          0.1005224 
612.8      0.3613188  1          0.09780978
613        0.3586976  1          0.08825967
613.2      0.3336017  1          0.1078908 
613.4      0.3323457  1          0.1116414 
613.6      0.3315591  1          0.09774563
613.8      0.3455908  1          0.1004229 
614        0.3333291  1          0.1164762 
614.2      0.3374429  1          0.115458  
614.4      0.3234417  1          0.1194074 
614.6      0.3412413  1          0.1254612 
614.8      0.3460397  1          0.1233587 
615        0.3342935  1          0.1153792 
615.2      0.3276517  1          0.1326702 
615.4      0.3556448  1          0.1002906 
615.6      0.3528548  1          0.1133934 
615.8      0.2658323  1          0.28216   
616        0.1163264  1          0.6063243 
616.2      0.1147662  1          0.6129179 
616.4      0.1367064  1          0.5924968 
