~Version
 VERS              .         3.0                           : CWLS LOG ASCII STANDARD - VERSION 3.0
 WRAP              .         NO                            : ONE LINE PER DEPTH STEP
 DLM               .         SPACE                         : DELIMITING CHARACTER(SPACE TAB OR COMMA)
~Well Information
#_______________________________________________________________________________
#
#PARAMETER_NAME    .UNIT     VALUE                         : DESCRIPTION
#_______________________________________________________________________________
STRT               .M        0                             : First reference value
STOP               .M        865                           : Last reference value
STEP               .M        0.2                           : Step increment
NULL               .         -9999                         : Missing value
COMP               .         ICPetroleum                   : Company
WELL               .         305                           : Well name
FLD                .         Karatobe                      : Field
LOC                .                                       : Location
SRVC               .         LOGGING COMPANY NAME          : Service Company
CTRY               .         KZ                            : Country
DATE               .         LOG DATE                      : Service Date
LATI               .         0                             : Latitude
LONG               .         0                             : Longitude
GDAT               .         WGS 84                        : Geodetic Datum
COORDIN            .                                       : Grid System
COUNTRY            .         Kazakhstan                    : KAZAKHSTAN
COUNTRY            .         Kazakhstan                    : KAZAKHSTAN
EREF               .m        145.7                         : 
KB                 .         145.7                         : KB Elevation
ORIGINALWELLNAME   .         305                           : 
PROV               .                                       : Province
RWS                .         -999                          : Def_Rw
UWI                .         1_305                         : Unique Well Identifier (UWI)
WST                .         -999                          : Def_Rwt
X                  .km       466481.54                     : 
XCOORD             .                                       : X or East-West Coordinate
Y                  .km       5308116.56                    : 
YCOORD             .                                       : Y or North-South Coordinate
~Parameter Information Block
#_______________________________________________________________________________
#
#PARAMETER_NAME    .UNIT     VALUE                         : DESCRIPTION
#_______________________________________________________________________________
SET                .         Las                           : 
TLFamily_DEPT      .         Measured Depth                : 
TLFamily_PHI_FINAL .         Porosity                      : 
TLFamily_SW_AR     .         Water Saturation              : 
TLFamily_VSH_FINAL .         Shale Volume                  : 
~Curve Information
#_______________________________________________________________________________
#
#LOGNAME           .UNIT     LOG_ID                        : DESCRIPTION
#_______________________________________________________________________________
DEPT               .M                                      : Depth curve {F}
PHI_FINAL          .m3/m3                                  : Porosity {F}
SW_AR              .m3/m3                                  :  {F}
VSH_FINAL          .unitless                               : Vshale {F}
~Ascii
# ...
434.6      0.2130986  1          0.7631533 
434.8      0.229103   1          0.6073229 
435        0.2505719  1          0.6110047 
435.2      0.2956945  0.9215669  0.5883394 
435.4      0.4445514  0.5212013  0.3379008 
435.6      0.5367696  0.4206271  0.1446395 
435.8      0.5630926  0.4407468  0.05896151
436        0.544742   0.4378541  0.0566346 
436.2      0.484251   0.6089419  0.09671997
436.4      0.3893916  0.7444463  0.2436743 
436.6      0.2371296  1          0.5724922 
436.8      0.1469059  1          0.6938229 
437        0.1473114  1          0.6726761 
437.2      0.1048712  1          0.8172424 
437.4      0.1518385  1          0.8072454 
437.6      0.308255   0.8860059  0.547119  
437.8      0.2547795  1          0.5897762 
438        0.06144383 1          0.9425275 
438.2      0.0290532  1          1         
438.4      0.0168576  1          0.9820424 
438.6      0.01076807 1          1         
438.8      0.01036621 1          1         
439        0.03522011 1          0.918617  
439.2      0.07942132 1          0.8701565 
439.4      0.0845826  1          0.8543407 
439.6      0.09203219 1          0.8853401 
439.8      0.03319067 1          0.8692745 
440        0.09749293 1          0.7564746 
440.2      0.1582873  1          0.6900992 
440.4      0.1677074  1          0.673077  
440.6      0.1331461  1          0.7604217 
440.8      0.07235032 1          0.8523333 
441        0.1130087  1          0.6766613 
441.2      0.1608498  1          0.6014377 
441.4      0.1084606  1          0.7638878 
441.6      0.157169   1          0.6162652 
441.8      0.2545888  1          0.5753457 
442        0.4161384  0.6792636  0.3782836 
442.2      0.4283631  0.7457905  0.2368482 
442.4      0.3303852  0.9216347  0.3832414 
442.6      0.2852566  1          0.490639  
442.8      0.2079449  1          0.6383997 
443        0.108562   1          0.8241687 
443.2      0.1561817  1          0.6701328 
443.4      0.1962684  1          0.5323011 
443.6      0.1719225  1          0.5881714 
443.8      0.1413122  1          0.6334247 
444        0.1440525  1          0.6065132 
444.2      0.1589376  1          0.5521425 
444.4      0.1163893  1          0.6812886 
444.6      0.1027136  1          0.7153229 
444.8      0.1505463  1          0.6808611 
445        0.2219502  1          0.6402456 
445.2      0.3724005  0.7164849  0.4614322 
445.4      0.4555081  0.6556462  0.2707377 
445.6      0.4781981  0.5473374  0.2447091 
445.8      0.5255711  0.4704557  0.1936711 
446        0.4887578  0.5491229  0.1531988 
446.2      0.3324624  0.8098046  0.3837675 
446.4      0.1628524  1          0.7264051 
446.6      0.05719924 1          0.9122611 
446.8      0.1267704  1          0.8240122 
447        0.07664071 1          0.8486894 
447.2      0.01212863 1          0.9443656 
447.4      0.06364954 1          0.7892076 
447.6      0.07725702 1          0.6947143 
447.8      0.110131   1          0.7424117 
448        0.119718   1          0.8472737 
448.2      0.2370993  1          0.6254365 
448.4      0.3179341  0.9066337  0.4114847 
448.6      0.3122659  0.8676161  0.339105  
448.8      0.3490521  0.8866371  0.2149556 
449        0.4149598  0.7505566  0.1464285 
449.2      0.4148681  0.6996163  0.1741658 
449.4      0.326591   0.798876   0.2792401 
449.6      0.254299   0.9101803  0.3770618 
449.8      0.21039    1          0.5339815 
450        0.1889814  1          0.5754208 
450.2      0.1997293  1          0.5171894 
450.4      0.2013014  1          0.5539581 
450.6      0.1721735  1          0.6078954 
450.8      0.1481628  1          0.5927911 
451        0.1553308  1          0.5004066 
451.2      0.1334519  1          0.5961815 
451.4      0.07993953 1          0.7076491 
451.6      0.1135894  1          0.6697083 
451.8      0.1054579  1          0.4259253 
452        0.1297274  1          0.1722406 
452.2      0.3545664  0.6865015  0.1497216 
452.4      0.4606086  0.5486329  0.1806188 
452.6      0.3693257  0.6965521  0.2841015 
452.8      0.1932175  1          0.562434  
453        0.1456294  1          0.6361904 
453.2      0.170347   1          0.4958029 
453.4      0.1678556  1          0.5246246 
453.6      0.1945319  0.9278432  0.537681  
453.8      0.2384363  0.7961943  0.4110859 
454        0.2501702  0.7485564  0.3699983 
454.2      0.2665087  0.6683586  0.3459503 
454.4      0.2859623  0.5685044  0.3210659 
454.6      0.2754788  0.5624059  0.3575151 
454.8      0.2684041  0.5582293  0.3671224 
455        0.2923105  0.5076653  0.3079021 
455.2      0.2881305  0.4965419  0.305676  
455.4      0.2670552  0.5328893  0.3206658 
455.6      0.2796766  0.5113461  0.2992606 
455.8      0.2857708  0.5112895  0.2970855 
456        0.2609746  0.5531631  0.2489411 
456.2      0.2816714  0.4953318  0.2435337 
456.4      0.2598619  0.5377887  0.3180496 
456.6      0.2820589  0.5006314  0.3010065 
456.8      0.3183569  0.46055    0.2311962 
457        0.2881104  0.4971753  0.2652147 
457.2      0.2681454  0.5534646  0.298677  
457.4      0.2145714  0.6817446  0.2924574 
457.6      0.1586467  1          0.2725754 
457.8      0.225967   1          0.3329996 
458        0.2599225  1          0.5410934 
458.2      0.1730857  1          0.784728  
458.4      0.1409322  1          0.7986664 
458.6      0.2046433  1          0.5473437 
458.8      0.2150065  1          0.4826325 
459        0.17579    1          0.5608627 
459.2      0.1247498  1          0.6904562 
459.4      0.1267815  1          0.6778011 
459.6      0.1214066  1          0.6942902 
459.8      0.1770926  1          0.5848763 
460        0.1637681  1          0.6031227 
460.2      0.1203096  1          0.7368383 
460.4      0.06414435 1          0.8601239 
460.6      0.116526   1          0.680728  
460.8      0.08651882 1          0.6847259 
461        0.2190755  1          0.5875105 
461.2      0.4327294  0.523914   0.2972271 
461.4      0.4979067  0.5198667  0.1224174 
461.6      0.4676899  0.5743694  0.1361412 
461.8      0.3435833  0.7401035  0.2991043 
462        0.2273582  1          0.4422393 
462.2      0.2470327  1          0.5114594 
462.4      0.2172882  1          0.5826235 
462.6      0.2268719  1          0.5579105 
462.8      0.2203331  1          0.5339425 
463        0.1964385  1          0.6499218 
463.2      0.109911   1          0.8714535 
463.4      0.1114917  1          0.8867255 
463.6      0.1694013  1          0.806214  
463.8      0.2013511  1          0.5997022 
464        0.1442631  1          0.5231364 
464.2      0.04218784 1          0.7866448 
464.4      0.06134777 1          0.7016977 
464.6      0.08298796 1          0.5880501 
464.8      0.04520294 1          0.7582422 
465        0.09237547 1          0.7094573 
465.2      0.1819005  1          0.5062106 
465.4      0.2078268  1          0.4751254 
465.6      0.1896942  1          0.4780602 
465.8      0.203617   1          0.4344023 
466        0.1732901  1          0.5056365 
466.2      0.1338623  1          0.5022772 
466.4      0.204064   1          0.2853494 
466.6      0.2300742  0.9950022  0.3227438 
466.8      0.2643061  0.8825243  0.3711975 
467        0.2046209  1          0.4740689 
467.2      0.1604683  1          0.6002051 
467.4      0.1726274  1          0.4982345 
467.6      0.2180322  0.93277    0.4223059 
467.8      0.2235792  0.8011842  0.4113935 
468        0.2297375  0.7168725  0.3829395 
468.2      0.242378   0.6273458  0.3680517 
468.4      0.256945   0.5993045  0.3778034 
468.6      0.2349781  0.6429299  0.403054  
468.8      0.2429988  0.6118467  0.3951747 
469        0.2419256  0.6442752  0.4352037 
469.2      0.2314197  0.8605816  0.4027342 
469.4      0.1590668  1          0.5422475 
469.6      0.06913265 1          0.7704427 
469.8      0.08158933 1          0.7565581 
470        0.03130614 1          0.9353418 
470.2      0.0291124  1          0.9406049 
470.4      0.08512656 1          0.802191  
470.6      0.0913212  1          0.7785756 
470.8      0.1475381  1          0.6904968 
