~Version
 VERS              .         3.0                           : CWLS LOG ASCII STANDARD - VERSION 3.0
 WRAP              .         NO                            : ONE LINE PER DEPTH STEP
 DLM               .         SPACE                         : DELIMITING CHARACTER(SPACE TAB OR COMMA)
~Well Information
#_______________________________________________________________________________
#
#PARAMETER_NAME    .UNIT     VALUE                         : DESCRIPTION
#_______________________________________________________________________________
STRT               .M        0                             : First reference value
STOP               .M        865                           : Last reference value
STEP               .M        0.2                           : Step increment
NULL               .         -9999                         : Missing value
COMP               .         ICPetroleum                   : Company
WELL               .         305                           : Well name
FLD                .         Karatobe                      : Field
LOC                .                                       : Location
SRVC               .         LOGGING COMPANY NAME          : Service Company
CTRY               .         KZ                            : Country
DATE               .         LOG DATE                      : Service Date
LATI               .         0                             : Latitude
LONG               .         0                             : Longitude
GDAT               .         WGS 84                        : Geodetic Datum
COORDIN            .                                       : Grid System
COUNTRY            .         Kazakhstan                    : KAZAKHSTAN
COUNTRY            .         Kazakhstan                    : KAZAKHSTAN
EREF               .m        145.7                         : 
KB                 .         145.7                         : KB Elevation
ORIGINALWELLNAME   .         305                           : 
PROV               .                                       : Province
RWS                .         -999                          : Def_Rw
UWI                .         1_305                         : Unique Well Identifier (UWI)
WST                .         -999                          : Def_Rwt
X                  .km       466481.54                     : 
XCOORD             .                                       : X or East-West Coordinate
Y                  .km       5308116.56                    : 
YCOORD             .                                       : Y or North-South Coordinate
~Parameter Information Block
#_______________________________________________________________________________
#
#PARAMETER_NAME    .UNIT     VALUE                         : DESCRIPTION
#_______________________________________________________________________________
SET                .         Las                           : 
TLFamily_DEPT      .         Measured Depth                : 
TLFamily_PHI_FINAL .         Porosity                      : 
TLFamily_SW_AR     .         Water Saturation              : 
TLFamily_VSH_FINAL .         Shale Volume                  : 
~Curve Information
#_______________________________________________________________________________
#
#LOGNAME           .UNIT     LOG_ID                        : DESCRIPTION
#_______________________________________________________________________________
DEPT               .M                                      : Depth curve {F}
PHI_FINAL          .m3/m3                                  : Porosity {F}
SW_AR              .m3/m3                                  :  {F}
VSH_FINAL          .unitless                               : Vshale {F}
~Ascii
# ...
398.2      0.136523   1          0.672165  
398.4      0.09581441 1          0.776039  
398.6      0.1189293  1          0.7473059 
398.8      0.134788   1          0.7195408 
399        0.1040496  1          0.8148916 
399.2      0.02126081 1          0.9616193 
399.4      0.08222877 1          0.7747377 
399.6      0.1327855  1          0.7052047 
399.8      0.1274356  1          0.6832362 
400        0.09399559 1          0.7410982 
400.2      0.1052004  1          0.8132298 
400.4      0.08522288 1          0.9421548 
400.6      0.1039459  1          0.8696181 
400.8      0.04777301 1          0.9645325 
401        0.07018508 1          0.890721  
401.2      0.09237569 1          0.8632957 
401.4      0.05809125 1          0.8629974 
401.6      0.08345975 1          0.8212955 
401.8      0.08557833 1          0.8261908 
402        0.02811517 1          1         
402.2      0.1081015  1          0.7905716 
402.4      0.09899104 1          0.800063  
402.6      0.039219   1          0.9326805 
402.8      0.0547924  1          0.9097441 
403        0.1006367  1          0.8294192 
403.2      0.05854639 1          0.8873138 
403.4      0.1053503  1          0.7744447 
403.6      0.02876968 1          1         
403.8      0.02042106 1          1         
404        0.04802544 1          0.9361724 
404.2      0.0143475  1          1         
404.4      0.02247738 1          1         
404.6      0.02543565 1          0.9236448 
404.8      0.01709182 1          1         
405        0.07950896 1          0.8897776 
405.2      0.0238089  1          0.9806544 
405.4      0.05037059 1          0.9626057 
405.6      0.07862926 1          0.9507376 
405.8      0.05306252 1          0.9796034 
406        0.0607753  1          0.8937771 
406.2      0.1053884  1          0.8200276 
406.4      0.1341055  1          0.8246295 
406.6      0.06755644 1          0.9261323 
406.8      0.04582028 1          1         
407        0.116169   1          0.8866916 
407.2      0.05112105 1          1         
407.4      0.122094   1          0.8648469 
407.6      0.07260182 1          0.9187939 
407.8      0.1206364  1          0.8379763 
408        0.07153685 1          0.8962262 
408.2      0.03056737 1          0.9405398 
408.4      0.00879172 1          1         
408.6      0.007788561 1          0.9512598 
408.8      0.01197676 1          0.9743761 
409        0.01733598 1          0.9392147 
409.2      0.04457553 1          0.9447054 
409.4      0.0779002  1          0.9159035 
409.6      0.05570872 1          1         
409.8      0.03590465 1          1         
410        0.05291207 1          1         
410.2      0.08209654 1          1         
410.4      0.08397914 1          0.9369029 
410.6      0.02946227 1          1         
410.8      0.1075374  1          0.8598068 
411        0.05627867 1          0.9301498 
411.2      0.004517689 1          1         
411.4      0.03116018 1          1         
411.6      0.07804112 1          0.8906433 
411.8      0.07063728 1          0.6619253 
412        0.1379087  1          0.5611653 
412.2      0.1662311  1          0.4499884 
412.4      0.175569   1          0.4802692 
412.6      0.204178   1          0.5466021 
412.8      0.1326053  1          0.6566706 
413        0.1488327  1          0.597217  
413.2      0.1691227  1          0.5857706 
413.4      0.1131329  1          0.7854211 
413.6      0.1575179  1          0.7336869 
413.8      0.1166057  1          0.733447  
414        0.09754663 1          0.7992391 
414.2      0.0616387  1          0.9710335 
414.4      0.07290477 1          0.9303495 
414.6      0.01676482 1          1         
414.8      0.002140927 1          1         
415        0.01524063 1          1         
415.2      0.07548238 1          0.8480726 
415.4      0.2072497  1          0.5838026 
415.6      0.2491093  1          0.5581223 
415.8      0.3025145  0.8664243  0.4779204 
416        0.326177   0.8562492  0.4936963 
416.2      0.2621073  1          0.6212152 
416.4      0.1041812  1          0.9214056 
416.6      0.05652665 1          1         
416.8      0.1946157  1          0.6403776 
417        0.2712956  0.9092097  0.4618125 
417.2      0.2493952  0.995472   0.4526832 
417.4      0.2783739  0.9262112  0.4097626 
417.6      0.335497   0.8239931  0.3653305 
417.8      0.3795837  0.7457589  0.3226167 
418        0.3185769  0.8707968  0.4491568 
418.2      0.2325158  1          0.7060821 
418.4      0.3695167  0.738295   0.5049409 
418.6      0.482114   0.5377028  0.1698914 
418.8      0.5048798  0.5314394  0.1054697 
419        0.3697759  0.7018933  0.2795164 
419.2      0.2673466  0.9444922  0.5377192 
419.4      0.1588595  1          0.7047178 
419.6      0.0966426  1          0.8316466 
419.8      0.1420287  1          0.7217557 
420        0.2246978  1          0.5134242 
420.2      0.2510849  1          0.5232698 
420.4      0.248616   1          0.5904745 
420.6      0.1872985  1          0.6567187 
420.8      0.2014489  1          0.6323358 
421        0.2382785  1          0.5899336 
421.2      0.2383937  1          0.6439195 
421.4      0.199962   1          0.818899  
421.6      0.2381589  1          0.7990493 
421.8      0.3358835  0.8292317  0.5220377 
422        0.3452047  0.8080355  0.4676138 
422.2      0.3198092  0.8621783  0.4236249 
422.4      0.2494195  1          0.6632191 
422.6      0.2802803  0.8973285  0.5558739 
422.8      0.213983   1          0.5557074 
423        0.1053195  1          0.7730056 
423.2      0.08430424 1          0.8016268 
423.4      0.09963081 1          0.7679453 
423.6      0.07306348 1          0.8567241 
423.8      0.07402131 1          0.8459184 
424        0.1234996  1          0.7624162 
424.2      0.09139541 1          0.8102871 
424.4      0.07066105 1          0.8249465 
424.6      0.08962905 1          0.7387267 
424.8      0.07733542 1          0.7566794 
425        0.153511   1          0.6441828 
425.2      0.314633   0.9353353  0.4247207 
425.4      0.37517    0.8085948  0.312894  
425.6      0.376212   0.8142008  0.2598042 
425.8      0.3440889  0.8574657  0.3237747 
426        0.3082958  0.9295931  0.4022382 
426.2      0.1910503  1          0.684257  
426.4      0.06079727 1          1         
426.6      0.06236174 1          1         
426.8      0.04292746 1          1         
427        0.03907708 1          1         
427.2      0.1761459  1          0.6582236 
427.4      0.2322357  1          0.5554741 
427.6      0.3226287  0.7615209  0.5243955 
427.8      0.369006   0.6479724  0.3933108 
428        0.2477756  0.9635352  0.4636471 
428.2      0.1409734  1          0.6369223 
428.4      0.07601998 1          0.7478091 
428.6      0.0294979  1          0.94676   
428.8      0.01731553 1          1         
429        0.09370111 1          0.7939335 
429.2      0.08622637 1          0.7936703 
429.4      0.17248    1          0.6682703 
429.6      0.153291   1          0.6974332 
429.8      0.113331   1          0.7978061 
430        0.1411429  1          0.7782714 
430.2      0.3221966  0.7350735  0.4652718 
430.4      0.4154632  0.6460313  0.2527319 
430.6      0.3515625  0.8037244  0.3494518 
430.8      0.2951474  0.9181355  0.5632488 
431        0.2600836  1          0.6917558 
431.2      0.1808667  1          0.7534848 
431.4      0.1215414  1          0.8351463 
431.6      0.1519569  1          0.6576191 
431.8      0.1048921  1          0.7301545 
432        0.1143085  1          0.7478389 
432.2      0.1650314  1          0.6252195 
432.4      0.1790052  1          0.6134424 
432.6      0.1942775  1          0.5833585 
432.8      0.1559532  1          0.6323945 
433        0.1496778  1          0.6089959 
433.2      0.1091099  1          0.7328194 
433.4      0.1115342  1          0.7150072 
433.6      0.06371148 1          0.8171101 
433.8      0.1020636  1          0.783059  
434        0.1137841  1          0.7230492 
434.2      0.1046582  1          0.7273343 
434.4      0.1688967  1          0.7314015 
