~Version
 VERS              .         3.0                           : CWLS LOG ASCII STANDARD - VERSION 3.0
 WRAP              .         NO                            : ONE LINE PER DEPTH STEP
 DLM               .         SPACE                         : DELIMITING CHARACTER(SPACE TAB OR COMMA)
~Well Information
#_______________________________________________________________________________
#
#PARAMETER_NAME    .UNIT     VALUE                         : DESCRIPTION
#_______________________________________________________________________________
STRT               .M        0                             : First reference value
STOP               .M        865                           : Last reference value
STEP               .M        0.2                           : Step increment
NULL               .         -9999                         : Missing value
COMP               .         ICPetroleum                   : Company
WELL               .         305                           : Well name
FLD                .         Karatobe                      : Field
LOC                .                                       : Location
SRVC               .         LOGGING COMPANY NAME          : Service Company
CTRY               .         KZ                            : Country
DATE               .         LOG DATE                      : Service Date
LATI               .         0                             : Latitude
LONG               .         0                             : Longitude
GDAT               .         WGS 84                        : Geodetic Datum
COORDIN            .                                       : Grid System
COUNTRY            .         Kazakhstan                    : KAZAKHSTAN
COUNTRY            .         Kazakhstan                    : KAZAKHSTAN
EREF               .m        145.7                         : 
KB                 .         145.7                         : KB Elevation
ORIGINALWELLNAME   .         305                           : 
PROV               .                                       : Province
RWS                .         -999                          : Def_Rw
UWI                .         1_305                         : Unique Well Identifier (UWI)
WST                .         -999                          : Def_Rwt
X                  .km       466481.54                     : 
XCOORD             .                                       : X or East-West Coordinate
Y                  .km       5308116.56                    : 
YCOORD             .                                       : Y or North-South Coordinate
~Parameter Information Block
#_______________________________________________________________________________
#
#PARAMETER_NAME    .UNIT     VALUE                         : DESCRIPTION
#_______________________________________________________________________________
SET                .         Las                           : 
TLFamily_DEPT      .         Measured Depth                : 
TLFamily_PHI_FINAL .         Porosity                      : 
TLFamily_SW_AR     .         Water Saturation              : 
TLFamily_VSH_FINAL .         Shale Volume                  : 
~Curve Information
#_______________________________________________________________________________
#
#LOGNAME           .UNIT     LOG_ID                        : DESCRIPTION
#_______________________________________________________________________________
DEPT               .M                                      : Depth curve {F}
PHI_FINAL          .m3/m3                                  : Porosity {F}
SW_AR              .m3/m3                                  :  {F}
VSH_FINAL          .unitless                               : Vshale {F}
~Ascii
# ...
107        -9999      -9999      0.0717008 
107.2      -9999      -9999      0.04891069
107.4      -9999      -9999      0.04437795
107.6      -9999      -9999      0.04352116
107.8      -9999      -9999      0.07163917
108        -9999      -9999      0.0759868 
108.2      -9999      -9999      0.05928056
108.4      -9999      -9999      0.06948599
108.6      -9999      -9999      0.05925604
108.8      -9999      -9999      0.04087112
109        -9999      -9999      0.04789755
109.2      -9999      -9999      0.0611832 
109.4      -9999      -9999      0.06523393
109.6      -9999      -9999      0.06522019
109.8      -9999      -9999      0.05244679
110        -9999      -9999      0.04426472
110.2      -9999      -9999      0.05434504
110.4      -9999      -9999      0.07911614
110.6      -9999      -9999      0.06411307
110.8      -9999      -9999      0.04961596
111        -9999      -9999      0.05148432
111.2      -9999      -9999      0.05428986
111.4      -9999      -9999      0.044204  
111.6      -9999      -9999      0.03903273
111.8      -9999      -9999      0.06611378
112        -9999      -9999      0.06609985
112.2      -9999      -9999      0.07896049
112.4      -9999      -9999      0.07451444
112.6      -9999      -9999      0.07235888
112.8      -9999      -9999      0.07448228
113        -9999      -9999      0.06702489
113.2      -9999      -9999      0.05606808
113.4      -9999      -9999      0.04501289
113.6      -9999      -9999      0.04676542
113.8      -9999      -9999      0.07769113
114        -9999      -9999      0.07008722
114.2      -9999      -9999      0.06086669
114.4      -9999      -9999      0.04856101
114.6      -9999      -9999      0.03726694
114.8      -9999      -9999      0.06184087
115        -9999      -9999      0.05787539
115.2      -9999      -9999      0.04852246
115.4      -9999      -9999      0.05594258
115.6      -9999      -9999      0.0598274 
115.8      -9999      -9999      0.05403746
116        -9999      -9999      0.05493885
116.2      -9999      -9999      0.04057981
116.4      -9999      -9999      0.03720317
116.6      -9999      -9999      0.03233657
116.8      -9999      -9999      0.02245404
117        -9999      -9999      0.0175193 
117.2      -9999      -9999      0.01409583
117.4      -9999      -9999      0.02765328
117.6      -9999      -9999      0.02539017
117.8      -9999      -9999      0.02391929
118        -9999      -9999      0.03149093
118.2      -9999      -9999      0.03072921
118.4      -9999      -9999      0.01816575
118.6      -9999      -9999      0.02461238
118.8      -9999      -9999      0.04388569
119        -9999      -9999      0.04047065
119.2      -9999      -9999      0.01543764
119.4      -9999      -9999      0.01748268
119.6      -9999      -9999      0.03068948
119.8      -9999      -9999      0.01342442
120        -9999      -9999      0.01747355
120.2      -9999      -9999      0.03142677
120.4      -9999      -9999      0.03870534
120.6      -9999      -9999      0.0290857 
120.8      -9999      -9999      0.01341297
121        -9999      -9999      0.008243997
121.2      -9999      -9999      0.01606357
121.4      -9999      -9999      0.03299873
121.6      -9999      -9999      0.03786002
121.8      -9999      -9999      0.03950493
122        -9999      -9999      0.03374881
122.2      -9999      -9999      0.0290431 
122.4      0          -9999      0.01880949
122.6      0.08941454 -9999      0.0147093 
122.8      0.09392213 -9999      0.01538987
123        0.08990096 -9999      0.01742805
123.2      0.08911774 -9999      0.009508623
123.4      0.09206806 -9999      0.02450644
123.6      0.08448988 -9999      0.04284878
123.8      0.09056391 -9999      0.03292514
124        0.09264378 -9999      0.03291902
124.2      0.09783794 -9999      0.023042  
124.4      0.09284395 -9999      0.01807095
124.6      0.08622744 -9999      0.01601654
124.8      0.08287407 -9999      0.02160316
125        0.09069607 -9999      0.0230256 
125.2      0.09695204 -9999      0.02896356
125.4      0.09921928 -9999      0.02668738
125.6      0.104224   -9999      0.02895299
125.8      0.09387984 -9999      0.03051472
126        0.09193926 -9999      0.02743772
126.2      0.08841136 -9999      0.03524887
126.4      0.08978907 -9999      0.03361074
126.6      0.09215888 -9999      0.03203789
126.8      0.09512843 -9999      0.02892131
127        0.09600026 -9999      0.03202606
127.2      0.09858111 -9999      0.02298062
127.4      0.1000473  -9999      0.01872762
127.6      0.1008344  -9999      0.01532663
127.8      0.09687836 -9999      0.02515809
128        0.08515634 1          0.0266248 
128.2      0.09148712 1          0.02738312
128.4      0.1175161  1          0.02295616
128.6      0.1446662  1          0.01596157
128.8      0.1124401  1          0.02660561
129        0.09563203 1          0.02294395
129.2      0.09126017 1          0.02293989
129.4      0.09292732 1          0.02079379
129.6      0.09172773 1          0.03274865
129.8      0.09612578 1          0.03114982
130        0.09266447 1          0.03512393
130.2      0.08738268 1          0.04867185
130.4      0.08111068 1          0.03038633
130.6      0.08416114 1          0.03428932
130.8      0.08269641 1          0.03916823
131        0.08382854 1          0.03427658
131.2      0.09444297 1          0.02216891
131.4      0.1060657  1          0.03426385
131.6      0.08554975 1          0.04774529
131.8      0.08457064 1          0.03749695
132        0.09158693 1          0.02956068
132.2      0.09146129 1          0.03505199
132.4      0.08864031 1          0.022875  
132.6      0.08256597 1          0.0326581 
132.8      0.08507986 1          0.03031977
133        0.07862176 1          0.04246325
133.2      0.06419068 1          0.08839847
133.4      0.06287021 1          0.1093875 
133.6      0.06104478 1          0.1106252 
133.8      0.06341457 1          0.1145809 
134        0.06257612 1          0.1342912 
134.2      0.05425915 1          0.1463466 
134.4      0.05107801 1          0.1574888 
134.6      0.05426725 1          0.1478616 
134.8      0.05434556 1          0.1557552 
135        0.05629332 1          0.1606204 
135.2      0.05011403 1          0.1431059 
135.4      0.04928829 1          0.1492265 
135.6      0.03743361 1          0.1977327 
135.8      0.04638311 1          0.1637476 
136        0.03711902 1          0.2053683 
136.2      0.04335721 1          0.1653699 
136.4      0.04236501 1          0.2091512 
136.6      0.02638747 1          0.2582725 
136.8      0.03670495 1          0.1993508 
137        0.05622137 1          0.1323128 
137.2      0.03739812 1          0.1618505 
137.4      0.02216767 1          0.2230579 
137.6      0.01243502 1          0.2697098 
137.8      0.02676156 1          0.1915176 
138        0.02331495 1          0.1914663 
138.2      0.04170763 1          0.175212  
138.4      0.04585048 1          0.1877113 
138.6      0.04661508 1          0.1615612 
138.8      0.05317873 1          0.1698944 
139        0.0469561  1          0.134892  
139.2      0.04361537 1          0.1454389 
139.4      0.03332323 1          0.1967202 
139.6      0.04311358 1          0.1947509 
139.8      0.05028563 1          0.1275554 
140        0.0449236  1          0.1422593 
140.2      0.03179945 1          0.1612317 
140.4      0.07503542 1          0.0996457 
140.6      0.1285786  1          0.04732914
140.8      0.09299898 1          0.09002464
141        0.07342231 1          0.1149768 
141.2      0.0638794  1          0.1070972 
141.4      0.05646909 1          0.1316105 
141.6      0.05161467 1          0.1675547 
141.8      0.05290754 1          0.1480386 
142        0.05672187 1          0.1134898 
142.2      0.0411658  1          0.1591543 
142.4      0.04750438 1          0.1243699 
142.6      0.05768782 1          0.07424675
142.8      0.04844526 1          0.1173946 
143        0.05954981 1          0.1055791 
143.2      0.0679884  1          0.1120606 
