~Version
 VERS              .         3.0                           : CWLS LOG ASCII STANDARD - VERSION 3.0
 WRAP              .         NO                            : ONE LINE PER DEPTH STEP
 DLM               .         SPACE                         : DELIMITING CHARACTER(SPACE TAB OR COMMA)
~Well Information
#_______________________________________________________________________________
#
#PARAMETER_NAME    .UNIT     VALUE                         : DESCRIPTION
#_______________________________________________________________________________
STRT               .M        0                             : First reference value
STOP               .M        865                           : Last reference value
STEP               .M        0.2                           : Step increment
NULL               .         -9999                         : Missing value
COMP               .         ICPetroleum                   : Company
WELL               .         305                           : Well name
FLD                .         Karatobe                      : Field
LOC                .                                       : Location
SRVC               .         LOGGING COMPANY NAME          : Service Company
CTRY               .         KZ                            : Country
DATE               .         LOG DATE                      : Service Date
LATI               .         0                             : Latitude
LONG               .         0                             : Longitude
GDAT               .         WGS 84                        : Geodetic Datum
COORDIN            .                                       : Grid System
COUNTRY            .         Kazakhstan                    : KAZAKHSTAN
COUNTRY            .         Kazakhstan                    : KAZAKHSTAN
EREF               .m        145.7                         : 
KB                 .         145.7                         : KB Elevation
ORIGINALWELLNAME   .         305                           : 
PROV               .                                       : Province
RWS                .         -999                          : Def_Rw
UWI                .         1_305                         : Unique Well Identifier (UWI)
WST                .         -999                          : Def_Rwt
X                  .km       466481.54                     : 
XCOORD             .                                       : X or East-West Coordinate
Y                  .km       5308116.56                    : 
YCOORD             .                                       : Y or North-South Coordinate
~Parameter Information Block
#_______________________________________________________________________________
#
#PARAMETER_NAME    .UNIT     VALUE                         : DESCRIPTION
#_______________________________________________________________________________
SET                .         Las                           : 
TLFamily_DEPT      .         Measured Depth                : 
TLFamily_PHI_FINAL .         Porosity                      : 
TLFamily_SW_AR     .         Water Saturation              : 
TLFamily_VSH_FINAL .         Shale Volume                  : 
~Curve Information
#_______________________________________________________________________________
#
#LOGNAME           .UNIT     LOG_ID                        : DESCRIPTION
#_______________________________________________________________________________
DEPT               .M                                      : Depth curve {F}
PHI_FINAL          .m3/m3                                  : Porosity {F}
SW_AR              .m3/m3                                  :  {F}
VSH_FINAL          .unitless                               : Vshale {F}
~Ascii
# ...
725.8      0.1073463  1          0.4172883 
726        0.06683311 1          0.3004729 
726.2      0.1450254  1          0.3039669 
726.4      0.1257562  1          0.386786  
726.6      0.1086418  1          0.4735536 
726.8      0          1          0.5267299 
727        0          1          0.5054988 
727.2      0.07867888 1          0.4110635 
727.4      0.1617007  1          0.3947527 
727.6      0.09969957 1          0.4215419 
727.8      0.1235136  1          0.45575   
728        0.03775428 1          0.3592768 
728.2      0.06620623 1          0.3554779 
728.4      0.1632577  1          0.3402904 
728.6      0.1336566  1          0.3402904 
728.8      0.1345465  1          0.3384907 
729        0.1771675  1          0.3535353 
729.2      0.1799436  1          0.3709048 
729.4      0.1655631  1          0.3728968 
729.6      0          1          0.3907583 
729.8      0.1330514  1          0.3728968 
730        0.1495219  1          0.4215419 
730.2      0.1535269  1          0.3866789 
730.4      0.1356912  1          0.3291702 
730.6      0.07689966 1          0.2934494 
730.8      0.003216527 1          0.3887157 
731        0.1280443  1          0.4131697 
731.2      0.1597817  1          0.3807091 
731.4      0.139782   1          0.4668601 
731.6      0.0797728  1          0.5988347 
731.8      0.09036547 1          0.5149112 
732        0.101748   1          0.4514194 
732.2      0.07770745 1          0.4803031 
732.4      0.06464833 1          0.3887157 
732.6      0.1157854  1          0.3630967 
732.8      0          1          0.3219244 
733        0.1211128  1          0.2848488 
733.2      0.04807459 1          0.3650665 
733.4      0.05752996 1          0.3689185 
733.6      0.1335471  1          0.382729  
733.8      0.02694384 1          0.4215419 
734        0.05381028 1          0.4235652 
734.2      0.03998591 1          0.4893093 
734.4      0.1039969  1          0.4298949 
734.6      0.08429399 1          0.3459206 
734.8      0.009112759 1          0.3767922 
735        0.06795713 1          0.419412  
735.2      0.1709288  1          0.4029175 
735.4      0.1524966  1          0.4427143 
735.6      0.02766383 1          0.500894  
735.8      0.1165967  1          0.3747892 
736        0.1233385  1          0.4131697 
736.2      0.1183012  1          0.4916378 
736.4      0.09683922 1          0.5125167 
736.6      0.03993082 1          0.46235   
736.8      0.06096286 1          0.4602225 
737        0.1163077  1          0.4090738 
737.2      0.134048   1          0.4215419 
737.4      0.1586291  1          0.4406396 
737.6      0.1098817  1          0.3329223 
737.8      0.103319   1          0.3612357 
738        0.0869974  1          0.382729  
738.2      0.06459695 1          0.4048907 
738.4      0.09672564 1          0.3612357 
738.6      0.1083048  1          0.4048907 
738.8      0.1210022  1          0.4471127 
739        0.1369856  1          0.3987692 
739.2      0.1261721  1          0.3535353 
739.4      0.06244844 1          0.3421954 
739.6      0.08155354 1          0.3111089 
739.8      0.09304949 1          0.4090738 
740        0.09907009 1          0.4235652 
740.2      0.0490728  1          0.3767922 
740.4      0.03568619 1          0.3767922 
740.6      0.02409333 1          0.4406396 
740.8      0.03009516 1          0.5363814 
741        0.08549175 1          0.5149112 
741.2      0          1          0.5633208 
741.4      0          1          0.644018  
741.6      0          1          0.4961912 
741.8      0.04521144 1          0.1959139 
742        0.07894959 0.934682   0.08728374
742.2      0.09953108 0.7869406  0.06798597
742.4      0.1140351  0.6524295  0.08380789
742.6      0.09129324 0.8943908  0.05812325
742.8      0.1028158  0.8108298  0.03094662
743        0.1436077  0.5071415  0.02400543
743.2      0.1158643  0.6972135  0.0259673 
743.4      0.09291476 0.9256707  0.03197245
743.6      0.09049524 0.9383657  0.05060258
743.8      0.112386   0.7623363  0.03300117
744        0.1343658  0.702539   0.02895731
744.2      0.1856169  0.554466   0.05702332
744.4      0.1287993  0.8867083  0.05060258
744.6      0.07573442 1          0.05702332
744.8      0.06239294 1          0.08036096
745        0.06415281 1          0.1038728 
745.2      0.129465   1          0.1063425 
745.4      0.2016731  0.7476173  0.08728374
745.6      0.1512424  1          0.1027079 
745.8      0.2058113  0.7904974  0.1224035 
746        0.2128833  0.7526202  0.1224035 
746.2      0.1960817  0.7940254  0.1186351 
746.4      0.1960824  0.7658949  0.1199101 
746.6      0.1093006  1          0.1148981 
746.8      0.1910754  0.7638983  0.1300355 
747        0.1717062  0.9120041  0.1288003 
747.2      0.1185612  1          0.1417256 
747.4      0.1697631  0.8636478  0.1186351 
747.6      0.1458601  0.9905577  0.1002588 
747.8      0.1282692  1          0.1087606 
748        0.09803553 1          0.1161625 
748.2      0.1512649  0.8577502  0.1430663 
748.4      0.1900755  0.5979119  0.1075172 
748.6      0.2085239  0.5605831  0.08036096
748.8      0.1993589  0.6021323  0.07469996
749        0.2177593  0.5840509  0.09667485
749.2      0.1873033  0.6931838  0.1236892 
749.4      0.1807372  0.7224211  0.1262036 
749.6      0.2167474  0.5221349  0.09788746
749.8      0.1833915  0.5681474  0.07809932
750        0.13741    0.7257939  0.07694279
750.2      0.1555836  0.6243042  0.06685809
750.4      0.1771984  0.5556843  0.06355237
750.6      0.1667594  0.6592267  0.07132894
750.8      0.1634585  0.7885822  0.06467085
751        0.2018356  0.6386885  0.09198468
751.2      0.2053318  0.5834954  0.09552923
751.4      0.1394886  1          0.1002588 
751.6      0.1548894  0.7779729  0.1224035 
751.8      0.09986684 1          0.1391258 
752        0.07496928 1          0.1224035 
752.2      0.0923362  1          0.08728374
752.4      0.09951442 1          0.08610115
752.6      0.130563   0.9816785  0.0907888 
752.8      0.15739    0.8259023  0.07694279
753        0.1745551  0.63397    0.08263516
753.2      0.1753686  0.5559967  0.09432328
753.4      0.1551229  0.6522478  0.08152723
753.6      0.1590662  0.6294837  0.07355306
753.8      0.1200967  0.8431682  0.07019157
754        0.1639271  0.5729743  0.05916817
754.2      0.1356036  0.8206565  0.06685809
754.4      0.1445736  0.7100323  0.0757895 
754.6      0.1383032  0.7332936  0.08846968
754.8      0.1174299  0.8032917  0.07694279
755        0.08954144 1          0.07919804
755.2      0.07010477 1          0.07809932
755.4      0.1073001  0.8258769  0.05702332
755.6      0.1018791  0.8605553  0.06798597
755.8      0.08683933 1          0.07132894
756        0.09176577 1          0.07469996
756.2      0.08080837 1          0.07019157
756.4      0.06685933 1          0.07132894
756.6      0.08349133 1          0.07809932
756.8      0.1467794  0.7714518  0.07132894
757        0.0995351  1          0.08610115
757.2      0.0991739  0.9172269  0.07132894
757.4      0.04634498 1          0.07240941
757.6      0.01182968 1          0.08846968
757.8      0.07740923 1          0.07132894
758        0.1046136  1          0.0757895 
758.2      0.1342457  0.7521959  0.09667485
758.4      0.1299717  0.9146023  0.09198468
758.6      0.06077863 1          0.1038728 
758.8      0.17876    0.694523   0.1275001 
759        0.137152   0.7767841  0.1262036 
759.2      0.1192316  0.8321948  0.1137035 
759.4      0.04889506 1          0.09432328
759.6      0.06235063 1          0.1075172 
759.8      0.04288603 1          0.1027079 
760        0.07912678 1          0.1002588 
760.2      0.1035031  1          0.1051059 
760.4      0.106661   1          0.1038728 
760.6      0.09675204 1          0.1591621 
760.8      0.09372897 1          0.1786087 
761        0.06896519 1          0.2153533 
761.2      0.151833   1          0.2355113 
761.4      0.1563064  0.7557736  0.1858003 
761.6      0.1107457  1          0.09198468
761.8      0.1089464  1          0.08036096
762        0.1283496  0.8577886  0.08152723
