~Version
 VERS              .         3.0                           : CWLS LOG ASCII STANDARD - VERSION 3.0
 WRAP              .         NO                            : ONE LINE PER DEPTH STEP
 DLM               .         SPACE                         : DELIMITING CHARACTER(SPACE TAB OR COMMA)
~Well Information
#_______________________________________________________________________________
#
#PARAMETER_NAME    .UNIT     VALUE                         : DESCRIPTION
#_______________________________________________________________________________
STRT               .M        0                             : First reference value
STOP               .M        865                           : Last reference value
STEP               .M        0.2                           : Step increment
NULL               .         -9999                         : Missing value
COMP               .         ICPetroleum                   : Company
WELL               .         305                           : Well name
FLD                .         Karatobe                      : Field
LOC                .                                       : Location
SRVC               .         LOGGING COMPANY NAME          : Service Company
CTRY               .         KZ                            : Country
DATE               .         LOG DATE                      : Service Date
LATI               .         0                             : Latitude
LONG               .         0                             : Longitude
GDAT               .         WGS 84                        : Geodetic Datum
COORDIN            .                                       : Grid System
COUNTRY            .         Kazakhstan                    : KAZAKHSTAN
COUNTRY            .         Kazakhstan                    : KAZAKHSTAN
EREF               .m        145.7                         : 
KB                 .         145.7                         : KB Elevation
ORIGINALWELLNAME   .         305                           : 
PROV               .                                       : Province
RWS                .         -999                          : Def_Rw
UWI                .         1_305                         : Unique Well Identifier (UWI)
WST                .         -999                          : Def_Rwt
X                  .km       466481.54                     : 
XCOORD             .                                       : X or East-West Coordinate
Y                  .km       5308116.56                    : 
YCOORD             .                                       : Y or North-South Coordinate
~Parameter Information Block
#_______________________________________________________________________________
#
#PARAMETER_NAME    .UNIT     VALUE                         : DESCRIPTION
#_______________________________________________________________________________
SET                .         Las                           : 
TLFamily_DEPT      .         Measured Depth                : 
TLFamily_PHI_FINAL .         Porosity                      : 
TLFamily_SW_AR     .         Water Saturation              : 
TLFamily_VSH_FINAL .         Shale Volume                  : 
~Curve Information
#_______________________________________________________________________________
#
#LOGNAME           .UNIT     LOG_ID                        : DESCRIPTION
#_______________________________________________________________________________
DEPT               .M                                      : Depth curve {F}
PHI_FINAL          .m3/m3                                  : Porosity {F}
SW_AR              .m3/m3                                  :  {F}
VSH_FINAL          .unitless                               : Vshale {F}
~Ascii
# ...
653        0.25492    0.7060656  0.2385843 
653.2      0.2482803  0.7531025  0.2643583 
653.4      0.2139098  0.865069   0.3526108 
653.6      0.2369577  0.7645702  0.3182901 
653.8      0.2729857  0.6219724  0.2189179 
654        0.2153793  0.8061751  0.2591529 
654.2      0.2301107  0.7897605  0.3010523 
654.4      0.2476172  0.7031949  0.3103182 
654.6      0.2027774  0.7982309  0.2759057 
654.8      0.2310372  0.731698   0.2143713 
655        0.2505996  0.7301809  0.2380999 
655.2      0.2365623  0.7047316  0.2809522 
655.4      0.2074287  0.7794529  0.2879076 
655.6      0.2584037  0.6025046  0.2333509 
655.8      0.2695274  0.5653731  0.1987803 
656        0.238546   0.6513445  0.1766204 
656.2      0.2383405  0.6842477  0.1828895 
656.4      0.2399184  0.6888608  0.237762  
656.6      0.2415447  0.6256735  0.2041268 
656.8      0.2148357  0.7381104  0.159601  
657        0.2642347  0.6126292  0.1654583 
657.2      0.2374179  0.7266276  0.204008  
657.4      0.2229213  0.8204287  0.2733396 
657.6      0.2372567  0.7460589  0.2699006 
657.8      0.2316517  0.7298619  0.2500531 
658        0.2298591  0.7777898  0.2452313 
658.2      0.1937181  0.8016272  0.3465752 
658.4      0.1486985  0.7332963  0.2869837 
658.6      0.08514537 1          0.2482226 
658.8      0.09130275 1          0.2940746 
659        0.1782498  0.9308419  0.2746243 
659.2      0.2398003  0.7022574  0.2577569 
659.4      0.2490564  0.6688778  0.2813849 
659.6      0.2313505  0.7376782  0.3124055 
659.8      0.2113052  0.8170028  0.3377469 
660        0.217654   0.8131881  0.3238285 
660.2      0.2245477  0.81578    0.3375954 
660.4      0.2194238  0.856376   0.3121316 
660.6      0.250006   0.6903036  0.2810264 
660.8      0.2778596  0.5841742  0.2246823 
661        0.2919475  0.4703144  0.195129  
661.2      0.3343345  0.3293664  0.13576   
661.4      0.3542294  0.2704428  0.1018735 
661.6      0.3669021  0.3045821  0.1128179 
661.8      0.3592881  0.3523228  0.1284461 
662        0.3375786  0.4055348  0.1165923 
662.2      0.3693952  0.3719841  0.112762  
662.4      0.3546412  0.3337747  0.1263795 
662.6      0.3634488  0.3292859  0.07857677
662.8      0.3654858  0.3876268  0.08323984
663        0.313659   0.4915805  0.1540955 
663.2      0.2997828  0.5436806  0.1729973 
663.4      0.2904531  0.5536268  0.1960411 
663.6      0.3037346  0.5079655  0.1494904 
663.8      0.3097305  0.4886937  0.1202964 
664        0.298161   0.4767418  0.1573902 
664.2      0.3326474  0.4508523  0.1097839 
664.4      0.3089185  0.4682155  0.1505208 
664.6      0.3240674  0.4338056  0.1363728 
664.8      0.3187978  0.4265691  0.1406131 
665        0.3108632  0.4368614  0.1405886 
665.2      0.3329482  0.4050117  0.1352913 
665.4      0.3325964  0.3781036  0.1220732 
665.6      0.3523976  0.3898593  0.1015299 
665.8      0.3449183  0.394518   0.1087526 
666        0.3312082  0.3846609  0.1210148 
666.2      0.331395   0.4252455  0.1239459 
666.4      0.3027865  0.4687051  0.1570511 
666.6      0.3181273  0.4315329  0.1479656 
666.8      0.3310348  0.3816234  0.1132893 
667        0.3562595  0.3311315  0.08702053
667.2      0.3634619  0.2992125  0.06782524
667.4      0.3595458  0.2997365  0.07522039
667.6      0.3632594  0.3503685  0.07295458
667.8      0.3446535  0.406342   0.07218627
668        0.3371727  0.4335856  0.09190138
668.2      0.3028041  0.5106581  0.1370177 
668.4      0.2868093  0.5113616  0.1545077 
668.6      0.3204115  0.3969108  0.1217456 
668.8      0.3423325  0.3578638  0.09350866
669        0.3393415  0.3275388  0.09779432
669.2      0.3519925  0.3088051  0.08287484
669.4      0.3547028  0.3337199  0.08286218
669.6      0.3355287  0.3424864  0.106563  
669.8      0.3380901  0.3007733  0.1235706 
670        0.3406028  0.2789515  0.1011723 
670.2      0.3523651  0.2607347  0.08763314
670.4      0.3636365  0.2203617  0.07964703
670.6      0.368744   0.2512994  0.06839059
670.8      0.3664481  0.2269627  0.07962289
671        0.3893547  0.2104063  0.06837052
671.2      0.3837292  0.1947841  0.06480233
671.4      0.3935083  0.2070301  0.04751806
671.6      0.4031072  0.1889108  0.04024538
671.8      0.409038   0.1619202  0.04750504
672        0.4017572  0.1655088  0.04689931
672.2      0.410197   0.1560065  0.04200615
672.4      0.3955438  0.1418341  0.03847253
672.6      0.3967754  0.1396804  0.04321479
672.8      0.3801689  0.1365563  0.0565078 
673        0.3965713  0.1397484  0.05385172
673.2      0.3875244  0.176611   0.04439602
673.4      0.4032677  0.1782319  0.03447974
673.6      0.4182577  0.148327   0.02687014
673.8      0.4090427  0.1422399  0.02636278
674        0.4173648  0.1750975  0.02635946
674.2      0.4035905  0.1791963  0.02275833
674.4      0.4160009  0.1412031  0.02635282
674.6      0.4193436  0.2100783  0.02224093
674.8      0.4225681  0.2057742  0.03388001
675        0.4134286  0.2495657  0.04740108
675.2      0.4044424  0.3273583  0.05976086
675.4      0.4057927  0.252457   0.04131183
675.6      0.4051397  0.2982235  0.02580412
675.8      0.4128286  0.3004872  0.0311178 
676        0.4227704  0.22054    0.03385361
676.2      0.4195082  0.2094875  0.01496586
676.4      0.4057127  0.2273472  0.004385931
676.6      0.3888939  0.2779599  0.01451362
676.8      0.3793997  0.3841117  0.01779862
677        0.3502708  0.711639   0.03161868
677.2      0.2457233  1          0.07693878
677.4      0.125111   1          0.3709048 
677.6      0.1206515  1          0.500894  
677.8      0.09565847 1          0.4152817 
678        0.07648447 1          0.3004729 
678.2      0.0553573  1          0.3236796 
678.4      0.1832903  1          0.3441058 
678.6      0.1326241  1          0.3515982 
678.8      0.1529316  1          0.3200769 
679        0.09637395 1          0.2848488 
679.2      0.1222738  1          0.3747892 
679.4      0.1651344  1          0.4110635 
679.6      0.1069646  1          0.4008404 
679.8      0.098768   1          0.3807091 
680        0.09289453 1          0.3866789 
680.2      0.116601   1          0.3200769 
680.4      0.00223179 1          0.2629321 
680.6      0.1072121  1          0.2779993 
680.8      0.14701    1          0.2986861 
681        0.220776   1          0.2498817 
681.2      0.1829838  1          0.2183756 
681.4      0.2171815  1          0.2245534 
681.6      0.2214313  1          0.2308007 
681.8      0.208099   1          0.2547525 
682        0.2013986  1          0.2729349 
682.2      0.2064547  1          0.2563268 
682.4      0.1475344  1          0.2169032 
682.6      0.1476373  1          0.2245534 
682.8      0.1668757  1          0.2355113 
683        0.1307815  1          0.2434217 
683.2      0.1260373  1          0.2579932 
683.4      0.1218408  1          0.2402614 
683.6      0.1226201  1          0.2696118 
683.8      0.1461012  1          0.3421954 
684        0.1386696  1          0.3310436 
684.2      0.1991304  1          0.2952212 
684.4      0.1650895  1          0.3497681 
684.6      0.128736   1          0.3329223 
684.8      0.1160155  1          0.2547525 
685        0.08115272 1          0.2848488 
685.2      0.06582891 1          0.3291702 
685.4      0.116929   1          0.4278546 
685.6      0.166227   1          0.4215419 
685.8      0.1503738  1          0.4215419 
686        0.1585566  1          0.4278546 
686.2      0.1510757  1          0.3670419 
686.4      0.08560065 1          0.3554779 
686.6      0.1201304  1          0.3200769 
686.8      0.0967856  1          0.2934494 
687        0.09846846 1          0.2797273 
687.2      0.146216   1          0.2746484 
687.4      0.150566   1          0.2662181 
687.6      0.09061392 1          0.2386453 
687.8      0.05286153 1          0.2612518 
688        0.07709195 1          0.2797273 
688.2      0.05171864 1          0.3039669 
688.4      0.01471284 1          0.3788009 
688.6      0.1697705  1          0.4668601 
688.8      0.1488845  1          0.4871094 
689        0.105681   1          0.5171859 
689.2      0.097147   1          0.4342204 
