~Version
 VERS              .         3.0                           : CWLS LOG ASCII STANDARD - VERSION 3.0
 WRAP              .         NO                            : ONE LINE PER DEPTH STEP
 DLM               .         SPACE                         : DELIMITING CHARACTER(SPACE TAB OR COMMA)
~Well Information
#_______________________________________________________________________________
#
#PARAMETER_NAME    .UNIT     VALUE                         : DESCRIPTION
#_______________________________________________________________________________
STRT               .M        0                             : First reference value
STOP               .M        865                           : Last reference value
STEP               .M        0.2                           : Step increment
NULL               .         -9999                         : Missing value
COMP               .         ICPetroleum                   : Company
WELL               .         305                           : Well name
FLD                .         Karatobe                      : Field
LOC                .                                       : Location
SRVC               .         LOGGING COMPANY NAME          : Service Company
CTRY               .         KZ                            : Country
DATE               .         LOG DATE                      : Service Date
LATI               .         0                             : Latitude
LONG               .         0                             : Longitude
GDAT               .         WGS 84                        : Geodetic Datum
COORDIN            .                                       : Grid System
COUNTRY            .         Kazakhstan                    : KAZAKHSTAN
COUNTRY            .         Kazakhstan                    : KAZAKHSTAN
EREF               .m        145.7                         : 
KB                 .         145.7                         : KB Elevation
ORIGINALWELLNAME   .         305                           : 
PROV               .                                       : Province
RWS                .         -999                          : Def_Rw
UWI                .         1_305                         : Unique Well Identifier (UWI)
WST                .         -999                          : Def_Rwt
X                  .km       466481.54                     : 
XCOORD             .                                       : X or East-West Coordinate
Y                  .km       5308116.56                    : 
YCOORD             .                                       : Y or North-South Coordinate
~Parameter Information Block
#_______________________________________________________________________________
#
#PARAMETER_NAME    .UNIT     VALUE                         : DESCRIPTION
#_______________________________________________________________________________
SET                .         Las                           : 
TLFamily_DEPT      .         Measured Depth                : 
TLFamily_PHI_FINAL .         Porosity                      : 
TLFamily_SW_AR     .         Water Saturation              : 
TLFamily_VSH_FINAL .         Shale Volume                  : 
~Curve Information
#_______________________________________________________________________________
#
#LOGNAME           .UNIT     LOG_ID                        : DESCRIPTION
#_______________________________________________________________________________
DEPT               .M                                      : Depth curve {F}
PHI_FINAL          .m3/m3                                  : Porosity {F}
SW_AR              .m3/m3                                  :  {F}
VSH_FINAL          .unitless                               : Vshale {F}
~Ascii
# ...
798.6      0          1          0.3747892 
798.8      0          1          0.419412  
799        0          1          0.4427143 
799.2      0          1          0.4278546 
799.4      0.02306736 1          0.4427143 
799.6      0.203832   0.9318053  0.4048907 
799.8      0.1923877  0.8767     0.3907583 
800        0.09670825 1          0.382729  
800.2      0.1060165  1          0.3767922 
800.4      0.1228944  1          0.2679126 
800.6      0.08129581 1          0.2712261 
800.8      0.06521218 1          0.2900133 
801        0          1          0.4427143 
801.2      0          1          0.7318464 
801.4      0          1          0.8504682 
801.6      0          1          0.8441376 
801.8      0          1          1         
802        0          1          1         
802.2      0          1          1         
802.4      0          1          1         
802.6      0          1          0.6385052 
802.8      0          1          0.5607891 
803        0          1          0.4427143 
803.2      0.06338903 1          0.3478416 
803.4      0.04492246 1          0.3310436 
803.6      0.08219409 1          0.4172883 
803.8      0.0806379  1          0.4492048 
804        0.01317103 1          0.503131  
804.2      0          1          0.7619237 
804.4      0          1          0.9114103 
804.6      0          1          1         
804.8      0          1          1         
805        0          1          0.6198803 
805.2      0          1          0.457983  
805.4      0.03493203 1          0.4320546 
805.6      0.06781607 1          0.3074803 
805.8      0.1004308  1          0.2729349 
806        0.04730525 1          0.2916825 
806.2      0.1221114  1          0.3219244 
806.4      0.09628046 1          0.3709048 
806.6      0.1119653  1          0.2762763 
806.8      0.06214966 1          0.2292114 
807        0.09941495 1          0.2612518 
807.2      0.05948768 1          0.2882562 
807.4      0.07800076 1          0.3092921 
807.6      0.07383531 1          0.3074803 
807.8      0.07542101 1          0.2831063 
808        0.06881383 1          0.2245534 
808.2      0.1124431  1          0.1945018 
808.4      0.1186256  1          0.2078301 
808.6      0.0304256  1          0.2662181 
808.8      0          1          0.3092921 
809        0          1          0.3807091 
809.2      0          1          0.4985393 
809.4      0.0208706  1          0.500894  
809.6      0.09645921 1          0.3926988 
809.8      0.06694748 1          0.2865041 
810        0.01482022 1          0.3111089 
810.2      0.09372467 1          0.4298949 
810.4      0          1          0.6145041 
810.6      0          1          0.9253955 
810.8      0          1          0.8246586 
811        0          1          0.4803031 
811.2      0.01207059 1          0.3074803 
811.4      0.08597373 1          0.3021703 
811.6      0.001707224 1          0.3887157 
811.8      0          1          0.649416  
812        0          1          1         
812.2      0          1          0.8408101 
812.4      0          1          0.6521994 
812.6      0          1          0.6998249 
812.8      0          1          0.457983  
813        0.02297617 1          0.2138078 
813.2      0          1          0.209278  
813.4      0.1126434  1          0.2482383 
813.6      0.1176061  1          0.2952212 
813.8      0.009298762 1          0.2969045 
814        0.06599373 1          0.3021703 
814.2      0.0490113  1          0.2498817 
814.4      0.05641356 1          0.2003314 
814.6      0.04312896 1          0.2498817 
814.8      0.0810463  1          0.2579932 
815        0          1          0.2797273 
815.2      0.03950768 1          0.2882562 
815.4      0.05344644 1          0.3004729 
815.6      0.1006801  1          0.3128349 
815.8      0.09198526 1          0.2762763 
816        0.04861767 1          0.2969045 
816.2      0.006764031 1          0.3274004 
816.4      0          1          0.6386498 
816.6      0          1          1         
816.8      0          1          0.5244296 
817        0          1          0.4916378 
817.2      0          1          0.5078733 
817.4      0          1          0.3310436 
817.6      0          1          0.2813688 
817.8      0          1          0.2813688 
818        0          1          0.2882562 
818.2      0          1          0.2848488 
818.4      0.07605544 1          0.2547525 
818.6      0.1424312  0.8764675  0.2662181 
818.8      0.1099727  1          0.3004729 
819        0.03833203 1          0.3039669 
819.2      0.0007799382 1          0.3128349 
819.4      0.04399344 1          0.3329223 
819.6      0.004619738 1          0.2779993 
819.8      0          1          0.3709048 
820        0          1          0.795876  
820.2      0          1          0.9500108 
820.4      0          1          0.9147526 
820.6      0          1          0.7466996 
820.8      0          1          0.5633208 
821        0          1          0.4172883 
821.2      0          1          0.2969045 
821.4      0          1          0.1930153 
821.6      0          1          0.1275001 
821.8      0          1          0.06573341
822        0          1          0.01138669
822.2      0          1          0.01616206
822.4      0          1          0.02105666
822.6      0.005111782 1          0.07240941
822.8      0          1          0.08498392
823        0          1          0.05379952
823.2      0          1          0.00758362
823.4      0          1          0         
823.6      0          1          0         
823.8      0          1          0.00758362
824        0          1          0.001983078
824.2      0          1          0         
824.4      0          1          0         
824.6      0          1          0         
824.8      0          1          0         
825        0          1          0         
825.2      0          1          0         
825.4      0          1          0         
825.6      0          1          0         
825.8      0          1          0         
826        0          1          0         
826.2      0          1          0         
826.4      0          1          0         
826.6      0          1          0         
826.8      0          1          0         
827        0          1          0         
827.2      0          1          0         
827.4      0          1          0         
827.6      0          1          0         
827.8      0          1          0         
828        0          1          0         
828.2      0          1          0         
828.4      0          1          0         
828.6      0          1          0         
828.8      0          1          0         
829        0          1          0         
829.2      0          1          0         
829.4      0          1          0         
829.6      0          1          0         
829.8      0          1          0         
830        0          1          0         
830.2      0          1          0         
830.4      0          1          0         
830.6      0          1          0.01138669
830.8      0.01263783 1          0.08728374
831        0.02991342 1          0.06467085
831.2      0          1          0.002926585
831.4      0          1          0         
831.6      0          1          0         
831.8      0          1          0         
832        0          1          0.01523261
832.2      0          1          0.004771637
832.4      0          1          0         
832.6      0          1          0         
832.8      0          1          0         
833        0          1          0         
833.2      0          1          0         
833.4      0          1          0         
833.6      0.0005482498 1          0         
833.8      0          1          0         
834        0.0003510589 1          0         
834.2      0.02543791 1          0         
834.4      0.001255026 1          0         
834.6      0.001504818 1          0         
834.8      0          1          0         
