~Version
 VERS              .         3.0                           : CWLS LOG ASCII STANDARD - VERSION 3.0
 WRAP              .         NO                            : ONE LINE PER DEPTH STEP
 DLM               .         SPACE                         : DELIMITING CHARACTER(SPACE TAB OR COMMA)
~Well Information
#_______________________________________________________________________________
#
#PARAMETER_NAME    .UNIT     VALUE                         : DESCRIPTION
#_______________________________________________________________________________
STRT               .M        0                             : First reference value
STOP               .M        865                           : Last reference value
STEP               .M        0.2                           : Step increment
NULL               .         -9999                         : Missing value
COMP               .         ICPetroleum                   : Company
WELL               .         305                           : Well name
FLD                .         Karatobe                      : Field
LOC                .                                       : Location
SRVC               .         LOGGING COMPANY NAME          : Service Company
CTRY               .         KZ                            : Country
DATE               .         LOG DATE                      : Service Date
LATI               .         0                             : Latitude
LONG               .         0                             : Longitude
GDAT               .         WGS 84                        : Geodetic Datum
COORDIN            .                                       : Grid System
COUNTRY            .         Kazakhstan                    : KAZAKHSTAN
COUNTRY            .         Kazakhstan                    : KAZAKHSTAN
EREF               .m        145.7                         : 
KB                 .         145.7                         : KB Elevation
ORIGINALWELLNAME   .         305                           : 
PROV               .                                       : Province
RWS                .         -999                          : Def_Rw
UWI                .         1_305                         : Unique Well Identifier (UWI)
WST                .         -999                          : Def_Rwt
X                  .km       466481.54                     : 
XCOORD             .                                       : X or East-West Coordinate
Y                  .km       5308116.56                    : 
YCOORD             .                                       : Y or North-South Coordinate
~Parameter Information Block
#_______________________________________________________________________________
#
#PARAMETER_NAME    .UNIT     VALUE                         : DESCRIPTION
#_______________________________________________________________________________
SET                .         Las                           : 
TLFamily_DEPT      .         Measured Depth                : 
TLFamily_PHI_FINAL .         Porosity                      : 
TLFamily_SW_AR     .         Water Saturation              : 
TLFamily_VSH_FINAL .         Shale Volume                  : 
~Curve Information
#_______________________________________________________________________________
#
#LOGNAME           .UNIT     LOG_ID                        : DESCRIPTION
#_______________________________________________________________________________
DEPT               .M                                      : Depth curve {F}
PHI_FINAL          .m3/m3                                  : Porosity {F}
SW_AR              .m3/m3                                  :  {F}
VSH_FINAL          .unitless                               : Vshale {F}
~Ascii
# ...
252.6      0.07789925 1          1         
252.8      0.09993797 1          1         
253        0.08693317 1          1         
253.2      0.06705309 1          1         
253.4      0.0559739  1          1         
253.6      0.07658619 1          1         
253.8      0.110214   1          0.8370515 
254        0.01765959 1          1         
254.2      0.03341207 1          0.903809  
254.4      0.02241086 1          0.8791493 
254.6      0.02692818 1          0.9302049 
254.8      0.04365835 1          0.9510506 
255        0.04023775 1          0.9444846 
255.2      0.03866699 1          0.9311739 
255.4      0.03657601 1          0.9245973 
255.6      0.03725762 1          0.9131421 
255.8      0.05460828 1          0.9112892 
256        0.07994247 1          0.8517341 
256.2      0.1161737  1          0.7268587 
256.4      0.1344974  1          0.6748317 
256.6      0.1419831  1          0.6738797 
256.8      0.09938531 1          0.7316064 
257        0.02023363 1          0.9548013 
257.2      0.02416529 1          1         
257.4      0.04675343 1          0.9481755 
257.6      0.1162439  1          0.8384897 
257.8      0.1259091  1          0.8744747 
258        0.1053858  1          0.8961653 
258.2      0.08110812 1          0.9548013 
258.4      0.08321051 1          0.9566895 
258.6      0.06265435 1          0.9282736 
258.8      0.102419   1          0.889537  
259        0.08866776 1          0.7770014 
259.2      0.04984152 1          0.8242853 
259.4      0.08527994 1          0.8697134 
259.6      0.07937324 1          0.8687399 
259.8      0.09956293 1          0.8933537 
260        0.1022967  1          0.9255531 
260.2      0.1045232  1          0.9368726 
260.4      0.0849361  1          0.9302049 
260.6      0.09074765 1          0.8734899 
260.8      0.06436194 1          0.8071938 
261        0.05624196 1          0.7845138 
261.2      0.01379389 1          0.7788945 
261.4      0.00428219 1          0.8147972 
261.6      0.02641261 1          0.8677688 
261.8      0.09314333 1          0.8725075 
262        0.09888252 1          0.8478873 
262.2      0.1133047  1          0.7911298 
262.4      0.1147652  1          0.7248965 
262.6      0.1772579  0.9479485  0.6237323 
262.8      0.2114728  0.7145653  0.5309796 
263        0.2170668  0.6872994  0.5196595 
263.2      0.2177553  0.6659601  0.4969575 
263.4      0.2209217  0.6576723  0.4978577 
263.6      0.2213539  0.6455961  0.4846125 
263.8      0.2356402  0.5856951  0.4543431 
264        0.1934572  0.7663924  0.5196595 
264.2      0.1896882  0.7995216  0.5385582 
264.4      0.183097   0.7987527  0.5111367 
264.6      0.2050548  0.6932272  0.4836864 
264.8      0.217694   0.6749244  0.5073729 
265        0.1928348  0.8137336  0.5650793 
265.2      0.2118872  0.7372878  0.5574558 
265.4      0.2155788  0.6958967  0.5243784 
265.6      0.181589   0.9330263  0.629356  
265.8      0.1538511  1          0.6682137 
266        0.1680528  0.9191489  0.5584337 
266.2      0.1237031  0.9452589  0.3512488 
266.4      0.05093137 1          0.5839467 
266.6      0.1632282  0.9697081  0.579251  
266.8      0.2222168  0.6363875  0.4761384 
267        0.2344001  0.5907481  0.4571899 
267.2      0.1741901  0.9637336  0.6237323 
267.4      0.1788886  0.8840001  0.5745404 
267.6      0.2642312  0.4588338  0.3474428 
267.8      0.3057954  0.3368279  0.2140513 
268        0.3455469  0.274175   0.1440632 
268.2      0.3300962  0.3293484  0.2528643 
268.4      0.2985608  0.4004589  0.3313582 
268.6      0.3452882  0.2593606  0.1005286 
268.8      0.2753218  0.1911178  0         
269        0.1125453  0.5015711  0         
269.2      0.02433971 1          0.237727  
269.4      0.1126271  1          0.3645083 
269.6      0.2318262  0.5416735  0.3805741 
269.8      0.2894304  0.3830533  0.2736731 
270        0.2965206  0.3771057  0.2793254 
270.2      0.2934308  0.3845783  0.2869062 
270.4      0.2948951  0.3818494  0.285023  
270.6      0.2992804  0.3702192  0.2717845 
270.8      0.3478535  0.29421    0.2036546 
271        0.3358263  0.3105268  0.2197362 
271.2      0.298483   0.3734003  0.2764895 
271.4      0.2879155  0.3849595  0.2736731 
271.6      0.2882929  0.3798498  0.26422   
271.8      0.2802855  0.3977366  0.2793254 
272        0.2784147  0.384086   0.2471643 
272.2      0.2932845  0.3560008  0.2263726 
272.4      0.3143701  0.3249576  0.2064994 
272.6      0.3260164  0.3182006  0.2169123 
272.8      0.2953892  0.3868331  0.2963848 
273        0.3066704  0.3600235  0.2680009 
273.2      0.3271348  0.320264   0.2244572 
273.4      0.3288074  0.2962614  0.1677048 
273.6      0.3114022  0.3467527  0.2500198 
273.8      0.287571   0.3934163  0.2897472 
274        0.283255   0.4214247  0.3323359 
274.2      0.267723   0.4559266  0.3521959 
274.4      0.2339808  0.6010336  0.4695144 
274.6      0.2372666  0.5839946  0.4571899 
274.8      0.2668715  0.4639586  0.3635324 
275        0.211499   0.6534488  0.4600567 
275.2      0.1912911  0.8454939  0.5896814 
275.4      0.1660471  1          0.6246515 
275.6      0.1631     0.9946972  0.5990846 
275.8      0.0921693  1          0.8365586 
276        0.0934338  1          0.8630841 
276.2      0.08944359 1          0.8232893 
276.4      0.1044798  1          0.7911298 
276.6      0.08291771 1          0.8025566 
276.8      0.09257562 1          0.7684253 
277        0.1145402  1          0.6890239 
277.2      0.1131197  1          0.7107554 
277.4      0.08688382 1          0.8328507 
277.6      0.09379235 1          0.9444846 
277.8      0.08243105 1          1         
278        0.0470739  1          1         
278.2      0.03190675 1          1         
278.4      0.0252131  1          1         
278.6      0.04159133 1          1         
278.8      0.112858   1          0.8714194 
279        0.1482405  1          0.853812  
279.2      0.1072558  1          0.9245127 
279.4      0.1202594  1          0.9182609 
279.6      0.1162685  1          0.8305318 
279.8      0.1245989  1          0.7866161 
280        0.1203276  1          0.824276  
280.2      0.151993   1          0.6865108 
280.4      0.1033856  1          0.8072615 
280.6      0.01297493 1          1         
280.8      0.06579376 1          0.8454807 
281        0.100406   1          0.7848952 
281.2      0.04971265 1          0.8448509 
281.4      0.09807868 1          0.8112981 
281.6      0.1419318  1          0.7133614 
281.8      0.1469056  1          0.6525227 
282        0.06649174 1          0.8435937 
282.2      0.1082043  1          0.7781184 
282.4      0.203124   1          0.5797833 
282.6      0.1877567  1          0.5959672 
282.8      0.0775912  1          0.8535515 
283        0.02130924 1          1         
283.2      0.1382644  1          0.6781917 
283.4      0.2182339  0.9931953  0.5031805 
283.6      0.1971694  1          0.4785698 
283.8      0.1594606  1          0.5062994 
284        0.1517876  1          0.5741668 
284.2      0.189146   1          0.5059756 
284.4      0.1180792  1          0.724403  
284.6      0.02329598 1          1         
284.8      0.02862184 1          1         
285        0.04887221 1          0.9085257 
285.2      0.1663605  1          0.5811759 
285.4      0.1680122  1          0.5267983 
285.6      0.1249525  1          0.6221355 
285.8      0.1651183  1          0.4535923 
286        0.1496328  1          0.3354354 
286.2      0.1661906  1          0.2809389 
286.4      0.222238   1          0.2786258 
286.6      0.3125243  0.8558615  0.3301585 
286.8      0.3122776  0.8380384  0.4627223 
287        0.1894263  1          0.6293911 
287.2      0.1812654  1          0.5402544 
287.4      0.2336887  0.8947008  0.4757232 
287.6      0.1243279  1          0.4926836 
287.8      0.1724363  1          0.3826686 
288        0.2370249  0.8888215  0.3605937 
288.2      0.2742282  0.7405528  0.3051516 
288.4      0.2250834  0.9292105  0.4715523 
288.6      0.1878841  1          0.4919049 
288.8      0.2632942  0.7291172  0.370937  
