~Version
 VERS              .         3.0                           : CWLS LOG ASCII STANDARD - VERSION 3.0
 WRAP              .         NO                            : ONE LINE PER DEPTH STEP
 DLM               .         SPACE                         : DELIMITING CHARACTER(SPACE TAB OR COMMA)
~Well Information
#_______________________________________________________________________________
#
#PARAMETER_NAME    .UNIT     VALUE                         : DESCRIPTION
#_______________________________________________________________________________
STRT               .M        0                             : First reference value
STOP               .M        865                           : Last reference value
STEP               .M        0.2                           : Step increment
NULL               .         -9999                         : Missing value
COMP               .         ICPetroleum                   : Company
WELL               .         305                           : Well name
FLD                .         Karatobe                      : Field
LOC                .                                       : Location
SRVC               .         LOGGING COMPANY NAME          : Service Company
CTRY               .         KZ                            : Country
DATE               .         LOG DATE                      : Service Date
LATI               .         0                             : Latitude
LONG               .         0                             : Longitude
GDAT               .         WGS 84                        : Geodetic Datum
COORDIN            .                                       : Grid System
COUNTRY            .         Kazakhstan                    : KAZAKHSTAN
COUNTRY            .         Kazakhstan                    : KAZAKHSTAN
EREF               .m        145.7                         : 
KB                 .         145.7                         : KB Elevation
ORIGINALWELLNAME   .         305                           : 
PROV               .                                       : Province
RWS                .         -999                          : Def_Rw
UWI                .         1_305                         : Unique Well Identifier (UWI)
WST                .         -999                          : Def_Rwt
X                  .km       466481.54                     : 
XCOORD             .                                       : X or East-West Coordinate
Y                  .km       5308116.56                    : 
YCOORD             .                                       : Y or North-South Coordinate
~Parameter Information Block
#_______________________________________________________________________________
#
#PARAMETER_NAME    .UNIT     VALUE                         : DESCRIPTION
#_______________________________________________________________________________
SET                .         Las                           : 
TLFamily_DEPT      .         Measured Depth                : 
TLFamily_PHI_FINAL .         Porosity                      : 
TLFamily_SW_AR     .         Water Saturation              : 
TLFamily_VSH_FINAL .         Shale Volume                  : 
~Curve Information
#_______________________________________________________________________________
#
#LOGNAME           .UNIT     LOG_ID                        : DESCRIPTION
#_______________________________________________________________________________
DEPT               .M                                      : Depth curve {F}
PHI_FINAL          .m3/m3                                  : Porosity {F}
SW_AR              .m3/m3                                  :  {F}
VSH_FINAL          .unitless                               : Vshale {F}
~Ascii
# ...
689.4      0.1507915  1          0.3630967 
689.6      0.1670312  1          0.3146619 
689.8      0.1362728  1          0.3459206 
690        0.1203778  1          0.3612357 
690.2      0.1194204  1          0.3384907 
690.4      0.1485918  1          0.3274004 
690.6      0.1317695  1          0.2865041 
690.8      0.178533   1          0.2646173 
691        0.1658062  1          0.2848488 
691.2      0.172753   1          0.2729349 
691.4      0.1646309  1          0.3004729 
691.6      0.1668407  1          0.2986861 
691.8      0.1586057  1          0.3092921 
692        0.1491437  1          0.316494  
692.2      0.1508045  1          0.3021703 
692.4      0.1172799  1          0.3057686 
692.6      0.1381076  1          0.3421954 
692.8      0.1305397  1          0.3670419 
693        0.1233859  1          0.3689185 
693.2      0.1315024  1          0.3329223 
693.4      0.1519664  1          0.2969045 
693.6      0.1592958  1          0.2986861 
693.8      0.1535833  1          0.2813688 
694        0.1712887  1          0.2969045 
694.2      0.1714832  1          0.3057686 
694.4      0.1680298  1          0.2916825 
694.6      0.1570469  1          0.3004729 
694.8      0.1655851  1          0.2696118 
695        0.1900986  1          0.2882562 
695.2      0.1917558  1          0.2746484 
695.4      0.1627373  1          0.3111089 
695.6      0.1444622  1          0.3310436 
695.8      0.1588107  1          0.316494  
696        0.1666628  1          0.3074803 
696.2      0.1619913  1          0.316494  
696.4      0.1976565  1          0.2530954 
696.6      0.1989603  1          0.2629321 
696.8      0.2155553  1          0.2229818 
697        0.2213401  1          0.2153533 
697.2      0.2045797  1          0.2547525 
697.4      0.1910726  1          0.2547525 
697.6      0.1855896  1          0.2530954 
697.8      0.1687304  1          0.3074803 
698        0.1295469  1          0.3310436 
698.2      0.1496621  1          0.2579932 
698.4      0.03531691 1          0.2563268 
698.6      0          1          0.3968125 
698.8      0.1175998  1          0.4939729 
699        0.1531443  1          0.4215419 
699.2      0.08248986 1          0.4320546 
699.4      0.1113977  1          0.4257069 
699.6      0.145317   1          0.4090738 
699.8      0.02732565 1          0.5149112 
700        0          1          0.6014745 
700.2      0.1186051  1          0.5243019 
700.4      0.1706862  1          0.3887157 
700.6      0.1343172  1          0.3478416 
700.8      0.184261   1          0.3421954 
701        0.1852762  1          0.3497681 
701.2      0.1186701  1          0.3670419 
701.4      0.1640468  1          0.3478416 
701.6      0.1377469  1          0.4111742 
701.8      0.1029819  1          0.4757169 
702        0.1252784  1          0.3592768 
702.2      0.1499392  1          0.316494  
702.4      0.1441329  1          0.2969045 
702.6      0.1676843  1          0.2969045 
702.8      0.1507604  1          0.3057686 
703        0.1540659  1          0.3689185 
703.2      0.1405134  1          0.3689185 
703.4      0.1618137  1          0.3219244 
703.6      0.1285081  1          0.4152817 
703.8      0.1169995  1          0.457983  
704        0.1575719  1          0.3670419 
704.2      0.1494492  1          0.3573234 
704.4      0.1690535  1          0.3111089 
704.6      0.1800611  1          0.2813688 
704.8      0.1878463  1          0.2482383 
705        0.1645999  1          0.2629321 
705.2      0.124524   1          0.2646173 
705.4      0.04642992 1          0.3146619 
705.6      0.1545266  1          0.3384907 
705.8      0.1494151  1          0.382729  
706        0.1575803  1          0.3592768 
706.2      0.1754116  1          0.3255373 
706.4      0.1671483  1          0.2916825 
706.6      0.1769394  1          0.2729349 
706.8      0.1747629  1          0.2746484 
707        0.1798881  1          0.2530954 
707.2      0.1560421  1          0.3039669 
707.4      0.1436287  1          0.3441058 
707.6      0.1584148  1          0.3807091 
707.8      0.1489729  1          0.382729  
708        0.150199   1          0.3630967 
708.2      0.1498297  1          0.3459206 
708.4      0.1662728  1          0.316494  
708.6      0.1609529  1          0.3384907 
708.8      0.05759248 1          0.3728968 
709        0.03079716 1          0.3866789 
709.2      0.1058634  1          0.4235652 
709.4      0.1582337  1          0.4406396 
709.6      0.1465815  1          0.457983  
709.8      0.1061089  1          0.45575   
710        0.1603177  1          0.382729  
710.2      0.1690399  1          0.3592768 
710.4      0.1751069  1          0.3274004 
710.6      0.1860546  1          0.3021703 
710.8      0.2033311  1          0.2934494 
711        0.1855695  1          0.3554779 
711.2      0.15497    1          0.3987692 
711.4      0.08797299 1          0.419412  
711.6      0.1228299  1          0.3847547 
711.8      0.1386104  1          0.3747892 
712        0.1102212  1          0.3497681 
712.2      0.07196421 1          0.3709048 
712.4      0          1          0.4152817 
712.6      0.1184073  1          0.46235   
712.8      0.1377553  1          0.4602225 
713        0.152329   1          0.3807091 
713.2      0.1356027  1          0.3384907 
713.4      0.1280216  1          0.3807091 
713.6      0.1412347  1          0.3650665 
713.8      0.1546835  1          0.3365962 
714        0.1593758  1          0.3689185 
714.2      0.1454151  1          0.4048907 
714.4      0.176488   1          0.3554779 
714.6      0.2062515  0.918564   0.2762763 
714.8      0.2315958  0.8043268  0.2276267 
715        0.2182809  0.9200263  0.2386453 
715.2      0.1901505  1          0.3039669 
715.4      0.169243   1          0.3573234 
715.6      0.1815343  1          0.3573234 
715.8      0.1803934  1          0.3535353 
716        0.1945275  1          0.3478416 
716.2      0.1816304  1          0.3236796 
716.4      0.1406401  1          0.3128349 
716.6      0.194121   1          0.3573234 
716.8      0.1772887  1          0.4449104 
717        0.132871   1          0.4780067 
717.2      0.121357   1          0.4985393 
717.4      0.09028088 1          0.4235652 
717.6      0.1489729  1          0.3767922 
717.8      0.09488975 1          0.4298949 
718        0.1041459  1          0.3728968 
718.2      0.1196229  1          0.4090738 
718.4      0.1449791  1          0.4362778 
718.6      0.09921439 1          0.4492048 
718.8      0.1062862  1          0.4780067 
719        0.116493   1          0.4961912 
719.2      0.1311128  1          0.5387139 
719.4      0.1183171  1          0.4780067 
719.6      0.08106746 1          0.4048907 
719.8      0.1576494  1          0.419412  
720        0.160706   1          0.4172883 
720.2      0.1672015  1          0.3709048 
720.4      0.1594022  1          0.3926988 
720.6      0.1346438  1          0.3689185 
720.8      0.0553573  1          0.3236796 
721        0.1109392  1          0.3728968 
721.2      0.1293911  1          0.4110635 
721.4      0.1262601  1          0.3612357 
721.6      0.05006332 1          0.3747892 
721.8      0.07101113 1          0.4536402 
722        0.1584364  1          0.3866789 
722.2      0.09632698 1          0.3535353 
722.4      0.1085041  1          0.3236796 
722.6      0.0711239  1          0.3926988 
722.8      0.09695563 1          0.4514194 
723        0.01888742 1          0.4803031 
723.2      0.06272714 1          0.4029175 
723.4      0.1510023  1          0.3767922 
723.6      0.04381721 1          0.4215419 
723.8      0.1037441  1          0.4427143 
724        0.03222387 1          0.4646019 
724.2      0          1          0.4514194 
724.4      0.04443951 1          0.4803031 
724.6      0.1855043  1          0.4320546 
724.8      0.1575738  1          0.3987692 
725        0.1233105  1          0.4939729 
725.2      0.1503292  1          0.4690055 
725.4      0.1579399  1          0.45575   
725.6      0.1201568  1          0.4847938 
