~Version
 VERS              .         3.0                           : CWLS LOG ASCII STANDARD - VERSION 3.0
 WRAP              .         NO                            : ONE LINE PER DEPTH STEP
 DLM               .         SPACE                         : DELIMITING CHARACTER(SPACE TAB OR COMMA)
~Well Information
#_______________________________________________________________________________
#
#PARAMETER_NAME    .UNIT     VALUE                         : DESCRIPTION
#_______________________________________________________________________________
STRT               .M        0                             : First reference value
STOP               .M        865                           : Last reference value
STEP               .M        0.2                           : Step increment
NULL               .         -9999                         : Missing value
COMP               .         ICPetroleum                   : Company
WELL               .         305                           : Well name
FLD                .         Karatobe                      : Field
LOC                .                                       : Location
SRVC               .         LOGGING COMPANY NAME          : Service Company
CTRY               .         KZ                            : Country
DATE               .         LOG DATE                      : Service Date
LATI               .         0                             : Latitude
LONG               .         0                             : Longitude
GDAT               .         WGS 84                        : Geodetic Datum
COORDIN            .                                       : Grid System
COUNTRY            .         Kazakhstan                    : KAZAKHSTAN
COUNTRY            .         Kazakhstan                    : KAZAKHSTAN
EREF               .m        145.7                         : 
KB                 .         145.7                         : KB Elevation
ORIGINALWELLNAME   .         305                           : 
PROV               .                                       : Province
RWS                .         -999                          : Def_Rw
UWI                .         1_305                         : Unique Well Identifier (UWI)
WST                .         -999                          : Def_Rwt
X                  .km       466481.54                     : 
XCOORD             .                                       : X or East-West Coordinate
Y                  .km       5308116.56                    : 
YCOORD             .                                       : Y or North-South Coordinate
~Parameter Information Block
#_______________________________________________________________________________
#
#PARAMETER_NAME    .UNIT     VALUE                         : DESCRIPTION
#_______________________________________________________________________________
SET                .         Las                           : 
TLFamily_DEPT      .         Measured Depth                : 
TLFamily_PHI_FINAL .         Porosity                      : 
TLFamily_SW_AR     .         Water Saturation              : 
TLFamily_VSH_FINAL .         Shale Volume                  : 
~Curve Information
#_______________________________________________________________________________
#
#LOGNAME           .UNIT     LOG_ID                        : DESCRIPTION
#_______________________________________________________________________________
DEPT               .M                                      : Depth curve {F}
PHI_FINAL          .m3/m3                                  : Porosity {F}
SW_AR              .m3/m3                                  :  {F}
VSH_FINAL          .unitless                               : Vshale {F}
~Ascii
# ...
361.8      0.06164997 1          0.9200066 
362        0.01980583 1          1         
362.2      0.06339173 1          0.8796636 
362.4      0.1259262  1          0.6641564 
362.6      0.1207907  1          0.7173346 
362.8      0.1375972  1          0.7262695 
363        0.1266412  1          0.7353022 
363.2      0.1767941  1          0.6173874 
363.4      0.2765435  0.6944115  0.4302708 
363.6      0.3164197  0.6670898  0.3539262 
363.8      0.2778344  0.8240736  0.4360623 
364        0.294044   0.95259    0.4097704 
364.2      0.2625793  0.9776555  0.3663217 
364.4      0.2132979  1          0.4662529 
364.6      0.1879987  1          0.5438316 
364.8      0.2102329  1          0.5086125 
365        0.2228309  1          0.4884189 
365.2      0.2314699  1          0.4563281 
365.4      0.227775   1          0.4440566 
365.6      0.176413   1          0.5357164 
365.8      0.2032551  1          0.4652902 
366        0.1709741  1          0.5179502 
366.2      0.1082971  1          0.6729382 
366.4      0.1322214  1          0.7843244 
366.6      0.1989222  1          0.7125407 
366.8      0.1824612  1          0.7030668 
367        0.1041678  1          0.8452731 
367.2      0.1493352  1          0.7442221 
367.4      0.08233877 1          0.8607799 
367.6      0.1098296  1          0.813015  
367.8      0.1444771  1          0.7872382 
368        0.1058052  1          0.8598688 
368.2      0.0848732  1          0.9322849 
368.4      0.13617    1          0.827408  
368.6      0.1757854  1          0.6574493 
368.8      0.09592988 1          0.8694132 
369        0.05391363 1          1         
369.2      0.1262634  1          0.8003986 
369.4      0.1507361  1          0.7229484 
369.6      0.1432474  1          0.7043772 
369.8      0.1535541  1          0.7409581 
370        0.1071734  1          0.8198269 
370.2      0.1625249  1          0.690279  
370.4      0.1346973  1          0.8140155 
370.6      0.09975717 1          0.8941213 
370.8      0.1878415  1          0.7075652 
371        0.2199334  1          0.6423254 
371.2      0.1124237  1          0.8441751 
371.4      0.0825844  1          0.8492921 
371.6      0.1092137  1          0.7773615 
371.8      0.07118081 1          0.859318  
372        0.1840679  1          0.5893306 
372.2      0.244527   1          0.4548035 
372.4      0.2393522  1          0.4671635 
372.6      0.2564813  1          0.3829133 
372.8      0.2426771  1          0.3570216 
373        0.1391686  1          0.5510471 
373.2      0.1098484  1          0.7183674 
373.4      0.1198263  1          0.7319763 
373.6      0.09205844 1          0.8046169 
373.8      0.08679279 1          0.8352743 
374        0.1451112  1          0.7357361 
374.2      0.1526168  1          0.7035803 
374.4      0.1535328  1          0.7076879 
374.6      0.1344866  1          0.6510673 
374.8      0.0881974  1          0.8078442 
375        0.1254855  1          0.7534634 
375.2      0.1393277  1          0.7438043 
375.4      0.1637125  1          0.629458  
375.6      0.1463742  1          0.6797218 
375.8      0.1460903  1          0.5934236 
376        0.1185892  1          0.6792763 
376.2      0.1460984  1          0.6534214 
376.4      0.1822595  1          0.5701331 
376.6      0.1572889  1          0.6282489 
376.8      0.06465555 1          0.7184659 
377        0.07648282 1          0.7415555 
377.2      0.08372231 1          0.7894672 
377.4      0.07449423 1          0.9000607 
377.6      0.1129445  1          0.866716  
377.8      0.1317234  1          0.8189642 
378        0.1555699  1          0.803405  
378.2      0.08261522 1          0.9273461 
378.4      0.02849033 1          1         
378.6      0.05450378 1          0.9322406 
378.8      0.06889623 1          0.8868216 
379        0.09137949 1          0.8700938 
379.2      0.1091777  1          0.8861951 
379.4      0.04715727 1          1         
379.6      0.03033435 1          1         
379.8      0.08545208 1          0.8852566 
380        0.1629848  0.9439314  0.7102913 
380.2      0.05914753 1          1         
380.4      0.03401354 1          0.9586457 
380.6      0.03859856 1          0.9347808 
380.8      0.07957426 1          0.8512771 
381        0.1779122  1          0.6781392 
381.2      0.1683804  1          0.6693935 
381.4      0.0756147  1          0.8346087 
381.6      0.0248223  1          1         
381.8      0.0146589  1          1         
382        0.01564492 1          1         
382.2      0.09087803 1          0.8027461 
382.4      0.1572011  1          0.7210607 
382.6      0.1116511  1          0.8646172 
382.8      0.1082677  1          0.8537135 
383        0.1398088  1          0.7294335 
383.2      0.1392096  1          0.6713397 
383.4      0.04189951 1          0.9475067 
383.6      0.02589215 1          0.9531342 
383.8      0.03958948 1          0.8628044 
384        0.1116451  1          0.7191488 
384.2      0.1450628  1          0.7753973 
384.4      0.1950476  1          0.7416485 
384.6      0.123078   1          0.9110625 
384.8      0.1428514  1          0.7991827 
385        0.1243889  1          0.7989097 
385.2      0.1306854  1          0.7267684 
385.4      0.1750061  1          0.5733088 
385.6      0.170703   1          0.6074657 
385.8      0.1161283  1          0.7683753 
386        0.1656906  1          0.6392279 
386.2      0.1598106  1          0.5472369 
386.4      0.1712183  1          0.5836543 
386.6      0.1453072  1          0.6425666 
386.8      0.1460692  1          0.6103034 
387        0.13543    1          0.6889126 
387.2      0.205433   1          0.5358025 
387.4      0.2140295  1          0.4916919 
387.6      0.1962536  1          0.5215717 
387.8      0.1816175  0.9156088  0.4416234 
388        0.05074027 1          0.3697871 
388.2      0.03560846 1          0.2268335 
388.4      0.05686938 1          0.2448425 
388.6      0.127582   1          0.1967452 
388.8      0.2003272  0.8878676  0.2881831 
389        0.2394007  0.7886211  0.409323  
389.2      0.2820825  0.7479591  0.3590292 
389.4      0.2707015  0.8082706  0.3768181 
389.6      0.2306401  0.9938323  0.5165468 
389.8      0.1865407  1          0.6232853 
390        0.1940905  1          0.5162375 
390.2      0.2184396  1          0.4581491 
390.4      0.1646775  1          0.5991732 
390.6      0.126759   1          0.7293413 
390.8      0.1706156  1          0.5796798 
391        0.2895875  0.8864096  0.3507509 
391.2      0.2156996  1          0.4637365 
391.4      0.1478231  1          0.6970915 
391.6      0.1424592  1          0.7515231 
391.8      0.2109311  1          0.535443  
392        0.1991237  1          0.5216019 
392.2      0.1575256  1          0.6451651 
392.4      0.135244   1          0.661425  
392.6      0.1804667  1          0.5489591 
392.8      0.1742754  1          0.5743036 
393        0.06876972 1          0.8080813 
393.2      0.07013758 1          0.8331885 
393.4      0.1123411  1          0.7306256 
393.6      0.1643173  1          0.5771748 
393.8      0.211498   1          0.4619947 
394        0.2132951  1          0.4869343 
394.2      0.1561112  1          0.4867914 
394.4      0.1175254  1          0.3516525 
394.6      0.05241795 1          0.2430307 
394.8      0.04282722 1          0.177181  
395        0.1572784  1          0.2521902 
395.2      0.14436    1          0.4671691 
395.4      0.1524287  1          0.5536945 
395.6      0.1608296  1          0.5255517 
395.8      0.1302709  1          0.5393124 
396        0.1556083  1          0.5976465 
396.2      0.1392565  1          0.7003476 
396.4      0.126326   1          0.6571915 
396.6      0.1445204  1          0.6612313 
396.8      0.1581419  1          0.6322154 
397        0.1300825  1          0.6863406 
397.2      0.1253173  1          0.4814157 
397.4      0.1439808  1          0.2629401 
397.6      0.1971661  1          0.3429137 
397.8      0.1787531  1          0.5482446 
398        0.1740325  1          0.6112956 
