~Version
 VERS              .         3.0                           : CWLS LOG ASCII STANDARD - VERSION 3.0
 WRAP              .         NO                            : ONE LINE PER DEPTH STEP
 DLM               .         SPACE                         : DELIMITING CHARACTER(SPACE TAB OR COMMA)
~Well Information
#_______________________________________________________________________________
#
#PARAMETER_NAME    .UNIT     VALUE                         : DESCRIPTION
#_______________________________________________________________________________
STRT               .M        0                             : First reference value
STOP               .M        865                           : Last reference value
STEP               .M        0.2                           : Step increment
NULL               .         -9999                         : Missing value
COMP               .         ICPetroleum                   : Company
WELL               .         305                           : Well name
FLD                .         Karatobe                      : Field
LOC                .                                       : Location
SRVC               .         LOGGING COMPANY NAME          : Service Company
CTRY               .         KZ                            : Country
DATE               .         LOG DATE                      : Service Date
LATI               .         0                             : Latitude
LONG               .         0                             : Longitude
GDAT               .         WGS 84                        : Geodetic Datum
COORDIN            .                                       : Grid System
COUNTRY            .         Kazakhstan                    : KAZAKHSTAN
COUNTRY            .         Kazakhstan                    : KAZAKHSTAN
EREF               .m        145.7                         : 
KB                 .         145.7                         : KB Elevation
ORIGINALWELLNAME   .         305                           : 
PROV               .                                       : Province
RWS                .         -999                          : Def_Rw
UWI                .         1_305                         : Unique Well Identifier (UWI)
WST                .         -999                          : Def_Rwt
X                  .km       466481.54                     : 
XCOORD             .                                       : X or East-West Coordinate
Y                  .km       5308116.56                    : 
YCOORD             .                                       : Y or North-South Coordinate
~Parameter Information Block
#_______________________________________________________________________________
#
#PARAMETER_NAME    .UNIT     VALUE                         : DESCRIPTION
#_______________________________________________________________________________
SET                .         Las                           : 
TLFamily_DEPT      .         Measured Depth                : 
TLFamily_PHI_FINAL .         Porosity                      : 
TLFamily_SW_AR     .         Water Saturation              : 
TLFamily_VSH_FINAL .         Shale Volume                  : 
~Curve Information
#_______________________________________________________________________________
#
#LOGNAME           .UNIT     LOG_ID                        : DESCRIPTION
#_______________________________________________________________________________
DEPT               .M                                      : Depth curve {F}
PHI_FINAL          .m3/m3                                  : Porosity {F}
SW_AR              .m3/m3                                  :  {F}
VSH_FINAL          .unitless                               : Vshale {F}
~Ascii
# ...
289        0.2880502  0.726603   0.3048171 
289.2      0.2609223  0.799716   0.3625621 
289.4      0.2243969  0.9212085  0.4576964 
289.6      0.2061275  1          0.4413418 
289.8      0.1990699  1          0.447699  
290        0.1923071  1          0.4943601 
290.2      0.146244   1          0.5884382 
290.4      0.1563463  1          0.5800341 
290.6      0.07583208 1          0.7021306 
290.8      0.06039343 1          0.7609074 
291        0.1356288  1          0.5794577 
291.2      0.102071   1          0.7861279 
291.4      0.08224803 1          0.8400351 
291.6      0.08799017 1          0.700901  
291.8      0.1497498  1          0.6284134 
292        0.150939   1          0.6501539 
292.2      0.1988961  0.968425   0.5210603 
292.4      0.1868427  0.9957584  0.5742798 
292.6      0.2245711  0.7490268  0.4854936 
292.8      0.2508063  0.7045239  0.4487294 
293        0.256788   0.7889603  0.4422728 
293.2      0.2298583  0.9307622  0.4987838 
293.4      0.216118   0.9557258  0.520059  
293.6      0.2305012  0.9210123  0.4915592 
293.8      0.2187648  1          0.4811075 
294        0.1820636  1          0.5456003 
294.2      0.1486784  1          0.6432421 
294.4      0.2103594  1          0.4944722 
294.6      0.2072449  0.995474   0.5681939 
294.8      0.2045645  0.9549573  0.5298738 
295        0.2183765  0.8813029  0.5522562 
295.2      0.2344442  0.8317358  0.4903231 
295.4      0.2551661  0.7588923  0.4281375 
295.6      0.2246473  0.8560743  0.4730783 
295.8      0.2354577  0.8207036  0.5145866 
296        0.2641311  0.7594104  0.4530665 
296.2      0.230183   0.8502252  0.4215647 
296.4      0.1951841  0.9891858  0.3977767 
296.6      0.2075931  0.9182082  0.3947242 
296.8      0.2717701  0.7133493  0.37486   
297        0.2766821  0.6789295  0.3775631 
297.2      0.2777427  0.6820471  0.3973076 
297.4      0.2859564  0.661184   0.3857255 
297.6      0.3109164  0.6599158  0.3201577 
297.8      0.3170005  0.7572549  0.3128636 
298        0.2545609  0.9968485  0.42959   
298.2      0.1603932  1          0.5571766 
298.4      0.1059492  1          0.4418536 
298.6      0.0626085  1          0.5266508 
298.8      0.1448618  1          0.5760699 
299        0.1608662  1          0.6644793 
299.2      0.1219997  1          0.7105997 
299.4      0.1772148  1          0.5874746 
299.6      0.1718493  1          0.6245046 
299.8      0.1650548  1          0.6547356 
300        0.1411259  1          0.658794  
300.2      0.2277229  1          0.496844  
300.4      0.2213857  1          0.5179438 
300.6      0.1941214  1          0.5783963 
300.8      0.1820869  1          0.6189446 
301        0.2265446  0.9928739  0.4926932 
301.2      0.2600009  0.8873317  0.4525651 
301.4      0.2679424  0.8751485  0.4182951 
301.6      0.2631423  0.9111843  0.4333701 
301.8      0.2640494  0.9317616  0.4302631 
302        0.2513748  0.9967393  0.4750029 
302.2      0.2821629  0.9015272  0.4058784 
302.4      0.2727498  0.9136142  0.3884938 
302.6      0.2355305  1          0.4711707 
302.8      0.2261362  1          0.4710252 
303        0.2570485  0.9358957  0.4083862 
303.2      0.2631201  0.9215229  0.3553686 
303.4      0.2898828  0.8370836  0.3397972 
303.6      0.2666814  0.9179903  0.4080237 
303.8      0.2395726  1          0.4637702 
304        0.247623   0.9977     0.4475634 
304.2      0.2491035  1          0.4442052 
304.4      0.2652956  1          0.4378543 
304.6      0.2662321  0.9777259  0.4132729 
304.8      0.2283488  1          0.4695735 
305        0.1615354  1          0.6622236 
305.2      0.2016459  1          0.6061832 
305.4      0.2483313  0.9918568  0.4893143 
305.6      0.1846668  1          0.6353035 
305.8      0.1957021  1          0.5772812 
306        0.1999067  1          0.5538325 
306.2      0.1516692  1          0.6833579 
306.4      0.1657981  1          0.6429984 
306.6      0.09656069 1          0.8064028 
306.8      0.05143395 1          0.9369944 
307        0.02811561 1          1         
307.2      0.04418084 1          1         
307.4      0.0357309  1          1         
307.6      0.0327061  1          1         
307.8      0.02781487 1          1         
308        0.03819314 1          1         
308.2      0.04432185 1          1         
308.4      0.03144202 1          1         
308.6      0.03558614 1          1         
308.8      0.03991947 1          1         
309        0.03888364 1          1         
309.2      0.04667278 1          1         
309.4      0.03207031 1          1         
309.6      0.03804882 1          1         
309.8      0.02990117 1          1         
310        0.03027045 1          1         
310.2      0.03505088 1          1         
310.4      0.05838662 1          0.9066845 
310.6      0.09748533 1          0.8272445 
310.8      0.08220136 1          0.8543648 
311        0.03022366 1          0.9789494 
311.2      0.1167604  1          0.7841151 
311.4      0.1710025  1          0.6248404 
311.6      0.1589871  1          0.6590849 
311.8      0.2044285  1          0.571655  
312        0.2089387  1          0.556202  
312.2      0.2820596  0.8504286  0.3747586 
312.4      0.2722405  0.9062243  0.4295052 
312.6      0.240591   1          0.4386076 
312.8      0.2600763  0.9410608  0.4171463 
313        0.2180515  1          0.5364643 
313.2      0.1969251  1          0.5512746 
313.4      0.2310155  1          0.4570144 
313.6      0.2422205  1          0.4731123 
313.8      0.2657889  0.916728   0.3849488 
314        0.2623132  0.9129448  0.398904  
314.2      0.2862554  0.8499963  0.3525206 
314.4      0.2902688  0.8276598  0.334631  
314.6      0.2747499  0.8796933  0.3654056 
314.8      0.2921368  0.8338001  0.3198235 
315        0.2703779  0.9613765  0.3495008 
315.2      0.2785394  0.9543287  0.3469328 
315.4      0.2388023  1          0.370441  
315.6      0.2423307  1          0.3979746 
315.8      0.2648369  0.9139024  0.3647836 
316        0.2297731  1          0.4813378 
316.2      0.2515196  0.9531479  0.4301717 
316.4      0.2457759  0.9884428  0.4679229 
316.6      0.2596557  0.9445792  0.4208633 
316.8      0.2565523  1          0.4207387 
317        0.1308534  1          0.7264886 
317.2      0.007065154 1          1         
317.4      0          1          1         
317.6      0          1          1         
317.8      0.03946662 1          0.8165578 
318        0.1238603  1          0.6305981 
318.2      0.1307451  1          0.5892506 
318.4      0.1027645  1          0.5429109 
318.6      0.1253015  1          0.6009194 
318.8      0.1644287  1          0.4996217 
319        0.08169201 1          0.6169934 
319.2      0.07557324 1          0.4659286 
319.4      0.1674982  1          0.3986783 
319.6      0.2225943  1          0.4990007 
319.8      0.2306244  1          0.5642986 
320        0.1536172  1          0.7133132 
320.2      0.1335732  1          0.8236244 
320.4      0.05677031 1          1         
320.6      0.02907053 1          1         
320.8      0.01379016 1          1         
321        0.008910727 1          1         
321.2      0          1          0.9005218 
321.4      0.03621272 1          0.6313291 
321.6      0.1295964  1          0.5477018 
321.8      0.157012   1          0.4770686 
322        0.1274582  1          0.5623041 
322.2      0.1126354  1          0.7738382 
322.4      0.1919638  1          0.5892632 
322.6      0.2092671  1          0.4024865 
322.8      0.1710702  1          0.4380434 
323        0.163976   1          0.6640733 
323.2      0.1056538  1          0.932582  
323.4      0.07879    1          0.9812574 
323.6      0.1296189  1          0.8458326 
323.8      0.1461108  1          0.722812  
324        0.01748076 1          1         
324.2      0.01431604 1          1         
324.4      0.02586367 1          0.9607565 
324.6      0.04629903 1          1         
324.8      0.0338153  1          0.9600363 
325        0.02181337 1          0.8998212 
325.2      0.004016765 1          0.9471974 
