~Version information
  VERS.                           1.20 : CWLS LAS  -  VERSION 1.20
  WRAP.                            YES : Multiple lines per depth step
~Well information
# MNEM.UNIT         DATA TYPE  INFORMATION                                    
# ====.================================: ===================                  
  STRT.M                       865.000 : First depth in file
  STOP.M                         0.000 : Last  depth in file
  STEP.M                        -0.200 : Depth increment
  NULL.                    -32768.0000 : Null  values
  CN  .                        COMPANY : CIOC
  WN  .                           WELL : 305
  FN  .                          FIELD : KARATUBE
  SRVC.                SERVICE COMPANY : AFGIS JSC"KAZPROMGEOPHYSICA"
  DATE.                       LOG DATE : 09.03.04.
~Curve information
# MNEM.UNIT                   API CODE   CURVE DESCRIPTION                    
# ====.================================:====================                  
  DEPT.M                               : Depth curve
  LL3 .OHMM                            : Apparent resistivity by laterolog,3 electrodes  
  MLL .OHMM                            : Microlaterolog sonde                 
  RHOB.G/C3                            : Bulk density by gamma-gamma log      
  DTP .US/M                            : Interval travel time (P-wave)        
  GR  .UR/H                            : Gamma-ray log                        
  NGLD.UE                              : Neutron-gamma log
  GZ3 .OHMM                            : Apparent resistivity by  A2M0.5N sonde
  GZ3B.OHMM                            : Apparent resistivity by  N0.5M2A sonde
  SP  .MV                              : Spontaneous potential                
  CALI.MM                              : Diameter by caliper             
  C1  .MM                              : Diameter by 1 profile             
  C2  .MM                              : Diameter by 2 profile  
  CILR.MMHO                            : Conduct. by sonde 7I1.6,react.signal 
  CILA.MMHO                            : Conduct. by sonde 7I1.6,active signal
~Parameter information
# MNEM.UNIT                     VALUE       DESCRIPTION                       
# ====.================================:====================                  
~Other information
# ------------------- REMARKS AREA ------------------------                   
# ==========================================================                  
~Ascii Log Data
# ...
    280.200
        2.6550      0.3810      2.2340    470.0000      8.6800      1.1630
        4.6930      5.6920     33.6590    221.9340    214.4300    229.4390
       52.5100    212.8400
    280.000
        2.6000      0.4960      2.2560    500.0000      9.1840      1.1110
        4.9480      5.6700     33.3940    223.9960    219.6770    228.3140
       52.7320    212.9750
    279.800
        2.6670      0.3430      2.2150    493.3000      9.0530      1.2190
        4.8920      5.5020     32.8640    225.3700    220.3330    230.4070
       51.0340    214.4540
    279.600
        2.5880      0.5340      2.1520    493.3000      9.2030      1.2060
        4.8920      5.2920     32.4400    230.8670    224.2680    237.4650
       56.7990    222.6570
    279.400
        2.6000      0.5730      2.1650    526.7000      9.4830      1.0630
        4.9700      5.0710     32.0170    230.1800    225.5800    234.7790
       59.7510    225.8840
    279.200
        2.2860      0.3430      2.2190    536.7000      9.5010      1.1200
        5.2130      4.7030     31.4340    223.3090    219.6770    226.9400
       63.2880    239.3760
    279.000
        2.0890      0.2270      2.1050    530.0000      9.2770      1.1020
        5.6670      4.2920     31.2220    221.9340    220.3330    223.5360
       68.5230    259.1430
    278.800
        1.9500      0.3810      2.1280    493.3000      9.3330      1.1240
        6.2640      3.9770     31.8050    222.6220    225.5800    219.6630
       75.6530    263.8050
    278.600
        1.9770      0.3040      2.2130    476.7000     10.3600      1.1240
        6.9390      3.8610     32.8640    225.3700    230.1720    220.5680
       75.0400    259.6810
    278.400
        2.2280      0.4190      2.2500    470.0000     11.6290      1.2690
        7.8910      3.8710     34.1360    223.9960    224.2680    223.7230
       68.8300    252.9580
    278.200
        2.4550      0.4190      2.1630    463.3000     12.5250      1.2780
        8.7760      3.7980     34.7180    224.6830    219.0210    230.3450
       72.3110    245.6510
    278.000
        2.5820      0.4190      2.1730    490.0000     14.4850      1.2220
        9.7830      3.8190     35.7780    221.2470    215.7420    226.7530
       74.7340    241.4380
    277.800
        2.4890      0.3810      2.0010    516.7000     17.8820      1.2530
       12.5490      4.2710     36.7320    243.9220    249.1930    238.6510
       73.2860    237.7170
    277.600
        2.4600      0.4190      1.8950    486.7000     16.5570      1.2650
       15.0270      5.1970     37.4740    258.3510    255.0960    261.6060
       64.9310    217.6810
    277.400
        3.2280      1.1100      2.1060    456.7000     15.2880      1.2650
       15.9130      5.9860     37.4210    232.2410    228.2040    236.2780
       54.6540    191.4150
    277.200
        4.3450      0.7650      2.0840    430.0000     16.7250      1.2990
       14.9830      5.8910     36.9970    223.9960    222.3010    225.6910
       48.8340    177.2950
    277.000
        4.5810      0.8420      2.1970    440.0000     17.5280      1.2900
       14.9830      5.5760     36.4140    228.1180    221.6450    234.5920
       47.6920    172.0960
    276.800
        3.7760      0.5340      2.2110    450.0000     16.1840      1.2670
       15.7800      5.2290     35.9900    223.3090    219.0210    227.5960
       46.5500    179.2220
    276.600
        3.4750      0.6110      2.2790    466.7000     15.4750      1.2670
       17.7050      5.1340     35.7250    218.4990    220.9890    216.0090
       43.6530    177.0260
    276.400
        3.5730      0.6880      2.1390    473.3000     17.1740      1.3330
       20.1390      4.9550     36.7320    223.3090    237.3860    209.2310
       39.3370    180.2980
    276.200
        3.3040      0.6500      2.1830    476.7000     22.2690      1.3330
       25.5390      5.0390     37.4210    225.3700    230.1720    220.5680
       35.3820    190.6080
    276.000
        2.9990      0.4580      2.1140    486.7000     23.2590      1.2900
       30.0200      5.3020     39.3280    253.5410    275.4290    231.6540
       39.5320    191.2800
    275.800
        3.1990      0.8800      2.2000    493.3000     19.2450      1.3550
       32.4210      5.8910     40.9700    230.8670    234.1070    227.6270
       32.7920    170.6160
    275.600
        5.7020      2.0700      2.2340    476.7000     18.6480      1.3670
       33.0850      6.1120     42.0300    226.0570    230.1720    221.9430
       21.0120    157.3930
    275.400
        5.3580      0.7260      2.1510    473.3000     16.6320      1.3060
       33.8150      6.5330     42.6120    223.9960    228.2040    219.7880
       20.8170    139.5980
    275.200
        5.8340      1.9550      2.0860    476.7000     14.5230      1.2810
       34.0920      7.5850     43.6720    232.9280    233.4510    232.4050
       20.4820    128.7060
    275.000
        7.9980      1.5320      2.2660    466.7000     15.7920      1.2530
       34.1470      8.6900     43.9900    230.8670    229.5160    232.2180
       15.5250    110.2390
    274.800
       10.1160      2.6840      2.0620    473.3000     17.0610      1.4010
       34.0140      9.3000     43.9900    225.3700    224.2680    226.4720
       10.6240    102.2150
    274.600
        8.0540      1.0720      2.1150    490.0000     16.2960      1.3980
       34.1910      9.8150     44.0430    224.6830    222.9570    226.4090
       10.8740    101.5880
    274.400
        7.8160      1.3790      2.1480    486.7000     17.0990      1.2870
       33.9150     10.6150     44.2550    228.8050    225.5800    232.0310
        7.9500     94.1470
    274.200
       10.3990      2.6840      2.2050    486.7000     17.2850      1.3170
       33.4390     11.4360     43.9900    228.1180    227.5480    228.6890
        3.1040     93.6540
    274.000
       10.9140      1.8780      2.1280    490.0000     16.9310      1.3710
       33.0400     12.6670     43.9370    226.0570    226.2360    225.8780
       -0.0150     81.1030
    273.800
       12.1060      2.1470      2.1850    483.3000     15.9790      1.3650
       32.5430     14.6230     44.8910    225.3700    227.5480    223.1920
        1.9340     69.4040
    273.600
       13.3350      2.1470      2.0680    480.0000     16.7070      1.4170
       31.7570     17.2740     45.8970    224.6830    226.8920    222.4740
       -0.0710     55.0160
    273.400
       16.2930      2.7990      2.1890    480.0000     17.8270      1.3780
       30.6170     19.2420     46.0030    227.4310    228.2040    226.6590
       -4.9170     52.0130
    273.200
       14.1910      2.1850      2.0880    483.3000     18.3680      1.3170
       29.9200     20.7880     46.6390    219.8730    224.2680    215.4780
       -4.6380     53.3130
    273.000
       12.7640      1.4170      2.1750    486.7000     18.2000      1.2600
       29.1900     22.0510     47.4870    223.9960    226.8920    221.1000
       -3.4410     54.0750
    272.800
       11.9120      1.9160      2.1520    490.0000     17.4160      1.3420
       28.0500     23.3450     47.5400    226.0570    229.5160    222.5990
       -4.7490     47.7990
    272.600
       14.4540      1.9930      2.1010    490.0000     17.8640      1.4190
       26.8890     24.4810     47.3810    224.6830    229.5160    219.8500
       -6.9220     46.4100
    272.400
       14.8250      1.7240      2.1360    480.0000     20.1970      1.4910
       25.9810     25.4490     47.3280    226.7440    228.8600    224.6290
       -6.2530     46.5440
    272.200
       14.1250      1.4560      2.1870    473.3000     23.3150      1.5410
       25.8040     26.4590     47.6990    226.7440    228.2040    225.2850
       -8.0910     45.1100
    272.000
       13.4280      1.3410      2.1990    463.3000     25.4800      1.5190
       26.0480     27.1000     47.0100    226.0570    228.2040    223.9100
       -8.2860     46.2750
    271.800
       12.4170      1.1490      2.1290    463.3000     24.3230      1.4350
       26.2580     27.5000     46.4270    224.6830    228.8600    220.5060
       -6.1420     46.2300
