~Version information
  VERS.                           1.20 : CWLS LAS  -  VERSION 1.20
  WRAP.                            YES : Multiple lines per depth step
~Well information
# MNEM.UNIT         DATA TYPE  INFORMATION                                    
# ====.================================: ===================                  
  STRT.M                       865.000 : First depth in file
  STOP.M                         0.000 : Last  depth in file
  STEP.M                        -0.200 : Depth increment
  NULL.                    -32768.0000 : Null  values
  CN  .                        COMPANY : CIOC
  WN  .                           WELL : 305
  FN  .                          FIELD : KARATUBE
  SRVC.                SERVICE COMPANY : AFGIS JSC"KAZPROMGEOPHYSICA"
  DATE.                       LOG DATE : 09.03.04.
~Curve information
# MNEM.UNIT                   API CODE   CURVE DESCRIPTION                    
# ====.================================:====================                  
  DEPT.M                               : Depth curve
  LL3 .OHMM                            : Apparent resistivity by laterolog,3 electrodes  
  MLL .OHMM                            : Microlaterolog sonde                 
  RHOB.G/C3                            : Bulk density by gamma-gamma log      
  DTP .US/M                            : Interval travel time (P-wave)        
  GR  .UR/H                            : Gamma-ray log                        
  NGLD.UE                              : Neutron-gamma log
  GZ3 .OHMM                            : Apparent resistivity by  A2M0.5N sonde
  GZ3B.OHMM                            : Apparent resistivity by  N0.5M2A sonde
  SP  .MV                              : Spontaneous potential                
  CALI.MM                              : Diameter by caliper             
  C1  .MM                              : Diameter by 1 profile             
  C2  .MM                              : Diameter by 2 profile  
  CILR.MMHO                            : Conduct. by sonde 7I1.6,react.signal 
  CILA.MMHO                            : Conduct. by sonde 7I1.6,active signal
~Parameter information
# MNEM.UNIT                     VALUE       DESCRIPTION                       
# ====.================================:====================                  
~Other information
# ------------------- REMARKS AREA ------------------------                   
# ==========================================================                  
~Ascii Log Data
# ...
    228.600
        2.5700      0.3810      2.1980    573.3000      8.6240      1.0040
        5.5340      5.7130     43.6720    237.0510    220.9890    253.1130
       54.7380    213.5130
    228.400
        2.5640      0.3810      2.1740    570.0000      8.2690      1.0110
        5.6340      5.7340     43.3540    232.2410    227.5480    236.9340
       53.7910    215.4850
    228.200
        2.5530      0.3810      2.2220    576.7000      8.2880      1.0900
        5.7110      5.7550     43.3540    232.9280    225.5800    240.2760
       50.8940    220.9980
    228.000
        2.5290      0.4190      2.1860    576.7000      8.6430      1.0360
        5.7220      5.7550     43.1420    234.9890    221.6450    248.3340
       54.9600    219.5640
    227.800
        2.6120      0.3810      2.1570    570.0000      8.5870      1.0540
        5.7880      5.7440     42.7720    240.4860    226.8920    254.0800
       54.3760    215.9330
    227.600
        2.6420      0.3430      2.2430    573.3000      8.6610      1.0400
        5.8660      5.7230     41.9770    234.9890    224.9240    245.0550
       52.4820    217.3670
    227.400
        2.5410      0.3810      2.1710    550.0000      8.6430      1.0880
        6.0320      5.7130     41.7650    237.7380    222.3010    253.1750
       51.8410    220.4150
    227.200
        2.4660      0.4190      2.1620    536.7000      8.8480      1.0200
        6.3200      5.7020     41.9240    230.1800    217.7090    242.6500
       56.6040    222.3430
    227.000
        2.4770      0.3430      2.1970    533.3000      8.6800      0.9840
        6.5300      5.7440     42.5600    231.5540    220.9890    242.1190
       56.6310    222.2530
    226.800
        2.4830      0.3810      2.1330    530.0000      8.8480      1.1200
        6.6180      5.6920     43.4070    224.6830    220.3330    229.0330
       54.6260    223.8220
    226.600
        2.4320      0.3430      2.1450    513.3000      8.7920      1.0970
        6.5740      5.5760     44.0960    228.8050    225.5800    232.0310
       51.6180    224.4940
    226.400
        2.5120      0.3810      2.1590    523.3000      8.6240      1.0810
        6.5190      5.5130     44.2550    231.5540    234.1070    229.0010
       53.5120    221.9840
    226.200
        2.6240      0.3810      2.2260    506.7000      8.1950      1.0490
        6.4080      5.6070     44.0430    231.5540    230.8270    232.2800
       51.7860    212.4820
    226.000
        2.7930      0.3810      2.2160    500.0000      7.4670      0.9930
        6.3420      5.7550     44.0960    234.3020    225.5800    243.0240
       47.8310    201.3650
    225.800
        2.9040      0.5340      2.3860    496.7000      7.1870      1.0470
        6.2310      5.9440     43.7780    230.8670    226.2360    235.4970
       44.3500    195.7180
    225.600
        3.1260      0.6500      2.3840    516.7000      8.7360      1.1700
        6.1310      6.1020     43.7250    226.7440    230.1720    223.3170
       46.2990    194.4180
    225.400
        3.0270      0.4960      2.2850    546.7000      9.0720      1.1790
        5.8990      6.1330     43.3540    228.8050    224.9240    232.6870
       46.8280    188.0980
    225.200
        2.9650      0.5730      2.5280    546.7000      9.0350      1.1060
        5.7000      6.1230     42.9310    231.5540    224.9240    238.1830
       44.5450    192.3110
    225.000
        3.1330      0.6880      2.3580    503.3000      8.9230      1.0680
        5.6220      6.1650     41.9240    241.8600    232.1390    251.5820
       40.8680    195.6280
    224.800
        2.8510      0.6110      2.2120    486.7000      8.3630      1.0880
        5.5780      6.4810     41.6590    239.7990    241.3220    238.2760
       41.6760    191.9520
    224.600
        3.1410      0.6110      2.6320    480.0000      8.0640      1.1200
        5.4790      6.8590     41.4470    232.2410    227.5480    236.9340
       38.9470    181.4640
    224.400
        3.4510      0.5340      2.3380    450.0000      8.4560      1.1260
        5.3900      7.0490     41.3940    227.4310    217.0530    237.8090
       36.3290    183.2120
    224.200
        2.9380      0.4960      2.2400    453.3000      8.5490      1.1400
        5.2680      7.0800     41.2350    230.8670    214.4300    247.3040
       34.7690    191.6390
    224.000
        2.7230      0.5340      2.3780    480.0000      8.7920      1.1170
        5.2460      7.1330     41.3940    230.1800    214.4300    245.9300
       42.7900    200.5140
    223.800
        2.5760      0.4190      2.3380    493.3000      9.1840      1.0040
        5.1360      7.0170     41.2880    230.8670    215.7420    245.9920
       44.3500    198.4520
    223.600
        2.4490      0.4190      2.2550    490.0000      8.4370      1.0790
        5.0910      6.8490     41.6060    234.9890    217.0530    252.9250
       43.9040    204.1890
    223.400
        2.2540      0.4580      2.3060    496.7000      8.2880      1.0830
        5.0360      6.7860     42.1360    241.8600    222.9570    260.7640
       41.4530    207.5060
    223.200
        2.3770      0.4580      2.4090    480.0000      8.1950      1.1260
        4.9250      6.7230     41.8180    241.1730    220.3330    262.0140
       45.8540    211.1370
    223.000
        2.4210      0.4190      2.4010    486.7000      7.3730      1.1560
        4.8480      6.6490     41.9240    237.0510    218.3650    255.7360
       46.1040    201.0520
    222.800
        2.5060      0.4190      2.3450    493.3000      7.9710      1.1110
        4.8040      6.5440     41.9240    237.0510    217.7090    256.3920
       45.5190    201.0070
    222.600
        2.5180      0.3810      2.3070    490.0000      8.4930      1.1470
        4.8040      6.3650     41.2350    236.3640    214.4300    258.2970
       44.2380    204.7720
    222.400
        2.4380      0.3810      2.2640    486.7000      8.0640      1.0950
        4.9810      6.4070     40.4400    240.4860    215.0860    265.8870
       47.5250    209.8820
    222.200
        2.4770      0.4190      2.3380    420.0000      7.5230      1.1240
        5.2130      6.7960     39.0630    243.2350    215.7420    270.7280
       46.6330    199.5720
    222.000
        2.5700      0.6110      2.4750    380.0000      6.7760      1.1850
        5.2240      7.0170     39.2750    237.0510    215.7420    258.3600
       42.8180    189.1290
    221.800
        3.2580      2.1080      2.4090    386.7000      7.9890      1.1740
        5.0140      6.9010     40.2810    234.9890    218.3650    251.6140
       42.8460    198.5420
    221.600
        2.4270      0.5340      2.2970    490.0000      8.9230      1.1670
        4.9590      6.5540     41.0760    235.6770    215.0860    256.2670
       52.2590    208.7160
    221.400
        2.3280      0.5340      2.2090    550.0000      9.1280      1.0740
        4.9360      6.4280     41.3410    230.8670    213.7740    247.9600
       55.7680    210.6890
    221.200
        2.0040      0.5730      2.2510    553.3000      8.7920      1.0880
        4.9700      6.3120     41.8180    232.9280    216.3980    249.4590
       51.5350    213.7370
    221.000
        2.2340      0.5730      2.2140    550.0000      8.2880      1.1240
        5.0690      6.2490     42.1890    232.9280    216.3980    249.4590
       51.3400    215.7540
    220.800
        2.2540      0.5340      2.2140    543.3000      8.6610      1.1560
        5.0250      6.1120     42.3480    231.5540    211.8060    251.3020
       53.0390    218.5330
    220.600
        2.2280      0.4580      2.3410    523.3000      8.4930      1.1110
        4.9920      5.9120     42.1890    230.8670    212.4620    249.2710
       52.5380    220.2810
    220.400
        2.3170      0.4960      2.3100    500.0000      8.2880      1.0810
        4.9030      5.8070     42.6130    231.5540    218.3650    244.7430
       49.4460    220.5950
    220.200
        2.2860      0.5730      2.2920    516.7000      7.9150      1.0430
        4.8920      5.7130     42.7190    230.1800    211.8060    248.5530
       55.1550    220.2360
