~Version information
  VERS.                           1.20 : CWLS LAS  -  VERSION 1.20
  WRAP.                            YES : Multiple lines per depth step
~Well information
# MNEM.UNIT         DATA TYPE  INFORMATION                                    
# ====.================================: ===================                  
  STRT.M                       865.000 : First depth in file
  STOP.M                         0.000 : Last  depth in file
  STEP.M                        -0.200 : Depth increment
  NULL.                    -32768.0000 : Null  values
  CN  .                        COMPANY : CIOC
  WN  .                           WELL : 305
  FN  .                          FIELD : KARATUBE
  SRVC.                SERVICE COMPANY : AFGIS JSC"KAZPROMGEOPHYSICA"
  DATE.                       LOG DATE : 09.03.04.
~Curve information
# MNEM.UNIT                   API CODE   CURVE DESCRIPTION                    
# ====.================================:====================                  
  DEPT.M                               : Depth curve
  LL3 .OHMM                            : Apparent resistivity by laterolog,3 electrodes  
  MLL .OHMM                            : Microlaterolog sonde                 
  RHOB.G/C3                            : Bulk density by gamma-gamma log      
  DTP .US/M                            : Interval travel time (P-wave)        
  GR  .UR/H                            : Gamma-ray log                        
  NGLD.UE                              : Neutron-gamma log
  GZ3 .OHMM                            : Apparent resistivity by  A2M0.5N sonde
  GZ3B.OHMM                            : Apparent resistivity by  N0.5M2A sonde
  SP  .MV                              : Spontaneous potential                
  CALI.MM                              : Diameter by caliper             
  C1  .MM                              : Diameter by 1 profile             
  C2  .MM                              : Diameter by 2 profile  
  CILR.MMHO                            : Conduct. by sonde 7I1.6,react.signal 
  CILA.MMHO                            : Conduct. by sonde 7I1.6,active signal
~Parameter information
# MNEM.UNIT                     VALUE       DESCRIPTION                       
# ====.================================:====================                  
~Other information
# ------------------- REMARKS AREA ------------------------                   
# ==========================================================                  
~Ascii Log Data
# ...
    813.400
        2.6300      0.1120      2.1430    286.7000      4.9840      1.7110
        6.6630      7.3010     53.7390    280.3380    270.8380    289.8390
       48.5270    235.4310
    813.200
        2.3010      0.2270      2.3070    200.0000      4.5170      1.6070
        7.1160      8.3010     53.5800    283.0870    291.8260    274.3470
       49.8080    188.1420
    813.000
        3.8910      3.2210      2.6470    233.3000      4.5730      1.8000
        6.7840      8.4790     53.4210    241.8600    231.4830    252.2380
       31.3720    186.5740
    812.800
        4.1980      1.4560      2.5790    276.7000      7.0560      1.7630
        6.3420      8.1430     53.4740    234.9890    222.9570    247.0220
       33.9620    197.9590
    812.600
        3.4510      1.1100      2.4380    290.0000      8.8480      1.6930
        5.9770      7.7220     53.2090    242.5480    223.6130    261.4830
       43.2910    189.5320
    812.400
        3.0760      1.3020      2.4340    280.0000      8.5310      1.6910
        5.8660      7.4900     52.5730    254.2280    232.1390    276.3170
       44.3500    202.9340
    812.200
        2.7800      1.2250      2.4510    256.7000      9.7070      1.7820
        5.6220      7.4380     52.5200    264.5350    247.2250    281.8450
       41.5930    199.3480
    812.000
        2.9990      2.1470      2.4590    303.3000     11.1060      1.6610
        5.2020      7.2170     52.3080    263.8480    252.4720    275.2230
       42.8180    188.5910
    811.800
        3.0410      0.8800      2.3220    313.3000      8.5120      1.6280
        5.2020      6.8800     51.8310    259.0380    246.5690    271.5070
       39.2530    163.6690
    811.600
        2.6730      0.7260      2.6580    316.7000      6.4400      1.6280
        5.3680      6.9120     51.4070    276.9030    263.6230    290.1830
       43.3470    174.2920
    811.400
        2.5820      0.9950      2.5580    286.7000      5.5810      1.6250
        5.6110      7.0490     51.6720    266.5960    259.6870    273.5050
       40.8410    191.5490
    811.200
        3.0830      1.0720      2.6810    253.3000      5.6370      1.7200
        5.6110      6.9860     52.3610    252.8540    238.6980    267.0100
       39.9490    201.9480
    811.000
        3.2730      1.4940      2.5920    296.7000      7.2430      1.7970
        5.7440      7.5960     52.5200    242.5480    232.1390    252.9560
       40.0890    168.4200
    810.800
        3.6140      1.5320      2.4680    330.0000      9.6140      1.8040
        5.7330      7.8480     53.2080    241.1730    241.9780    240.3690
       35.4930    160.9790
    810.600
        3.4910      1.0330      2.2750    276.7000     10.1740      1.7500
        5.5230      7.9220     53.7380    240.4860    233.4510    247.5210
       34.1010    146.3220
    810.400
        3.2280      1.0720      2.4050    320.0000      8.2690      1.7000
        5.3570      7.6590     54.0030    240.4860    230.8270    250.1450
       37.8610    152.9560
    810.200
        2.9920      1.2250      2.3610    336.7000      6.8130      1.6160
        5.1470      7.4060     53.8440    235.6770    230.1720    241.1820
       38.9750    156.3180
    810.000
        2.9510      0.7260      2.4690    253.3000      5.6750      1.6210
        5.1140      7.3430     53.5790    238.4250    236.0750    240.7750
       39.2250    169.5850
    809.800
        2.9990      0.9950      2.4850    273.3000      5.4130      1.6640
        5.1250      7.1330     52.7850    239.7990    236.0750    243.5240
       39.8660    174.1570
    809.600
        2.5060      0.7650      2.4350    326.7000      6.4770      1.6460
        5.2130      6.6700     52.2550    242.5480    236.0750    249.0200
       43.9880    183.2570
    809.400
        2.2960      0.6110      2.3190    303.3000      7.4110      1.6360
        5.2460      6.4070     51.7780    242.5480    240.6660    244.4290
       46.7450    193.6110
    809.200
        2.4210      0.5730      2.5030    250.0000      7.3920      1.6800
        5.2130      6.1960     51.3020    239.7990    232.7950    246.8030
       45.5470    192.3560
    809.000
        2.5060      0.8030      2.5130    216.7000      6.3650      1.6710
        5.3130      6.0490     51.0900    240.4860    234.1070    246.8660
       47.3850    207.7750
    808.800
        2.4150      0.3810      2.3940    180.0000      5.6560      1.8500
        5.4120      6.0700     51.0900    245.2960    241.9780    248.6140
       52.0080    221.3120
    808.600
        2.6980      0.7260      2.6300    250.0000      5.1890      1.8540
        5.4230      6.4810     51.5130    248.7310    242.6340    254.8290
       50.7830    205.0410
    808.400
        3.1550      1.4170      2.5030    283.3000      4.4990      1.9080
        5.2020      6.6590     51.7250    245.9830    241.3220    250.6440
       47.1900    208.3580
    808.200
        3.4510      1.3790      2.3940    273.3000      4.3310      1.8970
        4.9810      6.6910     51.8310    240.4860    232.7950    248.1770
       48.3600    207.0580
    808.000
        3.3040      1.4170      2.6260    263.3000      4.7040      1.7910
        4.7820      6.4810     52.3080    238.4250    232.1390    244.7110
       53.8460    203.0690
    807.800
        2.8640      0.9570      2.5260    276.7000      5.3760      1.8220
        4.6380      6.2070     52.5200    251.4800    241.9780    260.9820
       54.2640    202.3070
    807.600
        2.5350      0.6500      2.5760    283.3000      5.6370      1.7070
        4.7150      6.0280     52.8910    252.1670    243.9450    260.3890
       54.2640    219.3400
    807.400
        2.4380      1.0720      2.5610    290.0000      5.6560      1.7040
        4.8480      5.9970     52.6790    254.2280    247.2250    261.2320
       58.7480    220.6840
    807.200
        2.4720      0.7650      2.4620    270.0000      5.4320      1.6800
        4.9590      5.9550     52.3080    261.0990    247.2250    274.9740
       57.9960    225.3010
    807.000
        2.4830      0.8420      2.4950    283.3000      5.1330      1.7300
        4.9920      6.0070     51.7250    256.2900    245.2570    267.3220
       57.5230    225.7050
    806.800
        2.4890      0.7650      2.6350    290.0000      4.7600      1.7430
        4.9700      5.9330     51.4600    252.8540    244.6010    261.1070
       60.0010    227.7670
    806.600
        2.6610      0.9570      2.4960    293.3000      5.3010      1.6710
        5.0030      5.9970     51.2480    256.9770    251.8160    262.1370
       60.0010    219.4290
    806.400
        2.3990      0.6500      2.3890    316.7000      6.2720      1.7180
        4.9480      5.9860     51.2480    258.3510    245.9130    270.7890
       56.7430    219.0710
    806.200
        2.4100      1.1100      2.4330    316.7000      5.7870      1.6480
        4.8480      6.1120     51.2480    255.6030    236.7310    274.4740
       57.7730    228.8870
    806.000
        2.5350      0.6110      2.6290    300.0000      5.4690      1.7500
        4.8920      6.2600     51.3540    261.7860    240.0100    283.5630
       62.6190    223.2840
    805.800
        2.7860      0.7650      2.4050    286.7000      5.2640      1.7300
        4.7260      6.2390     52.0430    258.3510    234.7630    281.9390
       58.5250    210.8230
    805.600
        2.8450      0.7650      2.5800    286.7000      5.6370      1.7570
        4.5600      5.8810     52.7850    256.9770    230.1720    283.7820
       54.1810    219.1160
    805.400
        2.5000      0.9950      2.3930    293.3000      6.8320      1.7750
        4.6160      5.5020     53.4740    256.9770    251.8160    262.1370
       60.9760    220.9980
    805.200
        2.1480      0.5340      2.4160    246.7000      7.0560      1.7430
        4.7040      5.4920     53.6850    265.9090    249.1930    282.6250
       62.1180    218.0400
    805.000
        2.1530      1.0720      2.5070    230.0000      8.3070      1.7630
        4.7150      5.6810     53.3140    270.0320    242.6340    297.4300
       61.6440    227.8110
