~Version information
  VERS.                           1.20 : CWLS LAS  -  VERSION 1.20
  WRAP.                            YES : Multiple lines per depth step
~Well information
# MNEM.UNIT         DATA TYPE  INFORMATION                                    
# ====.================================: ===================                  
  STRT.M                       865.000 : First depth in file
  STOP.M                         0.000 : Last  depth in file
  STEP.M                        -0.200 : Depth increment
  NULL.                    -32768.0000 : Null  values
  CN  .                        COMPANY : CIOC
  WN  .                           WELL : 305
  FN  .                          FIELD : KARATUBE
  SRVC.                SERVICE COMPANY : AFGIS JSC"KAZPROMGEOPHYSICA"
  DATE.                       LOG DATE : 09.03.04.
~Curve information
# MNEM.UNIT                   API CODE   CURVE DESCRIPTION                    
# ====.================================:====================                  
  DEPT.M                               : Depth curve
  LL3 .OHMM                            : Apparent resistivity by laterolog,3 electrodes  
  MLL .OHMM                            : Microlaterolog sonde                 
  RHOB.G/C3                            : Bulk density by gamma-gamma log      
  DTP .US/M                            : Interval travel time (P-wave)        
  GR  .UR/H                            : Gamma-ray log                        
  NGLD.UE                              : Neutron-gamma log
  GZ3 .OHMM                            : Apparent resistivity by  A2M0.5N sonde
  GZ3B.OHMM                            : Apparent resistivity by  N0.5M2A sonde
  SP  .MV                              : Spontaneous potential                
  CALI.MM                              : Diameter by caliper             
  C1  .MM                              : Diameter by 1 profile             
  C2  .MM                              : Diameter by 2 profile  
  CILR.MMHO                            : Conduct. by sonde 7I1.6,react.signal 
  CILA.MMHO                            : Conduct. by sonde 7I1.6,active signal
~Parameter information
# MNEM.UNIT                     VALUE       DESCRIPTION                       
# ====.================================:====================                  
~Other information
# ------------------- REMARKS AREA ------------------------                   
# ==========================================================                  
~Ascii Log Data
# ...
    185.600
        3.2430      0.5730      2.3070    536.7000      8.2320      1.0430
        7.0500      6.3540     46.6390    234.3020    240.6660    227.9390
       42.2050    195.8520
    185.400
        3.3500      0.6110      2.1780    530.0000      8.2510      1.0740
        6.9720      6.4280     47.2220    231.5540    235.4190    227.6890
       42.8180    190.6080
    185.200
        3.4200      0.6110      2.2840    520.0000      8.3070      1.0490
        6.8400      6.3960     47.8050    222.6220    228.8600    216.3830
       40.8410    189.2630
    185.000
        3.4360      0.6500      2.1790    506.7000      7.8210      0.9590
        6.6850      6.4590     48.3880    234.9890    246.5690    223.4100
       36.3850    187.8290
    184.800
        3.4510      0.5730      2.3100    493.3000      7.5230      0.9720
        6.5740      6.5540     48.4940    233.6150    240.0100    227.2200
       39.1700    192.9390
    184.600
        3.3960      0.5340      2.2760    466.7000      7.5790      0.9860
        6.5740      6.6700     48.6000    231.5540    239.3540    223.7540
       37.6100    184.3320
    184.400
        3.1620      0.4580      2.3130    460.0000      7.3730      1.0540
        6.5520      6.6590     48.7060    227.4310    226.8920    227.9710
       34.5740    188.3670
    184.200
        3.1410      0.4580      2.3020    500.0000      6.7570      1.1170
        6.5190      6.9220     48.9170    221.9340    223.6130    220.2560
       35.3820    189.3080
    184.000
        3.2430      0.4190      2.2640    496.7000      7.6530      1.0650
        6.4740      7.1010     49.8180    221.9340    220.9890    222.8800
       35.4100    177.8330
    183.800
        3.4360      0.3430      2.3280    453.3000      8.1010      1.0700
        6.4860      7.2380     50.4540    218.4990    219.6770    217.3210
       35.0200    172.2300
    183.600
        3.4670      0.3810      2.2420    450.0000      7.8960      1.1510
        6.6290      7.2490     51.2480    221.2470    219.0210    223.4740
       31.5110    169.2270
    183.400
        3.3880      0.3810      2.3000    493.3000      7.6530      1.1920
        6.6960      7.2800     51.7250    217.8120    216.3980    219.2260
       32.9870    174.2020
    183.200
        3.3960      0.3810      2.2830    500.0000      7.7090      1.1900
        6.5300      7.2910     52.1490    216.4380    217.0530    215.8220
       31.5670    173.8440
    183.000
        3.3110      0.3810      2.2160    490.0000      7.0190      1.1900
        6.5300      7.3540     52.8910    215.7510    217.0530    214.4480
       30.4530    173.9780
    182.800
        3.4910      0.4960      2.2900    483.3000      7.2050      1.1420
        6.4970      7.4060     54.0560    221.9340    222.3010    221.5680
       32.2630    175.7260
    182.600
        3.5070      0.4190      2.2830    486.7000      7.5600      1.0810
        6.6070      7.3960     54.1620    217.1250    217.7090    216.5400
       30.8430    172.5890
    182.400
        3.2360      0.3040      2.2470    486.7000      7.0750      1.1940
        6.9060      7.6270     54.5330    219.1860    219.0210    219.3510
       31.1210    177.9670
    182.200
        2.8840      0.2660      2.2970    480.0000      7.3920      1.1880
        7.0060      7.9110     55.2750    221.9340    217.7090    226.1600
       32.6250    172.2300
    182.000
        3.0830      0.3430      2.3050    473.3000      7.2050      1.0880
        6.3860      7.7010     57.0760    219.8730    219.6770    220.0690
       31.5670    167.1200
    181.800
        3.4990      0.4580      2.3190    473.3000      6.6640      1.1330
        5.6220      6.9330     58.7720    220.5600    217.7090    223.4110
       28.9770    179.2220
    181.600
        3.2960      0.3040      2.2650    486.7000      6.7950      1.1630
        5.2910      6.1540     59.4600    217.1250    216.3980    217.8520
       34.3520    194.9110
    181.400
        2.7860      0.2270      2.1370    496.7000      6.6640      1.1970
        5.7550      6.1540     58.6130    220.5600    217.0530    224.0670
       38.3340    187.8290
    181.200
        2.8840      0.1510      2.1610    493.3000      6.8690      1.1830
        6.4080      6.9120     57.1290    219.1860    217.0530    221.3190
       32.0680    176.3540
    181.000
        3.1700      0.2660      2.2000    496.7000      7.4480      1.1470
        6.7180      7.6170     55.4870    219.1860    219.0210    219.3510
       27.3890    165.0580
    180.800
        3.6980      0.5340      2.2210    496.7000      7.1870      1.1760
        6.4630      7.6800     55.1160    221.2470    220.9890    221.5060
       32.4860    173.2160
    180.600
        3.5480      0.3040      2.2150    503.3000      7.0560      1.1670
        6.3860      7.3540     54.6920    221.2470    220.3330    222.1620
       35.3540    178.0120
    180.400
        3.3040      0.6110      2.2890    496.7000      7.1490      1.1200
        6.6400      7.4380     54.1100    243.2350    244.6010    241.8680
       31.9840    176.8920
    180.200
        3.0760      0.3430      2.0870    500.0000      7.2240      1.1310
        6.7950      7.4590     53.1030    220.5600    221.6450    219.4760
       33.5440    181.6430
    180.000
        3.4040      0.3810      2.2470    503.3000      7.0930      1.1110
        6.9720      7.5640     51.9900    221.2470    220.9890    221.5060
       34.4910    182.5390
    179.800
        3.0830      0.3040      2.1860    500.0000      7.6530      1.0810
        7.2160      7.3330     50.2950    221.2470    219.6770    222.8180
       37.1640    184.8700
    179.600
        2.8310      0.4580      2.2640    500.0000      8.0450      1.0200
        7.5030      7.4590     49.2350    221.2470    219.6770    222.8180
       32.4860    182.9880
    179.400
        3.2140      0.4580      2.2980    506.7000      8.5490      1.0680
        7.5590      7.2060     49.2350    220.5600    221.6450    219.4760
       35.6330    186.6180
    179.200
        3.4360      0.5340      2.1850    510.0000      8.5870      1.1420
        7.2820      6.9430     49.9770    222.6220    224.9240    220.3190
       36.3010    174.0680
    179.000
        3.6640      0.4580      2.3600    500.0000      7.9330      1.1650
        7.1380      6.7330     50.6130    221.9340    221.6450    222.2240
       32.1240    176.8470
    178.800
        3.4750      0.4190      2.2290    490.0000      7.2800      1.1400
        7.2050      6.8700     50.9840    223.3090    220.9890    225.6280
       34.0450    182.6740
    178.600
        3.3040      0.4190      2.2690    490.0000      7.5970      1.1580
        7.2820      6.9330     51.2480    223.3090    221.6450    224.9730
       34.1290    174.0680
    178.400
        3.1990      0.5340      2.2390    490.0000      7.6160      1.1060
        7.2490      7.0170     51.5660    223.3090    222.3010    224.3170
       33.6550    172.8130
    178.200
        3.5480      0.4580      2.2920    493.3000      7.5790      1.0650
        7.2270      6.8490     52.7320    223.9960    221.6450    226.3470
       30.3130    171.5130
    178.000
        3.5070      0.3810      2.2600    493.3000      7.3550      1.0920
        7.4260      6.8910     53.1030    218.4990    219.6770    217.3210
       33.2100    178.0570
    177.800
        3.2730      0.3040      2.2950    503.3000      6.9440      1.0990
        7.7250      6.8910     53.2620    216.4380    220.3330    212.5420
       32.4020    173.8880
    177.600
        3.2280      0.3430      2.2660    503.3000      6.7570      1.0310
        8.0010      7.1220     53.7920    217.8120    221.6450    213.9790
       28.5870    169.0030
    177.400
        3.5560      0.3430      2.2610    490.0000      7.4850      1.1040
        7.9570      7.2270     54.6390    218.4990    219.6770    217.3210
       30.0910    177.4740
    177.200
        3.5640      0.4580      2.1980    490.0000      8.1200      1.0880
        8.0790      7.4690     55.5400    220.5600    222.9570    218.1640
       29.0320    171.7820
