~Version information
  VERS.                           1.20 : CWLS LAS  -  VERSION 1.20
  WRAP.                            YES : Multiple lines per depth step
~Well information
# MNEM.UNIT         DATA TYPE  INFORMATION                                    
# ====.================================: ===================                  
  STRT.M                       865.000 : First depth in file
  STOP.M                         0.000 : Last  depth in file
  STEP.M                        -0.200 : Depth increment
  NULL.                    -32768.0000 : Null  values
  CN  .                        COMPANY : CIOC
  WN  .                           WELL : 305
  FN  .                          FIELD : KARATUBE
  SRVC.                SERVICE COMPANY : AFGIS JSC"KAZPROMGEOPHYSICA"
  DATE.                       LOG DATE : 09.03.04.
~Curve information
# MNEM.UNIT                   API CODE   CURVE DESCRIPTION                    
# ====.================================:====================                  
  DEPT.M                               : Depth curve
  LL3 .OHMM                            : Apparent resistivity by laterolog,3 electrodes  
  MLL .OHMM                            : Microlaterolog sonde                 
  RHOB.G/C3                            : Bulk density by gamma-gamma log      
  DTP .US/M                            : Interval travel time (P-wave)        
  GR  .UR/H                            : Gamma-ray log                        
  NGLD.UE                              : Neutron-gamma log
  GZ3 .OHMM                            : Apparent resistivity by  A2M0.5N sonde
  GZ3B.OHMM                            : Apparent resistivity by  N0.5M2A sonde
  SP  .MV                              : Spontaneous potential                
  CALI.MM                              : Diameter by caliper             
  C1  .MM                              : Diameter by 1 profile             
  C2  .MM                              : Diameter by 2 profile  
  CILR.MMHO                            : Conduct. by sonde 7I1.6,react.signal 
  CILA.MMHO                            : Conduct. by sonde 7I1.6,active signal
~Parameter information
# MNEM.UNIT                     VALUE       DESCRIPTION                       
# ====.================================:====================                  
~Other information
# ------------------- REMARKS AREA ------------------------                   
# ==========================================================                  
~Ascii Log Data
# ...
    374.800
        2.4210      0.6500      2.3030    480.0000      9.6130      1.2490
        4.2840      5.1970     41.0760    225.3700    230.1720    220.5680
       61.8120    220.4150
    374.600
        2.4430      0.6500      2.3990    490.0000      8.9790      1.2280
        4.2390      5.1020     41.7120    226.7440    227.5480    225.9400
       64.4570    221.9840
    374.400
        2.3550      0.5340      2.1800    486.7000      9.2210      1.2470
        4.2500      4.9550     42.8770    237.7380    240.6660    234.8100
       63.2320    220.0570
    374.200
        2.2700      0.4190      2.2040    483.3000      9.2030      1.2130
        4.1840      4.9020     44.2550    248.7310    262.9670    234.4960
       61.1430    222.0290
    374.000
        2.2700      0.4960      2.1960    483.3000      9.3330      1.1700
        4.0400      4.8710     45.6320    230.8670    234.7630    226.9710
       61.7000    230.0080
    373.800
        2.2860      0.3810      2.2570    466.7000      9.7070      1.1810
        3.8410      4.8810     46.9570    236.3640    226.2360    246.4910
       67.5210    236.1930
    373.600
        2.1880      0.4190      2.2350    450.0000      9.5950      1.1670
        3.7300      4.8810     48.3340    235.6770    217.7090    253.6440
       67.0470    229.6490
    373.400
        2.2540      0.4190      2.1830    450.0000      9.3150      1.2330
        3.5870      4.9340     50.4530    232.9280    232.1390    233.7170
       63.9840    230.4110
    373.200
        2.3120      0.5340      2.1820    426.7000      9.2590      1.2310
        3.3990      4.9660     53.1560    242.5480    220.3330    264.7620
       65.5710    223.9570
    373.000
        2.3330      0.4190      2.3040    393.3000      8.4930      1.2190
        3.3210      4.9970     54.2150    232.2410    227.5480    236.9340
       65.3480    227.3180
    372.800
        2.1280      0.3040      2.1540    403.3000      7.2990      1.2060
        3.0780      4.9550     54.2150    222.6220    219.0210    226.2220
       63.5940    218.4880
    372.600
        2.2700      0.3040      2.1470    440.0000      7.4850      1.2260
        2.9560      4.9020     52.8910    223.3090    221.6450    224.9730
       59.4720    217.0990
    372.400
        2.1680      0.3430      2.1480    460.0000      8.0270      1.1920
        2.9560      4.9550     50.3480    221.2470    219.0210    223.4740
       62.7860    218.3090
    372.200
        2.2130      0.3810      2.1320    456.7000      7.9520      1.1850
        2.9560      5.0810     47.1690    219.1860    219.6770    218.6950
       64.6800    209.7920
    372.000
        2.2440      0.3040      2.1780    463.3000      8.6800      1.2580
        3.0330      5.2180     44.0430    216.4380    217.7090    215.1660
       60.1680    214.3190
    371.800
        2.2390      0.4190      2.2670    466.7000      9.7810      1.2240
        3.1220      5.4500     41.7650    222.6220    218.3650    226.8780
       60.9480    216.3370
    371.600
        2.3120      0.4960      2.3330    486.7000      9.4830      1.1470
        3.1990      5.5440     41.0760    223.3090    222.9570    223.6610
       65.9050    226.3770
    371.400
        2.1040      0.4190      2.3430    500.0000      9.7440      1.1760
        3.2210      5.4920     40.8640    226.0570    224.9240    227.1900
       69.7210    227.3630
    371.200
        2.0320      0.5340      2.2290    510.0000      9.7250      1.1970
        3.2770      5.2920     40.7580    226.0570    224.2680    227.8460
       69.0520    237.0900
    371.000
        1.9500     -0.0410      2.1960    523.3000      8.9230      1.0720
        3.3320      5.1230     40.4400    230.1800    237.3860    222.9730
       71.9210    243.8130
    370.800
        1.5520      0.4190      2.1450    520.0000      9.2030      1.1510
        3.4870      4.9970     40.4400    236.3640    244.6010    228.1260
       78.7720    244.2170
    370.600
        1.7540      0.3430      2.2040    506.7000      9.8930      1.1470
        3.7420      4.8080     40.9700    235.6770    241.9780    229.3750
       89.5500    255.1990
    370.400
        1.6110      0.4190      2.2080    496.7000      9.6130      1.0810
        4.0620      4.4500     41.2350    232.9280    230.8270    235.0290
       99.1300    278.0590
    370.200
        1.3150      0.2660      2.2270    490.0000      9.1280      1.1740
        4.1400      4.0080     40.9700    231.5540    241.3220    221.7860
      105.6470    292.0890
    370.000
        1.6750      0.4190      2.2460    493.3000      9.6320      1.2150
        4.1620      3.8610     40.1220    228.8050    226.2360    231.3750
      103.8370    292.6710
    369.800
        1.7260      0.3430      2.1790    496.7000      9.3330      1.1700
        4.1840      3.7350     38.9040    231.5540    233.4510    229.6570
      100.6060    267.7490
    369.600
        1.7060      0.4190      2.2960    486.7000      9.1840      1.1580
        4.1180      3.6510     38.3740    228.8050    228.8600    228.7510
       99.6320    259.2780
    369.400
        1.4620      0.4190      2.2260    493.3000      9.2590      1.1900
        4.0620      3.5560     39.3280    230.8670    233.4510    228.2830
       98.5180    259.9050
    369.200
        1.7950      0.3810      2.1950    500.0000      9.5570      1.2170
        4.0180      3.5770     40.2290    230.1800    243.2900    217.0700
      102.6110    255.6470
    369.000
        1.7060      0.3810      2.1680    490.0000     10.3230      1.1360
        4.0510      3.5980     40.7050    230.1800    238.0420    222.3170
      101.6090    243.5890
    368.800
        1.8880      0.3810      2.1390    486.7000      9.8000      1.2330
        4.0850      3.5350     41.0760    228.1180    225.5800    230.6570
       96.8740    243.9930
    368.600
        1.8200      0.3430      2.2030    493.3000      8.9790      1.2350
        4.1180      3.5450     41.9770    230.8670    235.4190    226.3150
       97.6820    255.7810
    368.400
        1.7300      0.3810      2.1870    510.0000      9.6510      1.1020
        4.1400      3.5560     42.2420    240.4860    227.5480    253.4250
       95.9550    255.1090
    368.200
        1.7950      0.3430      2.2570    503.3000     10.0050      1.0880
        4.2730      3.5560     41.7120    238.4250    234.7630    242.0870
       90.2180    250.9850
    368.000
        1.7950      0.3810      2.1740    486.7000      9.7630      1.1360
        4.3500      3.7560     41.4470    251.4800    271.4930    231.4660
       84.2310    251.8820
    367.800
        1.5670      0.4190      2.1920    500.0000      9.5010      1.1060
        4.3280      3.8610     41.7650    251.4800    266.2460    236.7140
       86.7930    250.5370
    367.600
        2.0800      0.4190      2.2000    480.0000      9.5950      1.1920
        4.3390      3.9770     41.5530    246.6700    267.5580    225.7820
       84.4260    233.8630
    367.400
        1.7020      0.4190      2.2660    476.7000      9.7630      1.1760
        4.4500      4.1240     41.1820    255.6030    285.2670    225.9380
       79.9420    236.6420
    367.200
        1.9950      0.4190      2.2300    490.0000      9.3330      1.1170
        4.4940      4.1870     41.9770    260.4120    283.9560    236.8690
       78.1310    239.9590
    367.000
        2.0000      0.3430      2.2080    493.3000      9.7070      1.1970
        4.5930      4.1450     42.0300    252.8540    277.3970    228.3120
       85.1220    248.2060
    366.800
        1.8790      0.3040      2.1220    513.3000      9.1650      1.2170
        4.7150      3.9770     42.5600    254.9150    285.9230    223.9080
       88.0460    244.7550
    366.600
        1.8070      0.3430      2.0050    520.0000      9.2030      1.2040
        5.0140      4.0400     43.9370    259.7250    293.1380    226.3120
       85.2050    241.9310
    366.400
        1.9450      0.4580      2.1230    476.7000      9.4830      1.1610
        5.2240      4.1130     46.4800    269.3450    326.5890    212.1000
       79.4130    243.9030
