~Version information
  VERS.                           1.20 : CWLS LAS  -  VERSION 1.20
  WRAP.                            YES : Multiple lines per depth step
~Well information
# MNEM.UNIT         DATA TYPE  INFORMATION                                    
# ====.================================: ===================                  
  STRT.M                       865.000 : First depth in file
  STOP.M                         0.000 : Last  depth in file
  STEP.M                        -0.200 : Depth increment
  NULL.                    -32768.0000 : Null  values
  CN  .                        COMPANY : CIOC
  WN  .                           WELL : 305
  FN  .                          FIELD : KARATUBE
  SRVC.                SERVICE COMPANY : AFGIS JSC"KAZPROMGEOPHYSICA"
  DATE.                       LOG DATE : 09.03.04.
~Curve information
# MNEM.UNIT                   API CODE   CURVE DESCRIPTION                    
# ====.================================:====================                  
  DEPT.M                               : Depth curve
  LL3 .OHMM                            : Apparent resistivity by laterolog,3 electrodes  
  MLL .OHMM                            : Microlaterolog sonde                 
  RHOB.G/C3                            : Bulk density by gamma-gamma log      
  DTP .US/M                            : Interval travel time (P-wave)        
  GR  .UR/H                            : Gamma-ray log                        
  NGLD.UE                              : Neutron-gamma log
  GZ3 .OHMM                            : Apparent resistivity by  A2M0.5N sonde
  GZ3B.OHMM                            : Apparent resistivity by  N0.5M2A sonde
  SP  .MV                              : Spontaneous potential                
  CALI.MM                              : Diameter by caliper             
  C1  .MM                              : Diameter by 1 profile             
  C2  .MM                              : Diameter by 2 profile  
  CILR.MMHO                            : Conduct. by sonde 7I1.6,react.signal 
  CILA.MMHO                            : Conduct. by sonde 7I1.6,active signal
~Parameter information
# MNEM.UNIT                     VALUE       DESCRIPTION                       
# ====.================================:====================                  
~Other information
# ------------------- REMARKS AREA ------------------------                   
# ==========================================================                  
~Ascii Log Data
# ...
    478.000
        3.0970      0.5730      2.1660    433.3000      9.6880      1.1510
       16.9640      5.6920     46.8510    220.5600    222.3010    218.8200
       55.8520    222.5670
    477.800
        2.9110      0.4960      2.2790    430.0000      9.8560      1.1060
       20.8470      5.8180     46.5860    224.6830    224.9240    224.4410
       58.0800    228.0360
    477.600
        2.6910      0.4190      2.2810    426.7000      9.6320      1.1990
       26.3680      6.3230     45.7910    223.3090    225.5800    221.0370
       58.0800    227.0050
    477.400
        2.5290      0.4580      2.2760    433.3000      7.7470      1.2760
       30.5070      7.0280     45.8440    221.9340    222.9570    220.9120
       56.0470    220.1020
    477.200
        3.0830      0.8800      2.1830    436.7000      6.7390      1.2740
       31.2150      7.3010     45.9500    226.7440    222.9570    230.5320
       50.3930    206.2960
    477.000
        5.4200      1.6860      2.2290    450.0000      7.2240      1.2740
       30.4620      6.9540     46.7450    227.4310    226.8920    227.9710
       46.6890    206.2060
    476.800
        3.9720      0.6500      2.2200    473.3000      5.7120      1.2010
       30.1410      6.8700     47.6460    226.7440    231.4830    222.0050
       43.1800    189.5320
    476.600
        5.2240      0.8030      2.2320    463.3000      5.4320      1.2490
       28.4040      7.6380     48.4400    254.2280    246.5690    261.8880
       35.4660    154.6140
    476.400
       12.6470      5.4860      2.0820    426.7000      5.4510      1.2760
       24.1450      8.4690     48.6000    224.6830    222.3010    227.0650
       23.2950    134.6680
    476.200
       17.6600      5.1790      2.1610    436.7000      6.6450      1.2010
       20.0510      9.1530     48.9170    219.8730    217.7090    222.0370
       19.6470    118.1730
    476.000
       17.0220      2.6840      2.1040    433.3000      6.6830      1.2830
       16.9530     10.0150     49.1820    220.5600    219.6770    221.4430
       18.7000     99.3020
    475.800
       15.6320      3.2600      2.1580    433.3000      6.0110      1.3080
       14.7840     11.1620     49.1820    219.1860    220.3330    218.0390
       14.2440     93.4750
    475.600
       15.6320      2.9140      2.2120    423.3000      6.4960      1.1540
       12.9910     12.8660     49.5530    223.3090    219.6770    226.9400
        8.7300     79.5790
    475.400
       20.1840      5.3330      2.1240    420.0000      6.5520      1.2690
       11.2320     14.9280     49.3940    221.9340    219.6770    224.1920
        5.9730     69.7630
    475.200
       19.1430      4.0660      2.1300    440.0000      7.6910      1.1700
        9.9600     17.4740     49.0230    220.5600    220.9890    220.1320
        3.0210     62.2330
    475.000
       13.7090      1.7630      2.2050    446.7000      7.6160      1.1760
        9.0410     20.2730     48.1750    219.1860    220.3330    218.0390
        2.6310     60.2600
    474.800
       12.7940      1.7240      2.0950    443.3000      7.1120      1.1940
        8.3660     23.4600     47.8050    223.9960    219.6770    228.3140
       -0.6830     60.1710
    474.600
       13.1830      1.6860      2.1310    436.7000      7.0930      1.2530
        7.7910     26.6270     47.5400    222.6220    219.6770    225.5660
        0.0690     54.7920
    474.400
       13.9320      1.5710      2.1200    430.0000      7.5600      1.2530
        7.2380     30.0150     47.6460    221.2470    219.6770    222.8180
       -0.9900     45.2440
    474.200
       13.0320      1.6090      2.1790    436.7000      8.2690      1.2260
        6.8400     31.9190     47.2750    219.8730    220.9890    218.7570
       -0.2930     48.8300
    474.000
       10.3750      1.5320      2.1430    440.0000      9.2030      1.2170
        6.4860     31.5930     46.6390    219.8730    219.0210    220.7250
       -2.2430     58.4230
    473.800
        7.1450      1.0720      2.1800    440.0000      9.2770      1.1850
        6.2200     29.2260     46.4270    217.1250    218.3650    215.8840
        1.9340     76.3970
    473.600
        5.0470      0.8800      2.2490    440.0000      9.3520      1.1940
        5.8440     25.8490     46.2680    219.1860    217.0530    221.3190
        5.9730    101.9460
    473.400
        3.8280      0.5730      2.3260    410.0000      8.8670      1.2530
        5.4450     22.7240     46.0560    219.8730    217.0530    222.6930
        7.3930    123.0140
    473.200
        3.6560      0.6110      2.6440    380.0000      8.9230      1.2260
        5.2130     20.2730     45.1560    221.2470    216.3980    226.0970
       11.0690    136.3710
    473.000
        3.8370      0.6880      2.3700    400.0000      9.3520      1.1790
        5.0470     17.8320     44.2550    221.9340    219.0210    224.8480
       13.4360    146.0080
    472.800
        3.4510      0.5730      2.3410    456.7000      9.1840      1.2240
        5.1020     15.6750     43.7780    223.9960    217.7090    230.2820
       16.3610    159.4100
    472.600
        3.3040      0.6500      2.2680    463.3000      9.4640      1.2440
        5.2790     13.9610     42.8770    223.3090    217.0530    229.5640
       17.4470    175.4570
    472.400
        3.2430      0.6500      2.2400    440.0000     10.1360      1.2470
        5.8880     12.2880     42.1890    225.3700    221.6450    229.0950
       27.4730    187.8730
    472.200
        2.9440      0.6110      2.3970    463.3000      9.2210      1.1720
        6.6960     10.9100     41.6060    227.4310    219.0210    235.8410
       34.8530    196.5690
    472.000
        2.7540      0.5340      1.9480    503.3000      8.9790      1.0810
        8.5770     10.6680     41.3940    228.8050    220.9890    236.6220
       36.7750    218.8020
    471.800
        2.6180      0.4190      2.0970    460.0000      7.0370      1.0490
        9.8490     11.4670     41.0760    238.4250    230.8270    246.0220
       41.2860    219.8780
    471.600
        3.2960      0.8420      2.8290    296.7000      4.8350      1.2990
        9.9930     13.1080     41.7120    234.9890    229.5160    240.4630
       37.6100    182.7190
    471.400
       11.8030     14.1230      2.8800    203.3000      4.9840      1.5370
        8.5210     13.5290     42.7180    222.6220    221.6450    223.5980
       27.4170    157.6170
    471.200
       19.4090     13.5850      2.9800    293.3000      6.6270      1.4620
        7.2050     12.4560     43.3540    224.6830    220.9890    228.3770
       26.8040    150.4460
    471.000
        8.0720      3.2980      2.5060    416.7000      8.9410      1.2080
        6.6180     10.3310     43.3010    229.4930    224.2680    234.7170
       43.8210    180.3430
    470.800
        2.9170      0.5730      2.2570    473.3000      9.6130      1.1740
        6.6400      8.3220     43.6720    232.9280    222.9570    242.9000
       54.5430    198.5860
    470.600
        2.6180      0.5340      2.2240    436.7000      9.9870      1.1970
        6.9060      7.2170     43.7250    230.1800    228.2040    232.1560
       53.5120    224.8980
    470.400
        2.5180      0.4960      2.2820    423.3000     10.0800      1.0720
        7.2270      6.3440     43.9900    227.4310    220.9890    233.8740
       50.3370    232.8760
    470.200
        2.5230      0.4960      2.3030    436.7000     10.5840      1.1490
        7.4590      5.8810     44.4140    226.0570    219.6770    232.4370
       53.3450    236.1490
    470.000
        2.5640      0.5730      2.2770    436.7000     10.5650      1.1650
        7.7470      5.5860     45.4730    222.6220    219.0210    226.2220
       52.6210    239.6000
    469.800
        2.6790      0.4960      2.3280    426.7000      9.8930      1.1810
        8.3660      5.6600     46.2150    226.0570    219.0210    233.0930
       48.3600    233.8630
    469.600
        2.7480      0.5340      2.3190    413.3000      9.9490      1.1850
        9.2520      6.1860     46.4800    223.3090    219.0210    227.5960
       48.4990    227.4980
