~Version information
  VERS.                           1.20 : CWLS LAS  -  VERSION 1.20
  WRAP.                            YES : Multiple lines per depth step
~Well information
# MNEM.UNIT         DATA TYPE  INFORMATION                                    
# ====.================================: ===================                  
  STRT.M                       865.000 : First depth in file
  STOP.M                         0.000 : Last  depth in file
  STEP.M                        -0.200 : Depth increment
  NULL.                    -32768.0000 : Null  values
  CN  .                        COMPANY : CIOC
  WN  .                           WELL : 305
  FN  .                          FIELD : KARATUBE
  SRVC.                SERVICE COMPANY : AFGIS JSC"KAZPROMGEOPHYSICA"
  DATE.                       LOG DATE : 09.03.04.
~Curve information
# MNEM.UNIT                   API CODE   CURVE DESCRIPTION                    
# ====.================================:====================                  
  DEPT.M                               : Depth curve
  LL3 .OHMM                            : Apparent resistivity by laterolog,3 electrodes  
  MLL .OHMM                            : Microlaterolog sonde                 
  RHOB.G/C3                            : Bulk density by gamma-gamma log      
  DTP .US/M                            : Interval travel time (P-wave)        
  GR  .UR/H                            : Gamma-ray log                        
  NGLD.UE                              : Neutron-gamma log
  GZ3 .OHMM                            : Apparent resistivity by  A2M0.5N sonde
  GZ3B.OHMM                            : Apparent resistivity by  N0.5M2A sonde
  SP  .MV                              : Spontaneous potential                
  CALI.MM                              : Diameter by caliper             
  C1  .MM                              : Diameter by 1 profile             
  C2  .MM                              : Diameter by 2 profile  
  CILR.MMHO                            : Conduct. by sonde 7I1.6,react.signal 
  CILA.MMHO                            : Conduct. by sonde 7I1.6,active signal
~Parameter information
# MNEM.UNIT                     VALUE       DESCRIPTION                       
# ====.================================:====================                  
~Other information
# ------------------- REMARKS AREA ------------------------                   
# ==========================================================                  
~Ascii Log Data
# ...
    667.200
       13.3660      2.4540      2.1060    410.0000      4.1810      1.2630
       16.5540     24.8910     44.0960    223.3090    221.6450    224.9730
       -2.4940     68.1040
    667.000
       11.4290      1.6090      2.0880    406.7000      4.6480      1.2560
       16.0780     24.0710     44.0430    221.2470    219.6770    222.8180
       -4.3870     71.3320
    666.800
        9.9540      1.6480      2.1560    400.0000      5.2080      1.2740
       16.1670     23.1550     44.1490    221.2470    221.6450    220.8500
       -3.4680     78.9520
    666.600
        8.4530      1.4560      2.1430    396.7000      5.8420      1.2510
       16.2440     22.1870     44.2550    224.6830    222.3010    227.0650
       -0.6830     89.3510
    666.400
        7.8890      1.5320      2.2460    403.3000      5.9920      1.2990
       16.2000     21.5560     44.1490    223.9960    219.6770    228.3140
       -1.7700     87.0650
    666.200
        8.0720      1.6860      2.1420    406.7000      5.4130      1.3010
       15.9350     21.2620     44.4670    224.6830    224.2680    225.0970
       -2.3540     83.1650
    666.000
        9.7950      1.7240      2.1110    406.7000      5.3570      1.3800
       15.6800     21.3250     45.2090    215.0630    220.9890    209.1380
       -1.3520     81.9550
    665.800
        8.6700      1.4170      2.1360    416.7000      5.1150      1.3060
       15.6470     21.5140     45.9500    219.8730    222.9570    216.7900
       -2.7720     82.0890
    665.600
        8.5310      1.5710      2.1190    416.7000      4.9650      1.2720
       15.5470     21.6820     46.0560    221.2470    222.3010    220.1940
       -2.1590     80.8790
    665.400
       10.0460      1.6480      2.1470    410.0000      5.3760      1.3190
       15.3370     21.7770     45.4740    221.9340    219.6770    224.1920
       -1.4910     80.7450
    665.200
        8.7900      1.3410      2.0690    400.0000      5.6190      1.2780
       15.2600     21.2930     45.2090    222.6220    220.9890    224.2540
        0.2080     82.7170
    665.000
        8.6100      1.4560      2.1880    400.0000      5.7120      1.3490
       15.1160     20.8620     45.3680    218.4990    220.3330    216.6650
       -1.2130     81.3270
    664.800
        8.6100      1.3020      2.1220    400.0000      5.7120      1.3550
       15.1820     20.6300     45.3680    221.2470    218.3650    224.1290
       -1.2400     85.4510
    664.600
        8.0910      1.3410      2.1150    400.0000      5.6370      1.3150
       15.6140     20.3360     44.7850    222.6220    219.0210    226.2220
       -0.3770     85.0930
    664.400
        7.6210      1.5320      2.2140    403.3000      5.8800      1.3060
       15.9130     20.0620     44.0960    223.3090    219.6770    226.9400
       -0.9620     91.4130
    664.200
        7.1610      1.3410      2.1480    400.0000      5.1330      1.2850
       15.9570     19.7150     43.7780    221.9340    220.3330    223.5360
       -1.4350     95.9400
    664.000
        7.8520      1.7240      2.2070    393.3000      5.9920      1.3300
       15.8570     19.0520     43.9370    223.9960    220.3330    227.6590
        1.2100     95.4920
    663.800
        6.9820      1.4170      2.1880    393.3000      5.3390      1.4190
       15.8460     18.2110     44.6790    221.2470    219.0210    223.4740
        4.2180    107.4150
    663.600
        6.7140      1.1490      2.1780    396.7000      5.8610      1.3870
       15.9130     17.4950     45.1560    221.9340    220.3330    223.5360
        4.8870    109.1630
    663.400
        6.1660      1.2250      2.1710    396.7000      6.5710      1.3190
       16.1450     17.0960     45.6320    219.8730    221.6450    218.1010
        2.6860    114.9450
    663.200
        6.0260      1.0330      2.1880    396.7000      6.2350      1.2870
       16.5100     17.4850     46.1620    221.9340    220.3330    223.5360
        3.7450    116.4240
    663.000
        6.7450      1.2250      2.1930    410.0000      5.9360      1.3240
       16.5320     18.5580     46.2150    221.9340    221.6450    222.2240
        2.7420    109.9700
    662.800
        8.0720      1.4170      2.0710    420.0000      4.5540      1.3080
       15.8790     19.6520     46.3210    221.2470    222.9570    219.5380
        0.2360     95.4920
    662.600
       11.1430      1.8780      2.1400    416.7000      4.4430      1.2130
       15.0830     20.1040     46.3740    221.2470    220.9890    221.5060
       -1.8530     86.1240
    662.400
       11.3500      1.9550      2.1080    420.0000      5.4510      1.1720
       14.3970     19.6410     45.7380    220.5600    220.3330    220.7880
        2.1290     91.0540
    662.200
        8.5700      1.7240      2.0550    426.7000      5.1890      1.1900
       14.3080     19.4420     44.5200    223.3090    219.6770    226.9400
        4.6640     98.0920
    662.000
        8.5510      1.3790      2.2420    423.3000      5.2640      1.2330
       14.2970     20.3880     43.6720    223.9960    220.9890    227.0030
        4.8870     93.7880
    661.800
       10.0000      1.5320      2.0620    430.0000      5.4880      1.2560
       13.7990     21.6400     43.4070    223.9960    219.6770    228.3140
        0.9600     79.2660
    661.600
       12.7060      2.4920      2.0240    430.0000      5.1890      1.3030
       12.9030     22.8400     43.5130    221.9340    221.6450    222.2240
       -1.2130     70.6150
    661.400
       16.9430      2.6460      2.1230    426.7000      4.9650      1.3350
       11.8630     23.2920     43.7780    223.9960    220.9890    227.0030
       -1.4910     66.1770
    661.200
       12.9420      1.9550      2.1420    413.3000      5.6190      1.2600
       11.1550     22.7130     44.3610    219.8730    220.9890    218.7570
       -1.6580     69.6280
    661.000
        8.3750      1.5320      2.1650    400.0000      6.5520      1.3490
       10.6570     21.3880     45.2090    221.9340    220.9890    222.8800
        0.2360     88.2750
    660.800
        6.0260      1.1490      2.2320    403.3000      6.9440      1.2940
       10.4130     19.6200     45.6320    219.1860    219.6770    218.6950
        2.1850    103.0670
    660.600
        5.2850      1.0720      2.2350    396.7000      7.5970      1.2960
       10.6130     18.4210     46.0560    219.1860    220.3330    218.0390
        6.0010    113.1520
    660.400
        4.4050      0.8420      2.3090    383.3000      7.9150      1.2810
       10.7560     16.8430     46.4800    218.4990    220.3330    216.6650
        5.4990    133.6820
    660.200
        4.6450      1.1100      2.1800    380.0000      8.1570      1.2670
       10.7900     15.8330     46.6390    220.5600    221.6450    219.4760
        7.8940    133.5920
    660.000
        4.9550      1.0720      2.2730    383.3000      8.0270      1.3030
       10.9890     15.0860     46.2680    220.5600    219.0210    222.0990
        6.8640    126.1510
    659.800
        5.1880      1.2250      2.3090    386.7000      8.1570      1.2830
       11.1550     14.5710     45.7910    219.8730    219.6770    220.0690
        4.9980    125.3440
    659.600
        5.3580      0.9950      2.2310    383.3000      7.9150      1.2580
       11.3980     14.2660     45.0500    221.2470    220.3330    222.1620
        6.5580    125.7930
    659.400
        5.6620      0.9570      2.1950    383.3000      7.5970      1.2490
       11.9180     14.0970     44.6260    220.5600    219.0210    222.0990
        7.4770    122.3410
    659.200
        5.5210      0.9950      2.2790    370.0000      7.3360      1.2350
       12.3610     14.1710     44.4670    221.2470    218.3650    224.1290
        8.2560    117.3210
    659.000
        5.5080      0.9180      2.2810    310.0000      7.5230      1.3210
       12.6820     14.7390     44.4140    220.5600    219.0210    222.0990
        5.8330    114.9000
    658.800
        6.4710      1.3410      2.3560    233.3000      7.7280      1.4010
       12.0730     15.2550     44.2020    221.9340    220.3330    223.5360
        8.3120    105.9810
