~Version information
  VERS.                           1.20 : CWLS LAS  -  VERSION 1.20
  WRAP.                            YES : Multiple lines per depth step
~Well information
# MNEM.UNIT         DATA TYPE  INFORMATION                                    
# ====.================================: ===================                  
  STRT.M                       865.000 : First depth in file
  STOP.M                         0.000 : Last  depth in file
  STEP.M                        -0.200 : Depth increment
  NULL.                    -32768.0000 : Null  values
  CN  .                        COMPANY : CIOC
  WN  .                           WELL : 305
  FN  .                          FIELD : KARATUBE
  SRVC.                SERVICE COMPANY : AFGIS JSC"KAZPROMGEOPHYSICA"
  DATE.                       LOG DATE : 09.03.04.
~Curve information
# MNEM.UNIT                   API CODE   CURVE DESCRIPTION                    
# ====.================================:====================                  
  DEPT.M                               : Depth curve
  LL3 .OHMM                            : Apparent resistivity by laterolog,3 electrodes  
  MLL .OHMM                            : Microlaterolog sonde                 
  RHOB.G/C3                            : Bulk density by gamma-gamma log      
  DTP .US/M                            : Interval travel time (P-wave)        
  GR  .UR/H                            : Gamma-ray log                        
  NGLD.UE                              : Neutron-gamma log
  GZ3 .OHMM                            : Apparent resistivity by  A2M0.5N sonde
  GZ3B.OHMM                            : Apparent resistivity by  N0.5M2A sonde
  SP  .MV                              : Spontaneous potential                
  CALI.MM                              : Diameter by caliper             
  C1  .MM                              : Diameter by 1 profile             
  C2  .MM                              : Diameter by 2 profile  
  CILR.MMHO                            : Conduct. by sonde 7I1.6,react.signal 
  CILA.MMHO                            : Conduct. by sonde 7I1.6,active signal
~Parameter information
# MNEM.UNIT                     VALUE       DESCRIPTION                       
# ====.================================:====================                  
~Other information
# ------------------- REMARKS AREA ------------------------                   
# ==========================================================                  
~Ascii Log Data
# ...
    521.000
        2.4320      0.7260      2.4950    306.7000      7.5410      1.1790
        5.6000      6.6070     47.9640    229.4930    223.6130    235.3730
       72.9510    231.7110
    520.800
        3.2960      0.8800      2.5380    280.0000      6.8320      1.2420
        4.8920      7.2270     48.2290    229.4930    221.6450    237.3400
       65.5430    197.6900
    520.600
        6.3970     12.9710      2.6430    340.0000      7.5040      1.2560
        3.8740      6.9640     48.9170    229.4930    234.1070    224.8780
       59.7230    180.8810
    520.400
        3.5970      0.6880      2.4310    403.3000      8.3250      1.2960
        2.9780      5.7230     49.7120    226.0570    219.0210    233.0930
       63.3990    198.4520
    520.200
        2.0840      0.4190      2.2430    413.3000      7.7650      1.3060
        2.5240      4.5130     49.9240    220.5600    213.7740    227.3470
       80.9720    245.1130
    520.000
        1.4090      0.3040      2.1210    416.7000      7.0370      1.3490
        2.4910      3.5660     50.2950    219.1860    216.3980    221.9750
       92.8360    280.3450
    519.800
        1.3550      0.2270      2.2050    413.3000      7.3920      1.3010
        2.7900      3.2190     49.7120    223.9960    213.7740    234.2180
       93.3100    292.8950
    519.600
        1.4520      0.3430      2.1960    436.7000      8.8100      1.2100
        3.0890      3.2510     48.6000    220.5600    213.7740    227.3470
       86.8760    296.7500
    519.400
        1.6220      0.4190      2.1960    470.0000      9.2590      1.1560
        3.3990      3.6510     47.6990    219.8730    213.7740    225.9720
       87.5170    275.7280
    519.200
        1.9360      0.3810      1.8290    476.7000      7.2800      1.1610
        3.1880      3.9140     47.6460    234.9890    224.2680    245.7100
       86.7090    250.4030
    519.000
        2.2910      0.6500      1.5370    486.7000      8.0080      0.9950
        3.0330      4.1770     47.8580    220.5600    216.3980    224.7230
       85.0380    239.6000
    518.800
        2.0890      0.5340      1.9270    456.7000      9.1090      0.9590
        2.9450      4.3340     48.5470    237.7380    232.1390    243.3360
       90.6080    251.0300
    518.600
        1.9100      0.5730      2.3690    413.3000      9.5010      1.1260
        3.0110      4.5660     48.5990    236.3640    224.9240    247.8030
      100.7180    251.2990
    518.400
        1.8970      0.4580      2.2970    413.3000      9.2400      1.1940
        3.2990      4.6920     48.1760    221.9340    215.7420    228.1270
      100.7180    265.2390
    518.200
        1.8580      0.4580      2.2860    403.3000      8.7920      1.1740
        3.3540      4.6710     48.3350    218.4990    214.4300    222.5680
      101.3030    268.6910
    518.000
        1.7500      0.4580      2.4440    410.0000      8.7740      1.3150
        3.1660      4.4400     48.1760    217.8120    213.7740    221.8500
      103.1680    268.3320
    517.800
        2.0420      0.5340      2.3420    426.7000      9.1650      1.3670
        2.9230      3.8930     47.8580    222.6220    216.3980    228.8460
      102.6110    266.5840
    517.600
        1.7990      0.4960      2.3350    426.7000      9.0720      1.2760
        2.9120      3.5140     47.7520    223.9960    215.0860    232.9060
      101.4420    266.4940
    517.400
        1.6710      0.3810      2.2650    423.3000      9.5200      1.2040
        3.0110      3.4720     47.8580    217.8120    213.1180    222.5060
       99.3810    270.5280
    517.200
        1.7620      0.5340      2.3370    426.7000      9.9310      1.2580
        3.0110      3.5030     48.3880    222.6220    213.1180    232.1250
      103.8370    266.3600
    517.000
        1.8240      0.4960      2.1990    426.7000      9.6320      1.3620
        3.0220      3.6400     49.1820    221.2470    213.7740    228.7210
      105.2850    265.4630
    516.800
        1.8840      0.5340      2.2870    423.3000      8.8850      1.2130
        2.9670      3.6400     49.6060    219.8730    215.0860    224.6610
      102.6110    261.0260
    516.600
        1.8580      0.5730      2.3240    423.3000      8.8290      1.2060
        2.9230      3.4720     49.3940    221.9340    215.7420    228.1270
       99.6040    261.0260
    516.400
        1.8580      0.4190      2.2460    426.7000      9.2770      1.3080
        2.8780      3.3770     49.9240    221.9340    215.0860    228.7830
      105.4240    266.3600
    516.200
        1.7220      0.4190      2.2900    430.0000      9.9490      1.3170
        2.8010      3.3450     50.2420    221.2470    215.0860    227.4090
      109.8250    262.6840
    516.000
        1.6940      0.3810      2.2590    430.0000      9.6690      1.2960
        2.7900      3.3140     50.1890    223.3090    215.7420    230.8760
      108.6270    265.7320
    515.800
        1.6480      0.3810      2.2530    433.3000      9.3890      1.2350
        2.7240      3.3240     49.5530    224.6830    215.7420    233.6240
      104.4220    271.0660
    515.600
        1.6220      0.3430      2.1960    430.0000      9.9120      1.1810
        2.7460      3.2720     49.4470    221.2470    215.0860    227.4090
      112.9160    278.2830
    515.400
        1.6290      0.3810      2.2370    420.0000      9.1090      1.2190
        2.7460      3.1880     48.6520    221.9340    215.0860    228.7830
      113.7240    270.6630
    515.200
        1.6440      0.3430      2.2630    436.7000      9.3330      1.2830
        2.7680      3.2090     47.6460    219.1860    214.4300    223.9420
      111.0500    266.0910
    515.000
        1.7060      0.5340      2.2600    446.7000      9.2030      1.2190
        2.8670      3.2610     47.1160    221.9340    215.7420    228.1270
      108.0420    270.0800
    514.800
        1.6630      0.4190      2.2270    470.0000      9.2770      1.1970
        2.9560      3.3770     47.6460    219.1860    213.7740    224.5980
      114.0020    276.5800
    514.600
        1.6670      0.4580      2.3640    463.3000      9.3150      1.2220
        3.0330      3.4930     48.4400    221.9340    215.0860    228.7830
      116.0350    271.6940
    514.400
        1.6790      0.4190      2.2660    443.3000      9.4270      1.2280
        3.1660      3.5660     49.0230    219.1860    215.7420    222.6300
      114.2250    272.6800
    514.200
        1.7060      0.4190      2.2460    440.0000      9.5950      1.2040
        3.3990      3.7140     49.9770    221.9340    214.4300    229.4390
      111.1610    276.1760
    514.000
        1.7660      0.4580      2.2680    433.3000      9.3150      1.1880
        3.3990      3.8610     50.8250    220.5600    215.0860    226.0350
      112.4980    273.7560
    513.800
        1.9100      0.5340      2.4050    433.3000      8.5870      1.1970
        3.2770      4.0190     51.6720    219.1860    214.4300    223.9420
      108.7940    256.7680
    513.600
        1.9410      0.5730      2.3770    433.3000      7.8960      1.2310
        3.0440      3.9140     51.2480    219.1860    214.4300    223.9420
      103.2240    250.4470
    513.400
        1.9320      0.4960      2.3490    423.3000      8.1760      1.1810
        2.8670      3.7240     50.9310    220.5600    214.4300    226.6910
      106.5380    253.0020
    513.200
        1.8280      0.4580      2.2830    416.7000      9.3330      1.1830
        2.7570      3.5450     50.2950    221.2470    213.1180    229.3770
      109.4900    261.5640
    513.000
        1.7060      0.4190      2.2480    416.7000      9.7810      1.1810
        2.7460      3.4300     49.9240    216.4380    210.4940    222.3810
      108.2090    263.7600
    512.800
        1.8360      0.4960      2.1330    400.0000      9.6130      1.1920
        2.6460      3.3450     49.6060    221.9340    211.8060    232.0630
      101.8600    270.1700
    512.600
        1.9360      0.4580      2.2590    403.3000      9.5390      1.1740
        2.5690      3.2930     49.1290    221.2470    211.8060    230.6880
      104.9510    271.5150
