~Version information
  VERS.                           1.20 : CWLS LAS  -  VERSION 1.20
  WRAP.                            YES : Multiple lines per depth step
~Well information
# MNEM.UNIT         DATA TYPE  INFORMATION                                    
# ====.================================: ===================                  
  STRT.M                       865.000 : First depth in file
  STOP.M                         0.000 : Last  depth in file
  STEP.M                        -0.200 : Depth increment
  NULL.                    -32768.0000 : Null  values
  CN  .                        COMPANY : CIOC
  WN  .                           WELL : 305
  FN  .                          FIELD : KARATUBE
  SRVC.                SERVICE COMPANY : AFGIS JSC"KAZPROMGEOPHYSICA"
  DATE.                       LOG DATE : 09.03.04.
~Curve information
# MNEM.UNIT                   API CODE   CURVE DESCRIPTION                    
# ====.================================:====================                  
  DEPT.M                               : Depth curve
  LL3 .OHMM                            : Apparent resistivity by laterolog,3 electrodes  
  MLL .OHMM                            : Microlaterolog sonde                 
  RHOB.G/C3                            : Bulk density by gamma-gamma log      
  DTP .US/M                            : Interval travel time (P-wave)        
  GR  .UR/H                            : Gamma-ray log                        
  NGLD.UE                              : Neutron-gamma log
  GZ3 .OHMM                            : Apparent resistivity by  A2M0.5N sonde
  GZ3B.OHMM                            : Apparent resistivity by  N0.5M2A sonde
  SP  .MV                              : Spontaneous potential                
  CALI.MM                              : Diameter by caliper             
  C1  .MM                              : Diameter by 1 profile             
  C2  .MM                              : Diameter by 2 profile  
  CILR.MMHO                            : Conduct. by sonde 7I1.6,react.signal 
  CILA.MMHO                            : Conduct. by sonde 7I1.6,active signal
~Parameter information
# MNEM.UNIT                     VALUE       DESCRIPTION                       
# ====.================================:====================                  
~Other information
# ------------------- REMARKS AREA ------------------------                   
# ==========================================================                  
~Ascii Log Data
# ...
    426.400
        1.8660      0.2270      2.1430    510.0000     11.3310      1.2510
        3.7300      4.4190     36.4670    230.8670    217.7090    244.0240
       78.3540    249.5060
    426.200
        1.8880      0.3430      2.1340    496.7000      9.3710      1.0970
        3.6530      4.2190     36.7320    235.6770    216.3980    254.9550
       81.0560    252.0160
    426.000
        1.9140      0.3430      2.0400    476.7000      7.8210      1.0490
        3.6640      3.9350     37.7380    234.9890    211.8060    258.1730
       80.3040    251.1200
    425.800
        1.8200      0.2660      2.1400    480.0000      7.2240      0.9860
        3.6970      3.8400     39.2750    246.6700    225.5800    267.7600
       85.3450    260.6220
    425.600
        1.6940      0.2270      2.0720    493.3000      6.6450      1.0150
        3.7640      3.6610     41.2350    241.8600    222.3010    261.4200
       88.4920    262.5050
    425.400
        1.7300      0.3040      1.9180    503.3000      7.1310      1.0450
        3.9960      3.7240     43.3540    254.2280    216.3980    292.0590
       85.3450    264.7460
    425.200
        1.8110      0.4580      1.9750    493.3000      7.9710      1.0680
        4.2500      3.9030     44.8380    254.9150    226.2360    283.5950
       91.1090    261.2950
    425.000
        1.9280      0.4960      2.1830    443.3000      9.1840      1.1990
        4.5160      4.2290     45.7910    247.3570    234.7630    259.9520
       89.5780    242.1100
    424.800
        2.0840      0.3430      2.2190    393.3000      9.6690      1.1560
        4.5050      4.2400     46.2150    225.3700    215.7420    234.9980
       83.3950    240.5860
    424.600
        2.1330      0.3430      2.2120    400.0000      9.5950      1.1420
        4.6270      4.3550     46.7450    225.3700    214.4300    236.3100
       80.5820    238.8830
    424.400
        2.1780      0.3810      2.2100    420.0000      9.9310      1.1380
        4.6380      4.5240     46.1620    222.6220    215.0860    230.1570
       84.3140    241.7070
    424.200
        2.3600      0.4960      2.2620    446.7000      9.8750      1.1220
        4.5930      4.7340     45.3150    220.5600    217.0530    224.0670
       78.5490    225.1670
    424.000
        2.6910      0.5730      2.1610    463.3000      9.6880      1.1940
        4.3170      4.8920     43.7780    224.6830    215.7420    233.6240
       70.7510    211.0030
    423.800
        2.8120      0.6110      2.2170    456.7000     10.0050      1.2440
        3.9850      4.8500     43.3010    222.6220    215.0860    230.1570
       68.3010    207.7300
    423.600
        2.7230      0.4580      2.2900    456.7000     10.0430      1.1420
        3.7860      4.7130     44.5730    221.2470    214.4300    228.0650
       67.9940    206.0270
    423.400
        2.6300      0.4190      2.3160    460.0000      9.7070      1.1670
        3.5530      4.5340     45.4210    224.6830    216.3980    232.9680
       67.4370    215.6190
    423.200
        2.4270      0.3810      2.2860    456.7000      9.8370      1.2220
        3.6090      4.4400     45.6850    225.3700    216.3980    234.3420
       64.2070    220.4150
    423.000
        2.3330      0.4190      2.2180    453.3000      9.7250      1.1970
        3.6420      4.4610     44.8910    226.0570    215.7420    236.3720
       66.7410    223.1050
    422.800
        2.3770      0.4190      2.1740    480.0000      8.7360      1.1970
        3.7080      4.6080     45.3150    224.6830    216.3980    232.9680
       64.2900    222.8360
    422.600
        2.5000      0.5340      1.9010    516.7000      8.7360      1.1130
        3.7640      4.7550     46.1620    238.4250    232.1390    244.7110
       66.1000    229.1110
    422.400
        2.2390      0.6110      2.0500    543.3000      9.2590      1.0270
        4.1070      4.9550     46.2150    238.4250    238.0420    238.8080
       64.7640    229.7840
    422.200
        2.0890      0.3040      2.1440    540.0000      7.9520      1.0770
        4.3390      5.0810     45.1550    232.9280    219.6770    246.1790
       71.0580    246.5480
    422.000
        2.0560      0.4190      1.7650    516.7000      8.2320      1.0290
        4.5600      5.2390     44.2550    235.6770    222.3010    249.0520
       73.7030    243.8130
    421.800
        2.0560      0.4190      1.7420    516.7000      8.5490      0.9880
        4.6270      5.1130     43.6190    245.2960    223.6130    266.9790
       72.8120    255.3330
    421.600
        1.8790      0.4190      1.7510    526.7000      9.8190      0.9660
        4.6820      4.9870     43.4600    239.7990    224.9240    254.6740
       76.4050    257.1260
    421.400
        1.9140      0.3040      2.0360    536.7000      9.8930      0.9680
        4.6050      4.7130     42.3480    234.9890    224.9240    245.0550
       78.9670    255.2440
    421.200
        1.9860      0.4190      2.0080    520.0000      9.1650      1.0860
        4.2840      4.3870     40.9700    237.7380    226.8920    248.5840
       76.9900    245.4270
    421.000
        2.2700      0.4960      1.9670    480.0000      8.9040      1.0990
        3.9630      4.2190     40.3870    232.9280    222.3010    243.5560
       72.1990    236.5070
    420.800
        2.3550      0.3040      2.1350    466.7000      9.1090      1.0430
        3.7420      3.9660     40.5990    228.8050    219.6770    237.9340
       80.6100    248.8790
    420.600
        2.1880      0.3810      2.2540    490.0000      9.2210      1.0650
        3.7190      3.8400     41.7120    231.5540    216.3980    246.7100
       84.7320    244.3960
    420.400
        2.1180      0.4580      2.0630    503.3000      8.9040      1.0470
        3.7190      3.8080     42.7180    228.1180    214.4300    241.8070
       81.1670    238.9730
    420.200
        2.1930      0.3810      2.1950    476.7000      8.5490      1.0150
        3.6420      3.9030     42.8240    230.8670    219.0210    242.7120
       73.9540    235.4310
    420.000
        2.3930      0.4190      2.2240    433.3000      8.4930      1.0130
        3.5530      4.0080     42.4540    226.7440    219.6770    233.8110
       74.8730    231.2630
    419.800
        2.4600      0.4960      2.2670    410.0000      9.5010      0.9540
        3.5640      4.1870     42.5600    230.1800    219.6770    240.6820
       74.3720    225.3010
    419.600
        2.5410      0.5340      2.1880    403.3000      9.9310      0.9790
        3.7190      4.4190     42.4010    229.4930    225.5800    233.4050
       68.4950    221.8950
    419.400
        2.5000      0.5730      2.2130    420.0000      9.4270      0.9590
        3.9300      4.7970     41.9240    237.0510    226.8920    247.2090
       66.4350    226.9150
    419.200
        2.4660      0.5730      2.1060    460.0000      8.6240      0.9270
        4.1950      5.1020     41.9770    234.3020    226.2360    242.3690
       72.5890    234.5800
    419.000
        2.4150      0.5730      2.0370    463.3000      6.8130      0.9500
        4.3940      5.3020     41.3940    226.7440    217.7090    235.7790
       74.7900    232.2040
    418.800
        2.3330      0.5730      1.5800    496.7000      4.6110      0.9930
        4.4940      5.4290     40.9170    226.0570    218.3650    233.7490
       75.3190    236.6860
    418.600
        2.4950      0.7260      1.5200    480.0000      5.6000      0.9720
        4.5050      5.2290     40.6520    223.3090    217.0530    229.5640
       75.3190    249.1470
    418.400
        2.1730      0.4190      1.7000    523.3000      8.4380      0.9070
        4.6930      5.0290     40.3340    226.0570    217.0530    235.0610
       77.6580    254.3920
    418.200
        1.9950      0.3810      2.0360    543.3000      9.4270      1.0380
        4.8920      4.6920     40.4400    224.6830    221.6450    227.7210
       80.4150    248.9680
    418.000
        2.0610      0.4580      2.0660    526.7000      8.1010      1.0380
        4.9920      4.5340     40.9700    224.6830    218.3650    231.0000
       79.3290    253.8540
