~Version information
  VERS.                           1.20 : CWLS LAS  -  VERSION 1.20
  WRAP.                            YES : Multiple lines per depth step
~Well information
# MNEM.UNIT         DATA TYPE  INFORMATION                                    
# ====.================================: ===================                  
  STRT.M                       865.000 : First depth in file
  STOP.M                         0.000 : Last  depth in file
  STEP.M                        -0.200 : Depth increment
  NULL.                    -32768.0000 : Null  values
  CN  .                        COMPANY : CIOC
  WN  .                           WELL : 305
  FN  .                          FIELD : KARATUBE
  SRVC.                SERVICE COMPANY : AFGIS JSC"KAZPROMGEOPHYSICA"
  DATE.                       LOG DATE : 09.03.04.
~Curve information
# MNEM.UNIT                   API CODE   CURVE DESCRIPTION                    
# ====.================================:====================                  
  DEPT.M                               : Depth curve
  LL3 .OHMM                            : Apparent resistivity by laterolog,3 electrodes  
  MLL .OHMM                            : Microlaterolog sonde                 
  RHOB.G/C3                            : Bulk density by gamma-gamma log      
  DTP .US/M                            : Interval travel time (P-wave)        
  GR  .UR/H                            : Gamma-ray log                        
  NGLD.UE                              : Neutron-gamma log
  GZ3 .OHMM                            : Apparent resistivity by  A2M0.5N sonde
  GZ3B.OHMM                            : Apparent resistivity by  N0.5M2A sonde
  SP  .MV                              : Spontaneous potential                
  CALI.MM                              : Diameter by caliper             
  C1  .MM                              : Diameter by 1 profile             
  C2  .MM                              : Diameter by 2 profile  
  CILR.MMHO                            : Conduct. by sonde 7I1.6,react.signal 
  CILA.MMHO                            : Conduct. by sonde 7I1.6,active signal
~Parameter information
# MNEM.UNIT                     VALUE       DESCRIPTION                       
# ====.================================:====================                  
~Other information
# ------------------- REMARKS AREA ------------------------                   
# ==========================================================                  
~Ascii Log Data
# ...
    134.000
        0.1440  -9999.0000  -9999.0000    190.0000      4.4990      0.8910
       -0.0200      0.0420     38.1620    228.1180    232.1390    224.0980
    -9999.0000  -9999.0000
    133.800
        0.1480  -9999.0000  -9999.0000    183.3000      4.2370      0.8730
        0.0130      0.0110     38.5330    226.7440    230.1720    223.3170
    -9999.0000  -9999.0000
    133.600
        0.1480  -9999.0000  -9999.0000    180.0000      4.1810      0.8790
        0.0020      0.0530     39.3280    227.4310    230.1720    224.6910
    -9999.0000  -9999.0000
    133.400
        0.1550  -9999.0000  -9999.0000    183.3000      4.1630      0.8910
        0.0020      0.0420     39.9110    230.1800    232.1390    228.2200
    -9999.0000  -9999.0000
    133.200
        0.1630  -9999.0000  -9999.0000    180.0000      3.8450      0.9000
        0.0020      0.0320     40.4940    230.1800    232.1390    228.2200
    -9999.0000  -9999.0000
    133.000
        0.1480  -9999.0000  -9999.0000    180.0000      2.9870      0.8610
        0.0350      0.0530     40.9700    230.1800    231.4830    228.8760
    -9999.0000  -9999.0000
    132.800
        0.1560  -9999.0000  -9999.0000    180.0000      2.7070      0.8270
    -9999.0000      0.0530     41.0760    229.4930    230.8270    228.1580
    -9999.0000  -9999.0000
    132.600
        0.1470  -9999.0000  -9999.0000    180.0000      2.7630      0.8450
    -9999.0000      0.0630     40.7580    230.8670    230.8270    230.9060
    -9999.0000  -9999.0000
    132.400
        0.1430  -9999.0000  -9999.0000    180.0000      2.5200      0.8110
    -9999.0000      0.0320     40.8110    229.4930    232.1390    226.8460
    -9999.0000  -9999.0000
    132.200
        0.1500  -9999.0000  -9999.0000    180.0000      2.8190      0.7660
    -9999.0000      0.0320     40.7050    228.8050    230.8270    226.7840
    -9999.0000  -9999.0000
    132.000
        0.1470  -9999.0000  -9999.0000    183.3000      2.6880      0.7960
    -9999.0000      0.0530     40.4930    231.5540    230.1720    232.9360
    -9999.0000  -9999.0000
    131.800
        0.1550  -9999.0000  -9999.0000    183.3000      2.8750      0.8410
    -9999.0000      0.0530     39.5930    228.1180    230.1720    226.0650
    -9999.0000  -9999.0000
    131.600
        0.1450  -9999.0000  -9999.0000    180.0000      3.0990      0.7890
    -9999.0000      0.0530     38.6390    230.1800    230.8270    229.5320
    -9999.0000  -9999.0000
    131.400
        0.1470  -9999.0000  -9999.0000    180.0000      2.8000      0.6730
    -9999.0000      0.0420     38.6390    226.7440    230.8270    222.6610
    -9999.0000  -9999.0000
    131.200
        0.1510  -9999.0000  -9999.0000    180.0000      2.5010      0.7660
    -9999.0000      0.0320     39.3810    227.4310    230.1720    224.6910
    -9999.0000  -9999.0000
    131.000
        0.1550  -9999.0000  -9999.0000    180.0000      2.8000      0.8300
    -9999.0000      0.0210     39.6990    225.3700    231.4830    219.2570
    -9999.0000  -9999.0000
    130.800
        0.1530  -9999.0000  -9999.0000    180.0000      2.9120      0.8300
    -9999.0000      0.0530     39.9110    230.8670    231.4830    230.2500
    -9999.0000  -9999.0000
    130.600
        0.1540  -9999.0000  -9999.0000    180.0000      2.8000      0.8270
    -9999.0000      0.0210     39.7520    230.1800    231.4830    228.8760
    -9999.0000  -9999.0000
    130.400
        0.1550  -9999.0000  -9999.0000    180.0000      2.7070      0.8640
    -9999.0000      0.0320     39.5930    228.1180    230.1720    226.0650
    -9999.0000  -9999.0000
    130.200
        0.1520  -9999.0000  -9999.0000    180.0000      3.1170      0.7730
    -9999.0000      0.0420     39.2220    232.2410    230.8270    233.6550
    -9999.0000  -9999.0000
    130.000
        0.1510  -9999.0000  -9999.0000    180.0000      2.8190      0.7570
    -9999.0000      0.0530     39.2220    227.4310    232.1390    222.7230
    -9999.0000  -9999.0000
    129.800
        0.1590  -9999.0000  -9999.0000    180.0000      2.7250      0.7390
    -9999.0000      0.0630  -9999.0000    230.1800    230.8270    229.5320
    -9999.0000  -9999.0000
    129.600
        0.1570  -9999.0000  -9999.0000    180.0000      2.7630      0.7680
    -9999.0000      0.0420  -9999.0000    229.4930    229.5160    229.4700
    -9999.0000  -9999.0000
    129.400
        0.1480  -9999.0000  -9999.0000    180.0000      2.4640      0.7800
    -9999.0000      0.0420  -9999.0000    229.4930    230.1720    228.8140
    -9999.0000  -9999.0000
    129.200
        0.1490  -9999.0000  -9999.0000    186.7000      2.5200      0.8360
    -9999.0000      0.0530  -9999.0000    231.5540    230.1720    232.9360
    -9999.0000  -9999.0000
    129.000
        0.1490  -9999.0000  -9999.0000    190.0000      2.5200      0.8210
    -9999.0000      0.0320  -9999.0000    230.1800    231.4830    228.8760
    -9999.0000  -9999.0000
    128.800
        0.1490  -9999.0000  -9999.0000    196.7000      2.6130      0.7280
    -9999.0000      0.0530  -9999.0000    230.1800    231.4830    228.8760
    -9999.0000  -9999.0000
    128.600
        0.1600  -9999.0000  -9999.0000    216.7000      2.3330      0.7710
    -9999.0000      0.0320  -9999.0000    226.7440    230.8270    222.6610
    -9999.0000  -9999.0000
    128.400
        0.1640  -9999.0000  -9999.0000    203.3000      2.5200      0.7590
    -9999.0000  -9999.0000  -9999.0000    228.8050    230.8270    226.7840
    -9999.0000  -9999.0000
    128.200
        0.1580  -9999.0000  -9999.0000    176.7000      2.6320      0.7590
    -9999.0000  -9999.0000  -9999.0000    228.1180    231.4830    224.7530
    -9999.0000  -9999.0000
    128.000
        0.1470  -9999.0000  -9999.0000    180.0000      2.6130      0.8340
    -9999.0000  -9999.0000  -9999.0000    230.8670    232.1390    229.5940
    -9999.0000  -9999.0000
    127.800
    -9999.0000  -9999.0000  -9999.0000    186.7000      2.5760      0.7840
    -9999.0000  -9999.0000  -9999.0000  -9999.0000  -9999.0000  -9999.0000
    -9999.0000  -9999.0000
    127.600
    -9999.0000  -9999.0000  -9999.0000    186.7000      2.3150      0.7710
    -9999.0000  -9999.0000  -9999.0000  -9999.0000  -9999.0000  -9999.0000
    -9999.0000  -9999.0000
    127.400
    -9999.0000  -9999.0000  -9999.0000    186.7000      2.4080      0.7710
    -9999.0000  -9999.0000  -9999.0000  -9999.0000  -9999.0000  -9999.0000
    -9999.0000  -9999.0000
    127.200
    -9999.0000  -9999.0000  -9999.0000    190.0000      2.5200      0.7960
    -9999.0000  -9999.0000  -9999.0000  -9999.0000  -9999.0000  -9999.0000
    -9999.0000  -9999.0000
    127.000
    -9999.0000  -9999.0000  -9999.0000    190.0000      2.7440      0.8000
    -9999.0000  -9999.0000  -9999.0000  -9999.0000  -9999.0000  -9999.0000
    -9999.0000  -9999.0000
    126.800
    -9999.0000  -9999.0000  -9999.0000    186.7000      2.6690      0.7910
    -9999.0000  -9999.0000  -9999.0000  -9999.0000  -9999.0000  -9999.0000
    -9999.0000  -9999.0000
    126.600
    -9999.0000  -9999.0000  -9999.0000    180.0000      2.7440      0.7660
    -9999.0000  -9999.0000  -9999.0000  -9999.0000  -9999.0000  -9999.0000
    -9999.0000  -9999.0000
    126.400
    -9999.0000  -9999.0000  -9999.0000    186.7000      2.7810      0.8270
    -9999.0000  -9999.0000  -9999.0000  -9999.0000  -9999.0000  -9999.0000
    -9999.0000  -9999.0000
    126.200
    -9999.0000  -9999.0000  -9999.0000    186.7000      2.8190      0.8360
    -9999.0000  -9999.0000  -9999.0000  -9999.0000  -9999.0000  -9999.0000
    -9999.0000  -9999.0000
    126.000
    -9999.0000  -9999.0000  -9999.0000    190.0000      2.6320      0.8450
    -9999.0000  -9999.0000  -9999.0000  -9999.0000  -9999.0000  -9999.0000
    -9999.0000  -9999.0000
    125.800
    -9999.0000  -9999.0000  -9999.0000    190.0000      2.7070      0.8210
    -9999.0000  -9999.0000  -9999.0000  -9999.0000  -9999.0000  -9999.0000
    -9999.0000  -9999.0000
    125.600
    -9999.0000  -9999.0000  -9999.0000    190.0000      2.6690      0.7430
    -9999.0000  -9999.0000  -9999.0000  -9999.0000  -9999.0000  -9999.0000
    -9999.0000  -9999.0000
