~Version information
  VERS.                           1.20 : CWLS LAS  -  VERSION 1.20
  WRAP.                            YES : Multiple lines per depth step
~Well information
# MNEM.UNIT         DATA TYPE  INFORMATION                                    
# ====.================================: ===================                  
  STRT.M                       865.000 : First depth in file
  STOP.M                         0.000 : Last  depth in file
  STEP.M                        -0.200 : Depth increment
  NULL.                    -32768.0000 : Null  values
  CN  .                        COMPANY : CIOC
  WN  .                           WELL : 305
  FN  .                          FIELD : KARATUBE
  SRVC.                SERVICE COMPANY : AFGIS JSC"KAZPROMGEOPHYSICA"
  DATE.                       LOG DATE : 09.03.04.
~Curve information
# MNEM.UNIT                   API CODE   CURVE DESCRIPTION                    
# ====.================================:====================                  
  DEPT.M                               : Depth curve
  LL3 .OHMM                            : Apparent resistivity by laterolog,3 electrodes  
  MLL .OHMM                            : Microlaterolog sonde                 
  RHOB.G/C3                            : Bulk density by gamma-gamma log      
  DTP .US/M                            : Interval travel time (P-wave)        
  GR  .UR/H                            : Gamma-ray log                        
  NGLD.UE                              : Neutron-gamma log
  GZ3 .OHMM                            : Apparent resistivity by  A2M0.5N sonde
  GZ3B.OHMM                            : Apparent resistivity by  N0.5M2A sonde
  SP  .MV                              : Spontaneous potential                
  CALI.MM                              : Diameter by caliper             
  C1  .MM                              : Diameter by 1 profile             
  C2  .MM                              : Diameter by 2 profile  
  CILR.MMHO                            : Conduct. by sonde 7I1.6,react.signal 
  CILA.MMHO                            : Conduct. by sonde 7I1.6,active signal
~Parameter information
# MNEM.UNIT                     VALUE       DESCRIPTION                       
# ====.================================:====================                  
~Other information
# ------------------- REMARKS AREA ------------------------                   
# ==========================================================                  
~Ascii Log Data
    865.000
    -9999.0000  -9999.0000  -9999.0000    210.0000  -9999.0000  -9999.0000
    -9999.0000  -9999.0000  -9999.0000  -9999.0000  -9999.0000  -9999.0000
    -9999.0000  -9999.0000
    864.800
    95279.6328  -9999.0000  -9999.0000    213.3000  -9999.0000  -9999.0000
    -9999.0000  -9999.0000  -9999.0000  -9999.0000  -9999.0000  -9999.0000
    -9999.0000  -9999.0000
    864.600
    95279.6328  -9999.0000  -9999.0000    213.3000  -9999.0000  -9999.0000
    -9999.0000  -9999.0000  -9999.0000  -9999.0000  -9999.0000  -9999.0000
    -9999.0000  -9999.0000
    864.400
    95279.6328  -9999.0000  -9999.0000    210.0000  -9999.0000  -9999.0000
    -9999.0000  -9999.0000  -9999.0000  -9999.0000  -9999.0000  -9999.0000
    -9999.0000  -9999.0000
    864.200
    95279.6328  -9999.0000  -9999.0000    210.0000  -9999.0000  -9999.0000
    -9999.0000  -9999.0000  -9999.0000  -9999.0000  -9999.0000  -9999.0000
    -9999.0000  -9999.0000
    864.000
    95279.6328  -9999.0000  -9999.0000    210.0000  -9999.0000  -9999.0000
    -9999.0000  -9999.0000  -9999.0000  -9999.0000  -9999.0000  -9999.0000
    -9999.0000  -9999.0000
    863.800
    95279.6328      0.1510  -9999.0000    210.0000  -9999.0000  -9999.0000
    -9999.0000  -9999.0000  -9999.0000  -9999.0000  -9999.0000  -9999.0000
    -9999.0000  -9999.0000
    863.600
    95279.6328      0.1890  -9999.0000    210.0000  -9999.0000  -9999.0000
    -9999.0000  -9999.0000  -9999.0000  -9999.0000  -9999.0000  -9999.0000
    -9999.0000  -9999.0000
    863.400
    95279.6328      0.1890  -9999.0000    210.0000  -9999.0000  -9999.0000
    -9999.0000  -9999.0000  -9999.0000  -9999.0000  -9999.0000  -9999.0000
    -9999.0000  -9999.0000
    863.200
    95279.6328      0.2270  -9999.0000    210.0000  -9999.0000  -9999.0000
    -9999.0000  -9999.0000  -9999.0000  -9999.0000  -9999.0000  -9999.0000
    -9999.0000  -9999.0000
    863.000
    95279.6328      0.1510  -9999.0000    210.0000  -9999.0000  -9999.0000
    -9999.0000  -9999.0000  -9999.0000  -9999.0000  -9999.0000  -9999.0000
    -9999.0000  -9999.0000
    862.800
    95279.6328      0.2660  -9999.0000    210.0000  -9999.0000  -9999.0000
    -9999.0000  -9999.0000  -9999.0000  -9999.0000  -9999.0000  -9999.0000
    -9999.0000  -9999.0000
    862.600
    95279.6328      0.2270  -9999.0000    210.0000  -9999.0000  -9999.0000
    -9999.0000  -9999.0000  -9999.0000  -9999.0000  -9999.0000  -9999.0000
    -9999.0000  -9999.0000
    862.400
    95279.6328      0.2660  -9999.0000    210.0000  -9999.0000  -9999.0000
    -9999.0000  -9999.0000  -9999.0000  -9999.0000  -9999.0000  -9999.0000
    -9999.0000  -9999.0000
    862.200
    95279.6328      0.2660  -9999.0000    210.0000  -9999.0000  -9999.0000
    -9999.0000  -9999.0000  -9999.0000  -9999.0000  -9999.0000  -9999.0000
    -9999.0000  -9999.0000
    862.000
    95279.6328      0.2270  -9999.0000    210.0000  -9999.0000  -9999.0000
    -9999.0000  -9999.0000  -9999.0000    165.5920    128.5070    202.6770
    -9999.0000  -9999.0000
    861.800
    95279.6328      0.2660  -9999.0000    210.0000  -9999.0000  -9999.0000
        0.1120  -9999.0000  -9999.0000    168.3400    125.8830    210.7980
    -9999.0000  -9999.0000
    861.600
    95279.6328      0.2270  -9999.0000    210.0000  -9999.0000  -9999.0000
        0.1010  -9999.0000  -9999.0000    167.6530    127.1950    208.1120
    -9999.0000  -9999.0000
    861.400
    95279.6328      0.2270  -9999.0000    206.7000  -9999.0000  -9999.0000
        0.1230  -9999.0000  -9999.0000    169.7150    127.1950    212.2340
    -9999.0000  -9999.0000
    861.200
    95279.6328      0.3040  -9999.0000    206.7000  -9999.0000      7.9740
        0.1010  -9999.0000  -9999.0000    169.0270    127.1950    210.8600
    -9999.0000  -9999.0000
    861.000
    95279.6328      0.2270  -9999.0000    210.0000  -9999.0000      8.0580
        0.1230  -9999.0000  -9999.0000    169.0270    127.8510    210.2040
    -9999.0000  -9999.0000
    860.800
    95279.6328      0.2660  -9999.0000    210.0000  -9999.0000      7.8520
        0.1120  -9999.0000  -9999.0000    169.0270    128.5070    209.5480
    -9999.0000  -9999.0000
    860.600
    95279.6328      0.3040  -9999.0000    210.0000  -9999.0000      7.6390
        0.1010  -9999.0000  -9999.0000    169.0270    129.1620    208.8930
    -9999.0000  -9999.0000
    860.400
    95279.6328      0.2660  -9999.0000    210.0000  -9999.0000      7.7290
        0.0680  -9999.0000  -9999.0000    172.4630    136.3770    208.5490
    -9999.0000  -9999.0000
    860.200
    95279.6328      0.2660  -9999.0000    213.3000  -9999.0000      7.8310
        0.0900  -9999.0000  -9999.0000    186.2050    166.5490    205.8610
    -9999.0000  -9999.0000
    860.000
    95279.6328      0.3430  -9999.0000    216.7000  -9999.0000      7.8880
        0.1010  -9999.0000  -9999.0000    205.4440    205.9030    204.9850
    -9999.0000  -9999.0000
    859.800
    95279.6328      0.3040  -9999.0000    210.0000  -9999.0000      7.8650
        0.0790  -9999.0000  -9999.0000    221.2470    213.1180    229.3770
      -16.0010     24.3120
    859.600
    95279.6328      0.3430  -9999.0000    213.3000  -9999.0000      7.9330
        0.1120  -9999.0000  -9999.0000    195.8250    164.5810    227.0680
      -14.4690     24.0430
    859.400
    95279.6328      0.1890  -9999.0000    213.3000      3.1550      7.9760
        0.1230  -9999.0000  -9999.0000    194.4500    154.7430    234.1580
      -15.7780     26.5530
    859.200
    95279.6328      0.2270  -9999.0000    213.3000      3.1920      7.9880
        0.1230  -9999.0000  -9999.0000    211.6280    182.2910    240.9650
      -14.6080     27.2250
    859.000
    95279.6328      0.3430  -9999.0000    216.7000      2.7630      7.6610
        0.1120  -9999.0000  -9999.0000    229.4930    213.7740    245.2110
      -15.6390     25.8810
    858.800
    95279.6328      0.2270  -9999.0000    210.0000      3.1730      7.5180
        0.0790  -9999.0000  -9999.0000    234.3020    219.6770    248.9280
      -15.5830     29.1530
    858.600
    95279.6328      0.1510  -9999.0000    216.7000      2.6880      7.5640
        0.0790  -9999.0000  -9999.0000    234.9890    222.9570    247.0220
      -15.0820     27.1800
    858.400
    95279.6328      0.1120  -9999.0000    216.7000      2.9120      7.5890
        0.1010  -9999.0000  -9999.0000    255.6030    255.0960    256.1090
      -17.3380     29.9590
    858.200
    95279.6328      0.2270  -9999.0000    216.7000      3.0240      7.4050
        0.1010  -9999.0000  -9999.0000    265.9090    269.5260    262.2920
      -15.6110     31.6180
    858.000
    95279.6328      0.1510  -9999.0000    220.0000      2.5390      7.3760
        0.0790  -9999.0000  -9999.0000    259.7250    260.9990    258.4510
      -15.2490     33.0970
    857.800
    95279.6328      0.1510  -9999.0000    216.7000      2.9490      7.5410
        0.0790  -9999.0000     39.5930    263.1610    260.9990    265.3220
      -16.2240     33.4110
    857.600
    95279.6328      0.1510  -9999.0000    223.3000      2.9120      7.4660
        0.0900  -9999.0000     39.5930    265.2220    260.3430    270.1010
      -15.5270     33.8140
    857.400
    95279.6328      0.1510  -9999.0000    216.7000      2.8560      7.1760
        0.0680     55.9050     39.8580    261.0990    253.1280    269.0710
      -15.6110     35.8760
    857.200
    95279.6328      0.2270  -9999.0000    210.0000      2.7630      7.0380
        0.0680     56.0000     39.5400    259.7250    251.1600    268.2900
      -15.6390     32.9630
    857.000
    95279.6328      0.2660  -9999.0000    213.3000      2.9490      6.8860
        0.1230     56.0420     39.3280    256.2900    248.5370    264.0420
      -16.7810     35.6070
    856.800
    95279.6328      0.3040  -9999.0000    220.0000      3.1920      6.8000
        0.0680     56.0520     39.1160    261.7860    252.4720    271.1010
      -15.9170     35.6520
    856.600
    95279.6328      0.1890  -9999.0000    220.0000      3.1550      6.4530
        0.1010     56.1680     39.1160    259.0380    249.8490    268.2270
      -15.8340     35.2490
