~Version information
  VERS.                           1.20 : CWLS LAS  -  VERSION 1.20
  WRAP.                            YES : Multiple lines per depth step
~Well information
# MNEM.UNIT         DATA TYPE  INFORMATION                                    
# ====.================================: ===================                  
  STRT.M                       865.000 : First depth in file
  STOP.M                         0.000 : Last  depth in file
  STEP.M                        -0.200 : Depth increment
  NULL.                    -32768.0000 : Null  values
  CN  .                        COMPANY : CIOC
  WN  .                           WELL : 305
  FN  .                          FIELD : KARATUBE
  SRVC.                SERVICE COMPANY : AFGIS JSC"KAZPROMGEOPHYSICA"
  DATE.                       LOG DATE : 09.03.04.
~Curve information
# MNEM.UNIT                   API CODE   CURVE DESCRIPTION                    
# ====.================================:====================                  
  DEPT.M                               : Depth curve
  LL3 .OHMM                            : Apparent resistivity by laterolog,3 electrodes  
  MLL .OHMM                            : Microlaterolog sonde                 
  RHOB.G/C3                            : Bulk density by gamma-gamma log      
  DTP .US/M                            : Interval travel time (P-wave)        
  GR  .UR/H                            : Gamma-ray log                        
  NGLD.UE                              : Neutron-gamma log
  GZ3 .OHMM                            : Apparent resistivity by  A2M0.5N sonde
  GZ3B.OHMM                            : Apparent resistivity by  N0.5M2A sonde
  SP  .MV                              : Spontaneous potential                
  CALI.MM                              : Diameter by caliper             
  C1  .MM                              : Diameter by 1 profile             
  C2  .MM                              : Diameter by 2 profile  
  CILR.MMHO                            : Conduct. by sonde 7I1.6,react.signal 
  CILA.MMHO                            : Conduct. by sonde 7I1.6,active signal
~Parameter information
# MNEM.UNIT                     VALUE       DESCRIPTION                       
# ====.================================:====================                  
~Other information
# ------------------- REMARKS AREA ------------------------                   
# ==========================================================                  
~Ascii Log Data
# ...
    770.400
        2.4600      0.9950      2.4080    306.7000      5.4690      1.4940
        4.5380      6.9540     54.9040    232.2410    232.7950    231.6870
       64.5690    241.8860
    770.200
        2.4660      0.5730      2.4910    310.0000      5.2450      1.4320
        5.2350      6.2280     54.4800    230.1800    230.8270    229.5320
       67.9940    250.8960
    770.000
        2.4720      0.6880      2.2440    303.3000      5.5440      1.4550
        5.7110      5.7760     54.1090    223.9960    228.8600    219.1320
       71.3080    248.8790
    769.800
        2.5120      0.5730      2.6390    293.3000      5.1150      1.5280
        6.1310      5.3550     53.5260    232.9280    240.6660    225.1900
       84.6760    262.5500
    769.600
        2.7730      0.8800      2.4870    290.0000      4.8910      1.5570
        6.4630      4.9450     53.3670    222.6220    222.9570    222.2870
       91.3320    258.2920
    769.400
        2.7350      0.9180      2.3690    303.3000      5.0030      1.4730
        7.1270      4.5240     53.6320    229.4930    222.9570    236.0290
       92.6970    258.6500
    769.200
        2.4430      0.6500      2.4320    323.3000      5.0030      1.4760
        7.9350      4.2500     54.0560    232.9280    232.1390    233.7170
       91.3320    269.6770
    769.000
        2.4770      0.4960      2.4460    333.3000      5.2640      1.4440
        8.3000      3.9560     54.4270    237.0510    242.6340    231.4680
       93.6720    275.1000
    768.800
        2.4950      0.8420      2.4640    353.3000      5.3570      1.5070
        9.2630      3.6820     54.6390    233.6150    236.0750    231.1560
       99.1580    283.8410
    768.600
        2.1980      0.1120      2.2260    353.3000      5.3200      1.4800
       10.7560      3.4820     54.5330    232.9280    235.4190    230.4370
       98.5450    304.0120
    768.400
        1.9450      0.4580      2.3290    330.0000      4.6850      1.4300
       12.0950      3.4190     54.6920    251.4800    232.1390    270.8210
       99.7430    301.8150
    768.200
        2.1780      1.8400      2.2880    253.3000      5.0590      1.4320
       14.0980      3.2820     54.7980    259.7250    243.2900    276.1610
       89.8840    282.4520
    768.000
        1.8920      0.0740      1.9140    243.3000      4.9090      1.6660
       17.8600      3.5870     54.9570    241.1730    236.0750    246.2720
       75.8200    230.9040
    767.800
        2.2490      0.0350      2.4070    226.7000      3.8260      1.9490
       20.5710      4.2710     54.3740    272.7800    268.2140    277.3460
       63.5100    216.4260
    767.600
        3.3810      4.1040      2.6580    230.0000      3.0610      2.0260
       21.0580      5.1650     53.8450    242.5480    240.0100    245.0850
       58.3300    196.5690
    767.400
        6.3970      4.6800      2.5500    230.0000      3.0430      2.0220
       20.4270      5.6920     53.1560    228.8050    226.8920    230.7190
       54.5430    175.2330
    767.200
        7.1610      3.0290      2.6100    240.0000      2.9490      1.9540
       19.7960      6.1020     52.6790    228.1180    226.2360    230.0010
       46.0210    161.0240
    767.000
        7.4470      4.1040      2.5890    226.7000      3.1360      1.9490
       19.0330      6.3960     52.4140    223.3090    220.9890    225.6280
       37.6660    152.3280
    766.800
        6.3100      2.2230      2.5770    206.7000      3.3040      1.9950
       18.7450      6.8700     52.3080    228.1180    222.3010    233.9360
       33.2650    147.8010
    766.600
        7.7800      6.6760      2.5570    213.3000      2.7250      2.0330
       18.2250      7.3850     52.3080    225.3700    219.6770    231.0630
       27.9740    140.6740
    766.400
        6.4860      1.8010      2.5120    213.3000      2.4270      2.0940
       17.5500      8.0380     52.7850    226.0570    226.2360    225.8780
       20.3430    129.2890
    766.200
        9.1620      4.8340      2.6380    220.0000      2.5950      2.1170
       16.2220      9.0690     53.6330    223.9960    217.0530    230.9380
       18.0320    118.4420
    766.000
       10.1390      5.0250      2.6840    216.7000      2.6320      2.1370
       15.0720     10.0680     54.0560    223.9960    221.6450    226.3470
       12.1280    103.8740
    765.800
       12.6770      9.5930      2.5570    216.7000      2.7250      2.1280
       13.9540     11.2670     54.2680    220.5600    219.6770    221.4430
       10.8460     92.3540
    765.600
       10.3990      3.9120      2.7200    240.0000      2.6130      1.9880
       13.0690     12.7930     54.2150    221.2470    222.3010    220.1940
        8.3680     94.9090
    765.400
        8.2220      3.9120      2.6110    266.7000      2.7440      1.8020
       13.2130     14.1290     54.5330    221.2470    219.6770    222.8180
        8.8410    105.9360
    765.200
        5.9840      2.3390      2.5220    256.7000      2.6880      1.7430
       13.0800     15.0550     54.2680    224.6830    220.9890    228.3770
        6.5850    106.1150
    765.000
        5.1640      1.8780      2.6410    270.0000      2.5390      1.8180
       12.8920     16.2010     53.8980    226.0570    222.9570    229.1580
        4.3020    101.2740
    764.800
        7.4130      3.4130      2.4990    226.7000      2.7070      1.9720
       12.2280     17.0530     53.4210    221.9340    219.6770    224.1920
        3.6610    107.4150
    764.600
        6.8710      2.4540      2.4920    240.0000      2.6690      1.9220
       11.7740     17.6950     52.8910    228.8050    221.6450    235.9660
        6.3900    108.2220
    764.400
        7.3960      3.9890      2.4880    250.0000      2.4270      1.8360
       11.1880     17.9270     52.5730    223.9960    220.9890    227.0030
        6.4180    107.0560
    764.200
        6.1660      2.4150      2.5090    246.7000      2.9680      1.8590
       10.8890     18.1580     52.8380    227.4310    220.9890    233.8740
        7.0870    104.2320
    764.000
        6.0670      2.8760      2.6330    233.3000      3.1170      1.8590
       10.1700     18.2840     53.2090    226.7440    225.5800    227.9080
        6.6970    104.0530
    763.800
        5.8080      1.9930      2.6070    213.3000      2.8000      2.0130
        9.1850     18.6840     53.3150    224.6830    222.9570    226.4090
        7.0590    106.5630
    763.600
        8.0910      4.0660      2.6060    220.0000      2.5200      2.0630
        8.4770     18.9160     53.8440    226.0570    224.9240    227.1900
        7.7830     98.2260
    763.400
        8.0170      3.6050      2.6080    233.3000      2.6880      1.9950
        8.2890     18.8630     54.5330    221.9340    226.2360    217.6330
        5.5270    101.7220
    763.200
        7.3790      3.3750      2.5380    246.7000      2.8560      1.9770
        8.0460     18.4530     54.4800    224.6830    224.2680    225.0970
        8.8970    110.9110
    763.000
        6.1520      2.6460      2.5210    246.7000      3.0050      1.8180
        8.0010     18.0530     54.2680    223.9960    222.9570    225.0350
        9.2590    116.1560
    762.800
        5.5590      2.4540      2.5640    253.3000      3.1920      1.7750
        7.9900     17.5160     54.4270    226.7440    225.5800    227.9080
       10.0670    123.7760
    762.600
        5.2000      1.3790      2.5560    256.7000      2.9310      1.8000
        8.1560     16.9170     54.4270    223.3090    221.6450    224.9730
       12.2110    132.2920
    762.400
        4.8080      2.3770      2.4810    253.3000      2.6880      1.7590
        8.1780     16.5170     54.2680    226.7440    224.2680    229.2200
       16.5830    139.8670
    762.200
        5.1520      2.4150      2.5180    250.0000      2.6510      1.7380
        8.0900     16.4120     53.7920    227.4310    224.2680    230.5940
       18.0040    133.3680
    762.000
        5.7020      2.8760      2.5480    253.3000      2.7070      1.8340
        7.9680     16.1070     53.8450    227.4310    225.5800    229.2820
       14.9680    141.7050
