~Version information
  VERS.                           1.20 : CWLS LAS  -  VERSION 1.20
  WRAP.                            YES : Multiple lines per depth step
~Well information
# MNEM.UNIT         DATA TYPE  INFORMATION                                    
# ====.================================: ===================                  
  STRT.M                       865.000 : First depth in file
  STOP.M                         0.000 : Last  depth in file
  STEP.M                        -0.200 : Depth increment
  NULL.                    -32768.0000 : Null  values
  CN  .                        COMPANY : CIOC
  WN  .                           WELL : 305
  FN  .                          FIELD : KARATUBE
  SRVC.                SERVICE COMPANY : AFGIS JSC"KAZPROMGEOPHYSICA"
  DATE.                       LOG DATE : 09.03.04.
~Curve information
# MNEM.UNIT                   API CODE   CURVE DESCRIPTION                    
# ====.================================:====================                  
  DEPT.M                               : Depth curve
  LL3 .OHMM                            : Apparent resistivity by laterolog,3 electrodes  
  MLL .OHMM                            : Microlaterolog sonde                 
  RHOB.G/C3                            : Bulk density by gamma-gamma log      
  DTP .US/M                            : Interval travel time (P-wave)        
  GR  .UR/H                            : Gamma-ray log                        
  NGLD.UE                              : Neutron-gamma log
  GZ3 .OHMM                            : Apparent resistivity by  A2M0.5N sonde
  GZ3B.OHMM                            : Apparent resistivity by  N0.5M2A sonde
  SP  .MV                              : Spontaneous potential                
  CALI.MM                              : Diameter by caliper             
  C1  .MM                              : Diameter by 1 profile             
  C2  .MM                              : Diameter by 2 profile  
  CILR.MMHO                            : Conduct. by sonde 7I1.6,react.signal 
  CILA.MMHO                            : Conduct. by sonde 7I1.6,active signal
~Parameter information
# MNEM.UNIT                     VALUE       DESCRIPTION                       
# ====.================================:====================                  
~Other information
# ------------------- REMARKS AREA ------------------------                   
# ==========================================================                  
~Ascii Log Data
# ...
    331.800
        2.3600      0.3430      2.3320    516.7000      7.5790      0.9750
        4.1180      6.3750     36.4140    223.9960    219.6770    228.3140
       51.7580    214.1400
    331.600
        2.3440      0.3430      2.2820    526.7000      7.3550      1.0740
        4.1840      5.9020     36.5200    227.4310    222.9570    231.9060
       51.5910    221.3120
    331.400
        2.2700      0.3040      2.2040    530.0000      7.3550      0.9560
        4.3170      5.5550     36.3610    219.1860    220.3330    218.0390
       51.8970    225.3010
    331.200
        2.2340      0.4190      2.2900    536.7000      7.7090      0.9770
        4.4500      5.2600     36.4670    221.9340    222.3010    221.5680
       58.9990    239.6450
    331.000
        2.1780      0.4580      2.1560    540.0000      7.6910      0.9970
        4.6160      5.2390     37.0500    223.9960    217.7090    230.2820
       61.4220    228.5730
    330.800
        2.2590      0.4960      2.2690    526.7000      7.3920      1.1220
        4.7260      5.2710     37.8440    223.3090    220.3330    226.2840
       58.4420    224.1360
    330.600
        2.5470      0.4190      2.2310    510.0000      8.3630      1.1490
        4.8810      5.2810     38.8510    227.4310    224.9240    229.9380
       53.9300    218.8910
    330.400
        2.4380      0.4960      2.2630    510.0000      9.5390      1.1670
        5.0800      5.2500     39.5930    221.9340    223.6130    220.2560
       57.6620    222.8810
    330.200
        2.3280      0.5340      2.2210    516.7000      9.9490      1.1470
        5.2790      5.2920     39.8580    221.2470    220.9890    221.5060
       59.9730    218.3090
    330.000
        2.3660      0.6110      2.2370    506.7000      9.9310      1.1220
        5.2130      5.3230     40.3340    223.9960    226.8920    221.1000
       56.1300    215.6640
    329.800
        2.6120      0.7260      2.3550    490.0000      8.9600      1.1330
        5.0030      5.2500     42.5600    223.9960    222.3010    225.6910
       51.8690    211.4510
    329.600
        2.8450      0.7650      2.3090    393.3000      8.1950      1.1920
        4.7260      5.0600     44.5200    221.9340    224.9240    218.9450
       53.6790    213.6470
    329.400
        2.6120      0.4960      2.2460    370.0000      7.0370      1.2580
        4.6270      4.8080     45.3140    219.1860    220.9890    217.3830
       55.7120    215.0370
    329.200
        2.2030      0.3430      2.2870    383.3000      7.0750      1.2470
        4.6930      4.7660     44.0960    221.9340    219.6770    224.1920
       55.3500    214.3190
    329.000
        2.3390      0.4960      2.2690    410.0000      7.3730      1.2240
        4.7820      4.8290     41.3410    218.4990    216.3980    220.6000
       53.1500    212.5270
    328.800
        2.5180      0.4190      2.2100    416.7000      7.8960      1.2380
        4.8700      4.9550     38.0040    220.5600    217.7090    223.4110
       53.5680    208.1790
    328.600
        2.5180      0.4580      2.3470    420.0000      8.7730      1.2380
        4.9920      5.0710     35.8840    219.1860    218.3650    220.0070
       53.0390    197.0620
    328.400
        2.5820      0.5730      2.2840    436.7000      9.5570      1.1940
        5.0360      5.1230     35.1420    221.9340    220.3330    223.5360
       49.8360    198.9000
    328.200
        2.5590      0.6110      2.3170    470.0000      9.4450      1.1420
        5.0690      5.2500     35.1950    221.2470    224.2680    218.2260
       47.3300    200.6030
    328.000
        2.5880      0.5730      2.3590    440.0000      7.9890      1.1940
        5.0360      5.4500     35.3010    225.3700    227.5480    223.1920
       48.6940    200.8280
    327.800
        2.8250      0.7260      2.4210    393.3000      8.3250      1.1920
        4.9480      5.7440     35.9900    223.9960    227.5480    220.4440
       47.3300    193.4320
    327.600
        3.0760      0.8030      2.3750    393.3000      9.1280      1.2380
        4.8370      5.9020     36.4670    230.1800    232.1390    228.2200
       45.4920    191.9520
    327.400
        3.0410      0.6500      2.3970    423.3000      9.4640      1.1380
        4.7150      5.9230     36.4140    226.0570    226.8920    225.2220
       47.2460    198.4970
    327.200
        2.7230      0.5340      2.3390    460.0000      9.6690      1.1110
        4.6600      5.5970     36.4670    228.8050    226.8920    230.7190
       51.7580    211.4060
    327.000
        2.2490      0.4580      2.3690    490.0000      9.4080      1.1060
        4.8040      5.3340     36.0960    230.8670    224.2680    237.4650
       53.5120    213.2890
    326.800
        2.1280      0.4580      2.2920    500.0000      9.5390      1.1830
        4.9590      5.1440     36.0960    221.2470    230.1720    212.3230
       51.5630    223.3290
    326.600
        2.0560      0.4190      2.3010    486.7000     10.2850      1.1470
        5.0140      5.1230     36.0960    225.3700    225.5800    225.1600
       52.2030    222.1190
    326.400
        2.2750      0.6110      2.3710    450.0000     10.3040      1.1810
        5.0030      5.2290     36.6260    228.8050    234.7630    222.8480
       51.5350    213.5130
    326.200
        2.5940      0.6880      2.3060    426.7000     10.2110      1.1970
        5.0690      5.4600     36.7320    223.9960    226.8920    221.1000
       49.6130    205.2650
    326.000
        2.6420      0.6110      2.3110    400.0000      8.9410      1.2040
        5.0360      5.5650     36.0430    228.8050    228.2040    229.4070
       47.6360    204.5930
    325.800
        2.5700      0.4960      2.3660    406.7000      8.8670      1.2510
        4.9810      5.6180     35.6720    222.6220    222.9570    222.2870
       49.5580    207.5060
    325.600
        2.7230      0.6880      2.2790    423.3000      9.1650      1.1490
        4.8480      5.6490     36.3610    227.4310    226.2360    228.6260
       51.9530    205.5340
    325.400
        2.5410      0.4960      2.2600    393.3000      9.6320      1.1580
        4.9250      5.6490     37.6850    229.4930    232.7950    226.1900
       51.2290    199.8410
    325.200
        2.6910      0.5730      2.3260    383.3000      9.8190      1.2470
        4.9480      5.6920     38.9570    226.7440    230.1720    223.3170
       47.4970    200.1100
    325.000
        2.8710      0.8030      2.2820    396.7000      9.6690      1.1850
        4.8810      5.6180     38.9570    226.7440    231.4830    222.0050
       48.5270    200.2000
    324.800
        2.7290      0.5730      2.2620    453.3000      9.8560      1.1510
        5.0030      5.5550     39.1690    226.7440    232.7950    220.6930
       49.5850    206.7890
    324.600
        2.4830      0.4960      2.2340    476.7000     10.2480      1.0830
        5.2020      5.5970     39.4340    226.0570    228.2040    223.9100
       48.6110    206.6990
    324.400
        2.5940      0.6110      2.3100    456.7000      9.8560      1.1700
        5.2240      5.7130     40.2820    223.9960    228.2040    219.7880
       45.6860    204.3240
    324.200
        2.6790      0.6110      2.2700    423.3000     10.0800      1.1170
        5.2570      5.7020     40.8110    228.8050    231.4830    226.1280
       48.1370    205.9370
    324.000
        2.6610      0.6110      2.2670    403.3000     10.2110      1.0520
        5.2910      5.5230     41.7120    230.8670    243.9450    217.7880
       50.8670    211.7200
    323.800
        2.3230      0.3040      2.3450    490.0000      9.0350      1.0490
        5.4450      5.4600     42.2950    223.9960    225.5800    222.4110
       51.2290    215.1260
    323.600
        2.2440      0.4190      2.2360    510.0000      9.4830      1.0650
        5.5780      5.3860     42.3480    226.7440    229.5160    223.9730
       49.7530    216.6050
    323.400
        2.2800      0.6110      2.2730    516.7000      9.9120      1.0430
        5.5010      5.1870     42.1890    228.1180    234.7630    221.4740
       53.1500    225.6150
