~Version information
  VERS.                           1.20 : CWLS LAS  -  VERSION 1.20
  WRAP.                            YES : Multiple lines per depth step
~Well information
# MNEM.UNIT         DATA TYPE  INFORMATION                                    
# ====.================================: ===================                  
  STRT.M                       865.000 : First depth in file
  STOP.M                         0.000 : Last  depth in file
  STEP.M                        -0.200 : Depth increment
  NULL.                    -32768.0000 : Null  values
  CN  .                        COMPANY : CIOC
  WN  .                           WELL : 305
  FN  .                          FIELD : KARATUBE
  SRVC.                SERVICE COMPANY : AFGIS JSC"KAZPROMGEOPHYSICA"
  DATE.                       LOG DATE : 09.03.04.
~Curve information
# MNEM.UNIT                   API CODE   CURVE DESCRIPTION                    
# ====.================================:====================                  
  DEPT.M                               : Depth curve
  LL3 .OHMM                            : Apparent resistivity by laterolog,3 electrodes  
  MLL .OHMM                            : Microlaterolog sonde                 
  RHOB.G/C3                            : Bulk density by gamma-gamma log      
  DTP .US/M                            : Interval travel time (P-wave)        
  GR  .UR/H                            : Gamma-ray log                        
  NGLD.UE                              : Neutron-gamma log
  GZ3 .OHMM                            : Apparent resistivity by  A2M0.5N sonde
  GZ3B.OHMM                            : Apparent resistivity by  N0.5M2A sonde
  SP  .MV                              : Spontaneous potential                
  CALI.MM                              : Diameter by caliper             
  C1  .MM                              : Diameter by 1 profile             
  C2  .MM                              : Diameter by 2 profile  
  CILR.MMHO                            : Conduct. by sonde 7I1.6,react.signal 
  CILA.MMHO                            : Conduct. by sonde 7I1.6,active signal
~Parameter information
# MNEM.UNIT                     VALUE       DESCRIPTION                       
# ====.================================:====================                  
~Other information
# ------------------- REMARKS AREA ------------------------                   
# ==========================================================                  
~Ascii Log Data
# ...
    572.600
        1.0760      0.1890      2.0800    430.0000      8.3440      1.3240
        1.6390      1.6730     50.0830    218.4990    219.6770    217.3210
      195.3790    287.6060
    572.400
        1.0710      0.2270      2.1750    430.0000      8.9600      1.2830
        1.6280      1.6410     49.7120    218.4990    219.6770    217.3210
      198.0810    286.8440
    572.200
        1.1020      0.3040      2.0970    430.0000      8.0450      1.3190
        1.6390      1.6200     49.0230    219.8730    219.0210    220.7250
      193.7080    289.6230
    572.000
        1.0540      0.3040      2.1420    430.0000      8.0450      1.2830
        1.6840      1.5780     48.8640    221.2470    218.3650    224.1290
      189.9760    294.0160
    571.800
        1.1170      0.3430      2.1920    430.0000      8.3440      1.2740
        1.6610      1.5890     48.5460    221.2470    219.6770    222.8180
      197.3290    301.9050
    571.600
        1.1430      0.3430      2.1250    430.0000      7.4850      1.3370
        1.6610      1.6410     48.0170    221.2470    219.0210    223.4740
      199.1670    291.4610
    571.400
        1.0860      0.2270      2.0940    430.0000      7.2430      1.2780
        1.7390      1.5990     47.3280    219.1860    220.3330    218.0390
      194.2650    282.5860
    571.200
        1.0260      0.1510      2.1290    430.0000      7.4110      1.2220
        1.7060      1.6730     47.4340    221.2470    219.6770    222.8180
      199.1670    290.6540
    571.000
        1.0960      0.2660      2.1300    433.3000      7.9330      1.2630
        1.7060      1.7360     48.1230    220.5600    219.0210    222.0990
      197.9970    282.8100
    570.800
        1.1480      0.2270      2.1510    440.0000      7.8590      1.3060
        1.6720      1.7360     48.6520    220.5600    219.0210    222.0990
      191.7590    281.5100
    570.600
        1.1350      0.2270      2.0790    436.7000      8.4370      1.2810
        1.6720      1.7460     48.7050    220.5600    220.3330    220.7880
      188.9180    279.8520
    570.400
        1.1170      0.2660      2.0920    433.3000      8.5870      1.3120
        1.7390      1.7150     48.6520    215.7510    220.3330    211.1680
      190.5330    287.7860
    570.200
        1.1320      0.3810      2.1770    440.0000      8.2690      1.3080
        1.7390      1.7150     48.8110    217.1250    220.3330    213.9160
      185.6040    275.1900
    570.000
        1.1250      0.2660      2.1500    440.0000      8.1950      1.3060
        1.7500      1.7150     49.2350    219.1860    219.0210    219.3510
      181.9550    272.0520
    569.800
        1.1400      0.2660      2.1840    433.3000      7.7090      1.3800
        1.8940      1.7360     49.2350    221.2470    219.0210    223.4740
      181.9550    279.9410
    569.600
        1.1430      0.1890      2.1010    430.0000      8.2510      1.3460
        2.0930      1.7880     48.9700    223.3090    218.3650    228.2520
      188.2220    287.7410
    569.400
        1.1610      0.1890      2.0810    373.3000      8.5310      1.3850
        2.2810      1.9570     48.1760    220.5600    219.0210    222.0990
      184.2110    283.7070
    569.200
        1.1940      0.2660      2.2560    286.7000      8.0270      1.3490
        2.2920      2.1460     47.6460    220.5600    219.6770    221.4430
      170.7880    276.3110
    569.000
        1.4590      1.6090      2.4540    320.0000      7.9520      1.2760
        2.1370      2.2620     47.3280    219.1860    219.0210    219.3510
      164.2430    262.7740
    568.800
        1.6110      0.4960      2.2240    400.0000      8.3440      1.2810
        1.9490      2.1570     46.5860    230.8670    235.4190    226.3150
      163.6580    257.5300
    568.600
        1.3430      0.3810      2.2480    423.3000      9.2030      1.2810
        1.8610      2.0300     46.6390    224.6830    224.9240    224.4410
      165.7470    271.2010
    568.400
        1.2590      0.2270      2.1260    423.3000      8.6990      1.3300
        1.7940      1.9460     47.5400    221.9340    220.3330    223.5360
      163.1850    293.3880
    568.200
        1.2130      0.4190      2.1210    430.0000      8.6430      1.2600
        1.8160      1.9150     48.0700    221.2470    220.3330    222.1620
      168.4480    292.8510
    568.000
        1.2130      0.3040      2.1180    433.3000      8.2510      1.2420
        1.7720      1.8730     48.5460    215.0630    219.6770    210.4500
      170.6480    286.8890
    567.800
        1.2300      0.3040      2.1400    430.0000      8.5870      1.2850
        1.7830      1.8620     48.5990    219.8730    221.6450    218.1010
      167.3340    284.5130
    567.600
        1.2190      0.3810      2.1780    433.3000      8.3070      1.2960
        1.8160      1.8410     49.0760    217.1250    221.6450    212.6050
      162.5160    289.6230
    567.400
        1.2220      0.3430      2.1140    436.7000      8.2320      1.3580
        1.8160      1.8410     49.6060    218.4990    220.9890    216.0090
      167.9190    297.7810
    567.200
        1.1990      0.2270      2.0610    440.0000      8.2130      1.3800
        1.9050      1.9150     49.5000    219.8730    222.3010    217.4460
      172.7370    288.7720
    567.000
        1.2110      0.3040      2.0170    436.7000      8.2510      1.2870
        1.9710      2.0090     48.9700    221.2470    220.3330    222.1620
      173.0990    288.2790
    566.800
        1.2220      0.3040      2.1520    430.0000      8.6430      1.3150
        1.9930      2.0510     48.4400    222.6220    222.3010    222.9420
      170.8160    290.4750
    566.600
        1.2220      0.3430      2.0660    430.0000      8.6430      1.2740
        2.0270      2.0730     47.7520    222.6220    219.6770    225.5660
      176.2740    293.2540
    566.400
        1.2420      0.3810      2.1350    433.3000      8.2510      1.3120
        2.0930      2.0300     47.3810    221.9340    221.6450    222.2240
      176.0790    285.9030
    566.200
        1.2730      0.4190      2.0790    433.3000      8.4750      1.2850
        2.1370      2.0200     46.7450    221.2470    220.3330    222.1620
      172.1800    284.5130
    566.000
        1.2330      0.1890      2.1340    436.7000      9.2590      1.2560
        2.1480      1.9990     46.4270    219.8730    220.9890    218.7570
      173.3500    286.2170
    565.800
        1.2530      0.3040      2.0980    440.0000      9.1280      1.2740
        2.1370      1.9780     46.5330    218.4990    220.9890    216.0090
      176.2180    284.1100
    565.600
        1.2420      0.3040      2.1140    440.0000      8.6800      1.2190
        2.2040      1.9040     47.1690    219.8730    220.9890    218.7570
      173.7400    277.9690
    565.400
        1.2420      0.2270      2.1300    436.7000      8.9230      1.2240
        2.1810      1.8310     48.1760    218.4990    220.9890    216.0090
      172.0690    282.2720
    565.200
        1.2250      0.1890      2.1270    430.0000      9.4080      1.2720
        2.3360      1.8410     48.2820    219.8730    221.6450    218.1010
      177.1650    291.9540
    565.000
        1.2020      0.3810      2.1250    430.0000      9.3150      1.2380
        2.5240      1.8730     48.7050    219.8730    221.6450    218.1010
      178.3350    287.0240
    564.800
        1.2420      0.3040      2.0850    430.0000      8.7360      1.2420
        2.6240      1.9670     48.4400    222.6220    220.3330    224.9100
      170.6760    281.4210
    564.600
        1.4420      0.4580      2.1050    430.0000      9.0160      1.2490
        2.5130      2.0940     48.0700    219.1860    220.3330    218.0390
      157.1690    273.3520
    564.400
        1.6410      0.4190      2.1300    433.3000      9.7250      1.3280
        2.5350      2.1460     47.4870    221.9340    220.3330    223.5360
      156.6680    274.1140
    564.200
        1.6140      0.4580      2.1640    433.3000      9.0720      1.3580
        2.4910      2.1460     47.2750    224.6830    222.9570    226.4090
      158.7290    263.2670
