~Version information
  VERS.                           1.20 : CWLS LAS  -  VERSION 1.20
  WRAP.                            YES : Multiple lines per depth step
~Well information
# MNEM.UNIT         DATA TYPE  INFORMATION                                    
# ====.================================: ===================                  
  STRT.M                       865.000 : First depth in file
  STOP.M                         0.000 : Last  depth in file
  STEP.M                        -0.200 : Depth increment
  NULL.                    -32768.0000 : Null  values
  CN  .                        COMPANY : CIOC
  WN  .                           WELL : 305
  FN  .                          FIELD : KARATUBE
  SRVC.                SERVICE COMPANY : AFGIS JSC"KAZPROMGEOPHYSICA"
  DATE.                       LOG DATE : 09.03.04.
~Curve information
# MNEM.UNIT                   API CODE   CURVE DESCRIPTION                    
# ====.================================:====================                  
  DEPT.M                               : Depth curve
  LL3 .OHMM                            : Apparent resistivity by laterolog,3 electrodes  
  MLL .OHMM                            : Microlaterolog sonde                 
  RHOB.G/C3                            : Bulk density by gamma-gamma log      
  DTP .US/M                            : Interval travel time (P-wave)        
  GR  .UR/H                            : Gamma-ray log                        
  NGLD.UE                              : Neutron-gamma log
  GZ3 .OHMM                            : Apparent resistivity by  A2M0.5N sonde
  GZ3B.OHMM                            : Apparent resistivity by  N0.5M2A sonde
  SP  .MV                              : Spontaneous potential                
  CALI.MM                              : Diameter by caliper             
  C1  .MM                              : Diameter by 1 profile             
  C2  .MM                              : Diameter by 2 profile  
  CILR.MMHO                            : Conduct. by sonde 7I1.6,react.signal 
  CILA.MMHO                            : Conduct. by sonde 7I1.6,active signal
~Parameter information
# MNEM.UNIT                     VALUE       DESCRIPTION                       
# ====.================================:====================                  
~Other information
# ------------------- REMARKS AREA ------------------------                   
# ==========================================================                  
~Ascii Log Data
# ...
    718.800
        1.7340      0.2660      2.3500    350.0000      7.2240      1.3850
        3.3760      3.3880     53.5800    239.1120    243.9450    234.2790
      109.1280    274.5630
    718.600
        1.7180      0.3040      2.4450    360.0000      6.9810      1.4100
        3.4870      3.3880     53.7390    232.2410    224.2680    240.2140
      110.9390    262.1910
    718.400
        1.7500      0.4190      2.3220    380.0000      6.8690      1.3400
        4.0850      3.4930     53.6330    237.0510    231.4830    242.6180
      114.8380    285.6340
    718.200
        1.4790      0.3430      2.2190    330.0000      6.6270      1.3300
        4.7590      3.5450     53.5270    258.3510    275.4290    241.2730
      128.2050    289.4890
    718.000
        1.7380      0.7650      2.3010    313.3000      6.2910      1.3690
        4.9590      3.6820     53.6330    244.6090    246.5690    242.6490
      127.3980    272.0520
    717.800
        1.9280      0.4960      2.4790    323.3000      6.8130      1.3100
        4.9920      3.5980     53.3680    252.8540    259.0310    246.6770
      117.7620    261.0710
    717.600
        2.3440      0.7260      2.3420    336.7000      6.3280      1.3210
        4.7260      3.2820     52.6260    223.3090    224.2680    222.3490
      114.1970    264.7010
    717.400
        2.0140      0.5340      2.4900    413.3000      6.7570      1.3350
        4.5930      3.0610     51.9900    232.2410    220.9890    243.4930
      118.4300    272.0520
    717.200
        1.9010      0.4580      2.3480    416.7000      7.3920      1.3420
        4.4500      2.7560     51.6190    232.9280    220.9890    244.8670
      125.3370    256.4540
    717.000
        1.6110      0.3810      2.3590    453.3000      7.2240      1.2990
        4.0850      2.3040     51.0370    234.9890    224.9240    245.0550
      125.9500    270.0350
    716.800
        1.5170      0.2660      1.9720    436.7000      6.9440      1.2830
        4.9140      2.1990     50.5070    239.1120    228.2040    250.0200
      126.4510    310.5110
    716.600
        1.1430      0.1120      2.0000    366.7000      6.1410      1.2240
        6.6290      2.5460     50.8250    302.3260    312.1590    292.4920
      134.7220    312.9760
    716.400
        1.2560      0.2270      2.1660    316.7000      5.6930      1.2780
        7.3150      3.2090     50.6130    269.3450    276.7410    261.9490
      122.0780    269.5420
    716.200
        2.3390      1.0720      2.2490    340.0000      5.8050      1.2870
        7.0060      3.4510     50.5600    223.3090    226.8920    219.7250
       91.1370    241.3480
    716.000
        2.9780      0.9180      2.1280    366.7000      6.0480      1.2380
        6.5850      3.8080     50.5600    221.2470    219.6770    222.8180
       79.8860    220.6840
    715.800
        3.1840      0.9570      2.2040    386.7000      6.1040      1.3600
        6.1430      4.0820     50.7190    219.8730    220.3330    219.4130
       83.9240    216.9190
    715.600
        3.3500      0.9570      2.2570    373.3000      6.1410      1.2920
        5.7770      4.5130     50.7190    218.4990    221.6450    215.3530
       78.0480    201.9930
    715.400
        3.4200      1.1100      2.3780    353.3000      6.1410      1.3080
        5.3240      4.8710     50.8250    217.1250    219.6770    214.5720
       70.0550    192.2660
    715.200
        3.8370      1.2640      2.2620    350.0000      5.6000      1.3060
        5.0360      5.3020     51.3010    221.9340    221.6450    222.2240
       65.2930    182.2700
    715.000
        3.8550      1.1490      2.2190    363.3000      4.8720      1.3240
        4.8040      5.7550     51.4070    223.9960    221.6450    226.3470
       58.4140    164.1170
    714.800
        4.5080      1.7240      2.2330    386.7000      4.7410      1.3650
        4.5930      6.1330     50.7710    225.3700    221.6450    229.0950
       51.8130    161.3830
    714.600
        4.3050      1.1100      2.2210    393.3000      5.3010      1.4480
        4.2500      5.9230     50.5070    225.3700    219.6770    231.0630
       44.9900    163.0860
    714.400
        3.6900      0.9570      2.2760    383.3000      6.1230      1.3710
        4.2730      5.7550     50.1360    226.0570    219.6770    232.4370
       46.8280    180.9710
    714.200
        2.3330      0.5730      2.3870    366.7000      6.5890      1.3300
        4.3830      6.0280     50.3480    228.8050    224.9240    232.6870
       51.2010    199.1240
    714.000
        2.3230      1.1870      2.3470    360.0000      6.2530      1.3550
        4.4940      6.5230     50.4010    228.8050    220.3330    237.2780
       49.9200    204.9960
    713.800
        2.4550      0.8420      2.4240    353.3000      5.9360      1.3080
        4.4830      6.8700     51.0900    223.3090    224.2680    222.3490
       45.5470    211.1820
    713.600
        2.9240      0.9950      2.3630    340.0000      6.2160      1.4170
        4.3610      7.1330     51.7250    225.3700    222.3010    228.4390
       47.1070    198.9900
    713.400
        2.9850      1.1490      2.4070    350.0000      6.3650      1.4620
        4.2950      7.1960     52.6260    223.9960    220.3330    227.6590
       48.0260    200.2450
    713.200
        2.8050      1.0330      2.4380    370.0000      5.9550      1.4440
        4.1510      6.8800     52.8910    220.5600    222.3010    218.8200
       50.7550    202.9340
    713.000
        2.5470      0.8420      2.3610    396.7000      6.3650      1.3980
        3.8410      6.1230     52.9970    220.5600    222.3010    218.8200
       55.7960    227.9910
    712.800
        2.1580      0.6880      2.3300    410.0000      7.0750      1.3800
        3.6750      5.1970     52.6790    226.0570    226.2360    225.8780
       69.2200    253.0920
    712.600
        1.7260      0.3810      2.3710    366.7000      7.0930      1.4050
        3.7420      4.6390     52.6260    239.1120    252.4720    225.7520
       77.9920    251.8370
    712.400
        1.6830      0.4190      2.4070    270.0000      6.6830      1.3030
        3.9190      4.4080     52.5730    246.6700    245.9130    247.4270
       82.2250    274.1590
    712.200
        2.0510      0.9570      2.2260    296.7000      6.2720      1.2870
        4.0730      4.3550     52.4670    237.0510    227.5480    246.5540
       78.7440    278.3730
    712.000
        1.7100      0.4960      2.4930    326.7000      6.0670      1.3550
        4.2170      4.4710     52.0960    245.9830    249.8490    242.1180
       87.6000    268.2420
    711.800
        2.4950      0.8420      2.3560    340.0000      6.3090      1.4120
        4.3280      4.5240     51.8840    224.6830    222.3010    227.0650
       85.0380    254.2130
    711.600
        2.3120      0.4580      2.3250    336.7000      6.4030      1.5000
        4.6380      4.5760     51.7250    232.2410    234.1070    230.3750
       80.5820    254.0780
    711.400
        2.4600      0.8800      2.4960    343.3000      6.7200      1.4350
        4.7930      4.6290     51.7250    226.7440    222.9570    230.5320
       85.6510    233.6380
    711.200
        2.9040      0.9570      2.3600    380.0000      6.5330      1.3300
        5.1250      4.7130     52.2020    224.6830    221.6450    227.7210
       84.8430    245.4270
    711.000
        2.4490      0.6110      2.3460    376.7000      6.1230      1.2740
        5.4790      4.7660     52.4140    230.1800    230.8270    229.5320
       85.8180    232.6970
    710.800
        2.2230      0.8030      2.1570    360.0000      5.4880      1.2830
        5.5670      5.1340     52.9970    226.7440    225.5800    227.9080
       80.2200    214.7680
    710.600
        3.2960      0.8800      2.1660    366.7000      5.5810      1.3980
        5.3900      5.2500     53.0500    218.4990    219.6770    217.3210
       71.4750    216.1120
    710.400
        3.6220      1.1100      2.2320    370.0000      5.8430      1.4210
        5.1250      5.3130     52.9440    218.4990    225.5800    211.4180
       67.8830    200.3790
