~Version information
  VERS.                           1.20 : CWLS LAS  -  VERSION 1.20
  WRAP.                            YES : Multiple lines per depth step
~Well information
# MNEM.UNIT         DATA TYPE  INFORMATION                                    
# ====.================================: ===================                  
  STRT.M                       865.000 : First depth in file
  STOP.M                         0.000 : Last  depth in file
  STEP.M                        -0.200 : Depth increment
  NULL.                    -32768.0000 : Null  values
  CN  .                        COMPANY : CIOC
  WN  .                           WELL : 305
  FN  .                          FIELD : KARATUBE
  SRVC.                SERVICE COMPANY : AFGIS JSC"KAZPROMGEOPHYSICA"
  DATE.                       LOG DATE : 09.03.04.
~Curve information
# MNEM.UNIT                   API CODE   CURVE DESCRIPTION                    
# ====.================================:====================                  
  DEPT.M                               : Depth curve
  LL3 .OHMM                            : Apparent resistivity by laterolog,3 electrodes  
  MLL .OHMM                            : Microlaterolog sonde                 
  RHOB.G/C3                            : Bulk density by gamma-gamma log      
  DTP .US/M                            : Interval travel time (P-wave)        
  GR  .UR/H                            : Gamma-ray log                        
  NGLD.UE                              : Neutron-gamma log
  GZ3 .OHMM                            : Apparent resistivity by  A2M0.5N sonde
  GZ3B.OHMM                            : Apparent resistivity by  N0.5M2A sonde
  SP  .MV                              : Spontaneous potential                
  CALI.MM                              : Diameter by caliper             
  C1  .MM                              : Diameter by 1 profile             
  C2  .MM                              : Diameter by 2 profile  
  CILR.MMHO                            : Conduct. by sonde 7I1.6,react.signal 
  CILA.MMHO                            : Conduct. by sonde 7I1.6,active signal
~Parameter information
# MNEM.UNIT                     VALUE       DESCRIPTION                       
# ====.================================:====================                  
~Other information
# ------------------- REMARKS AREA ------------------------                   
# ==========================================================                  
~Ascii Log Data
# ...
    624.200
        1.5200      0.4580      2.1930    410.0000     10.4350      1.2440
        1.7610      2.6620     42.8780    223.9960    222.3010    225.6910
      145.5840    306.8360
    624.000
        1.5240      0.5730      2.2420    416.7000     10.0430      1.3350
        1.7940      2.6830     42.9830    221.2470    220.9890    221.5060
      148.2850    293.2090
    623.800
        1.5310      0.4190      2.2840    440.0000     10.0990      1.2810
        1.8160      2.6930     43.0360    217.1250    217.0530    217.1960
      146.3080    287.2920
    623.600
        1.4420      0.4190      2.1800    456.7000     10.4720      1.2130
        1.7720      2.5880     43.0360    222.6220    217.0530    228.1900
      146.9760    291.8650
    623.400
        1.3180      0.4960      2.1070    473.3000     10.4910      1.1830
        1.8270      2.4720     42.9300    221.2470    219.0210    223.4740
      163.1570    308.8970
    623.200
        1.1690      0.3430      2.1160    466.7000      9.9680      1.2100
        1.9490      2.3460     42.8780    239.1120    236.0750    242.1490
      175.7450    306.5670
    623.000
        1.0260      0.1510      2.1570    440.0000      9.6690      1.1850
        2.3030      2.4720     43.0890    240.4860    241.9780    238.9950
      177.1650    306.3870
    622.800
        1.0120      0.1120      2.1830    400.0000      9.6690      1.1630
        2.2700      2.4620     43.1950    247.3570    232.1390    262.5750
      172.1250    306.5670
    622.600
        1.1400      0.3810      2.1670    426.7000      9.9490      1.2190
        2.0820      2.4720     42.8770    243.2350    233.4510    253.0180
      166.0250    291.5510
    622.400
        1.3930      0.2270      2.0410    436.7000     10.1730      1.2350
        2.1480      2.3570     42.7190    263.1610    252.4720    273.8490
      161.7640    284.6480
    622.200
        1.2760      0.3040      2.1900    373.3000     10.0240      1.2850
        2.3140      2.5040     42.2950    241.1730    252.4720    229.8740
      159.1740    277.5660
    622.000
        1.2220      0.2660      2.2680    370.0000     10.2670      1.3240
        2.2590      2.5990     42.4010    249.4190    245.9130    252.9240
      160.9850    267.2110
    621.800
        1.7660      0.4960      2.2500    423.3000     10.6770      1.3010
        2.2370      2.3670     42.5070    228.1180    219.6770    236.5600
      159.2020    274.4280
    621.600
        1.1720      0.3430      2.2340    423.3000     10.8450      1.2440
        2.3250      2.2090     43.1950    241.1730    230.1720    252.1750
      164.2430    278.2380
    621.400
        1.1590      0.2270      2.1440    410.0000     10.5840      1.2280
        2.3140      2.2620     43.6190    232.9280    222.9570    242.9000
      170.6210    277.2970
    621.200
        1.3370      0.3430      2.0500    406.7000     10.0240      1.2260
        2.2590      2.1880     43.7780    221.2470    217.7090    224.7850
      161.7920    291.1920
    621.000
        1.4000      0.4190      2.1890    400.0000     10.7330      1.1760
        2.1260      2.1150     43.9900    226.7440    222.3010    231.1880
      162.7950    282.4520
    620.800
        1.3210      0.5340      2.1920    380.0000     10.7330      1.1310
        2.1150      2.1250     44.7850    226.7440    222.9570    230.5320
      162.9620    275.9520
    620.600
        1.3710      0.4580      2.1210    383.3000     10.1730      1.2040
        2.1040      2.1880     45.1560    232.2410    229.5160    234.9660
      157.3080    281.1960
    620.400
        1.3430      0.3040      2.1400    403.3000      9.8190      1.2380
        2.1150      2.1460     45.1030    222.6220    216.3980    228.8460
      163.0450    295.2710
    620.200
        1.3000      0.4190      2.1840    413.3000      9.7250      1.2760
        2.1040      2.1040     44.4140    223.9960    217.7090    230.2820
      165.3570    289.4440
    620.000
        1.3550      0.3810      2.1990    426.7000      9.2580      1.3100
        2.0490      2.0620     44.3080    227.4310    220.9890    233.8740
      160.3720    284.9620
    619.800
        1.4290      0.4960      2.1200    473.3000      9.0160      1.1720
        2.0270      2.1880     44.2550    229.4930    225.5800    233.4050
      155.9720    292.4920
    619.600
        1.2300      0.2270      2.1590    520.0000      8.7550      1.0650
        2.2480      2.3570     43.8840    231.5540    228.8600    234.2480
      163.4630    304.6840
    619.400
        1.1450      0.3040      1.8470    513.3000      7.2610      1.1170
        2.4470      2.6930     43.9900    241.8600    248.5370    235.1840
      161.4580    286.7990
    619.200
        1.3550      0.4960      1.6190    490.0000      7.7650      1.1560
        2.3580      2.9980     44.4140    240.4860    232.1390    248.8330
      146.3360    264.3880
    619.000
        1.7740      0.6500      2.0190    456.7000      9.2960      1.0680
        2.1150      2.8830     44.8380    226.0570    220.3330    231.7810
      136.1150    274.6520
    618.800
        1.5380      0.4960      2.2820    420.0000     10.5660      1.1830
        1.9930      2.7350     45.2620    232.2410    226.2360    238.2460
      139.9860    280.3000
    618.600
        1.4960      0.4580      2.1620    410.0000     11.0130      1.3210
        1.7940      2.6300     45.6330    236.3640    242.6340    230.0940
      142.3530    267.9730
    618.400
        1.4760      0.4960      2.1900    383.3000     11.2190      1.3080
        1.7720      2.6090     45.6860    246.6700    236.7310    256.6100
      135.6410    268.2870
    618.200
        1.3870      0.3810      2.2640    363.3000     10.6400      1.2760
        1.6280      2.6510     46.0560    237.0510    234.7630    239.3390
      132.7730    263.2220
    618.000
        1.4220      0.4580      2.2030    383.3000     10.3040      1.1830
        1.5290      2.7250     46.2680    231.5540    234.1070    229.0010
      133.9980    272.5010
    617.800
        1.4450      0.4960      2.1540    400.0000     10.5650      1.2150
        1.4510      2.7560     46.3740    228.8050    223.6130    233.9980
      132.2990    267.2110
    617.600
        1.4450      0.4190      2.3020    403.3000     10.7330      1.2720
        1.3410      2.6300     46.7450    230.1800    221.6450    238.7150
      137.7020    273.6210
    617.400
        1.3930      0.4580      2.1750    413.3000      8.9230      1.3120
        1.2630      2.4090     46.4800    228.8050    217.7090    239.9020
      143.7730    289.1300
    617.200
        1.1320      0.2270      2.1700    420.0000      8.3070      1.3260
        1.2630      2.3040     45.7910    223.9960    215.7420    232.2500
      157.4480    306.0740
    617.000
        1.1120      0.3810      2.1610    403.3000      9.6320      1.3580
        1.3290      2.3670     44.8900    230.1800    220.9890    239.3700
      166.3040    308.8970
    616.800
        1.1940      0.4580      2.1410    393.3000      9.8750      1.3670
        1.3740      2.5250     44.6260    227.4310    219.6770    235.1850
      162.5720    300.5600
    616.600
        1.2680      0.4190      2.2060    393.3000      9.8560      1.2670
        1.3180      2.6510     45.4200    229.4930    220.9890    237.9960
      158.3950    288.1440
    616.400
        1.4350      0.5730      2.2210    396.7000      9.8000      1.2040
        1.2850      2.7560     46.5330    221.2470    216.3980    226.0970
      159.6200    294.3300
    616.200
        1.4160      0.4580      2.2870    396.7000      9.9120      1.2580
        1.1970      2.7350     47.0100    220.5600    215.7420    225.3790
      158.8680    274.7420
    616.000
        1.3740      0.3810      2.3290    403.3000      9.8750      1.2580
        1.0860      2.6930     47.6460    220.5600    215.0860    226.0350
      160.4000    262.5950
    615.800
        1.4550      0.4190      2.2410    420.0000      7.4660      1.2920
        0.9530      2.4410     48.4410    220.5600    215.7420    225.3790
      166.8050    270.7080
