~Version
 VERS              .         2.0                           : CWLS LOG ASCII STANDARD - VERSION 2.0
 WRAP              .         YES                            : ONE LINE PER DEPTH STEP
 DLM               .         SPACE                         : DELIMITING CHARACTER(SPACE TAB OR COMMA)
~Well Information
#_______________________________________________________________________________
#
#PARAMETER_NAME    .UNIT     VALUE                         : DESCRIPTION
#_______________________________________________________________________________
STRT               .M        0                             : First reference value
STOP               .M        750                           : Last reference value
STEP               .M        0.1                           : Step increment
NULL               .         -999.25                       : Missing value
COMP               .         COMPANY                       : Company
WELL               .         355                           : Well name
FLD                .         Field Name                    : Field
LOC                .         Location                      : Location
CNTY               .                                       : County
STAT               .                                       : State
CTRY               .                                       : Country
SRVC               .         SCH                           : Service Company
DATE               .         22.09.2024                    : Date
API                .                                       : API number
APDAT              .         136.988                       : Elevation Above Permanent Datum
BHS                .         OPEN                          : Completion Status
COUNT              .         Kazakhstan                    : Country
DF                 .         136.988                       : DF Elevation
DRMEA              .         DF                            : Drill Measured From
EPDAT              .         0                             : Elevation of Permanent Datum
GL                 .         131.788                       : GL Elevation
KB                 .         0                             : KB Elevation
LGMEA              .         DF                            : Log Measured from
LATI               .         47.93162                      : Latitude/Northing
LONG               .         56.55725                      : Longitude/Easting
ORIGINALWELLNAME   .         355                           : 
PDAT               .         MSL                           : Permanent Datum
RWS                .         -999                          : Def_Rw
STATE              .         1_500 / 1_200                 : State
WST                .         -999                          : Def_Rwt
~Parameter Information Block
#_______________________________________________________________________________
#
#PARAMETER_NAME    .UNIT     VALUE                         : DESCRIPTION
#_______________________________________________________________________________
SET                .         model                         : 
TLFamily_AHMF      .                                       : 
TLFamily_AT10      .         Resistivity - Medium          : 
TLFamily_AT20      .         Resistivity (Array)           : 
TLFamily_AT30      .         Resistivity (Array)           : 
TLFamily_AT60      .         Resistivity (Array)           : 
TLFamily_AT90      .         Resistivity - Deep            : 
TLFamily_BSC       .         Bit Size                      : 
TLFamily_C1        .         Caliper 1                     : 
TLFamily_C2        .         Caliper 2                     : 
TLFamily_CALI      .         Caliper                       : 
TLFamily_CFTC      .         Neutron Far                   : 
TLFamily_CNTC      .         Neutron Near                  : 
TLFamily_DEPTH     .         Measured Depth                : 
TLFamily_DT        .         Compressional Slowness        : 
TLFamily_GR        .         Gamma Ray                     : 
TLFamily_HAZIM     .         Hole Azimuth                  : 
TLFamily_HCAL      .         Caliper                       : 
TLFamily_HMIN      .                                       : 
TLFamily_HMNO      .                                       : 
TLFamily_MTEM_FILT .         Temperature                   : 
TLFamily_PEFZ      .         Photoelectric Factor          : 
TLFamily_PHIE      .         Effective Porosity            : 
TLFamily_PHIT      .         Total Porosity                : 
TLFamily_Perm      .         Permeability                  : 
TLFamily_RHOZ      .         Bulk Density                  : 
TLFamily_RLA1      .         Resistivity (Array)           : 
TLFamily_RLA2      .         Resistivity (Array)           : 
TLFamily_RLA3      .         Resistivity (Array)           : 
TLFamily_RLA4      .         Resistivity (Array)           : 
TLFamily_RLA5      .         Resistivity (Array)           : 
TLFamily_RT        .         Resistivity - True Formation  : 
TLFamily_RXO       .         Resistivity - Flushed Zone    : 
TLFamily_RXOZ      .         Resistivity - Flushed Zone    : 
TLFamily_SDEVM     .         Sonde Deviation               : 
TLFamily_SP        .         Spontaneous Potential         : 
TLFamily_SW        .         Water Saturation              : 
TLFamily_TNPH      .         Neutron Porosity              : 
TLFamily_VCLAV     .         Clay Volume Fraction          : 
~Curve Information
#_______________________________________________________________________________
#
#LOGNAME           .UNIT     LOG_ID                        : DESCRIPTION
#_______________________________________________________________________________
DEPTH              .M                                      : Depth 
AHMF               .ohm.m                                  : 21 Array Induction Mud Resistivity Fully Calibrated 
AT10               .ohm.m                                  : MedRes     30 Array Induction Two Foot Resistivity A10 
AT20               .ohm.m                                  : MedRes     31 Array Induction Two Foot Resistivity A20 
AT30               .ohm.m                                  : MedRes     32 Array Induction Two Foot Resistivity A30 
AT60               .ohm.m                                  : DeepRes    33 Array Induction Two Foot Resistivity A60 
AT90               .ohm.m                                  : XDeepRes   34 Array Induction Two Foot Resistivity A90 
BSC                .mm                                     : 20 Nominal Caliper 
C1                 .mm                                     : 17 CALIPER DIAMETER 1 
C2                 .mm                                     : 18 CALIPER DIAMETER 2 
CALI               .mm                                     : Caliper    19 
CFTC               .1/s                                    : 7 Corrected Far Thermal Count Rate 
CNTC               .1/s                                    : Neutron    8 Corrected Near Thermal Count Rate 
DT                 .uSec/m                                 : Sonic      12 Sonic travel time 
GR                 .gAPI                                   : GammaRay   9 Gamma Ray 
HAZIM              .deg                                    : Azimuth    13 Hole Azimuth 
HCAL               .mm                                     : 16 HRCC Caliper Calibrated 
HMIN               .ohm.m                                  : 2 HIP Micro Inverse Resistivity 
HMNO               .ohm.m                                  : 3 HIP Micro Normal Resistivity 
MTEM_FILT          .degC                                   : 10 Filtered Mud Temperature 
PEFZ               .B/E                                    : PEF        4 Formation Photoelectric Factor 
Perm               .md                                     : perm 
PHIE               .Dec                                    : Phi 
PHIT               .Dec                                    : PhiT 
RHOZ               .g/cm3                                  : Density    5 Bulk Density 
RLA1               .ohm.m                                  : ShalRes    22 HRLT Borehole Corrected Resistivity 1 
RLA2               .ohm.m                                  : MedRes     23 HRLT Borehole Corrected Resistivity 2 
RLA3               .ohm.m                                  : DeepRes    24 HRLT Borehole Corrected Resistivity 3 
RLA4               .ohm.m                                  : XDeepRes   25 HRLT Borehole Corrected Resisitivity 4 
RLA5               .ohm.m                                  : UltraDeepR 26 HRLT Borehole Corrected Resistivity 5 
RT                 .ohm.m                                  : 27 HRLT True Formation Resistivity 
RXO                .ohm.m                                  : 28 HRLT Invaded Zone Resistivity 
RXOZ               .ohm.m                                  : MicroRes   6 Invaded Formation Resistivity filtered at 18 inches 
SDEVM              .deg                                    : 15 Sonde Deviation 
SP                 .mV                                     : SP         36 Spontaneous Potential 
SW                 .Dec                                    : Sw 
TNPH               .v/v                                    : Neutron    11 Compensated Neutron Porosity 
VCLAV              .Dec                                    : Vcl 
~Ascii
# ...
146.9      
  -999.25    -999.25    -999.25    -999.25    -999.25    -999.25    
  228.7      220.197    225.0908   222.6302   247.1531982421875 1150.3405  
  -999.25    52.1391    -999.25    -999.25    0.667      0.5891     
  23.4943    -999.25    0          -999.25    -999.25    2.9302     
  -999.25    -999.25    -999.25    -999.25    -999.25    -999.25    
  -999.25    0.8479     0.3709     -999.25    -999.25    -999.25    
  0.1538    
147        
  0.1383     -999.25    -999.25    -999.25    -999.25    -999.25    
  228.7      220.2087   224.4564   222.3218   251.7942047119141 1147.3877  
  -999.25    50.0674    -999.25    -999.25    0.6748     0.596      
  23.4943    -999.25    0          -999.25    -999.25    2.9201     
  -999.25    -999.25    -999.25    -999.25    -999.25    -999.25    
  -999.25    0.8633     0.3568     -999.25    -999.25    -999.25    
  0.1389    
147.1      
  0.1383     -999.25    -999.25    -999.25    -999.25    -999.25    
  228.7      220.331    224.0895   222.202    262.54638671875 1140.783   
  -999.25    49.8429    -999.25    -999.25    0.7113     0.6283     
  23.4969    -999.25    0          -999.25    -999.25    2.9357     
  -999.25    -999.25    -999.25    -999.25    -999.25    -999.25    
  -999.25    0.8732     0.3406     -999.25    -999.25    -999.25    
  0.1373    
147.2      
  0.1383     -999.25    -999.25    -999.25    -999.25    -999.25    
  228.7      220.484    223.914    222.193    276.9407043457031 1135.6918  
  -999.25    49.7556    -999.25    -999.25    0.7272     0.6423     
  23.5003    -999.25    0          -999.25    -999.25    2.9927     
  -999.25    -999.25    -999.25    -999.25    -999.25    -999.25    
  -999.25    0.9055     0.3225     -999.25    -999.25    -999.25    
  0.1367    
147.3      
  0.1382     -999.25    -999.25    -999.25    -999.25    -999.25    
  228.7      220.484    223.914    222.193    296.3966064453125 1142.3354  
  -999.25    47.3432    -999.25    -999.25    0.735      0.6492     
  23.503     -999.25    0          -999.25    -999.25    3.0787     
  -999.25    -999.25    -999.25    -999.25    -999.25    -999.25    
  -999.25    0.9007     0.2999     -999.25    -999.25    -999.25    
  0.1201    
147.4      
  0.138      5.2018     1950       26.9231    10.2356    3.7062     
  228.7      220.502    223.9228   222.2063   308.3439025878906 1143.9651  
  -999.25    45.8026    -999.25    -999.25    0.7152     0.6317     
  23.5039    -999.25    0          -999.25    -999.25    3.1145     
  0.0566     0.04820000007748604 0.04320000112056732 0.03889999911189079 
  0.03139999881386757 0.03139999881386757 0.03139999881386757 0.8517     
  0.2739     -999.25    -999.25    -999.25    0.1099    
147.5      
  0.1377     3.6574     1950       15.6671    8.9312     3.8491     
  228.7      221.0235   224.1764   222.5935   316.5093994140625 1144.5199  
  -999.25    44.4716    -999.25    -999.25    0.6415     0.5666     
  23.5042    -999.25    0          -999.25    -999.25    3.0593     
  0.0548     0.04639999940991402 0.04170000180602074 0.03750000149011612 
  0.03020000085234642 0.03020000085234642 0.03020000085234642 0.8543     
  0.2453     -999.25    -999.25    -999.25    0.1014    
147.6      
  0.1377     2.7069     1950       9.8507     7.0642     3.9625     
  228.7      224.2635   225.7279   224.9943   324.2030944824219 1152.9794  
  -999.25    41.8955    -999.25    -999.25    0.6399     0.5652     
  23.5066    -999.25    0          -999.25    -999.25    2.9139     
  0.0534     0.04479999840259552 0.04039999842643738 0.03640000149607658 
  0.02940000034868717 0.02940000034868717 0.02940000034868717 0.9667     
  0.2123     -999.25    -999.25    -999.25    0.0856    
147.7      
  0.1377     1.9175     1740.0142  6.7877     5.3995     3.9825     
  228.7      223.9808   225.3691   224.6741   319.7685852050781 1160.7457  
  -999.25    44.2595    -999.25    -999.25    0.954      0.8429     
  23.5075    -999.25    0          -999.25    -999.25    2.6764     
  0.0569     0.04850000143051147 0.04390000179409981 0.0397999994456768 
  0.03290000185370445 0.03290000185370445 0.03290000185370445 1.1759     
  0.1805     -999.25    -999.25    -999.25    0.1       
147.8      
  0.1377     1.629      478.5283   5.0561     4.2264     3.905      
  228.7      221.4149   224.3039   222.8538   309.9450073242188 1168.6187  
  -999.25    49.5196    -999.25    -999.25    1.7565     1.5547     
  23.5079    -999.25    0          -999.25    -999.25    2.4012     
  0.0882     0.07680000364780426 0.07090000063180923 0.06580000370740891 
  0.05609999969601631 0.05739999935030937 0.09040000289678574 1.7285     
  0.152      -999.25    -999.25    -999.25    0.135     
147.9      
  0.1381     1.2771     53.3758    3.8264     3.3913     3.7967     
  228.7      224.9864   230.7291   227.8394   318.5191040039063 1181.2751  
  -999.25    53.5942    -999.25    -999.25    2.3983     2.1736     
  23.5109    -999.25    0          -999.25    -999.25    2.1802     
  0.3803     0.3278000056743622 0.300599992275238 0.2772000133991241 
  0.2311999946832657 0.09399999678134918 0.6251000165939331 2.8104     
  0.1468     -999.25    -999.25    -999.25    0.1647    
148        
  0.1387     1.1201     17.3266    3.464      3.0717     3.7357     
  228.7      229.9946   231.5702   230.7755   326.2878112792969 1189.8549  
  -999.25    58.1279    -999.25    -999.25    1.446      1.6884     
  23.5122    -999.25    0          -999.25    -999.25    2.0328     
  1.1354     0.9977999925613403 0.9265000224113464 0.8597999811172485 
  0.7290999889373779 0.3409000039100647 1.805199980735779 3.7146     
  0.1612     -999.25    -999.25    -999.25    0.2002    
148.1      
  0.1393     1.094      9.604200000000001 3.2122     2.9465     3.8248     
  228.7      235.7846   227.2777   231.4914   333.852294921875 1196.0017  
  -999.25    62.6416    -999.25    -999.25    2.5986     2.4975     
  23.5124    -999.25    0          -999.25    -999.25    1.9377     
  1.9278     1.726999998092651 1.623000025749207 1.521199941635132 
  1.310500025749207 0.7195000052452087 3.011300086975098 4.0919     
  0.1906     -999.25    -999.25    -999.25    0.238     
148.2      
  0.1396     1.4609     5.962      3.1223     3.0078     4.0086     
  228.7      236.0152   225.3996   230.6462   348.618896484375 1212.0148  
  -999.25    60.4602    -999.25    -999.25    3.26       2.8912     
  23.5172    -999.25    0          -999.25    -999.25    1.899      
  2.2516     2.032500028610229 1.923799991607666 1.813699960708618 
  1.575399994850159 0.9545999765396118 3.616499900817871 3.975      
  0.2346     -78.2527   -999.25    -999.25    0.2194    
148.3      
  0.1396     1.3332     4.5098     2.9794     3.1752     4.0087     
  228.7      235.1996   223.7599   229.408    352.1911010742188 1216.7542  
  -999.25    61.5156    -999.25    -999.25    2.9009     2.5718     
  23.5195    -999.25    0          -999.25    -999.25    1.8922     
  2.5966     2.437700033187866 2.377000093460083 2.277699947357178 
  2.015300035476685 1.560199975967407 3.931400060653687 3.8231     0.2797     
  -79.3691   -999.25    -999.25    0.2283    
148.4      
  0.1396     1.8664     5.6679     3.3136     4.3671     3.7851     
  227.42     233.6753   222.4031   227.9697   345.8363037109375 1211.496   
  727.7164   65.4412    -999.25    222.2442   2.7841     2.468      
  23.5195    -999.25    0          -999.25    -999.25    1.8929     
  2.9674     2.965199947357178 2.924499988555908 2.807300090789795 
  2.506099939346313 2.189899921417236 4.105100154876709 3.6118     0.326      
  -81.9745   -999.25    -999.25    0.2627    
148.5      
  0.1396     3.2358     6.1875     3.0017     3.34       3.3826     
  215.9      233.6827   222.577    228.062    341.6885070800781 1223.8632  
  725.7725   65.7705    -999.25    222.8311   2.7768     2.4615     
  23.5227    -999.25    0          -999.25    -999.25    1.8939     
  3.0111     3.070499897003174 2.999599933624268 2.830499887466431 
  2.502599954605103 2.120399951934814 4.494999885559082 3.4245     0.3648     
  -85.6637   -999.25    -999.25    0.2656    
