~Version
 VERS              .         2.0                           : CWLS LOG ASCII STANDARD - VERSION 2.0
 WRAP              .         YES                            : ONE LINE PER DEPTH STEP
 DLM               .         SPACE                         : DELIMITING CHARACTER(SPACE TAB OR COMMA)
~Well Information
#_______________________________________________________________________________
#
#PARAMETER_NAME    .UNIT     VALUE                         : DESCRIPTION
#_______________________________________________________________________________
STRT               .M        0                             : First reference value
STOP               .M        750                           : Last reference value
STEP               .M        0.1                           : Step increment
NULL               .         -999.25                       : Missing value
COMP               .         COMPANY                       : Company
WELL               .         355                           : Well name
FLD                .         Field Name                    : Field
LOC                .         Location                      : Location
CNTY               .                                       : County
STAT               .                                       : State
CTRY               .                                       : Country
SRVC               .         SCH                           : Service Company
DATE               .         22.09.2024                    : Date
API                .                                       : API number
APDAT              .         136.988                       : Elevation Above Permanent Datum
BHS                .         OPEN                          : Completion Status
COUNT              .         Kazakhstan                    : Country
DF                 .         136.988                       : DF Elevation
DRMEA              .         DF                            : Drill Measured From
EPDAT              .         0                             : Elevation of Permanent Datum
GL                 .         131.788                       : GL Elevation
KB                 .         0                             : KB Elevation
LGMEA              .         DF                            : Log Measured from
LATI               .         47.93162                      : Latitude/Northing
LONG               .         56.55725                      : Longitude/Easting
ORIGINALWELLNAME   .         355                           : 
PDAT               .         MSL                           : Permanent Datum
RWS                .         -999                          : Def_Rw
STATE              .         1_500 / 1_200                 : State
WST                .         -999                          : Def_Rwt
~Parameter Information Block
#_______________________________________________________________________________
#
#PARAMETER_NAME    .UNIT     VALUE                         : DESCRIPTION
#_______________________________________________________________________________
SET                .         model                         : 
TLFamily_AHMF      .                                       : 
TLFamily_AT10      .         Resistivity - Medium          : 
TLFamily_AT20      .         Resistivity (Array)           : 
TLFamily_AT30      .         Resistivity (Array)           : 
TLFamily_AT60      .         Resistivity (Array)           : 
TLFamily_AT90      .         Resistivity - Deep            : 
TLFamily_BSC       .         Bit Size                      : 
TLFamily_C1        .         Caliper 1                     : 
TLFamily_C2        .         Caliper 2                     : 
TLFamily_CALI      .         Caliper                       : 
TLFamily_CFTC      .         Neutron Far                   : 
TLFamily_CNTC      .         Neutron Near                  : 
TLFamily_DEPTH     .         Measured Depth                : 
TLFamily_DT        .         Compressional Slowness        : 
TLFamily_GR        .         Gamma Ray                     : 
TLFamily_HAZIM     .         Hole Azimuth                  : 
TLFamily_HCAL      .         Caliper                       : 
TLFamily_HMIN      .                                       : 
TLFamily_HMNO      .                                       : 
TLFamily_MTEM_FILT .         Temperature                   : 
TLFamily_PEFZ      .         Photoelectric Factor          : 
TLFamily_PHIE      .         Effective Porosity            : 
TLFamily_PHIT      .         Total Porosity                : 
TLFamily_Perm      .         Permeability                  : 
TLFamily_RHOZ      .         Bulk Density                  : 
TLFamily_RLA1      .         Resistivity (Array)           : 
TLFamily_RLA2      .         Resistivity (Array)           : 
TLFamily_RLA3      .         Resistivity (Array)           : 
TLFamily_RLA4      .         Resistivity (Array)           : 
TLFamily_RLA5      .         Resistivity (Array)           : 
TLFamily_RT        .         Resistivity - True Formation  : 
TLFamily_RXO       .         Resistivity - Flushed Zone    : 
TLFamily_RXOZ      .         Resistivity - Flushed Zone    : 
TLFamily_SDEVM     .         Sonde Deviation               : 
TLFamily_SP        .         Spontaneous Potential         : 
TLFamily_SW        .         Water Saturation              : 
TLFamily_TNPH      .         Neutron Porosity              : 
TLFamily_VCLAV     .         Clay Volume Fraction          : 
~Curve Information
#_______________________________________________________________________________
#
#LOGNAME           .UNIT     LOG_ID                        : DESCRIPTION
#_______________________________________________________________________________
DEPTH              .M                                      : Depth 
AHMF               .ohm.m                                  : 21 Array Induction Mud Resistivity Fully Calibrated 
AT10               .ohm.m                                  : MedRes     30 Array Induction Two Foot Resistivity A10 
AT20               .ohm.m                                  : MedRes     31 Array Induction Two Foot Resistivity A20 
AT30               .ohm.m                                  : MedRes     32 Array Induction Two Foot Resistivity A30 
AT60               .ohm.m                                  : DeepRes    33 Array Induction Two Foot Resistivity A60 
AT90               .ohm.m                                  : XDeepRes   34 Array Induction Two Foot Resistivity A90 
BSC                .mm                                     : 20 Nominal Caliper 
C1                 .mm                                     : 17 CALIPER DIAMETER 1 
C2                 .mm                                     : 18 CALIPER DIAMETER 2 
CALI               .mm                                     : Caliper    19 
CFTC               .1/s                                    : 7 Corrected Far Thermal Count Rate 
CNTC               .1/s                                    : Neutron    8 Corrected Near Thermal Count Rate 
DT                 .uSec/m                                 : Sonic      12 Sonic travel time 
GR                 .gAPI                                   : GammaRay   9 Gamma Ray 
HAZIM              .deg                                    : Azimuth    13 Hole Azimuth 
HCAL               .mm                                     : 16 HRCC Caliper Calibrated 
HMIN               .ohm.m                                  : 2 HIP Micro Inverse Resistivity 
HMNO               .ohm.m                                  : 3 HIP Micro Normal Resistivity 
MTEM_FILT          .degC                                   : 10 Filtered Mud Temperature 
PEFZ               .B/E                                    : PEF        4 Formation Photoelectric Factor 
Perm               .md                                     : perm 
PHIE               .Dec                                    : Phi 
PHIT               .Dec                                    : PhiT 
RHOZ               .g/cm3                                  : Density    5 Bulk Density 
RLA1               .ohm.m                                  : ShalRes    22 HRLT Borehole Corrected Resistivity 1 
RLA2               .ohm.m                                  : MedRes     23 HRLT Borehole Corrected Resistivity 2 
RLA3               .ohm.m                                  : DeepRes    24 HRLT Borehole Corrected Resistivity 3 
RLA4               .ohm.m                                  : XDeepRes   25 HRLT Borehole Corrected Resisitivity 4 
RLA5               .ohm.m                                  : UltraDeepR 26 HRLT Borehole Corrected Resistivity 5 
RT                 .ohm.m                                  : 27 HRLT True Formation Resistivity 
RXO                .ohm.m                                  : 28 HRLT Invaded Zone Resistivity 
RXOZ               .ohm.m                                  : MicroRes   6 Invaded Formation Resistivity filtered at 18 inches 
SDEVM              .deg                                    : 15 Sonde Deviation 
SP                 .mV                                     : SP         36 Spontaneous Potential 
SW                 .Dec                                    : Sw 
TNPH               .v/v                                    : Neutron    11 Compensated Neutron Porosity 
VCLAV              .Dec                                    : Vcl 
~Ascii
# ...
220.8      
  0.1384     1.7954     2.571      3.3448     4.4875     4.6925     
  215.9      216.992    215.821    216.4059   453.6678   1583.9523  
  476.8033   99.0824    148.9068   211.0926   0.5939     0.5246     
  24.4814    2.581      0          0.0005     0.1195     2.0369     
  3.6566     4.0756     4.2309     4.2322     4.0958     4.5974     
  2.3875     0.7432     0.3787     -115.8622  1          0.4375     
  0.7929    
220.9      
  0.1383     1.7356     2.5068     3.2503     4.4319     4.9765     
  215.9      216.992    215.182    216.0854   458.1302   1572.7056  
  477.1828   96.8185    148.2875   211.6795   0.582      0.5142     
  24.4814    2.5804     0          0.0009     0.1165     2.0526     
  3.2247     3.5223     3.6682     3.6676     3.5477     3.8936     
  2.1837     0.8079     0.3773     -114.9351  1          0.4256     
  0.7705    
221        
  0.1382     1.7118     2.424      3.0019     4.0219     4.7131     
  215.9      216.992    214.7545   215.8707   449.9143   1567.2677  
  478.3948   95.5333    147.4171   211.3039   0.6669     0.5996     
  24.4847    2.5639     0          0.0013     0.1149     2.0747     
  2.9947     3.2519     3.391      3.394      3.2807     3.5723     
  2.0855     0.9231     0.3765     -114.1148  1          0.4368     
  0.7578    
221.1      
  0.1383     1.674      2.3656     2.8238     3.5449     4.0261     
  215.9      217.047    214.5725   215.8066   432.8453   1565.3595  
  480.2465   94.6102    146.3555   211.0249   0.8524     0.7962     
  24.49      2.5596     0          0.0016     0.1139     2.0973     
  3.4026     3.7606     3.9178     3.9278     3.797      4.2211     
  2.2857     1.1074     0.376      -113.4849  1          0.4639     
  0.7486    
221.2      
  0.1384     1.7803     2.547      3.077      3.7702     4.3229     
  215.9      217.591    214.7887   216.1853   420.9115   1552.8503  
  482.674    88.2582    145.1463   211.6326   1.1037     1.0362     
  24.49      2.5835     0.000099999997474 0.0161     0.1118     2.1102     
  4.0569     4.4555     4.6434     4.6634     4.5065     4.9835     
  2.7369     1.4144     0.3739     -113.1157  1          0.4795     
  0.6379    
221.3      
  0.1385     2.0006     3.0783     3.8443     4.7669     5.4252     
  215.9      218.0699   215.1182   216.5891   418.1454   1549.9369  
  483.9292   86.24      143.884    211.6795   1.1508     1.0909     
  24.493     2.6041     0.00279999990016222 0.0336     0.1229     2.1165     
  4.3162     4.6937     4.8774     4.9094     4.7449     5.1783     
  2.9905     1.6703     0.3724     -113.0501  1          0.4829     
  0.5955    
221.4      
  0.1386     2.2604     3.7038     4.7926     5.8079     7.2851     
  215.9      218.4494   215.5194   216.9797   423.345    1555.3767  
  484.1488   88.0045    142.5773   212.2777   1.1271     1.0833     
  24.4985    2.6253     0.000199999994947575 0.0177     0.1126     2.1193     
  4.422      4.7426     4.9326     4.9652     4.792      5.1438     
  3.2072     1.7065     0.3713     -113.2939  1          0.4758     
  0.6326    
221.5      
  0.1386     2.4423     4.0924     5.1932     6.4778     8.189      
  215.9      218.8188   215.5328   217.1692   412.3041   1545.348   
  484.7546   83.7928    141.5227   212.2664   1.0676     1.0414     
  24.4985    2.651      0.08389999717473984 0.0727     0.1543     2.1177     
  4.3068     4.5759     4.7393     4.7614     4.5979     4.8452     
  3.3484     1.7267     0.3714     -113.8152  1          0.4922     
  0.5441    
221.6      
  0.1387     2.4184     4.0684     4.9092     6.0935     7.2605     
  215.9      219.033    215.3338   217.1757   416.2936   1543.3717  
  484.2834   82.9332    140.6      211.9964   1.0082     0.9975     
  24.5012    2.6585     0.2398999929428101 0.0923     0.1712     2.1206     
  4.2308     4.4451     4.6059     4.6243     4.4726     4.647      
  3.4709     1.7163     0.3723     -114.5521  1          0.4843     
  0.5261    
221.7      
  0.1387     2.3552     3.8434     4.4297     5.3395     5.8187     
  215.9      218.9997   214.9485   216.9648   436.5659   1550.1191  
  482.6454   85.705     139.8203   212.2664   1.0937     1.0594     
  24.5069    2.6617     0.006200000178068876 0.0402     0.1278     2.1274     
  4.329      4.4913     4.6501     4.6715     4.5228     4.6359     
  3.7511     1.661      0.374      -115.427   1          0.4501     
  0.5843    
221.8      
  0.1387     2.3102     3.6404     4.1086     4.9318     4.999      
  215.9      218.6617   215.0607   216.8538   444.5202   1547.3896  
  480.6841   84.0641    139.3569   211.8149   1.1451     1.0674     
  24.5133    2.6855     0.05920000001788139 0.0672     0.1496     2.1308     
  4.2554     4.3751     4.5311     4.5475     4.411      4.484      
  3.845      1.6583     0.3771     -116.3647  1          0.4358     
  0.5498    
221.9      
  0.1387     2.2756     3.4025     3.8824     4.6793     4.6793     
  215.9      218.2794   215.0147   216.6406   455.7964   1549.0455  
  479.3344   83.4082    139.0874   211.2569   1.1248     1.0424     
  24.5169    2.7087     0.1354999989271164 0.081      0.1614     2.1352     
  4.0569     4.1316     4.2653     4.2762     4.1505     4.1893     
  3.9325     1.6545     0.3811     -117.3087  1          0.4191     
  0.536     
222        
  0.1387     2.2564     3.2988     3.6693     4.4494     4.2174     
  215.9      217.9492   214.6168   216.2769   471.9536   1556.7854  
  478.7803   84.2398    139.0478   211.0926   1.1121     1.0452     
  24.5169    2.7042     0.0471000000834465 0.0637     0.1468     2.1446     
  4.102      4.1788     4.2988     4.3        4.179      4.2141     
  4.0994     1.7122     0.3861     -118.232   1          0.3985     
  0.5535    
222.1      
  0.1387     2.2798     3.2291     3.6202     4.4063     4.0978     
  215.9      218.0474   214.543    216.2881   478.6002   1544.6613  
  478.9874   81.5677    139.4997   211.6795   1.2016     1.1499     
  24.5224    2.683      1.081300020217896 0.1299     0.2045     2.1543     
  4.4109     4.5168     4.6247     4.6257     4.4944     4.5425     
  4.319      1.7107     0.3931     -119.1375  1          0.3844     
  0.4974    
222.2      
  0.1387     2.3301     3.2291     3.675      4.4356     4.1522     
  215.9      218.3051   214.543    216.4159   479.7993   1533.7573  
  479.4474   80.3908    139.9427   211.2452   1.1593     1.1173     
  24.5261    2.6514     2.775099992752075 0.161      0.2319     2.1601     
  4.2757     4.3801     4.4633     4.4631     4.3381     4.3863     
  4.2493     1.7772     0.4005     -120.0488  1          0.3783     
  0.4727    
222.3      
  0.1385     2.3532     3.2203     3.7016     4.4703     4.1881     
  215.9      218.6571   214.6102   216.6244   473.9491   1527.8351  
  480.1852   82.0945    140.2957   211.4086   1.2045     1.1225     
  24.5261    2.6209     0.6200000047683716 0.1145     0.1908     2.1569     
  4.2386     4.3505     4.4207     4.4237     4.3028     4.3487     
  4.2425     1.7421     0.4082     -120.9916  1          0.3838     
  0.5084    
222.4      
  0.1383     2.3581     3.2043     3.7047     4.4862     4.2455     
  215.9      218.7253   215.3034   217.0077   464.6328   1529.4932  
  479.0182   82.8875    140.6082   211.21     1.1878     1.0991     
  24.5317    2.6124     0.2531999945640564 0.0934     0.1722     2.1428     
  4.3179     4.4543     4.5126     4.5032     4.3772     4.4341     
  4.3138     1.5966     0.4166     -121.9747  1          0.3977     
  0.5251    
222.5      
  0.1381     2.3567     3.1808     3.712      4.4894     4.3375     
  215.9      218.5448   216.1873   217.3628   453.1886   1522.4343  
  477.4875   82.5574    140.9199   211.2958   1.0415     0.9724     
  24.5359    2.6257     0.3705999851226807 0.1019     0.1796     2.1253     
  4.2546     4.4109     4.4707     4.4491     4.3309     4.3894     
  4.1854     1.5065     0.4248     -122.9783  1          0.4116     
  0.5182    
