~Version
 VERS              .         2.0                           : CWLS LOG ASCII STANDARD - VERSION 2.0
 WRAP              .         YES                            : ONE LINE PER DEPTH STEP
 DLM               .         SPACE                         : DELIMITING CHARACTER(SPACE TAB OR COMMA)
~Well Information
#_______________________________________________________________________________
#
#PARAMETER_NAME    .UNIT     VALUE                         : DESCRIPTION
#_______________________________________________________________________________
STRT               .M        0                             : First reference value
STOP               .M        750                           : Last reference value
STEP               .M        0.1                           : Step increment
NULL               .         -999.25                       : Missing value
COMP               .         COMPANY                       : Company
WELL               .         355                           : Well name
FLD                .         Field Name                    : Field
LOC                .         Location                      : Location
CNTY               .                                       : County
STAT               .                                       : State
CTRY               .                                       : Country
SRVC               .         SCH                           : Service Company
DATE               .         22.09.2024                    : Date
API                .                                       : API number
APDAT              .         136.988                       : Elevation Above Permanent Datum
BHS                .         OPEN                          : Completion Status
COUNT              .         Kazakhstan                    : Country
DF                 .         136.988                       : DF Elevation
DRMEA              .         DF                            : Drill Measured From
EPDAT              .         0                             : Elevation of Permanent Datum
GL                 .         131.788                       : GL Elevation
KB                 .         0                             : KB Elevation
LGMEA              .         DF                            : Log Measured from
LATI               .         47.93162                      : Latitude/Northing
LONG               .         56.55725                      : Longitude/Easting
ORIGINALWELLNAME   .         355                           : 
PDAT               .         MSL                           : Permanent Datum
RWS                .         -999                          : Def_Rw
STATE              .         1_500 / 1_200                 : State
WST                .         -999                          : Def_Rwt
~Parameter Information Block
#_______________________________________________________________________________
#
#PARAMETER_NAME    .UNIT     VALUE                         : DESCRIPTION
#_______________________________________________________________________________
SET                .         model                         : 
TLFamily_AHMF      .                                       : 
TLFamily_AT10      .         Resistivity - Medium          : 
TLFamily_AT20      .         Resistivity (Array)           : 
TLFamily_AT30      .         Resistivity (Array)           : 
TLFamily_AT60      .         Resistivity (Array)           : 
TLFamily_AT90      .         Resistivity - Deep            : 
TLFamily_BSC       .         Bit Size                      : 
TLFamily_C1        .         Caliper 1                     : 
TLFamily_C2        .         Caliper 2                     : 
TLFamily_CALI      .         Caliper                       : 
TLFamily_CFTC      .         Neutron Far                   : 
TLFamily_CNTC      .         Neutron Near                  : 
TLFamily_DEPTH     .         Measured Depth                : 
TLFamily_DT        .         Compressional Slowness        : 
TLFamily_GR        .         Gamma Ray                     : 
TLFamily_HAZIM     .         Hole Azimuth                  : 
TLFamily_HCAL      .         Caliper                       : 
TLFamily_HMIN      .                                       : 
TLFamily_HMNO      .                                       : 
TLFamily_MTEM_FILT .         Temperature                   : 
TLFamily_PEFZ      .         Photoelectric Factor          : 
TLFamily_PHIE      .         Effective Porosity            : 
TLFamily_PHIT      .         Total Porosity                : 
TLFamily_Perm      .         Permeability                  : 
TLFamily_RHOZ      .         Bulk Density                  : 
TLFamily_RLA1      .         Resistivity (Array)           : 
TLFamily_RLA2      .         Resistivity (Array)           : 
TLFamily_RLA3      .         Resistivity (Array)           : 
TLFamily_RLA4      .         Resistivity (Array)           : 
TLFamily_RLA5      .         Resistivity (Array)           : 
TLFamily_RT        .         Resistivity - True Formation  : 
TLFamily_RXO       .         Resistivity - Flushed Zone    : 
TLFamily_RXOZ      .         Resistivity - Flushed Zone    : 
TLFamily_SDEVM     .         Sonde Deviation               : 
TLFamily_SP        .         Spontaneous Potential         : 
TLFamily_SW        .         Water Saturation              : 
TLFamily_TNPH      .         Neutron Porosity              : 
TLFamily_VCLAV     .         Clay Volume Fraction          : 
~Curve Information
#_______________________________________________________________________________
#
#LOGNAME           .UNIT     LOG_ID                        : DESCRIPTION
#_______________________________________________________________________________
DEPTH              .M                                      : Depth 
AHMF               .ohm.m                                  : 21 Array Induction Mud Resistivity Fully Calibrated 
AT10               .ohm.m                                  : MedRes     30 Array Induction Two Foot Resistivity A10 
AT20               .ohm.m                                  : MedRes     31 Array Induction Two Foot Resistivity A20 
AT30               .ohm.m                                  : MedRes     32 Array Induction Two Foot Resistivity A30 
AT60               .ohm.m                                  : DeepRes    33 Array Induction Two Foot Resistivity A60 
AT90               .ohm.m                                  : XDeepRes   34 Array Induction Two Foot Resistivity A90 
BSC                .mm                                     : 20 Nominal Caliper 
C1                 .mm                                     : 17 CALIPER DIAMETER 1 
C2                 .mm                                     : 18 CALIPER DIAMETER 2 
CALI               .mm                                     : Caliper    19 
CFTC               .1/s                                    : 7 Corrected Far Thermal Count Rate 
CNTC               .1/s                                    : Neutron    8 Corrected Near Thermal Count Rate 
DT                 .uSec/m                                 : Sonic      12 Sonic travel time 
GR                 .gAPI                                   : GammaRay   9 Gamma Ray 
HAZIM              .deg                                    : Azimuth    13 Hole Azimuth 
HCAL               .mm                                     : 16 HRCC Caliper Calibrated 
HMIN               .ohm.m                                  : 2 HIP Micro Inverse Resistivity 
HMNO               .ohm.m                                  : 3 HIP Micro Normal Resistivity 
MTEM_FILT          .degC                                   : 10 Filtered Mud Temperature 
PEFZ               .B/E                                    : PEF        4 Formation Photoelectric Factor 
Perm               .md                                     : perm 
PHIE               .Dec                                    : Phi 
PHIT               .Dec                                    : PhiT 
RHOZ               .g/cm3                                  : Density    5 Bulk Density 
RLA1               .ohm.m                                  : ShalRes    22 HRLT Borehole Corrected Resistivity 1 
RLA2               .ohm.m                                  : MedRes     23 HRLT Borehole Corrected Resistivity 2 
RLA3               .ohm.m                                  : DeepRes    24 HRLT Borehole Corrected Resistivity 3 
RLA4               .ohm.m                                  : XDeepRes   25 HRLT Borehole Corrected Resisitivity 4 
RLA5               .ohm.m                                  : UltraDeepR 26 HRLT Borehole Corrected Resistivity 5 
RT                 .ohm.m                                  : 27 HRLT True Formation Resistivity 
RXO                .ohm.m                                  : 28 HRLT Invaded Zone Resistivity 
RXOZ               .ohm.m                                  : MicroRes   6 Invaded Formation Resistivity filtered at 18 inches 
SDEVM              .deg                                    : 15 Sonde Deviation 
SP                 .mV                                     : SP         36 Spontaneous Potential 
SW                 .Dec                                    : Sw 
TNPH               .v/v                                    : Neutron    11 Compensated Neutron Porosity 
VCLAV              .Dec                                    : Vcl 
~Ascii
# ...
502        
  0.1256     2.7817     3.0353     3.0535     3.1024     3.1433     
  215.9      219.3654   217.4352   218.3979   497.4752   1555.6986  
  393.6593   92.628     177.915    211.0926   1.5489     1.5491     
  29.3132    2.9593     0          0.0001000  0.114      2.2939     
  3.882      3.7665     3.8044     3.7597     3.6539     3.6096     
  4.621      2.529      0.5228     -130.9388  1          0.3676     
  0.7591    
502.1      
  0.1256     2.725      2.9579     3.0726     3.1274     3.1239     
  215.9      218.6536   217.1244   217.8873   506.569    1530.5256  
  401.337    95.3448    178.2591   211.5622   1.0477     1.1193     
  29.3132    2.8193     0          0.0001000  0.1182     2.2616     
  3.5099     3.3883     3.4111     3.3901     3.286      3.2276     
  4.2123     2.1702     0.5227     -131.8023  1          0.347      
  0.7871    
502.2      
  0.1256     2.5376     2.7593     2.8626     2.9774     2.9437     
  215.9      218.4184   215.8957   217.153    489.3105   1512.1025  
  414.0988   99.8395    178.5513   209.6704   0.6949     0.7926     
  29.3132    2.6377     0          0.0001000  0.1251     2.2279     
  3.2798     3.1836     3.2011     3.2018     3.0975     3.0797     
  3.8126     1.7314     0.523      -132.6959  1          0.3616     
  0.8334    
502.3      
  0.1256     2.4002     2.5931     2.6647     2.8021     2.754      
  215.9      217.9258   213.7276   215.8165   464.0873   1500.5925  
  426.9246   103.327    178.7963   208.8388   0.5574     0.6398     
  29.3132    2.4584     0          0.0001000  0.1305     2.2049     
  3.0355     2.956      2.9616     2.9785     2.871      2.8581     
  3.5382     1.4778     0.5234     -133.5613  1          0.3907     
  0.8694    
502.4      
  0.1257     2.3448     2.5333     2.5848     2.6981     2.6501     
  215.9      216.5946   210.3875   213.4686   435.3241   1502.5193  
  436.6464   103.0818   178.9537   216.3975   0.5398     0.6049     
  29.3132    2.349      0          0.0001000  0.1301     2.2023     
  2.9083     2.825      2.82       2.843      2.7274     2.686      
  3.5111     1.4052     0.5238     -134.3525  1          0.434      
  0.8668    
502.5      
  0.1258     2.3631     2.5444     2.6216     2.7152     2.6788     
  215.9      220.6087   212.5797   216.5575   410.2609   1493.666   
  439.9481   97.8342    179.137    217.267    0.589      0.6555     
  29.3132    2.3162     0          0.0003     0.1222     2.212      
  3.0176     2.9231     2.9232     2.9463     2.8093     2.7524     
  3.6967     1.3829     0.5239     -135.0367  1          0.4744     
  0.8127    
502.6      
  0.1259     2.3998     2.5755     2.6741     2.8065     2.7674     
  215.9      225.8303   217.0173   221.379    390.4843   1488.4313  
  440.059    91.682     179.3126   212.4357   0.6106     0.6941     
  29.3132    2.35       0          0.0016     0.114      2.227      
  3.1391     3.0513     3.0598     3.0829     2.9221     2.8826     
  3.8063     1.5012     0.5241     -135.5945  1          0.511      
  0.7493    
502.7      
  0.126      2.432      2.6169     2.71       2.9226     2.8615     
  215.9      225.0522   219.0519   222.0324   384.2773   1507.3411  
  436.6522   88.0837    179.433    211.6326   0.6403     0.7405     
  29.3132    2.429      0          0.0053     0.1095     2.2426     
  3.1695     3.1006     3.1215     3.1452     2.9637     2.956      
  3.7808     1.6635     0.5248     -136.0206  1          0.5381     
  0.6941    
502.8      
  0.126      2.4845     2.6627     2.7681     2.9103     2.9027     
  215.9      224.1668   219.5605   221.8519   391.5126   1525.6075  
  429.7649   85.4484    179.4637   212.8082   0.6951     0.8026     
  29.3132    2.5216     0.0001     0.0165     0.112      2.2568     
  3.2454     3.196      3.2176     3.2454     3.0387     3.0482     
  3.8591     1.7731     0.5246     -136.323   1          0.531      
  0.6364    
502.9      
  0.126      2.5504     2.7035     2.8141     2.9611     2.9489     
  215.9      223.2147   219.2267   221.2117   405.7286   1541.9786  
  421.5585   84.3297    179.4471   213.4403   0.7386     0.8383     
  29.3135    2.5917     0.0008     0.0255     0.1173     2.2667     
  3.3393     3.3075     3.3232     3.3482     3.1234     3.1423     
  3.9721     1.8956     0.5243     -136.5202  1          0.5073     
  0.612     
503        
  0.126      2.6046     2.7846     2.8614     3.0174     3.0005     
  215.9      222.1762   219.4565   220.8123   425.5007   1550.9707  
  414.1377   88.24      179.3901   213.0411   0.7293     0.8411     
  29.3152    2.6424     0          0.005      0.1096     2.2763     
  3.3688     3.3637     3.3864     3.4068     3.1652     3.2105     
  3.9686     2.0359     0.5249     -136.6369  1          0.4742     
  0.6975    
503.1      
  0.1261     2.6109     2.8234     2.9102     3.0108     3.0031     
  215.9      220.3149   219.8055   220.06     442.7958   1549.6125  
  405.9558   90.3341    179.3261   211.0926   0.7956     0.9245     
  29.3158    2.68       0          0.0022     0.1125     2.2904     
  3.354      3.3639     3.3983     3.4006     3.1549     3.2052     
  3.9762     2.2499     0.5249     -136.6975  1          0.4439     
  0.7354    
503.2      
  0.1261     2.5956     2.8111     2.8713     2.9778     2.9766     
  215.9      218.4188   219.9965   219.2057   455.3117   1545.7963  
  398.4566   91.4866    179.2562   211.0926   1.017      1.163      
  29.3159    2.6942     0          0.0001000  0.1122     2.2995     
  3.3807     3.3818     3.4499     3.4092     3.1593     3.198      
  4.0797     2.5117     0.5246     -136.7211  1          0.4219     
  0.7473    
503.3      
  0.1262     2.5837     2.8129     2.8469     2.9655     2.9952     
  215.9      220.3712   218.465    219.416    444.3829   1561.2141  
  398.1509   92.5982    179.1704   213.6209   1.3576     1.453      
  29.3167    2.72       0          0.0001000  0.1139     2.298      
  3.386      3.3892     3.4914     3.409      3.1578     3.1927     
  4.1279     2.7487     0.5244     -136.7183  1          0.446      
  0.7587    
503.4      
  0.1262     2.5681     2.8071     2.8364     2.9024     3.0023     
  215.9      220.7736   217.1676   218.963    437.2966   1568.7428  
  401.7695   93.2977    179.0856   213.4403   1.2387     1.3696     
  29.317     2.7408     0          0.0001000  0.115      2.2984     
  3.4482     3.4452     3.5679     3.4446     3.1954     3.2151     
  4.2861     2.5363     0.5244     -136.6907  1          0.4609     
  0.766     
503.5      
  0.1262     2.5397     2.7715     2.7769     2.8526     2.9343     
  215.9      219.9777   216.2454   218.1032   432.3673   1571.6992  
  408.727    93.857     178.9974   213.2525   0.9259     1.0407     
  29.3171    2.7199     0          0.0001000  0.1159     2.2887     
  3.4349     3.4609     3.5738     3.4297     3.1793     3.2007     
  4.2755     2.1742     0.5244     -136.6319  1          0.4708     
  0.7717    
503.6      
  0.1262     2.4456     2.7235     2.7167     2.7764     2.8595     
  215.9      220.562    216.9039   218.7259   423.9908   1580.0768  
  425.2279   95.8326    178.863    212.9098   0.7897     0.8654     
  29.3183    2.6641     0          0.0001000  0.1189     2.2721     
  3.075      3.1259     3.1784     3.0378     2.8162     2.7911     
  3.9795     1.8404     0.5242     -136.5302  1          0.4905     
  0.7921    
503.7      
  0.1262     2.3608     2.6231     2.6223     2.6636     2.7421     
  215.9      221.624    217.9092   219.759    433.2516   1590.1949  
  432.6212   98.3612    178.736    212.8533   0.6755     0.743      
  29.3191    2.582      0          0.0001000  0.1228     2.2609     
  2.8385     2.9101     2.9065     2.7799     2.5752     2.4953     
  3.8464     1.7403     0.524      -136.372   1          0.4794     
  0.8182    
503.8      
  0.1261     2.2598     2.4823     2.4797     2.5576     2.6324     
  215.9      222.7247   219.0335   220.8712   455.9309   1602.3861  
  432.7712   101.3455   178.6151   212.763    0.6394     0.7363     
  29.3195    2.4863     0          0.0001000  0.1274     2.2554     
  2.8295     2.908      2.8424     2.7213     2.5242     2.3292     
  4.113      1.8056     0.5237     -136.1451  1          0.4451     
  0.8489    
