~Version
 VERS              .         2.0                           : CWLS LOG ASCII STANDARD - VERSION 2.0
 WRAP              .         YES                            : ONE LINE PER DEPTH STEP
 DLM               .         SPACE                         : DELIMITING CHARACTER(SPACE TAB OR COMMA)
~Well Information
#_______________________________________________________________________________
#
#PARAMETER_NAME    .UNIT     VALUE                         : DESCRIPTION
#_______________________________________________________________________________
STRT               .M        0                             : First reference value
STOP               .M        750                           : Last reference value
STEP               .M        0.1                           : Step increment
NULL               .         -999.25                       : Missing value
COMP               .         COMPANY                       : Company
WELL               .         355                           : Well name
FLD                .         Field Name                    : Field
LOC                .         Location                      : Location
CNTY               .                                       : County
STAT               .                                       : State
CTRY               .                                       : Country
SRVC               .         SCH                           : Service Company
DATE               .         22.09.2024                    : Date
API                .                                       : API number
APDAT              .         136.988                       : Elevation Above Permanent Datum
BHS                .         OPEN                          : Completion Status
COUNT              .         Kazakhstan                    : Country
DF                 .         136.988                       : DF Elevation
DRMEA              .         DF                            : Drill Measured From
EPDAT              .         0                             : Elevation of Permanent Datum
GL                 .         131.788                       : GL Elevation
KB                 .         0                             : KB Elevation
LGMEA              .         DF                            : Log Measured from
LATI               .         47.93162                      : Latitude/Northing
LONG               .         56.55725                      : Longitude/Easting
ORIGINALWELLNAME   .         355                           : 
PDAT               .         MSL                           : Permanent Datum
RWS                .         -999                          : Def_Rw
STATE              .         1_500 / 1_200                 : State
WST                .         -999                          : Def_Rwt
~Parameter Information Block
#_______________________________________________________________________________
#
#PARAMETER_NAME    .UNIT     VALUE                         : DESCRIPTION
#_______________________________________________________________________________
SET                .         model                         : 
TLFamily_AHMF      .                                       : 
TLFamily_AT10      .         Resistivity - Medium          : 
TLFamily_AT20      .         Resistivity (Array)           : 
TLFamily_AT30      .         Resistivity (Array)           : 
TLFamily_AT60      .         Resistivity (Array)           : 
TLFamily_AT90      .         Resistivity - Deep            : 
TLFamily_BSC       .         Bit Size                      : 
TLFamily_C1        .         Caliper 1                     : 
TLFamily_C2        .         Caliper 2                     : 
TLFamily_CALI      .         Caliper                       : 
TLFamily_CFTC      .         Neutron Far                   : 
TLFamily_CNTC      .         Neutron Near                  : 
TLFamily_DEPTH     .         Measured Depth                : 
TLFamily_DT        .         Compressional Slowness        : 
TLFamily_GR        .         Gamma Ray                     : 
TLFamily_HAZIM     .         Hole Azimuth                  : 
TLFamily_HCAL      .         Caliper                       : 
TLFamily_HMIN      .                                       : 
TLFamily_HMNO      .                                       : 
TLFamily_MTEM_FILT .         Temperature                   : 
TLFamily_PEFZ      .         Photoelectric Factor          : 
TLFamily_PHIE      .         Effective Porosity            : 
TLFamily_PHIT      .         Total Porosity                : 
TLFamily_Perm      .         Permeability                  : 
TLFamily_RHOZ      .         Bulk Density                  : 
TLFamily_RLA1      .         Resistivity (Array)           : 
TLFamily_RLA2      .         Resistivity (Array)           : 
TLFamily_RLA3      .         Resistivity (Array)           : 
TLFamily_RLA4      .         Resistivity (Array)           : 
TLFamily_RLA5      .         Resistivity (Array)           : 
TLFamily_RT        .         Resistivity - True Formation  : 
TLFamily_RXO       .         Resistivity - Flushed Zone    : 
TLFamily_RXOZ      .         Resistivity - Flushed Zone    : 
TLFamily_SDEVM     .         Sonde Deviation               : 
TLFamily_SP        .         Spontaneous Potential         : 
TLFamily_SW        .         Water Saturation              : 
TLFamily_TNPH      .         Neutron Porosity              : 
TLFamily_VCLAV     .         Clay Volume Fraction          : 
~Curve Information
#_______________________________________________________________________________
#
#LOGNAME           .UNIT     LOG_ID                        : DESCRIPTION
#_______________________________________________________________________________
DEPTH              .M                                      : Depth 
AHMF               .ohm.m                                  : 21 Array Induction Mud Resistivity Fully Calibrated 
AT10               .ohm.m                                  : MedRes     30 Array Induction Two Foot Resistivity A10 
AT20               .ohm.m                                  : MedRes     31 Array Induction Two Foot Resistivity A20 
AT30               .ohm.m                                  : MedRes     32 Array Induction Two Foot Resistivity A30 
AT60               .ohm.m                                  : DeepRes    33 Array Induction Two Foot Resistivity A60 
AT90               .ohm.m                                  : XDeepRes   34 Array Induction Two Foot Resistivity A90 
BSC                .mm                                     : 20 Nominal Caliper 
C1                 .mm                                     : 17 CALIPER DIAMETER 1 
C2                 .mm                                     : 18 CALIPER DIAMETER 2 
CALI               .mm                                     : Caliper    19 
CFTC               .1/s                                    : 7 Corrected Far Thermal Count Rate 
CNTC               .1/s                                    : Neutron    8 Corrected Near Thermal Count Rate 
DT                 .uSec/m                                 : Sonic      12 Sonic travel time 
GR                 .gAPI                                   : GammaRay   9 Gamma Ray 
HAZIM              .deg                                    : Azimuth    13 Hole Azimuth 
HCAL               .mm                                     : 16 HRCC Caliper Calibrated 
HMIN               .ohm.m                                  : 2 HIP Micro Inverse Resistivity 
HMNO               .ohm.m                                  : 3 HIP Micro Normal Resistivity 
MTEM_FILT          .degC                                   : 10 Filtered Mud Temperature 
PEFZ               .B/E                                    : PEF        4 Formation Photoelectric Factor 
Perm               .md                                     : perm 
PHIE               .Dec                                    : Phi 
PHIT               .Dec                                    : PhiT 
RHOZ               .g/cm3                                  : Density    5 Bulk Density 
RLA1               .ohm.m                                  : ShalRes    22 HRLT Borehole Corrected Resistivity 1 
RLA2               .ohm.m                                  : MedRes     23 HRLT Borehole Corrected Resistivity 2 
RLA3               .ohm.m                                  : DeepRes    24 HRLT Borehole Corrected Resistivity 3 
RLA4               .ohm.m                                  : XDeepRes   25 HRLT Borehole Corrected Resisitivity 4 
RLA5               .ohm.m                                  : UltraDeepR 26 HRLT Borehole Corrected Resistivity 5 
RT                 .ohm.m                                  : 27 HRLT True Formation Resistivity 
RXO                .ohm.m                                  : 28 HRLT Invaded Zone Resistivity 
RXOZ               .ohm.m                                  : MicroRes   6 Invaded Formation Resistivity filtered at 18 inches 
SDEVM              .deg                                    : 15 Sonde Deviation 
SP                 .mV                                     : SP         36 Spontaneous Potential 
SW                 .Dec                                    : Sw 
TNPH               .v/v                                    : Neutron    11 Compensated Neutron Porosity 
VCLAV              .Dec                                    : Vcl 
~Ascii
# ...
341        
  0.1344     2.4827     3.5903     4.052      4.4536     4.2825     
  215.9      227.8329   216.8941   222.296    835.1616   2285.3232  
  328.5652   64.609     176.2723   210.596    1.1963     1.1246     
  26.4933    3.1019     5.0708     0.1846     0.2094     2.3451     
  3.1591     3.1789     3.2358     3.2079     3.0842     3.1662     
  3.2079     2.6862     0.5148     -137.1063  1          0.2833     
  0.165     
341.1      
  0.1345     2.2064     2.9125     3.2011     3.6059     3.3524     
  215.9      229.3277   217.0855   223.1227   790.0901   2226.4473  
  320.4701   64.7729    176.522    210.3179   2.4384     2.3672     
  26.4952    3.0573     5.8388     0.1906     0.2155     2.3575     
  2.9109     2.9166     2.9592     2.9379     2.8213     2.8665     
  3.3278     3.1379     0.5167     -137.1228  1          0.2994     
  0.1659    
341.2      
  0.1345     2.2185     2.9076     3.1093     3.617      3.3145     
  215.9      228.5996   217.7838   223.126    735.2375   2128.6719  
  326.8973   65.9012    176.8454   210.0478   13.7883    12.7344    
  26.4976    3.0048     6.8895     0.1979     0.2238     2.3469     
  4.1291     4.1622     4.2062     4.1892     4.0068     4.0888     
  4.5982     3.5697     0.5197     -136.9659  1          0.3137     
  0.1725    
341.3      
  0.1346     2.3713     3.2891     3.7309     4.4891     4.1296     
  215.9      224.4145   217.2958   220.8258   721.2133   2069.4431  
  343.2126   67.8495    177.31     210.0654   3.1277     2.8242     
  26.4976    2.9169     7.174      0.1998     0.2274     2.3068     
  5.1765     5.25       5.3507     5.3457     5.0959     5.2488     
  5.0006     2.5634     0.5222     -136.5986  1          0.3095     
  0.184     
341.4      
  0.1346     2.5455     3.7822     4.797      5.6703     5.3696     
  215.9      220.3177   216.3514   218.3254   678.9057   2010.7415  
  352.153    69.5342    177.7649   209.7896   1.1351     1.0036     
  26.4999    2.8138     11.8094    0.2237     0.2528     2.2355     
  4.1048     4.2108     4.2791     4.2774     4.0575     4.1907     
  3.8831     1.5134     0.5252     -136.0041  1          0.3296     
  0.1941    
341.5      
  0.1348     2.3472     3.338      4.1744     5.145      5.065      
  215.9      216.6782   215.1617   215.9185   619.0036   1950.8765  
  360.1931   71.187     178.183    209.5575   0.7159     0.6323     
  26.5032    2.6926     22.9787    0.2603     0.2909     2.1538     
  3.0915     3.1823     3.2175     3.2168     3.0444     3.1552     
  2.9612     1.0716     0.5284     -135.1925  1          0.3658     
  0.2043    
341.6      
  0.1349     1.9237     2.5491     2.9778     3.5976     3.6677     
  215.9      216.5082   215.1865   215.8463   556.7652   1877.6313  
  400.8116   74.0086    178.3247   209.9187   0.6734     0.5948     
  26.5032    2.581      38.5493    0.2927     0.326      2.094      
  2.4336     2.5685     2.5861     2.5863     2.449      2.5218     
  2.4573     0.874      0.5317     -134.2014  1          0.413      
  0.2221    
341.7      
  0.135      1.6523     2.0341     2.2755     2.8227     2.8072     
  215.9      216.5204   215.0875   215.8024   509.6305   1794.2266  
  433.9206   76.4105    178.5045   209.9187   0.6735     0.5949     
  26.5044    2.4886     48.5691    0.3085     0.3442     2.0653     
  2.2742     2.4356     2.4431     2.4319     2.3029     2.374      
  2.3291     0.9134     0.5359     -133.0916  1          0.4425     
  0.2376    
341.8      
  0.135      1.4995     1.8336     2.0428     2.4219     2.4655     
  215.9      216.7317   214.9426   215.8352   475.9427   1707.5924  
  460.053    78.5884    178.7127   210.3928   0.7847     0.6932     
  26.5065    2.4521     50.577     0.3114     0.3492     2.0579     
  2.2707     2.412      2.4297     2.402      2.271      2.3516     
  2.3921     0.9773     0.5408     -131.9373  1          0.4572     
  0.2521    
341.9      
  0.1349     1.493      1.8529     2.0715     2.3873     2.4929     
  215.9      217.0999   215.4691   216.283    481.2595   1705.2198  
  461.2665   82.5274    178.9157   210.5057   0.9129     0.8067     
  26.5077    2.4467     40.978     0.2968     0.3387     2.0577     
  2.4702     2.6227     2.6865     2.631      2.4914     2.5763     
  2.5283     1.047      0.5452     -130.8141  1          0.4478     
  0.279     
342        
  0.1349     1.622      2.0276     2.2889     2.6248     2.8232     
  215.9      217.4794   215.476    216.4758   482.6025   1707.5294  
  461.4166   83.7759    179.0155   210.5057   0.8981     0.7935     
  26.5083    2.4413     39.0083    0.2935     0.3367     2.0562     
  2.7411     2.9436     3.08       2.997      2.8467     2.9726     
  2.4159     1.0716     0.5496     -129.7842  1          0.4468     
  0.2877    
342.1      
  0.1347     1.6994     2.2336     2.5347     2.9624     3.2643     
  215.9      217.7768   214.8356   216.3007   480.2776   1714.161   
  460.5851   82.5409    179.0198   209.3318   0.8034     0.7097     
  26.5083    2.4167     43.503     0.3009     0.3428     2.0522     
  2.7346     3.013      3.1583     3.0554     2.9088     3.122      
  2.1504     1.0281     0.5541     -128.8837  1          0.4535     
  0.2791    
342.2      
  0.1344     1.7787     2.3617     2.6887     3.1121     3.46       
  215.9      217.3072   214.4072   215.8519   485.9774   1722.484   
  457.6111   80.6751    179.0829   209.3318   0.7542     0.6662     
  26.5095    2.3675     48.7396    0.3088     0.3471     2.0501     
  2.5831     2.8901     2.9857     2.8822     2.7413     2.9422     
  2.0805     1.0358     0.5578     -128.1113  1          0.4483     
  0.2557    
342.3      
  0.1342     1.7272     2.3269     2.6218     2.99       3.3242     
  215.9      216.985    214.354    215.6661   485.8966   1725.0206  
  453.8071   78.9919    179.0994   209.2966   0.8009     0.7167     
  26.5101    2.3155     51.5143    0.3127     0.3494     2.0528     
  2.3403     2.627      2.6861     2.5985     2.4694     2.6337     
  1.9526     1.0013     0.5606     -127.4254  1          0.4494     
  0.2448    
342.4      
  0.1342     1.678      2.2044     2.4605     2.7961     3.1244     
  215.9      217.0176   214.8127   215.9127   479.5534   1721.2886  
  449.1039   77.5065    179.0655   209.9187   0.789      0.716      
  26.5101    2.2774     56.2924    0.319      0.3542     2.0568     
  2.3579     2.6282     2.7036     2.6364     2.5079     2.6784     
  1.9386     1.0275     0.5625     -126.7523  1          0.4575     
  0.2342    
342.5      
  0.1342     1.6457     2.16       2.4041     2.7234     2.9938     
  215.9      217.3305   215.4298   216.3782   502.962    1738.2476  
  447.3539   76.6112    179.0232   209.8483   0.8067     0.7175     
  26.5109    2.263      50.7462    0.3116     0.345      2.0585     
  2.4534     2.6613     2.7437     2.6936     2.5596     2.6671     
  2.2293     1.081      0.5624     -126.0061  1          0.4303     
  0.2223    
342.6      
  0.1342     1.6423     2.179      2.4104     2.7256     2.8966     
  215.9      217.4872   215.9311   216.7077   533.518    1757.4796  
  452.7703   76.4468    178.9236   209.9187   0.8386     0.7524     
  26.5114    2.2809     47.2153    0.3065     0.3378     2.0581     
  2.4735     2.6411     2.7016     2.6564     2.5198     2.5958     
  2.5412     1.0912     0.5613     -125.1178  1          0.3975     
  0.2082    
342.7      
  0.1341     1.7084     2.2384     2.4663     2.787      2.9324     
  215.9      217.3142   216.1532   216.7327   571.4726000000001 1778.2809  
  467.48     77.2099    178.7489   210.5057   0.8349     0.7645     
  26.5114    2.3185     44.3054    0.3021     0.3309     2.0601     
  2.6899     2.8501     2.9114     2.8737     2.7218     2.8043     
  2.7664     1.0852     0.5589     -124.063   1          0.3597     
  0.1915    
342.8      
  0.134      1.721      2.2778     2.5204     2.8247     2.8872     
  215.9      217.2855   216.0271   216.6553   618.2848   1817.2048  
  451.7635   75.9649    178.4647   210.6348   0.8518     0.7621     
  26.5125    2.3604     39.7637    0.2948     0.3207     2.0723     
  2.9106     3.0763     3.1504     3.129      2.966      3.0509     
  2.8454     1.042      0.5556     -122.8748  1          0.3271     
  0.1726    
