~Version
 VERS              .         2.0                           : CWLS LOG ASCII STANDARD - VERSION 2.0
 WRAP              .         YES                            : ONE LINE PER DEPTH STEP
 DLM               .         SPACE                         : DELIMITING CHARACTER(SPACE TAB OR COMMA)
~Well Information
#_______________________________________________________________________________
#
#PARAMETER_NAME    .UNIT     VALUE                         : DESCRIPTION
#_______________________________________________________________________________
STRT               .M        0                             : First reference value
STOP               .M        750                           : Last reference value
STEP               .M        0.1                           : Step increment
NULL               .         -999.25                       : Missing value
COMP               .         COMPANY                       : Company
WELL               .         355                           : Well name
FLD                .         Field Name                    : Field
LOC                .         Location                      : Location
CNTY               .                                       : County
STAT               .                                       : State
CTRY               .                                       : Country
SRVC               .         SCH                           : Service Company
DATE               .         22.09.2024                    : Date
API                .                                       : API number
APDAT              .         136.988                       : Elevation Above Permanent Datum
BHS                .         OPEN                          : Completion Status
COUNT              .         Kazakhstan                    : Country
DF                 .         136.988                       : DF Elevation
DRMEA              .         DF                            : Drill Measured From
EPDAT              .         0                             : Elevation of Permanent Datum
GL                 .         131.788                       : GL Elevation
KB                 .         0                             : KB Elevation
LGMEA              .         DF                            : Log Measured from
LATI               .         47.93162                      : Latitude/Northing
LONG               .         56.55725                      : Longitude/Easting
ORIGINALWELLNAME   .         355                           : 
PDAT               .         MSL                           : Permanent Datum
RWS                .         -999                          : Def_Rw
STATE              .         1_500 / 1_200                 : State
WST                .         -999                          : Def_Rwt
~Parameter Information Block
#_______________________________________________________________________________
#
#PARAMETER_NAME    .UNIT     VALUE                         : DESCRIPTION
#_______________________________________________________________________________
SET                .         model                         : 
TLFamily_AHMF      .                                       : 
TLFamily_AT10      .         Resistivity - Medium          : 
TLFamily_AT20      .         Resistivity (Array)           : 
TLFamily_AT30      .         Resistivity (Array)           : 
TLFamily_AT60      .         Resistivity (Array)           : 
TLFamily_AT90      .         Resistivity - Deep            : 
TLFamily_BSC       .         Bit Size                      : 
TLFamily_C1        .         Caliper 1                     : 
TLFamily_C2        .         Caliper 2                     : 
TLFamily_CALI      .         Caliper                       : 
TLFamily_CFTC      .         Neutron Far                   : 
TLFamily_CNTC      .         Neutron Near                  : 
TLFamily_DEPTH     .         Measured Depth                : 
TLFamily_DT        .         Compressional Slowness        : 
TLFamily_GR        .         Gamma Ray                     : 
TLFamily_HAZIM     .         Hole Azimuth                  : 
TLFamily_HCAL      .         Caliper                       : 
TLFamily_HMIN      .                                       : 
TLFamily_HMNO      .                                       : 
TLFamily_MTEM_FILT .         Temperature                   : 
TLFamily_PEFZ      .         Photoelectric Factor          : 
TLFamily_PHIE      .         Effective Porosity            : 
TLFamily_PHIT      .         Total Porosity                : 
TLFamily_Perm      .         Permeability                  : 
TLFamily_RHOZ      .         Bulk Density                  : 
TLFamily_RLA1      .         Resistivity (Array)           : 
TLFamily_RLA2      .         Resistivity (Array)           : 
TLFamily_RLA3      .         Resistivity (Array)           : 
TLFamily_RLA4      .         Resistivity (Array)           : 
TLFamily_RLA5      .         Resistivity (Array)           : 
TLFamily_RT        .         Resistivity - True Formation  : 
TLFamily_RXO       .         Resistivity - Flushed Zone    : 
TLFamily_RXOZ      .         Resistivity - Flushed Zone    : 
TLFamily_SDEVM     .         Sonde Deviation               : 
TLFamily_SP        .         Spontaneous Potential         : 
TLFamily_SW        .         Water Saturation              : 
TLFamily_TNPH      .         Neutron Porosity              : 
TLFamily_VCLAV     .         Clay Volume Fraction          : 
~Curve Information
#_______________________________________________________________________________
#
#LOGNAME           .UNIT     LOG_ID                        : DESCRIPTION
#_______________________________________________________________________________
DEPTH              .M                                      : Depth 
AHMF               .ohm.m                                  : 21 Array Induction Mud Resistivity Fully Calibrated 
AT10               .ohm.m                                  : MedRes     30 Array Induction Two Foot Resistivity A10 
AT20               .ohm.m                                  : MedRes     31 Array Induction Two Foot Resistivity A20 
AT30               .ohm.m                                  : MedRes     32 Array Induction Two Foot Resistivity A30 
AT60               .ohm.m                                  : DeepRes    33 Array Induction Two Foot Resistivity A60 
AT90               .ohm.m                                  : XDeepRes   34 Array Induction Two Foot Resistivity A90 
BSC                .mm                                     : 20 Nominal Caliper 
C1                 .mm                                     : 17 CALIPER DIAMETER 1 
C2                 .mm                                     : 18 CALIPER DIAMETER 2 
CALI               .mm                                     : Caliper    19 
CFTC               .1/s                                    : 7 Corrected Far Thermal Count Rate 
CNTC               .1/s                                    : Neutron    8 Corrected Near Thermal Count Rate 
DT                 .uSec/m                                 : Sonic      12 Sonic travel time 
GR                 .gAPI                                   : GammaRay   9 Gamma Ray 
HAZIM              .deg                                    : Azimuth    13 Hole Azimuth 
HCAL               .mm                                     : 16 HRCC Caliper Calibrated 
HMIN               .ohm.m                                  : 2 HIP Micro Inverse Resistivity 
HMNO               .ohm.m                                  : 3 HIP Micro Normal Resistivity 
MTEM_FILT          .degC                                   : 10 Filtered Mud Temperature 
PEFZ               .B/E                                    : PEF        4 Formation Photoelectric Factor 
Perm               .md                                     : perm 
PHIE               .Dec                                    : Phi 
PHIT               .Dec                                    : PhiT 
RHOZ               .g/cm3                                  : Density    5 Bulk Density 
RLA1               .ohm.m                                  : ShalRes    22 HRLT Borehole Corrected Resistivity 1 
RLA2               .ohm.m                                  : MedRes     23 HRLT Borehole Corrected Resistivity 2 
RLA3               .ohm.m                                  : DeepRes    24 HRLT Borehole Corrected Resistivity 3 
RLA4               .ohm.m                                  : XDeepRes   25 HRLT Borehole Corrected Resisitivity 4 
RLA5               .ohm.m                                  : UltraDeepR 26 HRLT Borehole Corrected Resistivity 5 
RT                 .ohm.m                                  : 27 HRLT True Formation Resistivity 
RXO                .ohm.m                                  : 28 HRLT Invaded Zone Resistivity 
RXOZ               .ohm.m                                  : MicroRes   6 Invaded Formation Resistivity filtered at 18 inches 
SDEVM              .deg                                    : 15 Sonde Deviation 
SP                 .mV                                     : SP         36 Spontaneous Potential 
SW                 .Dec                                    : Sw 
TNPH               .v/v                                    : Neutron    11 Compensated Neutron Porosity 
VCLAV              .Dec                                    : Vcl 
~Ascii
# ...
420.7      
  0.1299     3.0978     3.4982     3.4271     3.7262     3.4656     
  215.9      219.9305   219.9367   219.9333   778.5374   2135.0769  
  339.7827   85.7641    177.1877   211.0926   1.8        1.9404     
  28.1365    2.885      0.035      0.0596     0.1355     2.3582     
  4.1782     4.1218     4.0698     4.0147     3.8822     3.7112     
  5.5573     3.3649     0.7698     -141.0811  1          0.2904     
  0.5058    
420.8      
  0.13       3.7304     4.3036     4.3516     4.4012     4.0706     
  215.9      220.0692   217.846    218.9546   852.0909   2193.3306  
  319.2147   83.3538    177.402    212.3906   5.0415     4.8473     
  28.1368    2.9029     0.0009     0.0256     0.1052     2.3926     
  8.0703     8.172000000000001 8.181900000000001 8.093400000000001 7.7965     
  7.918      9.3208     5.7972     0.7673     -141.2302  1          
  0.257      0.5306    
420.9      
  0.1301     4.8154     5.937      5.7286     5.5845     5.0941     
  215.9      219.8427   217.846    218.8415   896.9044   2224.9951  
  309.1103   82.6704    177.5272   212.8533   6.0242     5.6048     
  28.1371    2.9635     0.0002     0.0177     0.0954     2.4027     
  10.4769    10.606     10.6662    10.5327    10.1274    10.3907    
  11.234     9.3909     0.7634     -141.3281  1          0.2399     
  0.518     
421        
  0.1302     5.3063     6.8851     7.7922     7.2222     6.2659     
  215.9      219.3673   218.0005   218.6826   866.1979   2215.3083  
  337.4971   82.2448    177.6331   213.0339   6.6526     5.9515     
  28.1371    3.0245     0.0024     0.0323     0.1079     2.3959     
  9.9475     9.9931     10.0696    9.9718     9.582599999999999 9.8832     
  9.9907     5.5806     0.7588     -141.3499  1          0.2535     
  0.5045    
421.1      
  0.1304     4.5118     5.9911     7.478      7.6781     6.0288     
  215.9      219.8807   219.72     219.8007   795.7766   2160.2454  
  361.964    86.2417    177.8425   212.9942   2.5695     2.4145     
  28.1374    3.057      0.0146     0.0488     0.1274     2.3661     
  7.3982     7.5215     7.5323     7.5092     7.2445     7.4728     
  6.7396     2.8627     0.754      -141.2799  1          0.2852     
  0.524     
421.2      
  0.1305     3.3482     4.6006     5.2982     6.168      4.8139     
  215.9      221.8754   222.9689   222.421    696.5134   2070.6313  
  383.4809   93.3247    178.1256   216.4454   0.6061     0.7194     
  28.1378    3.0539     0.1724     0.0856     0.1625     2.3196     
  4.2168     4.1544     4.1806     4.1708     4.0263     4.0886     
  4.5401     1.8486     0.749      -141.1108  1          0.3302     
  0.5127    
421.3      
  0.1305     2.8475     3.3443     3.6147     4.1343     3.636      
  215.9      227.6404   225.4292   226.5318   624.0881000000001 1973.3392  
  405.1652   94.4085    178.3005   231.4995   0.3378     0.4278     
  28.1378    2.9849     3.5263     0.17       0.2246     2.2724     
  3.1139     3.0221     3.0385     3.0309     2.9227     2.8806     
  3.7519     1.594      0.7454     -140.8405  1          0.3667     
  0.3639    
421.4      
  0.1304     2.4861     2.9382     3.0601     3.2595     3.1031     
  215.9      226.9365   223.5465   225.2345   575.2941   1883.0291  
  430.2869   95.2641    178.4042   221.8334   0.4099     0.5081     
  28.138     2.8917     20.743     0.2543     0.283      2.2336     
  3.0926     2.9646     2.9851     2.9777     2.8678     2.7758     
  3.8544     1.4712     0.7431     -140.4722  1          0.3876     
  0.1916    
421.5      
  0.1303     2.4056     2.8198     3.0217     3.0947     3.1157     
  215.9      218.8392   217.0869   217.9608   548.3137   1799.1639  
  458.5815   95.909     178.4422   210.5057   0.8081     0.9019     
  28.1384    2.7935     31.9304    0.2805     0.3027     2.2087     
  3.3913     3.2575     3.3063     3.2863     3.1701     3.111      
  4.1004     1.5781     0.7421     -140.0148  1          0.3939     
  0.1479    
421.6      
  0.1301     2.459      2.6863     2.9695     3.1736     3.2224     
  215.9      217.043    216.0767   216.5598   548.7061   1791.9568  
  436.8136   91.5202    178.534    210.1887   1.1498     1.1465     
  28.1384    2.7084     31.0313    0.2787     0.3021     2.1972     
  3.3224     3.2148     3.2548     3.228      3.1053     3.0581     
  4.017      1.8844     0.7405     -139.4851  1          0.391      
  0.1567    
421.7      
  0.1299     2.3683     2.6792     2.8771     3.1406     3.1816     
  215.9      216.313    215.9254   216.1187   549.9742   1775.1035  
  422.3174   88.7363    178.6209   210.4154   1.1479     1.1248     
  28.1386    2.638      21.5684    0.2565     0.2873     2.1966     
  3.0464     2.9825     2.9804     2.9458     2.8244     2.7577     
  3.8063     1.9564     0.7404     -138.9079  1          0.3836     
  0.2051    
421.8      
  0.1297     2.1815     2.4512     2.646      2.9456     3.0033     
  215.9      216.1391   216.1114   216.1248   552.2298   1747.3726  
  416.0212   87.7623    178.7025   210.5057   1.1136     1.1182     
  28.139     2.562      6.0924     0.1925     0.2452     2.203      
  2.9995     3.0448     3.0211     2.9858     2.8651     2.9204     
  3.4096     1.857      0.7422     -138.3124  1          0.3712     
  0.3513    
421.9      
  0.1297     2.0906     2.2868     2.4398     2.6535     2.7447     
  215.9      216.1497   216.0196   216.0847   529.1481   1712.2473  
  405.1102   87.5063    178.713    211.0926   1.1442     1.1175     
  28.139     2.5034     1.6126     0.1423     0.2156     2.202      
  2.9448     3.0787     3.0427     2.9929     2.8725     2.9749     
  3.2019     1.8689     0.7441     -137.7277  1          0.3865     
  0.489     
422        
  0.1297     2.0389     2.2457     2.2831     2.4625     2.5428     
  215.9      216.5947   216.6562   216.6259   508.3791   1657.0112  
  405.9308   87.5352    178.7129   210.893    0.8645     0.9244     
  28.139     2.481      0.9695     0.1268     0.2017     2.1856     
  2.9182     3.103      3.0704     3.0013     2.8703     2.9919     
  3.1704     1.8325     0.7465     -137.177   1          0.3914     
  0.4996    
422.1      
  0.1298     2.0447     2.4283     2.5149     2.7504     2.8358     
  215.9      218.7757   218.5247   218.6447   492.6454   1574.54    
  423.2876   87.9055    178.7034   209.8013   0.6402     0.75       
  28.139     2.4798     3.3511     0.168      0.2351     2.1734     
  3.1044     3.2997     3.2925     3.2006     3.0602     3.1924     
  3.3514     1.7235     0.7493     -136.6766  1          0.3802     
  0.4474    
422.2      
  0.1299     2.1202     2.6517     2.804      2.9978     3.3091     
  215.9      230.3471   219.8146   225.0174   466.886    1500.4089  
  428.8378   90.4863    178.6756   211.1377   0.4233     0.5404     
  28.1398    2.5143     3.8077     0.173      0.2416     2.1478     
  3.3915     3.5813     3.628      3.5053     3.3455     3.4807     
  3.5345     1.5493     0.7534     -136.2382  1          0.3843     
  0.4574    
422.3      
  0.13       2.1261     2.694      3.0148     3.2359     3.8134     
  215.9      242.2305   227.3502   234.6642   440.7686   1422.0483  
  439.943    91.783     178.6091   222.1972   0.2689     0.3747     
  28.1403    2.5753     0.6254999999999999 0.1147     0.191      2.1055     
  3.4473     3.6175     3.6987     3.562      3.3944     3.5373     
  3.5039     1.4266     0.7576     -135.874   1          0.385      
  0.5083    
422.4      
  0.1301     1.8633     2.4846     2.7472     3.1025     3.5987     
  215.9      250.1106   248.0637   249.0766   415.8846   1335.2759  
  462.252    90.5836    178.4832   239.2989   0.2532     0.3514     
  28.1403    2.6241     0.9443     0.126      0.201      2.0828     
  3.2524     3.3865     3.4802     3.3581     3.1946     3.3307     
  3.2663     1.1328     0.7617     -135.5993  1          0.3774     
  0.5001    
422.5      
  0.1302     1.7936     2.1408     2.3364     2.7181     2.8142     
  215.9      257.4173   268.8531   263.0681   379.5686   1304.2042  
  474.8963   90.3922    178.3191   278.8708   0.2668     0.3467     
  28.1421    2.6594     1.0146     0.1281     0.2029     2.0763     
  2.8386     2.9223     2.9995     2.9146     2.7649     2.8786     
  2.929      0.9621     0.7644     -135.4307  1          0.4183     
  0.4987    
