~Version
 VERS              .         2.0                           : CWLS LOG ASCII STANDARD - VERSION 2.0
 WRAP              .         YES                            : ONE LINE PER DEPTH STEP
 DLM               .         SPACE                         : DELIMITING CHARACTER(SPACE TAB OR COMMA)
~Well Information
#_______________________________________________________________________________
#
#PARAMETER_NAME    .UNIT     VALUE                         : DESCRIPTION
#_______________________________________________________________________________
STRT               .M        0                             : First reference value
STOP               .M        750                           : Last reference value
STEP               .M        0.1                           : Step increment
NULL               .         -999.25                       : Missing value
COMP               .         COMPANY                       : Company
WELL               .         355                           : Well name
FLD                .         Field Name                    : Field
LOC                .         Location                      : Location
CNTY               .                                       : County
STAT               .                                       : State
CTRY               .                                       : Country
SRVC               .         SCH                           : Service Company
DATE               .         22.09.2024                    : Date
API                .                                       : API number
APDAT              .         136.988                       : Elevation Above Permanent Datum
BHS                .         OPEN                          : Completion Status
COUNT              .         Kazakhstan                    : Country
DF                 .         136.988                       : DF Elevation
DRMEA              .         DF                            : Drill Measured From
EPDAT              .         0                             : Elevation of Permanent Datum
GL                 .         131.788                       : GL Elevation
KB                 .         0                             : KB Elevation
LGMEA              .         DF                            : Log Measured from
LATI               .         47.93162                      : Latitude/Northing
LONG               .         56.55725                      : Longitude/Easting
ORIGINALWELLNAME   .         355                           : 
PDAT               .         MSL                           : Permanent Datum
RWS                .         -999                          : Def_Rw
STATE              .         1_500 / 1_200                 : State
WST                .         -999                          : Def_Rwt
~Parameter Information Block
#_______________________________________________________________________________
#
#PARAMETER_NAME    .UNIT     VALUE                         : DESCRIPTION
#_______________________________________________________________________________
SET                .         model                         : 
TLFamily_AHMF      .                                       : 
TLFamily_AT10      .         Resistivity - Medium          : 
TLFamily_AT20      .         Resistivity (Array)           : 
TLFamily_AT30      .         Resistivity (Array)           : 
TLFamily_AT60      .         Resistivity (Array)           : 
TLFamily_AT90      .         Resistivity - Deep            : 
TLFamily_BSC       .         Bit Size                      : 
TLFamily_C1        .         Caliper 1                     : 
TLFamily_C2        .         Caliper 2                     : 
TLFamily_CALI      .         Caliper                       : 
TLFamily_CFTC      .         Neutron Far                   : 
TLFamily_CNTC      .         Neutron Near                  : 
TLFamily_DEPTH     .         Measured Depth                : 
TLFamily_DT        .         Compressional Slowness        : 
TLFamily_GR        .         Gamma Ray                     : 
TLFamily_HAZIM     .         Hole Azimuth                  : 
TLFamily_HCAL      .         Caliper                       : 
TLFamily_HMIN      .                                       : 
TLFamily_HMNO      .                                       : 
TLFamily_MTEM_FILT .         Temperature                   : 
TLFamily_PEFZ      .         Photoelectric Factor          : 
TLFamily_PHIE      .         Effective Porosity            : 
TLFamily_PHIT      .         Total Porosity                : 
TLFamily_Perm      .         Permeability                  : 
TLFamily_RHOZ      .         Bulk Density                  : 
TLFamily_RLA1      .         Resistivity (Array)           : 
TLFamily_RLA2      .         Resistivity (Array)           : 
TLFamily_RLA3      .         Resistivity (Array)           : 
TLFamily_RLA4      .         Resistivity (Array)           : 
TLFamily_RLA5      .         Resistivity (Array)           : 
TLFamily_RT        .         Resistivity - True Formation  : 
TLFamily_RXO       .         Resistivity - Flushed Zone    : 
TLFamily_RXOZ      .         Resistivity - Flushed Zone    : 
TLFamily_SDEVM     .         Sonde Deviation               : 
TLFamily_SP        .         Spontaneous Potential         : 
TLFamily_SW        .         Water Saturation              : 
TLFamily_TNPH      .         Neutron Porosity              : 
TLFamily_VCLAV     .         Clay Volume Fraction          : 
~Curve Information
#_______________________________________________________________________________
#
#LOGNAME           .UNIT     LOG_ID                        : DESCRIPTION
#_______________________________________________________________________________
DEPTH              .M                                      : Depth 
AHMF               .ohm.m                                  : 21 Array Induction Mud Resistivity Fully Calibrated 
AT10               .ohm.m                                  : MedRes     30 Array Induction Two Foot Resistivity A10 
AT20               .ohm.m                                  : MedRes     31 Array Induction Two Foot Resistivity A20 
AT30               .ohm.m                                  : MedRes     32 Array Induction Two Foot Resistivity A30 
AT60               .ohm.m                                  : DeepRes    33 Array Induction Two Foot Resistivity A60 
AT90               .ohm.m                                  : XDeepRes   34 Array Induction Two Foot Resistivity A90 
BSC                .mm                                     : 20 Nominal Caliper 
C1                 .mm                                     : 17 CALIPER DIAMETER 1 
C2                 .mm                                     : 18 CALIPER DIAMETER 2 
CALI               .mm                                     : Caliper    19 
CFTC               .1/s                                    : 7 Corrected Far Thermal Count Rate 
CNTC               .1/s                                    : Neutron    8 Corrected Near Thermal Count Rate 
DT                 .uSec/m                                 : Sonic      12 Sonic travel time 
GR                 .gAPI                                   : GammaRay   9 Gamma Ray 
HAZIM              .deg                                    : Azimuth    13 Hole Azimuth 
HCAL               .mm                                     : 16 HRCC Caliper Calibrated 
HMIN               .ohm.m                                  : 2 HIP Micro Inverse Resistivity 
HMNO               .ohm.m                                  : 3 HIP Micro Normal Resistivity 
MTEM_FILT          .degC                                   : 10 Filtered Mud Temperature 
PEFZ               .B/E                                    : PEF        4 Formation Photoelectric Factor 
Perm               .md                                     : perm 
PHIE               .Dec                                    : Phi 
PHIT               .Dec                                    : PhiT 
RHOZ               .g/cm3                                  : Density    5 Bulk Density 
RLA1               .ohm.m                                  : ShalRes    22 HRLT Borehole Corrected Resistivity 1 
RLA2               .ohm.m                                  : MedRes     23 HRLT Borehole Corrected Resistivity 2 
RLA3               .ohm.m                                  : DeepRes    24 HRLT Borehole Corrected Resistivity 3 
RLA4               .ohm.m                                  : XDeepRes   25 HRLT Borehole Corrected Resisitivity 4 
RLA5               .ohm.m                                  : UltraDeepR 26 HRLT Borehole Corrected Resistivity 5 
RT                 .ohm.m                                  : 27 HRLT True Formation Resistivity 
RXO                .ohm.m                                  : 28 HRLT Invaded Zone Resistivity 
RXOZ               .ohm.m                                  : MicroRes   6 Invaded Formation Resistivity filtered at 18 inches 
SDEVM              .deg                                    : 15 Sonde Deviation 
SP                 .mV                                     : SP         36 Spontaneous Potential 
SW                 .Dec                                    : Sw 
TNPH               .v/v                                    : Neutron    11 Compensated Neutron Porosity 
VCLAV              .Dec                                    : Vcl 
~Ascii
# ...
301.1      
  0.135      2.0705     2.4738     2.5629     2.762      2.7574     
  215.9      245.1449   214.8145   229.4777   398.1392   1446.8707  
  507.7661   89.529     162.1507   212.1256   0.7164     0.7675     
  25.7793    2.6921     0          0.0097     0.1094     2.0843     
  2.5434     2.7092     2.8527     2.8499     2.7746     2.9848     
  1.7941     1.5083     0.4212     -145.8802  1          0.4705     
  0.6646    
301.2      
  0.135      1.9968     2.406      2.4563     2.6596     2.5879     
  215.9      248.1652   213.5902   230.2285   413.0653   1436.7904  
  500.6346   90.5508    162.5532   210.7052   0.7248     0.7659     
  25.7794    2.6627     0          0.0063     0.1092     2.078      
  2.5312     2.6663     2.7874     2.7956     2.7244     2.8796     
  1.8866     1.4474     0.4233     -145.7504  1          0.4391     
  0.686     
301.3      
  0.135      1.9753     2.3609     2.3726     2.5491     2.4697     
  215.9      244.5026   214.8283   229.1603   422.19     1424.5951  
  494.6913   92.5021    163.0324   211.4989   0.8009     0.8151     
  25.7794    2.6373     0          0.0026     0.1117     2.0761     
  2.449      2.5692     2.6674     2.6908     2.6135     2.7379     
  1.8904     1.4124     0.4251     -145.5916  1          0.4171     
  0.727     
301.4      
  0.1351     1.9491     2.2474     2.2766     2.4528     2.3659     
  215.9      228.3629   221.3471   224.8124   422.725    1409.7115  
  490.7123   95.685     163.6004   211.0926   0.5655     0.6401     
  25.7794    2.6111     0          0.0012     0.1151     2.0686     
  2.4035     2.5291     2.6111     2.6359     2.5603     2.6756     
  1.8863     1.3961     0.4264     -145.4112  1          0.4093     
  0.7593    
301.5      
  0.1351     1.8976     2.2126     2.2481     2.4316     2.3261     
  215.9      226.9004   236.834    231.8037   422.7811   1388.1444  
  480.7508   93.0692    164.4133   213.3725   0.3903     0.4952     
  25.7794    2.5645     0          0.0023     0.1123     2.0727     
  2.4831     2.6157     2.6891     2.7163     2.6375     2.7443     
  2.0007     1.4065     0.4257     -145.2248  1          0.3961     
  0.7334    
301.6      
  0.135      1.8098     2.2753     2.3171     2.5081     2.3809     
  215.9      227.2303   251.7883   239.1874   413.6589   1361.6899  
  466.7384   90.2785    165.1264   235.6965   0.3751     0.483      
  25.7794    2.4975     0          0.0071     0.1091     2.0819     
  2.563      2.6746     2.7448     2.7695     2.6892     2.7512     
  2.2627     1.3399     0.4255     -145.0554  1          0.3951     
  0.6803    
301.7      
  0.135      1.7833     2.3254     2.3764     2.5886     2.4668     
  215.9      224.7335   262.5438   242.8894   389.6393   1328.34    
  447.0819   88.1383    165.6368   247.9281   0.3601     0.4607     
  25.7794    2.4254     0.0001     0.0169     0.1122     2.0755     
  2.7313     2.8023     2.8551     2.8736     2.7937     2.8186     
  2.7181     1.4534     0.4265     -144.9298  1          0.4147     
  0.6354    
301.8      
  0.1349     1.8572     2.3545     2.4606     2.7022     2.5921     
  215.9      225.5155   282.632    252.4554   396.5025   1311.9659  
  451.3247   87.1779    166.1243   264.8189   0.3867     0.4952     
  25.7797    2.3632     0.0007     0.0241     0.1164     2.0654     
  2.9282     2.9577     3.0057     3.0177     2.9326     2.9686     
  2.9963     1.3233     0.4257     -144.8717  1          0.3896     
  0.6152    
301.9      
  0.1349     1.8567     2.4733     2.5692     2.8319     2.7235     
  215.9      226.3873   297.7565   259.6314   401.8402   1309.0432  
  455.9333   88.0472    166.6594   276.4526   0.3785     0.4796     
  25.78      2.3092     0.0002     0.0175     0.1125     2.0594     
  3.102      3.078      3.1301     3.1359     3.0447     3.0941     
  3.1658     1.1765     0.4248     -144.8951  1          0.3748     
  0.6335    
302        
  0.1349     1.9524     2.5385     2.7423     3.0836     2.9766     
  215.9      226.0921   293.2413   257.4676   394.4575   1326.8674  
  453.6995   92.0953    167.2939   279.8081   0.2908     0.3758     
  25.78      2.276      0          0.0032     0.1109     2.0414     
  3.0214     2.9446     2.9901     2.992      2.9053     2.9238     
  3.3192     1.2036     0.4243     -144.9992  1          0.3945     
  0.7185    
302.1      
  0.1349     1.9969     2.4703     2.6146     2.9253     2.8822     
  215.9      234.8823   280.6151   256.7097   404.015    1345.944   
  454.2483   93.3532    167.4652   267.907    0.25       0.3392     
  25.78      2.2656     0          0.0021     0.1125     2.0293     
  2.9147     2.7583     2.7883     2.7816     2.7028     2.6084     
  3.56       1.2332     0.4245     -145.1683  1          0.3909     
  0.7362    
302.2      
  0.1349     2.0085     2.4469     2.5356     2.7998     2.7592     
  215.9      240.4236   265.8014   252.793    410.4912   1360.217   
  455.0337   93.8252    167.4763   258.7157   0.3418     0.4553     
  25.78      2.2698     0          0.0019     0.113      2.0307     
  3.0875     2.8848     2.9104     2.8995     2.8201     2.664      
  3.8683     1.2028     0.4252     -145.3767  1          0.3918     
  0.7408    
302.3      
  0.135      2.067      2.5372     2.6073     2.8465     2.8094     
  215.9      226.6487   255.3215   240.5554   399.6948   1362.0106  
  454.8005   93.9755    167.3616   238.8135   0.3294     0.4416     
  25.78      2.2826     0          0.0018     0.1132     2.0215     
  3.223      3.0004     3.0238     3.0128     2.9316     2.7564     
  4.0395     1.3311     0.4268     -145.5977  1          0.4168     
  0.7423    
302.4      
  0.1351     2.1337     2.6584     2.8203     3.0987     3.1905     
  215.9      221.8719   257.7035   239.1168   398.3314   1365.5024  
  454.4043   93.7509    167.0036   235.1565   0.2482     0.3479     
  25.781     2.3043     0          0.0019     0.113      2.0144     
  3.1338     2.9241     2.9454     2.9257     2.8437     2.6698     
  3.9468     1.4422     0.4279     -145.8103  1          0.4207     
  0.7401    
302.5      
  0.1351     2.2005     2.7879     3.0321     3.376      3.7073     
  215.9      220.9999   258.7705   239.1152   398.1676   1372.6254  
  450.6457   93.6714    166.5656   239.9575   0.2943     0.4012     
  25.782     2.3208     0          0.002      0.1129     2.0281     
  3.0283     2.8759     2.9036     2.8779     2.8        2.699      
  3.7177     1.2868     0.4291     -146.0041  1          0.4243     
  0.7393    
302.6      
  0.1352     2.1804     2.855      3.0618     3.3923     3.9543     
  215.9      218.497    233.1484   225.7013   392.3695   1389.5477  
  436.4026   94.4259    166.1175   218.4644   0.3704     0.4725     
  25.782     2.3258     0          0.0017     0.1137     2.0128     
  3.1264     3.0318     3.0709     3.0339     2.953      2.9389     
  3.6016     1.131      0.4308     -146.1799  1          0.4487     
  0.7468    
302.7      
  0.1352     2.2124     2.9073     3.0201     3.32       3.7375     
  215.9      217.689    226.074    221.8409   383.7315   1377.1039  
  429.2334   95.9424    165.6161   218.6097   0.2843     0.3676     
  25.7826    2.3172     0          0.0012     0.1154     1.981      
  3.187      3.1367     3.1836     3.1416     3.0522     3.0774     
  3.5908     0.9849     0.4315     -146.3495  1          0.4595     
  0.7618    
302.8      
  0.1351     2.1978     2.8167     2.8501     3.2204     3.4927     
  215.9      217.5341   232.5932   224.9142   373.8543   1355.0026  
  427.3655   97.9685    165.0482   226.1649   0.2479     0.3153     
  25.7837    2.3029     0          0.0007     0.118      1.9776     
  3.2348     3.1332     3.1633     3.1131     3.0196     2.9465     
  3.9848     0.8495     0.4319     -146.5346  1          0.4665     
  0.7819    
302.9      
  0.1351     2.0628     2.72       2.7404     3.1131     3.3001     
  215.9      216.0123   252.1423   233.3777   363.4021   1340.4164  
  436.3711   100.9044   164.2848   234.2761   0.2335     0.2972     
  25.7861    2.2885     0          0.0003     0.122      1.9718     
  3.1768     3.0378     3.0546     3.0085     2.9189     2.8129     
  3.9029     0.7822     0.4331     -146.7637  1          0.4797     
  0.8109    
