~Version
 VERS              .         2.0                           : CWLS LOG ASCII STANDARD - VERSION 2.0
 WRAP              .         YES                            : ONE LINE PER DEPTH STEP
 DLM               .         SPACE                         : DELIMITING CHARACTER(SPACE TAB OR COMMA)
~Well Information
#_______________________________________________________________________________
#
#PARAMETER_NAME    .UNIT     VALUE                         : DESCRIPTION
#_______________________________________________________________________________
STRT               .M        0                             : First reference value
STOP               .M        750                           : Last reference value
STEP               .M        0.1                           : Step increment
NULL               .         -999.25                       : Missing value
COMP               .         COMPANY                       : Company
WELL               .         355                           : Well name
FLD                .         Field Name                    : Field
LOC                .         Location                      : Location
CNTY               .                                       : County
STAT               .                                       : State
CTRY               .                                       : Country
SRVC               .         SCH                           : Service Company
DATE               .         22.09.2024                    : Date
API                .                                       : API number
APDAT              .         136.988                       : Elevation Above Permanent Datum
BHS                .         OPEN                          : Completion Status
COUNT              .         Kazakhstan                    : Country
DF                 .         136.988                       : DF Elevation
DRMEA              .         DF                            : Drill Measured From
EPDAT              .         0                             : Elevation of Permanent Datum
GL                 .         131.788                       : GL Elevation
KB                 .         0                             : KB Elevation
LGMEA              .         DF                            : Log Measured from
LATI               .         47.93162                      : Latitude/Northing
LONG               .         56.55725                      : Longitude/Easting
ORIGINALWELLNAME   .         355                           : 
PDAT               .         MSL                           : Permanent Datum
RWS                .         -999                          : Def_Rw
STATE              .         1_500 / 1_200                 : State
WST                .         -999                          : Def_Rwt
~Parameter Information Block
#_______________________________________________________________________________
#
#PARAMETER_NAME    .UNIT     VALUE                         : DESCRIPTION
#_______________________________________________________________________________
SET                .         model                         : 
TLFamily_AHMF      .                                       : 
TLFamily_AT10      .         Resistivity - Medium          : 
TLFamily_AT20      .         Resistivity (Array)           : 
TLFamily_AT30      .         Resistivity (Array)           : 
TLFamily_AT60      .         Resistivity (Array)           : 
TLFamily_AT90      .         Resistivity - Deep            : 
TLFamily_BSC       .         Bit Size                      : 
TLFamily_C1        .         Caliper 1                     : 
TLFamily_C2        .         Caliper 2                     : 
TLFamily_CALI      .         Caliper                       : 
TLFamily_CFTC      .         Neutron Far                   : 
TLFamily_CNTC      .         Neutron Near                  : 
TLFamily_DEPTH     .         Measured Depth                : 
TLFamily_DT        .         Compressional Slowness        : 
TLFamily_GR        .         Gamma Ray                     : 
TLFamily_HAZIM     .         Hole Azimuth                  : 
TLFamily_HCAL      .         Caliper                       : 
TLFamily_HMIN      .                                       : 
TLFamily_HMNO      .                                       : 
TLFamily_MTEM_FILT .         Temperature                   : 
TLFamily_PEFZ      .         Photoelectric Factor          : 
TLFamily_PHIE      .         Effective Porosity            : 
TLFamily_PHIT      .         Total Porosity                : 
TLFamily_Perm      .         Permeability                  : 
TLFamily_RHOZ      .         Bulk Density                  : 
TLFamily_RLA1      .         Resistivity (Array)           : 
TLFamily_RLA2      .         Resistivity (Array)           : 
TLFamily_RLA3      .         Resistivity (Array)           : 
TLFamily_RLA4      .         Resistivity (Array)           : 
TLFamily_RLA5      .         Resistivity (Array)           : 
TLFamily_RT        .         Resistivity - True Formation  : 
TLFamily_RXO       .         Resistivity - Flushed Zone    : 
TLFamily_RXOZ      .         Resistivity - Flushed Zone    : 
TLFamily_SDEVM     .         Sonde Deviation               : 
TLFamily_SP        .         Spontaneous Potential         : 
TLFamily_SW        .         Water Saturation              : 
TLFamily_TNPH      .         Neutron Porosity              : 
TLFamily_VCLAV     .         Clay Volume Fraction          : 
~Curve Information
#_______________________________________________________________________________
#
#LOGNAME           .UNIT     LOG_ID                        : DESCRIPTION
#_______________________________________________________________________________
DEPTH              .M                                      : Depth 
AHMF               .ohm.m                                  : 21 Array Induction Mud Resistivity Fully Calibrated 
AT10               .ohm.m                                  : MedRes     30 Array Induction Two Foot Resistivity A10 
AT20               .ohm.m                                  : MedRes     31 Array Induction Two Foot Resistivity A20 
AT30               .ohm.m                                  : MedRes     32 Array Induction Two Foot Resistivity A30 
AT60               .ohm.m                                  : DeepRes    33 Array Induction Two Foot Resistivity A60 
AT90               .ohm.m                                  : XDeepRes   34 Array Induction Two Foot Resistivity A90 
BSC                .mm                                     : 20 Nominal Caliper 
C1                 .mm                                     : 17 CALIPER DIAMETER 1 
C2                 .mm                                     : 18 CALIPER DIAMETER 2 
CALI               .mm                                     : Caliper    19 
CFTC               .1/s                                    : 7 Corrected Far Thermal Count Rate 
CNTC               .1/s                                    : Neutron    8 Corrected Near Thermal Count Rate 
DT                 .uSec/m                                 : Sonic      12 Sonic travel time 
GR                 .gAPI                                   : GammaRay   9 Gamma Ray 
HAZIM              .deg                                    : Azimuth    13 Hole Azimuth 
HCAL               .mm                                     : 16 HRCC Caliper Calibrated 
HMIN               .ohm.m                                  : 2 HIP Micro Inverse Resistivity 
HMNO               .ohm.m                                  : 3 HIP Micro Normal Resistivity 
MTEM_FILT          .degC                                   : 10 Filtered Mud Temperature 
PEFZ               .B/E                                    : PEF        4 Formation Photoelectric Factor 
Perm               .md                                     : perm 
PHIE               .Dec                                    : Phi 
PHIT               .Dec                                    : PhiT 
RHOZ               .g/cm3                                  : Density    5 Bulk Density 
RLA1               .ohm.m                                  : ShalRes    22 HRLT Borehole Corrected Resistivity 1 
RLA2               .ohm.m                                  : MedRes     23 HRLT Borehole Corrected Resistivity 2 
RLA3               .ohm.m                                  : DeepRes    24 HRLT Borehole Corrected Resistivity 3 
RLA4               .ohm.m                                  : XDeepRes   25 HRLT Borehole Corrected Resisitivity 4 
RLA5               .ohm.m                                  : UltraDeepR 26 HRLT Borehole Corrected Resistivity 5 
RT                 .ohm.m                                  : 27 HRLT True Formation Resistivity 
RXO                .ohm.m                                  : 28 HRLT Invaded Zone Resistivity 
RXOZ               .ohm.m                                  : MicroRes   6 Invaded Formation Resistivity filtered at 18 inches 
SDEVM              .deg                                    : 15 Sonde Deviation 
SP                 .mV                                     : SP         36 Spontaneous Potential 
SW                 .Dec                                    : Sw 
TNPH               .v/v                                    : Neutron    11 Compensated Neutron Porosity 
VCLAV              .Dec                                    : Vcl 
~Ascii
# ...
621.3      
  0.1224     4.3523     5.1525     6.2203     7.2745     7.3995     
  215.9      215.8063   214.5194   215.1614   600.6863   1863.4106  
  383.1888   82.8443    154.8736   210.177    2.7289     2.4201     
  30.9455    2.5524     217.0294   0.2612     0.2895     2.1554     
  8.1377     8.010400000000001 7.8431     7.5004     6.8803     5.9489     
  10.9661    3.4252     0.2152     -136.4039  0.3279     0.3592     
  0.1892    
621.4      
  0.1223     4.2271     4.9722     6.0344     7.1831     7.5013     
  215.9      215.818    214.6981   215.2571   575.3213   1838.6344  
  400.5004   83.2146    155.0359   209.9187   2.5961     2.3024     
  30.9463    2.4476     311.5277   0.2741     0.3039     2.1277     
  8.4295     8.413      8.274900000000001 7.9152     7.254      6.4545     
  11.5716    3.3478     0.2142     -136.5648  0.3044     0.3786     
  0.1983    
621.5      
  0.1223     4.328      5.1419     6.3152     7.6594     8.2242     
  215.9      215.818    214.7127   215.2648   556.4044   1823.1953  
  412.9195   81.394     155.137    209.9187   2.4255     2.1829     
  30.9467    2.3799     423.1636   0.2846     0.315      2.1096     
  8.7495     8.946099999999999 8.820499999999999 8.450100000000001 7.7385     
  7.1216     12.5864    3.2882     0.2128     -136.6529  0.2837     
  0.3948     0.2026    
621.6      
  0.1223     4.5362     5.5007     6.9074     8.5547     9.4999     
  215.9      215.818    214.5482   215.1822   543.6826   1816.7274  
  420.638    77.4687    155.1794   209.9187   2.2771     2.0936     
  30.9467    2.3403     562.8112   0.2939     0.3239     2.0994     
  9.0889     9.604699999999999 9.521000000000001 9.144299999999999 8.3592     
  8.2095     12.973     3.3005     0.211      -136.6855  0.264      
  0.4079     0.2002    
621.7      
  0.1222     4.7648     5.8624     7.5289     9.3956     10.6378    
  215.9      215.8112   214.8864   215.3488   523.9543   1813.8553  
  425.3702   77.229     155.4218   210.4705   2.395      2.1831     
  30.9494    2.3206     615.4661   0.2957     0.3292     2.0984     
  9.2385     9.9985     9.9739     9.580500000000001 8.7654     
  9.180199999999999 11.6512    3.3307     0.2098     -136.6733  0.2558     
  0.4333     0.2236    
621.8      
  0.1222     4.9524     6.2785     8.1245     10.0949    11.7177    
  215.9      215.731    214.9538   215.3423   524.4768   1809.0236  
  427.5539   77.5       155.6186   210.2686   2.465      2.2358     
  30.9518    2.3372     589.5862   0.29       0.3253     2.0996     
  9.5362     10.584     10.6647    10.2898    9.4178     10.0519    
  10.0843    3.3331     0.2085     -136.6185  0.2506     0.4311     
  0.2351    
621.9      
  0.1221     5.1019     6.6477     8.8822     11.2178    13.4057    
  215.9      215.5728   214.5489   215.0599   548.9399   1801.8051  
  426.8175   78.2822    155.7572   210.3648   2.391      2.1758     
  30.9535    2.359      421.3999   0.2738     0.3093     2.104      
  9.5868     10.694     10.8967    10.5268    9.646100000000001 10.2282    
  10.002     3.3144     0.2071     -136.5168  0.2612     0.3962     
  0.2363    
622        
  0.1221     5.1016     6.8972     9.2422     11.7013    14.3485    
  215.9      215.701    214.492    215.0959   568.3317   1794.9689  
  426.4073   78.2137    155.9267   209.9187   2.4064     2.1718     
  30.9536    2.3691     321.0806   0.2626     0.2974     2.1121     
  9.4119     10.4259    10.7499    10.4174    9.565300000000001 10.0971    
  9.5207     3.3296     0.2058     -136.3609  0.2729     0.3717     
  0.2317    
622.1      
  0.122      4.9948     6.929      9.1658     11.6047    14.3586    
  215.9      215.818    214.5774   215.1963   583.1912   1791.9653  
  426.7227   77.4437    156.1321   209.9187   2.5034     2.2477     
  30.9546    2.3918     273.4148   0.2562     0.2896     2.1187     
  9.2876     10.2118    10.6457    10.3644    9.5322     10.046     
  8.9922     3.3137     0.2047     -136.1445  0.28       0.3544     
  0.2232    
622.2      
  0.1219     4.9803     6.9399     9.1409     11.5496    14.5668    
  215.9      215.8031   214.7661   215.2841   591.9946   1794.4417  
  428.0524   75.7424    156.3862   209.9187   2.4456     2.2202     
  30.957     2.4014     270.2242   0.2552     0.2867     2.1265     
  9.3408     10.2323    10.7021    10.4683    9.6395     10.1714    
  8.6723     3.3774     0.2039     -135.8657  0.2793     0.3462     
  0.21      
622.3      
  0.1218     4.9539     7.0334     9.2148     11.697     14.608     
  215.9      215.6601   214.6401   215.1496   587.8113   1785.8489  
  426.6271   73.7719    156.5995   210.5057   2.26       2.1116     
  30.9573    2.3963     296.3792   0.258      0.2878     2.134      
  9.4482     10.3311    10.8022    10.6633    9.8482     10.4372    
  8.250299999999999 3.511      0.203      -135.5275  0.2732     0.3477     
  0.1982    
622.4      
  0.1217     4.9831     7.1008     9.3106     11.8987    14.6822    
  215.9      215.5996   214.5766   215.0876   581.2951   1773.7919  
  425.9167   73.8774    156.8397   210.5057   2.0452     2.0048     
  30.9586    2.3888     318.8866   0.2602     0.2893     2.1365     
  9.548      10.448     10.885     10.8342    10.0395    10.7195    
  7.8525     3.6423     0.2022     -135.1373  0.2683     0.3504     
  0.1938    
622.5      
  0.1218     5.0311     7.2248     9.5007     12.3186    14.4742    
  215.9      215.7806   214.8114   215.2955   573.4849   1758.0084  
  427.0825   77.7328    157.1365   209.9187   2.301      2.206      
  30.9622    2.3803     302.6024   0.2569     0.2883     2.1325     
  9.677      10.6057    11.0291    11.0715    10.2946    11.1178    
  7.4443     3.6104     0.2016     -134.7066  0.2678     0.3534     
  0.2091    
622.6      
  0.1218     5.0164     7.191      9.457      12.3749    13.7832    
  215.9      215.8175   214.8485   215.3325   573.224    1755.2128  
  427.8396   79.1563    157.3813   210.009    2.5353     2.3248     
  30.9628    2.3854     304.4225   0.2572     0.2896     2.1215     
  9.5822     10.5038    10.9079    11.0064    10.2942    11.2048    
  7.0303     3.5474     0.2008     -134.25    0.2676     0.3527     
  0.2162    
622.7      
  0.1219     4.9231     7.0066     9.1731     12.0675    12.8981    
  215.9      215.7581   214.826    215.2916   568.7548   1758.1808  
  428.0672   80.2804    157.6242   210.4353   2.4625     2.2163     
  30.9639    2.3998     329.0669   0.2611     0.2944     2.1107     
  9.3727     10.247     10.6192    10.7596    10.121     11.0318    
  6.734      3.433      0.2        -133.7854  0.2662     0.3588     
  0.2216    
622.8      
  0.122      4.8453     6.8406     8.879      11.6888    12.2409    
  215.9      215.5953   214.8105   215.2028   552.2876   1768.1396  
  427.3351   81.7526    157.8841   210.0316   2.2866     2.0906     
  30.9673    2.4119     401.5177   0.2698     0.3039     2.1059     
  9.2785     10.1153    10.47      10.6218    10.0646    10.97      
  6.5756     3.2938     0.1993     -133.3331  0.2589     0.3804     
  0.2278    
622.9      
  0.1221     4.7828     6.6668     8.5953     11.4469    11.5003    
  215.9      215.6767   214.6599   215.1673   532.4549   1764.3033  
  427.3225   80.3275    158.1663   209.9187   2.3025     2.1112     
  30.9706    2.436      543.4178000000001 0.2827     0.3157     2.1058     
  9.2876     10.1044    10.4806    10.6196    10.1365    11.0769    
  6.4512     3.2506     0.198      -132.9149  0.2467     0.4035     
  0.2197    
623        
  0.1222     4.8159     6.6206     8.5779     11.3468    11.388     
  215.9      215.818    214.6039   215.21     520.7632   1762.2527  
  427.2815   78.5925    158.4964   209.9187   2.2625     2.0825     
  30.9729    2.46       648.438    0.2906     0.3221     2.111      
  9.2668     10.0535    10.4607    10.5838    10.1781    11.153     
  6.3094     3.2471     0.1962     -132.5516  0.2399     0.4175     
  0.2105    
