~Version
 VERS              .         2.0                           : CWLS LOG ASCII STANDARD - VERSION 2.0
 WRAP              .         YES                            : ONE LINE PER DEPTH STEP
 DLM               .         SPACE                         : DELIMITING CHARACTER(SPACE TAB OR COMMA)
~Well Information
#_______________________________________________________________________________
#
#PARAMETER_NAME    .UNIT     VALUE                         : DESCRIPTION
#_______________________________________________________________________________
STRT               .M        0                             : First reference value
STOP               .M        750                           : Last reference value
STEP               .M        0.1                           : Step increment
NULL               .         -999.25                       : Missing value
COMP               .         COMPANY                       : Company
WELL               .         355                           : Well name
FLD                .         Field Name                    : Field
LOC                .         Location                      : Location
CNTY               .                                       : County
STAT               .                                       : State
CTRY               .                                       : Country
SRVC               .         SCH                           : Service Company
DATE               .         22.09.2024                    : Date
API                .                                       : API number
APDAT              .         136.988                       : Elevation Above Permanent Datum
BHS                .         OPEN                          : Completion Status
COUNT              .         Kazakhstan                    : Country
DF                 .         136.988                       : DF Elevation
DRMEA              .         DF                            : Drill Measured From
EPDAT              .         0                             : Elevation of Permanent Datum
GL                 .         131.788                       : GL Elevation
KB                 .         0                             : KB Elevation
LGMEA              .         DF                            : Log Measured from
LATI               .         47.93162                      : Latitude/Northing
LONG               .         56.55725                      : Longitude/Easting
ORIGINALWELLNAME   .         355                           : 
PDAT               .         MSL                           : Permanent Datum
RWS                .         -999                          : Def_Rw
STATE              .         1_500 / 1_200                 : State
WST                .         -999                          : Def_Rwt
~Parameter Information Block
#_______________________________________________________________________________
#
#PARAMETER_NAME    .UNIT     VALUE                         : DESCRIPTION
#_______________________________________________________________________________
SET                .         model                         : 
TLFamily_AHMF      .                                       : 
TLFamily_AT10      .         Resistivity - Medium          : 
TLFamily_AT20      .         Resistivity (Array)           : 
TLFamily_AT30      .         Resistivity (Array)           : 
TLFamily_AT60      .         Resistivity (Array)           : 
TLFamily_AT90      .         Resistivity - Deep            : 
TLFamily_BSC       .         Bit Size                      : 
TLFamily_C1        .         Caliper 1                     : 
TLFamily_C2        .         Caliper 2                     : 
TLFamily_CALI      .         Caliper                       : 
TLFamily_CFTC      .         Neutron Far                   : 
TLFamily_CNTC      .         Neutron Near                  : 
TLFamily_DEPTH     .         Measured Depth                : 
TLFamily_DT        .         Compressional Slowness        : 
TLFamily_GR        .         Gamma Ray                     : 
TLFamily_HAZIM     .         Hole Azimuth                  : 
TLFamily_HCAL      .         Caliper                       : 
TLFamily_HMIN      .                                       : 
TLFamily_HMNO      .                                       : 
TLFamily_MTEM_FILT .         Temperature                   : 
TLFamily_PEFZ      .         Photoelectric Factor          : 
TLFamily_PHIE      .         Effective Porosity            : 
TLFamily_PHIT      .         Total Porosity                : 
TLFamily_Perm      .         Permeability                  : 
TLFamily_RHOZ      .         Bulk Density                  : 
TLFamily_RLA1      .         Resistivity (Array)           : 
TLFamily_RLA2      .         Resistivity (Array)           : 
TLFamily_RLA3      .         Resistivity (Array)           : 
TLFamily_RLA4      .         Resistivity (Array)           : 
TLFamily_RLA5      .         Resistivity (Array)           : 
TLFamily_RT        .         Resistivity - True Formation  : 
TLFamily_RXO       .         Resistivity - Flushed Zone    : 
TLFamily_RXOZ      .         Resistivity - Flushed Zone    : 
TLFamily_SDEVM     .         Sonde Deviation               : 
TLFamily_SP        .         Spontaneous Potential         : 
TLFamily_SW        .         Water Saturation              : 
TLFamily_TNPH      .         Neutron Porosity              : 
TLFamily_VCLAV     .         Clay Volume Fraction          : 
~Curve Information
#_______________________________________________________________________________
#
#LOGNAME           .UNIT     LOG_ID                        : DESCRIPTION
#_______________________________________________________________________________
DEPTH              .M                                      : Depth 
AHMF               .ohm.m                                  : 21 Array Induction Mud Resistivity Fully Calibrated 
AT10               .ohm.m                                  : MedRes     30 Array Induction Two Foot Resistivity A10 
AT20               .ohm.m                                  : MedRes     31 Array Induction Two Foot Resistivity A20 
AT30               .ohm.m                                  : MedRes     32 Array Induction Two Foot Resistivity A30 
AT60               .ohm.m                                  : DeepRes    33 Array Induction Two Foot Resistivity A60 
AT90               .ohm.m                                  : XDeepRes   34 Array Induction Two Foot Resistivity A90 
BSC                .mm                                     : 20 Nominal Caliper 
C1                 .mm                                     : 17 CALIPER DIAMETER 1 
C2                 .mm                                     : 18 CALIPER DIAMETER 2 
CALI               .mm                                     : Caliper    19 
CFTC               .1/s                                    : 7 Corrected Far Thermal Count Rate 
CNTC               .1/s                                    : Neutron    8 Corrected Near Thermal Count Rate 
DT                 .uSec/m                                 : Sonic      12 Sonic travel time 
GR                 .gAPI                                   : GammaRay   9 Gamma Ray 
HAZIM              .deg                                    : Azimuth    13 Hole Azimuth 
HCAL               .mm                                     : 16 HRCC Caliper Calibrated 
HMIN               .ohm.m                                  : 2 HIP Micro Inverse Resistivity 
HMNO               .ohm.m                                  : 3 HIP Micro Normal Resistivity 
MTEM_FILT          .degC                                   : 10 Filtered Mud Temperature 
PEFZ               .B/E                                    : PEF        4 Formation Photoelectric Factor 
Perm               .md                                     : perm 
PHIE               .Dec                                    : Phi 
PHIT               .Dec                                    : PhiT 
RHOZ               .g/cm3                                  : Density    5 Bulk Density 
RLA1               .ohm.m                                  : ShalRes    22 HRLT Borehole Corrected Resistivity 1 
RLA2               .ohm.m                                  : MedRes     23 HRLT Borehole Corrected Resistivity 2 
RLA3               .ohm.m                                  : DeepRes    24 HRLT Borehole Corrected Resistivity 3 
RLA4               .ohm.m                                  : XDeepRes   25 HRLT Borehole Corrected Resisitivity 4 
RLA5               .ohm.m                                  : UltraDeepR 26 HRLT Borehole Corrected Resistivity 5 
RT                 .ohm.m                                  : 27 HRLT True Formation Resistivity 
RXO                .ohm.m                                  : 28 HRLT Invaded Zone Resistivity 
RXOZ               .ohm.m                                  : MicroRes   6 Invaded Formation Resistivity filtered at 18 inches 
SDEVM              .deg                                    : 15 Sonde Deviation 
SP                 .mV                                     : SP         36 Spontaneous Potential 
SW                 .Dec                                    : Sw 
TNPH               .v/v                                    : Neutron    11 Compensated Neutron Porosity 
VCLAV              .Dec                                    : Vcl 
~Ascii
# ...
261.2      
  0.1377     1.8376     2.8898     3.7219     5.02       5.4263     
  215.9      217.9595   217.2213   217.5899   552.1297   1841.6458  
  475.3559   64.5808    169.3861   212.2429   0.8543     0.7556     
  25.0013    2.0158     38.1883    0.2798     0.3181     2.0771     
  3.8028     4.2637     4.4824     4.5607     4.4703     5.1991     
  2.5945     1.0353     0.4103     -113.2764  0.9099     0.4017     
  0.255     
261.3      
  0.1375     1.8534     2.9097     3.7452     5.0007     5.3633     
  215.9      218.2519   217.1889   217.7199   549.7888   1820.9952  
  477.0075   66.0349    168.7986   211.7472   0.8622     0.7617     
  25.0013    2.0004     31.2359    0.2705     0.3107     2.0856     
  3.847      4.3135     4.5291     4.6071     4.5245     5.2562     
  2.6344     1.0722     0.4059     -113.9333  0.9336     0.3973     
  0.268     
261.4      
  0.1372     1.8984     2.9933     3.8693     5.2086     5.409      
  215.9      217.7562   217.1937   217.4745   537.5830999999999 1794.225   
  478.7077   66.8865    168.1853   211.1865   0.8666     0.7669     
  25.0048    1.9923     30.3019    0.2686     0.31       2.0888     
  3.8915     4.3645     4.5776     4.6512     4.5792     5.315      
  2.6664     1.1049     0.4025     -114.5492  0.9336     0.403      
  0.2757    
261.5      
  0.137      1.9307     3.0905     4.0082     5.3703     5.5731     
  215.9      216.9103   217.0986   217.0044   520.9814   1762.0663  
  480.2286   67.1841    167.5431   211.4538   0.8604     0.7709     
  25.0087    2.0022     32.6574    0.2726     0.3143     2.0856     
  3.8631     4.3102     4.5091     4.5702     4.5091     5.1836     
  2.6308     1.1334     0.3998     -115.0879  0.9285     0.4124     
  0.2785    
261.6      
  0.1369     1.9702     3.1935     4.1989     5.6522     5.7529     
  215.9      216.5438   216.469    216.5059   502.1406   1717.8728  
  480.9565   66.2027    166.8253   211.0926   0.9215     0.8182     
  25.0087    2.0388     41.3566    0.2819     0.3223     2.0772     
  3.9501     4.4047     4.6166     4.669      4.6142     5.305      
  2.6973     1.0885     0.3982     -115.5215  0.8884     0.4213     
  0.2695    
261.7      
  0.1369     1.9992     3.2739     4.3104     5.8349     5.8807     
  215.9      216.2796   216.0787   216.1787   492.0272   1693.1138  
  481.8784   66.6234    166.2149   210.717    0.8499     0.7545     
  25.0108    2.0917     45.9906    0.2865     0.3275     2.0632     
  3.9758     4.3984     4.6262     4.678      4.6342     5.3069     
  2.6939     1.0745     0.3971     -115.8314  0.8729     0.4257     
  0.2733    
261.8      
  0.1369     1.9905     3.2383     4.1979     5.7071     5.7672     
  215.9      216.0857   215.887    215.9864   487.4404   1679.1375  
  482.8013   68.1302    165.6625   210.167    0.7862     0.6985     
  25.0136    2.1441     42.8515    0.2859     0.329      2.051      
  3.7893     4.1531     4.3676     4.4223     4.3877     4.9784     
  2.5445     1.0274     0.3965     -116.004   0.9006     0.4267     
  0.2872    
261.9      
  0.1371     1.9381     3.0945     3.9218     5.3161     5.3813     
  215.9      215.9126   215.8964   215.9049   489.8133   1672.0205  
  483.1885   71.8787    165.14     210.5057   0.7716     0.6815     
  25.0136    2.1885     31.8486    0.2743     0.3227     2.0434     
  3.6832     4.0316     4.2207     4.2737     4.2468     4.7868     
  2.4834     0.9707     0.3968     -116.0265  0.9534     0.4204     
  0.3227    
262        
  0.1372     1.8906     2.952      3.6807     4.945      5.0055     
  215.9      215.9369   215.999    215.9675   507.0712   1662.828   
  482.0322   73.7624    164.721    210.1896   0.7472     0.66       
  25.0165    2.2106     24.7552    0.2621     0.3132     2.0423     
  3.7379     4.1417     4.3387     4.402      4.3842     5.022      
  2.5739     0.9714     0.3972     -115.8856  0.9784     0.3946     
  0.3411    
262.1      
  0.1374     1.8744     2.91       3.6233     4.8007     4.8565     
  215.9      216.1075   216.1878   216.1476   531.9209   1656.3326  
  479.968    74.4249    164.3563   210.5057   0.7792     0.6883     
  25.0212    2.2        18.8909    0.2489     0.3011     2.0478     
  3.7524     4.1787     4.3705     4.4362     4.4278     5.0935     
  2.6143     0.997      0.3978     -115.5719  1          0.3604     
  0.3477    
262.2      
  0.1375     1.9011     2.9952     3.7199     4.8801     4.9364     
  215.9      216.1215   216.4637   216.2921   542.9888999999999 1685.5582  
  478.2484   74.3839    163.9092   210.7052   0.8397     0.7427     
  25.0266    2.1604     17.3117    0.244      0.2961     2.0574     
  3.8379     4.2659     4.4566     4.5177     4.5167     5.1767     
  2.6601     1.1023     0.3987     -115.0864  1          0.3581     
  0.3473    
262.3      
  0.1375     1.9548     3.1319     3.9103     5.1486     5.1886     
  215.9      216.2263   216.8192   216.5223   555.0219   1716.2581  
  476.6305   71.4101    163.527    211.1716   0.9099     0.8401     
  25.0288    2.0922     18.8374    0.2488     0.2965     2.0691     
  3.9007     4.2944     4.4864     4.5414     4.542      5.1426     
  2.6921     1.2167     0.4001     -114.4463  1          0.3553     
  0.3182    
262.4      
  0.1375     2.0392     3.3274     4.1818     5.6648     5.7169     
  215.9      216.382    217.2274   216.8046   567.8425   1747.0308  
  475.0578   66.382     163.1997   211.0926   0.8512     0.8515     
  25.0291    2.0174     29.0073    0.2608     0.3015     2.0769     
  4.3971     4.8945     5.1374     5.2078     5.2199     6.013      
  3.0562     1.2357     0.4019     -113.6835  0.8944     0.3518     
  0.2712    
262.5      
  0.1375     2.0694     3.5021     4.5374     6.1811     6.2651     
  215.9      216.217    217.4311   216.823    582.3472   1758.9078  
  472.9429   62.6776    163.0189   211.7698   0.7656     0.759      
  25.0343    1.9539     38.0428    0.269      0.3048     2.0782     
  4.6181     5.2055     5.5        5.5928     5.6006     6.5438     
  3.0461     1.216      0.4027     -112.8384  0.8361     0.3409     
  0.2383    
262.6      
  0.1376     2.003      3.2706     4.2317     5.8018     5.7253     
  215.9      216.2092   217.7369   216.9716   589.4006000000001 1775.381   
  472.0699   59.145     162.9482   212.2194   0.7201     0.6837     
  25.0368    1.9093     37.9198    0.2818     0.3131     2.0761     
  3.6319     3.9975     4.1974     4.2604     4.2621     4.8701     
  2.4885     1.1694     0.4042     -111.9485  0.9275     0.339      
  0.2085    
262.7      
  0.1376     1.8701     2.9933     3.6722     4.8908     4.7992     
  215.9      216.3328   218.04     217.1854   589.8464   1795.9301  
  472.2983   55.7648    162.9751   212.2664   0.748      0.6971     
  25.0368    1.8903     45.996     0.2957     0.3229     2.0719     
  3.2667     3.6011     3.7827     3.8456     3.8524     4.407      
  2.2819     1.092      0.4063     -111.0391  0.936      0.3449     
  0.1814    
262.8      
  0.1377     1.7626     2.6741     3.2299     4.1642     4.0789     
  215.9      215.8838   217.2284   216.555    593.3378   1795.1176  
  472.2649   54.7767    162.9701   211.3978   0.7806     0.7295     
  25.0422    1.8844     54.2483    0.2989     0.325      2.0675     
  3.5395     3.9281     4.1379     4.2083     4.2147     4.8776     
  2.5387     1.0953     0.4085     -110.1168  0.8826     0.3413     
  0.1737    
262.9      
  0.1377     1.7916     2.7051     3.2305     4.1237     4.0523     
  215.9      215.9042   217.5938   216.7467   597.4897999999999 1788.9558  
  471.3689   53.8942    163.1424   211.0926   0.7995     0.7428     
  25.045     1.881      63.314     0.3007     0.3257     2.0641     
  3.8981     4.3634     4.6074     4.6851     4.6959     5.4372     
  2.5625     1.0999     0.4109     -109.1687  0.8278     0.3354     
  0.167     
263        
  0.1377     1.9005     3.0215     3.7201     4.8641     4.8433     
  215.9      216.6003   219.7379   218.1634   602.3574   1776.9993  
  469.5382   53.1261    163.5067   213.9333   0.7348     0.6959     
  25.045     1.8794     67.1298    0.3004     0.3246     2.064      
  4.1427     4.6307     4.9012     4.974      4.9841     5.7708     
  2.7197     1.0663     0.4134     -108.1674  0.8023     0.3271     
  0.1612    
