~Version
 VERS              .         2.0                           : CWLS LOG ASCII STANDARD - VERSION 2.0
 WRAP              .         YES                            : ONE LINE PER DEPTH STEP
 DLM               .         SPACE                         : DELIMITING CHARACTER(SPACE TAB OR COMMA)
~Well Information
#_______________________________________________________________________________
#
#PARAMETER_NAME    .UNIT     VALUE                         : DESCRIPTION
#_______________________________________________________________________________
STRT               .M        0                             : First reference value
STOP               .M        750                           : Last reference value
STEP               .M        0.1                           : Step increment
NULL               .         -999.25                       : Missing value
COMP               .         COMPANY                       : Company
WELL               .         355                           : Well name
FLD                .         Field Name                    : Field
LOC                .         Location                      : Location
CNTY               .                                       : County
STAT               .                                       : State
CTRY               .                                       : Country
SRVC               .         SCH                           : Service Company
DATE               .         22.09.2024                    : Date
API                .                                       : API number
APDAT              .         136.988                       : Elevation Above Permanent Datum
BHS                .         OPEN                          : Completion Status
COUNT              .         Kazakhstan                    : Country
DF                 .         136.988                       : DF Elevation
DRMEA              .         DF                            : Drill Measured From
EPDAT              .         0                             : Elevation of Permanent Datum
GL                 .         131.788                       : GL Elevation
KB                 .         0                             : KB Elevation
LGMEA              .         DF                            : Log Measured from
LATI               .         47.93162                      : Latitude/Northing
LONG               .         56.55725                      : Longitude/Easting
ORIGINALWELLNAME   .         355                           : 
PDAT               .         MSL                           : Permanent Datum
RWS                .         -999                          : Def_Rw
STATE              .         1_500 / 1_200                 : State
WST                .         -999                          : Def_Rwt
~Parameter Information Block
#_______________________________________________________________________________
#
#PARAMETER_NAME    .UNIT     VALUE                         : DESCRIPTION
#_______________________________________________________________________________
SET                .         model                         : 
TLFamily_AHMF      .                                       : 
TLFamily_AT10      .         Resistivity - Medium          : 
TLFamily_AT20      .         Resistivity (Array)           : 
TLFamily_AT30      .         Resistivity (Array)           : 
TLFamily_AT60      .         Resistivity (Array)           : 
TLFamily_AT90      .         Resistivity - Deep            : 
TLFamily_BSC       .         Bit Size                      : 
TLFamily_C1        .         Caliper 1                     : 
TLFamily_C2        .         Caliper 2                     : 
TLFamily_CALI      .         Caliper                       : 
TLFamily_CFTC      .         Neutron Far                   : 
TLFamily_CNTC      .         Neutron Near                  : 
TLFamily_DEPTH     .         Measured Depth                : 
TLFamily_DT        .         Compressional Slowness        : 
TLFamily_GR        .         Gamma Ray                     : 
TLFamily_HAZIM     .         Hole Azimuth                  : 
TLFamily_HCAL      .         Caliper                       : 
TLFamily_HMIN      .                                       : 
TLFamily_HMNO      .                                       : 
TLFamily_MTEM_FILT .         Temperature                   : 
TLFamily_PEFZ      .         Photoelectric Factor          : 
TLFamily_PHIE      .         Effective Porosity            : 
TLFamily_PHIT      .         Total Porosity                : 
TLFamily_Perm      .         Permeability                  : 
TLFamily_RHOZ      .         Bulk Density                  : 
TLFamily_RLA1      .         Resistivity (Array)           : 
TLFamily_RLA2      .         Resistivity (Array)           : 
TLFamily_RLA3      .         Resistivity (Array)           : 
TLFamily_RLA4      .         Resistivity (Array)           : 
TLFamily_RLA5      .         Resistivity (Array)           : 
TLFamily_RT        .         Resistivity - True Formation  : 
TLFamily_RXO       .         Resistivity - Flushed Zone    : 
TLFamily_RXOZ      .         Resistivity - Flushed Zone    : 
TLFamily_SDEVM     .         Sonde Deviation               : 
TLFamily_SP        .         Spontaneous Potential         : 
TLFamily_SW        .         Water Saturation              : 
TLFamily_TNPH      .         Neutron Porosity              : 
TLFamily_VCLAV     .         Clay Volume Fraction          : 
~Curve Information
#_______________________________________________________________________________
#
#LOGNAME           .UNIT     LOG_ID                        : DESCRIPTION
#_______________________________________________________________________________
DEPTH              .M                                      : Depth 
AHMF               .ohm.m                                  : 21 Array Induction Mud Resistivity Fully Calibrated 
AT10               .ohm.m                                  : MedRes     30 Array Induction Two Foot Resistivity A10 
AT20               .ohm.m                                  : MedRes     31 Array Induction Two Foot Resistivity A20 
AT30               .ohm.m                                  : MedRes     32 Array Induction Two Foot Resistivity A30 
AT60               .ohm.m                                  : DeepRes    33 Array Induction Two Foot Resistivity A60 
AT90               .ohm.m                                  : XDeepRes   34 Array Induction Two Foot Resistivity A90 
BSC                .mm                                     : 20 Nominal Caliper 
C1                 .mm                                     : 17 CALIPER DIAMETER 1 
C2                 .mm                                     : 18 CALIPER DIAMETER 2 
CALI               .mm                                     : Caliper    19 
CFTC               .1/s                                    : 7 Corrected Far Thermal Count Rate 
CNTC               .1/s                                    : Neutron    8 Corrected Near Thermal Count Rate 
DT                 .uSec/m                                 : Sonic      12 Sonic travel time 
GR                 .gAPI                                   : GammaRay   9 Gamma Ray 
HAZIM              .deg                                    : Azimuth    13 Hole Azimuth 
HCAL               .mm                                     : 16 HRCC Caliper Calibrated 
HMIN               .ohm.m                                  : 2 HIP Micro Inverse Resistivity 
HMNO               .ohm.m                                  : 3 HIP Micro Normal Resistivity 
MTEM_FILT          .degC                                   : 10 Filtered Mud Temperature 
PEFZ               .B/E                                    : PEF        4 Formation Photoelectric Factor 
Perm               .md                                     : perm 
PHIE               .Dec                                    : Phi 
PHIT               .Dec                                    : PhiT 
RHOZ               .g/cm3                                  : Density    5 Bulk Density 
RLA1               .ohm.m                                  : ShalRes    22 HRLT Borehole Corrected Resistivity 1 
RLA2               .ohm.m                                  : MedRes     23 HRLT Borehole Corrected Resistivity 2 
RLA3               .ohm.m                                  : DeepRes    24 HRLT Borehole Corrected Resistivity 3 
RLA4               .ohm.m                                  : XDeepRes   25 HRLT Borehole Corrected Resisitivity 4 
RLA5               .ohm.m                                  : UltraDeepR 26 HRLT Borehole Corrected Resistivity 5 
RT                 .ohm.m                                  : 27 HRLT True Formation Resistivity 
RXO                .ohm.m                                  : 28 HRLT Invaded Zone Resistivity 
RXOZ               .ohm.m                                  : MicroRes   6 Invaded Formation Resistivity filtered at 18 inches 
SDEVM              .deg                                    : 15 Sonde Deviation 
SP                 .mV                                     : SP         36 Spontaneous Potential 
SW                 .Dec                                    : Sw 
TNPH               .v/v                                    : Neutron    11 Compensated Neutron Porosity 
VCLAV              .Dec                                    : Vcl 
~Ascii
# ...
380.9      
  0.1321     1.496      2.0155     2.1967     2.4271     2.4552     
  215.9      216.5271   215.1454   215.8348   507.11     1568.4746  
  457.8555   85.1319    178.2585   209.9187   0.7167     0.6331     
  27.2619    2.36       86.5287    0.3518     0.3659     2.0326     
  2.2169     2.2943     2.3556     2.356      2.2694     2.3062     
  2.1507     0.9007     0.5555     -117.9299  1          0.3592     
  0.0941    
381        
  0.132      1.5114     2.0373     2.2301     2.465      2.4701     
  215.9      216.402    214.987    215.6934   507.1168   1580.5393  
  455.0418   88.0057    178.3592   209.6252   0.7373     0.6513     
  27.2635    2.34       86.3224    0.3516     0.365      2.0394     
  2.265      2.3457     2.408      2.4075     2.3224     2.3623     
  2.1472     0.9036     0.5555     -117.6487  1          0.3637     
  0.0897    
381.1      
  0.1321     1.5258     2.0631     2.2702     2.5266     2.5107     
  215.9      216.402    214.6052   215.5016   512.0001   1603.7557  
  452.2993   89.3226    178.5012   209.59     0.7254     0.6408     
  27.268     2.3194     85.0787    0.3504     0.3635     2.046      
  2.3179     2.43       2.4918     2.4882     2.4084     2.4699     
  2.0471     0.9116     0.5552     -117.4681  1          0.3664     
  0.0868    
381.2      
  0.1322     1.5411     2.0798     2.2893     2.5475     2.5222     
  215.9      216.402    214.8484   215.6233   519.6962   1607.7609  
  449.8738   89.7179    178.7123   209.9187   0.7203     0.6363     
  27.2721    2.3085     82.4502    0.3479     0.3607     2.0483     
  2.2612     2.393      2.4525     2.4509     2.3759     2.4571     
  1.916      0.9146     0.5542     -117.3608  1          0.3588     
  0.0851    
381.3      
  0.1323     1.5328     2.0628     2.2929     2.5416     2.5165     
  215.9      216.402    215.158    215.779    522.3845   1603.0999  
  449.1693   88.7141    178.9598   209.9187   0.7299     0.6447     
  27.2748    2.3112     81.86409999999999 0.3474     0.36       2.0473     
  2.2054     2.3339     2.3825     2.3805     2.3115     2.3828     
  1.8979     0.9154     0.5526     -117.3047  1          0.3539     
  0.0842    
381.4      
  0.1324     1.5313     2.0628     2.275      2.5346     2.4903     
  215.9      216.402    215.1262   215.7631   513.9758   1587.1934  
  451.8541   85.1743    179.2587   209.9187   0.7417     0.6551     
  27.2748    2.3278     84.05800000000001 0.3495     0.3621     2.0454     
  2.2169     2.3396     2.3914     2.3938     2.3252     2.3952     
  1.9051     0.923      0.5498     -117.2852  1          0.3579     
  0.0839    
381.5      
  0.1325     1.5302     2.0614     2.2804     2.5322     2.5005     
  215.9      216.402    214.8034   215.6016   508.9204   1576.8741  
  452.7336   85.7051    179.5761   209.9187   0.7438     0.657      
  27.2786    2.3471     85.9294    0.3512     0.3638     2.0427     
  2.2418     2.3665     2.425      2.4197     2.3535     2.4298     
  1.896      0.9413     0.5471     -117.2973  1          0.3601     
  0.0841    
381.6      
  0.1326     1.5391     2.0856     2.2955     2.544      2.5199     
  215.9      216.402    214.474    215.436    507.4591   1573.8851  
  452.9353   86.913     179.8987   209.5901   0.7588     0.6703     
  27.2819    2.3621     87.0885    0.3523     0.365      2.0401     
  2.2156     2.3336     2.4038     2.3929     2.3352     2.413      
  1.8542     0.9545     0.5442     -117.3464  1          0.3608     
  0.0849    
381.7      
  0.1326     1.5461     2.1006     2.3012     2.5376     2.5195     
  215.9      216.402    214.474    215.436    513.2172   1586.3745  
  452.4834   87.4068    180.2235   209.3318   0.7789     0.6881     
  27.2819    2.3636     86.2287    0.3515     0.3645     2.0392     
  2.2259     2.3328     2.4098     2.3968     2.3445     2.4165     
  1.8675     0.9571     0.5407     -117.4469  1          0.3586     
  0.0865    
381.8      
  0.1326     1.556      2.1092     2.3303     2.5672     2.554      
  215.9      216.402    214.474    215.436    530.2825   1598.019   
  453.3659   87.3065    180.5629   209.3318   0.7714     0.6814     
  27.2853    2.356      81.7517    0.3473     0.3607     2.0373     
  2.268      2.3742     2.4471     2.4384     2.3888     2.46       
  1.8975     0.9584     0.537      -117.6179  1          0.3437     
  0.0892    
381.9      
  0.1326     1.5723     2.1336     2.35       2.6015     2.5796     
  215.9      216.402    214.474    215.436    547.2292   1613.0582  
  454.3055   86.7051    180.904    209.2867   0.7513     0.6637     
  27.2887    2.3516     75.9686    0.3415     0.3555     2.0383     
  2.2589     2.3686     2.4377     2.4324     2.3856     2.4646     
  1.8512     0.9461     0.5331     -117.8764  1          0.3302     
  0.0933    
382        
  0.1326     1.5643     2.1495     2.373      2.6258     2.6011     
  215.9      216.402    214.528    215.4631   552.4931   1639.6921  
  454.0909   85.1107    181.2358   208.7449   0.7375     0.6521     
  27.2887    2.3451     69.29649999999999 0.3345     0.3493     2.051      
  2.2351     2.3468     2.4158     2.4153     2.376      2.4662     
  1.778      0.926      0.5287     -118.2302  1          0.3337     
  0.0989    
382.1      
  0.1326     1.54       2.0946     2.3222     2.5804     2.553      
  215.9      216.402    215.0985   215.7493   562.8419   1686.7855  
  450.5696   83.2457    181.5268   208.7449   0.7068     0.6308     
  27.2933    2.3459     61.1013    0.325      0.3409     2.0688     
  2.1951     2.3103     2.3754     2.3806     2.3433     2.4401     
  1.7208     0.9466     0.5246     -118.672   1          0.3387     
  0.1059    
382.2      
  0.1326     1.5114     2.0258     2.2337     2.4889     2.437      
  215.9      216.402    215.9029   216.152    574.2248   1735.8739  
  447.0894   81.2648    181.8195   209.1738   0.6719     0.6291     
  27.2985    2.3656     53.6875    0.3156     0.3327     2.0856     
  2.0868     2.1842     2.2418     2.2457     2.2099     2.2787     
  1.7095     1.1021     0.5208     -119.1788  1          0.3431     
  0.1139    
382.3      
  0.1326     1.4866     1.9795     2.159      2.4115     2.3396     
  215.9      216.402    216.2926   216.3473   581.1624   1757.8419  
  449.5428   79.2609    182.1909   209.9187   0.864      0.8405     
  27.2985    2.3885     46.7042    0.3058     0.3242     2.1004     
  2.1528     2.258      2.3154     2.3201     2.284      2.3572     
  1.7653     1.1507     0.5175     -119.7146  1          0.3432     
  0.1225    
382.4      
  0.1326     1.5104     2.0267     2.2149     2.4467     2.3743     
  215.9      216.402    216.2015   216.3017   577.7146   1773.3422  
  451.4161   79.313     182.5742   210.5057   1.0976     0.9932     
  27.3025    2.3988     46.5145    0.3055     0.3251     2.0994     
  2.4054     2.5409     2.6126     2.6204     2.5839     2.7043     
  1.8518     1.1322     0.5148     -120.2373  1          0.3518     
  0.1308    
382.5      
  0.1326     1.5451     2.104      2.321      2.5571     2.498      
  215.9      216.402    215.819    216.11     567.901    1782.9503  
  452.9858   80.3916    182.961    211.0926   0.8225     0.7267     
  27.3086    2.3995     53.6314    0.3155     0.3363     2.0789     
  2.4188     2.551      2.6235     2.6265     2.5896     2.7095     
  1.8492     1.0949     0.5129     -120.7064  1          0.3653     
  0.1382    
382.6      
  0.1326     1.5613     2.1383     2.3681     2.6306     2.5706     
  215.9      216.4318   215.8307   216.1308   551.8471   1776.8313  
  454.5264   81.2695    183.3301   211.3978   0.6875     0.6073     
  27.3146    2.3745     62.8443    0.3271     0.3488     2.0577     
  2.1756     2.2898     2.3548     2.3574     2.3259     2.4242     
  1.6903     0.93       0.5132     -121.0887  1          0.3814     
  0.1443    
382.7      
  0.1326     1.5398     2.0837     2.2919     2.5883     2.5283     
  215.9      216.7574   215.9583   216.3578   527.1075   1772.4126  
  458.944    82.389     183.6961   211.6795   0.667      0.5891     
  27.3169    2.3347     76.15309999999999 0.3417     0.364      2.0392     
  2.1375     2.2597     2.324      2.3249     2.293      2.3969     
  1.6553     0.8463     0.5152     -121.3624  1          0.4115     
  0.1486    
