~Version
 VERS              .         2.0                           : CWLS LOG ASCII STANDARD - VERSION 2.0
 WRAP              .         YES                            : ONE LINE PER DEPTH STEP
 DLM               .         SPACE                         : DELIMITING CHARACTER(SPACE TAB OR COMMA)
~Well Information
#_______________________________________________________________________________
#
#PARAMETER_NAME    .UNIT     VALUE                         : DESCRIPTION
#_______________________________________________________________________________
STRT               .M        0                             : First reference value
STOP               .M        750                           : Last reference value
STEP               .M        0.1                           : Step increment
NULL               .         -999.25                       : Missing value
COMP               .         COMPANY                       : Company
WELL               .         355                           : Well name
FLD                .         Field Name                    : Field
LOC                .         Location                      : Location
CNTY               .                                       : County
STAT               .                                       : State
CTRY               .                                       : Country
SRVC               .         SCH                           : Service Company
DATE               .         22.09.2024                    : Date
API                .                                       : API number
APDAT              .         136.988                       : Elevation Above Permanent Datum
BHS                .         OPEN                          : Completion Status
COUNT              .         Kazakhstan                    : Country
DF                 .         136.988                       : DF Elevation
DRMEA              .         DF                            : Drill Measured From
EPDAT              .         0                             : Elevation of Permanent Datum
GL                 .         131.788                       : GL Elevation
KB                 .         0                             : KB Elevation
LGMEA              .         DF                            : Log Measured from
LATI               .         47.93162                      : Latitude/Northing
LONG               .         56.55725                      : Longitude/Easting
ORIGINALWELLNAME   .         355                           : 
PDAT               .         MSL                           : Permanent Datum
RWS                .         -999                          : Def_Rw
STATE              .         1_500 / 1_200                 : State
WST                .         -999                          : Def_Rwt
~Parameter Information Block
#_______________________________________________________________________________
#
#PARAMETER_NAME    .UNIT     VALUE                         : DESCRIPTION
#_______________________________________________________________________________
SET                .         model                         : 
TLFamily_AHMF      .                                       : 
TLFamily_AT10      .         Resistivity - Medium          : 
TLFamily_AT20      .         Resistivity (Array)           : 
TLFamily_AT30      .         Resistivity (Array)           : 
TLFamily_AT60      .         Resistivity (Array)           : 
TLFamily_AT90      .         Resistivity - Deep            : 
TLFamily_BSC       .         Bit Size                      : 
TLFamily_C1        .         Caliper 1                     : 
TLFamily_C2        .         Caliper 2                     : 
TLFamily_CALI      .         Caliper                       : 
TLFamily_CFTC      .         Neutron Far                   : 
TLFamily_CNTC      .         Neutron Near                  : 
TLFamily_DEPTH     .         Measured Depth                : 
TLFamily_DT        .         Compressional Slowness        : 
TLFamily_GR        .         Gamma Ray                     : 
TLFamily_HAZIM     .         Hole Azimuth                  : 
TLFamily_HCAL      .         Caliper                       : 
TLFamily_HMIN      .                                       : 
TLFamily_HMNO      .                                       : 
TLFamily_MTEM_FILT .         Temperature                   : 
TLFamily_PEFZ      .         Photoelectric Factor          : 
TLFamily_PHIE      .         Effective Porosity            : 
TLFamily_PHIT      .         Total Porosity                : 
TLFamily_Perm      .         Permeability                  : 
TLFamily_RHOZ      .         Bulk Density                  : 
TLFamily_RLA1      .         Resistivity (Array)           : 
TLFamily_RLA2      .         Resistivity (Array)           : 
TLFamily_RLA3      .         Resistivity (Array)           : 
TLFamily_RLA4      .         Resistivity (Array)           : 
TLFamily_RLA5      .         Resistivity (Array)           : 
TLFamily_RT        .         Resistivity - True Formation  : 
TLFamily_RXO       .         Resistivity - Flushed Zone    : 
TLFamily_RXOZ      .         Resistivity - Flushed Zone    : 
TLFamily_SDEVM     .         Sonde Deviation               : 
TLFamily_SP        .         Spontaneous Potential         : 
TLFamily_SW        .         Water Saturation              : 
TLFamily_TNPH      .         Neutron Porosity              : 
TLFamily_VCLAV     .         Clay Volume Fraction          : 
~Curve Information
#_______________________________________________________________________________
#
#LOGNAME           .UNIT     LOG_ID                        : DESCRIPTION
#_______________________________________________________________________________
DEPTH              .M                                      : Depth 
AHMF               .ohm.m                                  : 21 Array Induction Mud Resistivity Fully Calibrated 
AT10               .ohm.m                                  : MedRes     30 Array Induction Two Foot Resistivity A10 
AT20               .ohm.m                                  : MedRes     31 Array Induction Two Foot Resistivity A20 
AT30               .ohm.m                                  : MedRes     32 Array Induction Two Foot Resistivity A30 
AT60               .ohm.m                                  : DeepRes    33 Array Induction Two Foot Resistivity A60 
AT90               .ohm.m                                  : XDeepRes   34 Array Induction Two Foot Resistivity A90 
BSC                .mm                                     : 20 Nominal Caliper 
C1                 .mm                                     : 17 CALIPER DIAMETER 1 
C2                 .mm                                     : 18 CALIPER DIAMETER 2 
CALI               .mm                                     : Caliper    19 
CFTC               .1/s                                    : 7 Corrected Far Thermal Count Rate 
CNTC               .1/s                                    : Neutron    8 Corrected Near Thermal Count Rate 
DT                 .uSec/m                                 : Sonic      12 Sonic travel time 
GR                 .gAPI                                   : GammaRay   9 Gamma Ray 
HAZIM              .deg                                    : Azimuth    13 Hole Azimuth 
HCAL               .mm                                     : 16 HRCC Caliper Calibrated 
HMIN               .ohm.m                                  : 2 HIP Micro Inverse Resistivity 
HMNO               .ohm.m                                  : 3 HIP Micro Normal Resistivity 
MTEM_FILT          .degC                                   : 10 Filtered Mud Temperature 
PEFZ               .B/E                                    : PEF        4 Formation Photoelectric Factor 
Perm               .md                                     : perm 
PHIE               .Dec                                    : Phi 
PHIT               .Dec                                    : PhiT 
RHOZ               .g/cm3                                  : Density    5 Bulk Density 
RLA1               .ohm.m                                  : ShalRes    22 HRLT Borehole Corrected Resistivity 1 
RLA2               .ohm.m                                  : MedRes     23 HRLT Borehole Corrected Resistivity 2 
RLA3               .ohm.m                                  : DeepRes    24 HRLT Borehole Corrected Resistivity 3 
RLA4               .ohm.m                                  : XDeepRes   25 HRLT Borehole Corrected Resisitivity 4 
RLA5               .ohm.m                                  : UltraDeepR 26 HRLT Borehole Corrected Resistivity 5 
RT                 .ohm.m                                  : 27 HRLT True Formation Resistivity 
RXO                .ohm.m                                  : 28 HRLT Invaded Zone Resistivity 
RXOZ               .ohm.m                                  : MicroRes   6 Invaded Formation Resistivity filtered at 18 inches 
SDEVM              .deg                                    : 15 Sonde Deviation 
SP                 .mV                                     : SP         36 Spontaneous Potential 
SW                 .Dec                                    : Sw 
TNPH               .v/v                                    : Neutron    11 Compensated Neutron Porosity 
VCLAV              .Dec                                    : Vcl 
~Ascii
# ...
662.7      
  0.1198     1.539      1.4053     1.3711     1.3765     1.3521     
  215.9      222.4778   220.7082   221.5912   807.8673   2236.1909  
  313.2895   67.7816    131.8354   217.5488   1.8282     1.8019     
  31.3823    1.8839     1.067      0.1295     0.175      2.3449     
  1.9662     1.8734     1.8477     1.7933     1.7205     1.5323     
  2.6259     2.7516     0.1468     -136.2657  1          0.2922     
  0.3027    
662.8      
  0.1198     1.5382     1.4347     1.4002     1.4018     1.3908     
  215.9      221.1628   221.3167   221.2397   797.3348   2229.7527  
  316.8392   67.4436    131.6766   216.0815   2.3125     2.1888     
  31.3823    1.8803     1.4784     0.1395     0.1844     2.3448     
  1.9973     1.9154     1.8847     1.8269     1.7531     1.5727     
  2.6697     2.8792     0.144      -135.992   1          0.2977     
  0.2994    
662.9      
  0.1198     1.5036     1.4202     1.3996     1.4035     1.3984     
  215.9      219.7744   219.612    219.6927   767.5028   2202.7383  
  321.4215   66.2773    131.4661   214.6611   2.0818     1.8455     
  31.3823    1.8808     2.3891     0.1556     0.1988     2.3447     
  1.8028     1.7323     1.7        1.6538     1.5906     1.4366     
  2.4104     2.7135     0.1427     -135.6463  1          0.3113     
  0.2881    
663        
  0.1197     1.4508     1.3834     1.3608     1.35       1.3686     
  215.9      219.5794   218.4477   219.0129   727.3381000000001 2152.4443  
  329.1428   73.3936    132.0435   214.5238   1.7477     1.5476     
  31.3823    1.8867     0.9261     0.1254     0.1814     2.3446     
  1.6207     1.5599     1.5296     1.4931     1.4387     1.3084     
  2.1711     2.2804     0.1435     -135.2387  1          0.3291     
  0.3728    
663.1      
  0.1195     1.3803     1.3335     1.3015     1.2841     1.3182     
  215.9      219.2553   217.4385   218.3449   681.8067   2082.5662  
  336.4948   79.3341    132.5454   213.3229   1.5613     1.3821     
  31.3823    1.8839     0.0616     0.0677     0.1432     2.35       
  1.533      1.4626     1.4318     1.3995     1.3474     1.2037     
  2.0523     2.1109     0.1453     -134.7882  1          0.3482     
  0.5027    
663.2      
  0.1193     1.3334     1.2895     1.2479     1.2449     1.2754     
  215.9      218.5933   216.6456   217.6174   630.2232   1990.2557  
  343.3381   83.6958    132.9396   212.1874   1.5819     1.4004     
  31.3823    1.891      0.0014     0.0287     0.1184     2.349      
  1.5151     1.4413     1.4127     1.3825     1.33       1.1866     
  2.0229     2.0189     0.1483     -134.3196  1          0.3689     
  0.5981    
663.3      
  0.1193     1.2919     1.2541     1.2058     1.2033     1.2532     
  215.9      218.7641   216.6935   217.7263   615.5151   1917.0507  
  344.5295   87.9056    132.5228   212.2664   1.6329     1.4456     
  31.3823    1.9181     0          0.0001000  0.1036     2.3417     
  1.5152     1.4263     1.3976     1.3705     1.3154     1.154      
  2.0023     1.9341     0.1521     -133.8587  1          0.3609     
  0.6902    
663.4      
  0.1193     1.2587     1.2234     1.1713     1.18       1.2142     
  215.9      218.6421   216.833    217.7353   605.4101000000001 1871.7147  
  344.1066   90.6845    132.3827   212.6185   1.4971     1.325      
  31.3823    1.9337     0          0.0001000  0.111      2.3404     
  1.4543     1.3633     1.3369     1.3147     1.2592     1.1015     
  1.9137     1.9097     0.1569     -133.4298  1          0.3571     
  0.739     
663.5      
  0.1194     1.2349     1.199      1.1458     1.1644     1.1758     
  215.9      217.7424   216.8505   217.2965   597.9348   1864.4141  
  341.9727   91.4206    132.7288   212.2664   1.4128     1.2502     
  31.3823    1.9444     0          0.0001000  0.1121     2.3391     
  1.4282     1.3338     1.3055     1.2892     1.2295     1.0667     
  1.8724     1.8048     0.163      -133.0527  1          0.3624     
  0.7466    
663.6      
  0.1195     1.2311     1.1985     1.1401     1.1596     1.1506     
  215.9      217.4533   217.0246   217.2394   616.1974   1897.5406  
  336.8923   91.4124    132.5432   212.5481   1.3707     1.2128     
  31.3827    1.9654     0          0.0001000  0.1121     2.3337     
  1.4665     1.3764     1.3456     1.3329     1.2677     1.11       
  1.9272     1.8274     0.1677     -132.7428  1          0.3547     
  0.7465    
663.7      
  0.1198     1.2539     1.2204     1.1556     1.1682     1.15       
  215.9      218.0275   217.174    217.6003   646.2147   1944.0763  
  327.6786   88.4084    131.6906   210.5057   1.4537     1.2894     
  31.3829    1.9654     0          0.0001000  0.1053     2.3348     
  1.5001     1.4154     1.3846     1.3732     1.3022     1.1513     
  1.9759     2.0008     0.1731     -132.5119  1          0.3409     
  0.7012    
663.8      
  0.12       1.3136     1.2752     1.2074     1.2049     1.1907     
  215.9      219.9714   217.3522   218.6576   690.8895   2004.6493  
  311.8309   80.2588    129.781    213.6985   1.7171     1.5595     
  31.3829    1.9605     0          0.0001000  0.0786     2.3464     
  1.57       1.4848     1.4567     1.4438     1.367      1.2177     
  2.0679     2.1021     0.1799     -132.3696  1          0.3195     
  0.5229    
663.9      
  0.1201     1.3952     1.335      1.2591     1.2527     1.2327     
  215.9      220.3236   219.1372   219.729    787.0214   2112.7688  
  303.063    71.9134    128.2742   213.3581   1.2506     1.3051     
  31.3826    1.9468     0.1461     0.0824     0.1341     2.3558     
  1.6244     1.5362     1.5125     1.4962     1.4143     1.2612     
  2.141      2.525      0.1809     -132.3244  1          0.2819     
  0.3444    
664        
  0.1201     1.4597     1.3831     1.2929     1.2786     1.2406     
  215.9      220.2408   220.7246   220.4822   885.7785   2217.8906  
  296.5011   63.3478    126.8685   213.4403   1.0673     1.2168     
  31.3823    1.9235     0.6489     0.1157     0.1547     2.365      
  1.8795     1.7774     1.7605     1.7331     1.6375     1.4638     
  2.4787     2.9831     0.1807     -132.3844  1          0.2465     
  0.2603    
664.1      
  0.1201     1.5492     1.4592     1.3747     1.3444     1.3013     
  215.9      220.5038   220.3358   220.4193   968.5626999999999 2296.1826  
  291.8477   54.3748    125.5171   214.8606   1.6435     1.741      
  31.3823    1.8892     1.3154     0.1359     0.1631     2.3799     
  2.2275     2.1126     2.0998     2.0611     1.9473     1.7557     
  2.9331     3.1991     0.1803     -132.5562  1          0.2231     
  0.1819    
664.2      
  0.1202     1.671      1.5499     1.4505     1.4162     1.3772     
  215.9      221.3383   220.4267   220.882    1025.1333  2339.0674  
  294.6061   52.975     124.5324   214.9189   2.2964     2.2162     
  31.3823    1.8573     1.0427     0.1289     0.1545     2.388      
  2.2748     2.1544     2.1491     2.1007     1.984      1.7906     
  2.9763     3.8206     0.1768     -132.8426  1          0.2079     
  0.1706    
664.3      
  0.1203     1.7139     1.5638     1.4594     1.4193     1.3838     
  215.9      221.8274   221.449    221.6368   1049.5894  2363.906   
  300.4871   53.6571    123.6296   216.3514   2.385      2.2795     
  31.3823    1.8312     0.957      0.1264     0.1528     2.3817     
  2.0386     1.9369     1.9314     1.8833     1.7795     1.6083     
  2.6743     3.6232     0.1722     -133.2379  1          0.2027     
  0.1761    
664.4      
  0.1204     1.658      1.5091     1.4122     1.3708     1.3345     
  215.9      220.3377   224.3593   222.3395   1002.4756  2364.1719  
  309.6476   54.5352    122.6824   215.2011   2.2893     2.1265     
  31.3823    1.8166     1.2442     0.1341     0.1616     2.3769     
  1.8254     1.7349     1.7294     1.6847     1.5919     1.4347     
  2.4023     3.3017     0.1665     -133.7241  1          0.2204     
  0.1832    
664.5      
  0.1204     1.5606     1.4312     1.3526     1.3112     1.2811     
  215.9      219.2018   221.6914   220.4424   956.936    2362.1223  
  315.1772   54.7635    122.2225   212.8298   2.0762     1.8878     
  31.3823    1.813      1.7972     0.1458     0.1736     2.3743     
  1.7627     1.6747     1.6645     1.6224     1.5334     1.3729     
  2.3249     3.1287     0.1617     -134.2686  1          0.2391     
  0.1851    
