~Version
 VERS              .         2.0                           : CWLS LOG ASCII STANDARD - VERSION 2.0
 WRAP              .         YES                            : ONE LINE PER DEPTH STEP
 DLM               .         SPACE                         : DELIMITING CHARACTER(SPACE TAB OR COMMA)
~Well Information
#_______________________________________________________________________________
#
#PARAMETER_NAME    .UNIT     VALUE                         : DESCRIPTION
#_______________________________________________________________________________
STRT               .M        0                             : First reference value
STOP               .M        750                           : Last reference value
STEP               .M        0.1                           : Step increment
NULL               .         -999.25                       : Missing value
COMP               .         COMPANY                       : Company
WELL               .         355                           : Well name
FLD                .         Field Name                    : Field
LOC                .         Location                      : Location
CNTY               .                                       : County
STAT               .                                       : State
CTRY               .                                       : Country
SRVC               .         SCH                           : Service Company
DATE               .         22.09.2024                    : Date
API                .                                       : API number
APDAT              .         136.988                       : Elevation Above Permanent Datum
BHS                .         OPEN                          : Completion Status
COUNT              .         Kazakhstan                    : Country
DF                 .         136.988                       : DF Elevation
DRMEA              .         DF                            : Drill Measured From
EPDAT              .         0                             : Elevation of Permanent Datum
GL                 .         131.788                       : GL Elevation
KB                 .         0                             : KB Elevation
LGMEA              .         DF                            : Log Measured from
LATI               .         47.93162                      : Latitude/Northing
LONG               .         56.55725                      : Longitude/Easting
ORIGINALWELLNAME   .         355                           : 
PDAT               .         MSL                           : Permanent Datum
RWS                .         -999                          : Def_Rw
STATE              .         1_500 / 1_200                 : State
WST                .         -999                          : Def_Rwt
~Parameter Information Block
#_______________________________________________________________________________
#
#PARAMETER_NAME    .UNIT     VALUE                         : DESCRIPTION
#_______________________________________________________________________________
SET                .         model                         : 
TLFamily_AHMF      .                                       : 
TLFamily_AT10      .         Resistivity - Medium          : 
TLFamily_AT20      .         Resistivity (Array)           : 
TLFamily_AT30      .         Resistivity (Array)           : 
TLFamily_AT60      .         Resistivity (Array)           : 
TLFamily_AT90      .         Resistivity - Deep            : 
TLFamily_BSC       .         Bit Size                      : 
TLFamily_C1        .         Caliper 1                     : 
TLFamily_C2        .         Caliper 2                     : 
TLFamily_CALI      .         Caliper                       : 
TLFamily_CFTC      .         Neutron Far                   : 
TLFamily_CNTC      .         Neutron Near                  : 
TLFamily_DEPTH     .         Measured Depth                : 
TLFamily_DT        .         Compressional Slowness        : 
TLFamily_GR        .         Gamma Ray                     : 
TLFamily_HAZIM     .         Hole Azimuth                  : 
TLFamily_HCAL      .         Caliper                       : 
TLFamily_HMIN      .                                       : 
TLFamily_HMNO      .                                       : 
TLFamily_MTEM_FILT .         Temperature                   : 
TLFamily_PEFZ      .         Photoelectric Factor          : 
TLFamily_PHIE      .         Effective Porosity            : 
TLFamily_PHIT      .         Total Porosity                : 
TLFamily_Perm      .         Permeability                  : 
TLFamily_RHOZ      .         Bulk Density                  : 
TLFamily_RLA1      .         Resistivity (Array)           : 
TLFamily_RLA2      .         Resistivity (Array)           : 
TLFamily_RLA3      .         Resistivity (Array)           : 
TLFamily_RLA4      .         Resistivity (Array)           : 
TLFamily_RLA5      .         Resistivity (Array)           : 
TLFamily_RT        .         Resistivity - True Formation  : 
TLFamily_RXO       .         Resistivity - Flushed Zone    : 
TLFamily_RXOZ      .         Resistivity - Flushed Zone    : 
TLFamily_SDEVM     .         Sonde Deviation               : 
TLFamily_SP        .         Spontaneous Potential         : 
TLFamily_SW        .         Water Saturation              : 
TLFamily_TNPH      .         Neutron Porosity              : 
TLFamily_VCLAV     .         Clay Volume Fraction          : 
~Curve Information
#_______________________________________________________________________________
#
#LOGNAME           .UNIT     LOG_ID                        : DESCRIPTION
#_______________________________________________________________________________
DEPTH              .M                                      : Depth 
AHMF               .ohm.m                                  : 21 Array Induction Mud Resistivity Fully Calibrated 
AT10               .ohm.m                                  : MedRes     30 Array Induction Two Foot Resistivity A10 
AT20               .ohm.m                                  : MedRes     31 Array Induction Two Foot Resistivity A20 
AT30               .ohm.m                                  : MedRes     32 Array Induction Two Foot Resistivity A30 
AT60               .ohm.m                                  : DeepRes    33 Array Induction Two Foot Resistivity A60 
AT90               .ohm.m                                  : XDeepRes   34 Array Induction Two Foot Resistivity A90 
BSC                .mm                                     : 20 Nominal Caliper 
C1                 .mm                                     : 17 CALIPER DIAMETER 1 
C2                 .mm                                     : 18 CALIPER DIAMETER 2 
CALI               .mm                                     : Caliper    19 
CFTC               .1/s                                    : 7 Corrected Far Thermal Count Rate 
CNTC               .1/s                                    : Neutron    8 Corrected Near Thermal Count Rate 
DT                 .uSec/m                                 : Sonic      12 Sonic travel time 
GR                 .gAPI                                   : GammaRay   9 Gamma Ray 
HAZIM              .deg                                    : Azimuth    13 Hole Azimuth 
HCAL               .mm                                     : 16 HRCC Caliper Calibrated 
HMIN               .ohm.m                                  : 2 HIP Micro Inverse Resistivity 
HMNO               .ohm.m                                  : 3 HIP Micro Normal Resistivity 
MTEM_FILT          .degC                                   : 10 Filtered Mud Temperature 
PEFZ               .B/E                                    : PEF        4 Formation Photoelectric Factor 
Perm               .md                                     : perm 
PHIE               .Dec                                    : Phi 
PHIT               .Dec                                    : PhiT 
RHOZ               .g/cm3                                  : Density    5 Bulk Density 
RLA1               .ohm.m                                  : ShalRes    22 HRLT Borehole Corrected Resistivity 1 
RLA2               .ohm.m                                  : MedRes     23 HRLT Borehole Corrected Resistivity 2 
RLA3               .ohm.m                                  : DeepRes    24 HRLT Borehole Corrected Resistivity 3 
RLA4               .ohm.m                                  : XDeepRes   25 HRLT Borehole Corrected Resisitivity 4 
RLA5               .ohm.m                                  : UltraDeepR 26 HRLT Borehole Corrected Resistivity 5 
RT                 .ohm.m                                  : 27 HRLT True Formation Resistivity 
RXO                .ohm.m                                  : 28 HRLT Invaded Zone Resistivity 
RXOZ               .ohm.m                                  : MicroRes   6 Invaded Formation Resistivity filtered at 18 inches 
SDEVM              .deg                                    : 15 Sonde Deviation 
SP                 .mV                                     : SP         36 Spontaneous Potential 
SW                 .Dec                                    : Sw 
TNPH               .v/v                                    : Neutron    11 Compensated Neutron Porosity 
VCLAV              .Dec                                    : Vcl 
~Ascii
# ...
581.7      
  0.1228     1.213      1.3227     1.3873     1.4522     1.4131     
  215.9      217.0374   215.667    216.3508   513.2207   1770.8832  
  446.9687   58.8638    171.604    209.3318   0.9567     0.8456     
  30.4675    1.8652     120.2814   0.3173     0.3503     2.0477     
  1.349      1.3161     1.3191     1.308      1.2831     1.279      
  1.5446     1.1572     0.2632     -127.069   0.676      0.4313     
  0.2198    
581.8      
  0.1228     1.0904     1.1889     1.206      1.2553     1.2253     
  215.9      217.2188   216.256    216.7369   533.8987   1770.8654  
  444.8349   56.2843    171.5646   209.6253   0.7574     0.6691     
  30.4732    1.8766     104.8706   0.3161     0.3458     2.0486     
  1.2077     1.1742     1.1798     1.1742     1.1553     1.1571     
  1.3314     0.9771     0.2622     -126.9934  0.718      0.4037     
  0.1977    
581.9      
  0.1228     0.9722     1.0695     1.0847     1.1322     1.1039     
  215.9      217.2892   216.1861   216.7371   541.6699   1753.3473  
  444.1279   54.1366    171.4614   209.9187   0.6588     0.5819     
  30.4768    1.8759     92.8497    0.3178     0.3448     2.0502     
  1.0423     1.0109     1.018      1.0153     1.0017     1.0037     
  1.1348     0.8496     0.2626     -126.9118  0.7718     0.3874     
  0.18      
582        
  0.1228     0.8561     0.9443     0.9553     0.9887     0.9656     
  215.9      217.4487   216.0722   216.7595   540.1028   1729.1542  
  443.8611   52.4922    171.3272   210.4705   0.6102     0.539      
  30.4792    1.865      91.45740000000001 0.3212     0.3462     2.0498     
  0.9674     0.9404     0.9446     0.9409999999999999 0.9283     0.9296     
  1.0631     0.7671     0.2635     -126.804   0.7961     0.3806     
  0.1668    
582.1      
  0.1228     0.7772     0.8481     0.8529     0.8798     0.8603     
  215.9      218.1237   217.0816   217.6021   520.6803   1701.9779  
  443.4693   52.1219    171.1586   211.2055   0.5714     0.5047     
  30.4792    1.8528     96.79430000000001 0.3284     0.353      2.0468     
  0.8921     0.871      0.8724     0.8688     0.8594000000000001 0.8622     
  0.9688     0.7703     0.2647     -126.6532  0.8127     0.3945     
  0.1639    
582.2      
  0.1228     0.7463     0.8117     0.8137     0.8325     0.8168     
  215.9      217.9154   217.2028   217.5582   501.7851   1691.673   
  443.1064   52.7022    171.1093   211.163    0.6116     0.5402     
  30.4809    1.8411     105.8189   0.3342     0.3595     2.0471     
  0.8652     0.8537     0.8539     0.8505     0.8426     0.8478     
  0.9202     0.7757     0.266      -126.451   0.8079     0.416      
  0.1685    
582.3      
  0.1226     0.7522     0.8186     0.8216     0.8368     0.8223     
  215.9      217.28     216.9112   217.0956   489.0607   1691.7014  
  442.7452   53.181     171.1476   210.8894   0.6693     0.5912     
  30.4828    1.8395     127.7366   0.3375     0.3634     2.0494     
  0.9526     0.9581     0.959      0.9546     0.947      0.9538     
  0.9673     0.78       0.2672     -126.2012  0.7514     0.4336     
  0.1723    
582.4      
  0.1225     0.7716     0.8296     0.8316     0.8449     0.8285     
  215.9      217.3011   217.2708   217.2859   503.4186   1705.8647  
  442.3349   51.341     171.3515   210.8813   0.6541     0.5778     
  30.4828    1.8502     133.6131   0.3376     0.3612     2.0494     
  0.9839     0.9961     1.0002     0.993      0.9867     0.9918     
  0.9711     0.7964     0.2675     -125.9195  0.7349     0.4189     
  0.1578    
582.5      
  0.1223     0.7834     0.8406     0.8365     0.8483     0.8314     
  215.9      217.5282   216.9203   217.2236   520.6813   1702.9229  
  441.9913   48.9759    171.5914   210.5057   0.6037     0.5333     
  30.4847    1.8648     122.977    0.3371     0.3581     2.0475     
  0.9103     0.9212     0.9288     0.9228     0.9209000000000001 0.9216     
  0.891      0.7754     0.2682     -125.6306  0.7638     0.3954     
  0.1399    
582.6      
  0.1223     0.7709     0.8176     0.809      0.8225     0.8046     
  215.9      217.8625   216.0654   216.9618   538.7903   1691.2631  
  441.8132   46.176     171.8698   210.7991   0.587      0.5185     
  30.4871    1.871      119.5245   0.3372     0.3552     2.0444     
  0.8734     0.8872     0.9001     0.8947000000000001 0.8953     0.8952     
  0.8206     0.7199     0.269      -125.3625  0.7752     0.3686     
  0.1198    
582.7      
  0.1222     0.7442     0.7895     0.7909     0.8008     0.7852     
  215.9      217.8195   215.4864   216.6496   552.0946   1682.9023  
  442.5032   42.3596    172.2759   210.5057   0.552      0.4875     
  30.4871    1.8657     128.0869   0.3424     0.3565     2.0403     
  0.8414     0.8582     0.8746     0.8711     0.8737     0.878      
  0.7416     0.6974     0.2699     -125.1416  0.7743     0.3509     
  0.0942    
582.8      
  0.1221     0.7191     0.7645     0.7649     0.7761     0.7612     
  215.9      217.3962   215.6775   216.5351   543.7401   1694.3673  
  443.2299   42.4958    172.7001   210.8443   0.5304     0.4685     
  30.4879    1.8584     138.8566   0.3487     0.363      2.0362     
  0.8009     0.819      0.8404     0.8399     0.8464     0.8577     
  0.6614     0.6794     0.2711     -124.9893  0.7742     0.365      
  0.0951    
582.9      
  0.1222     0.7035     0.7464     0.7475     0.76       0.7434     
  215.9      216.7035   216.4331   216.5687   522.6308   1719.7458  
  443.9606   45.0202    173.1485   210.5057   0.5311     0.4691     
  30.4891    1.8508     152.9101   0.3549     0.3717     2.0336     
  0.7897     0.8025     0.8264     0.8282     0.8351     0.8455     
  0.6464     0.6715     0.2724     -124.921   0.767      0.3986     
  0.1118    
583        
  0.1222     0.6974     0.7391     0.7382     0.753      0.7335     
  215.9      216.69     216.0312   216.3601   520.8913   1753.1313  
  444.4575   44.7046    173.7381   210.2826   0.5418     0.4785     
  30.4891    1.8562     173.6788   0.3615     0.378      2.0315     
  0.7949     0.8016     0.8275     0.8346     0.8436     0.8528     
  0.6441     0.6824     0.2737     -124.9453  0.7496     0.4135     
  0.1096    
583.1      
  0.1222     0.7026     0.7447     0.7415     0.7595     0.7389     
  215.9      216.69     215.7047   216.1968   518.7527   1770.7404  
  444.5105   45.9091    174.2896   209.9187   0.5644     0.4985     
  30.49      1.8679     179.3924   0.3616     0.3792     2.0318     
  0.8134     0.8172     0.8454     0.8573     0.8689     0.8808     
  0.6393     0.6928     0.2749     -125.0627  0.7376     0.4231     
  0.1179    
583.2      
  0.1222     0.7088     0.7511     0.747      0.7628     0.7425     
  215.9      216.7257   215.5025   216.113    516.7465999999999 1776.2374  
  444.1867   48.2418    174.8048   209.9187   0.569      0.5025     
  30.4916    1.8827     168.2794   0.3567     0.3769     2.0323     
  0.8282     0.8316     0.8585     0.8736     0.8862     0.899      
  0.643      0.6904     0.2761     -125.2641  0.7392     0.4279     
  0.1345    
583.3      
  0.1222     0.7112     0.7548     0.7488     0.7643     0.7433     
  215.9      217.0617   215.489    216.2734   529.1651000000001 1790.9189  
  442.9524   48.4338    175.1157   210.4605   0.5427     0.4793     
  30.4928    1.8955     150.1447   0.3518     0.3722     2.0345     
  0.8023     0.8080000000000001 0.8300999999999999 0.8491     0.8646     
  0.8804999999999999 0.6039     0.6978     0.277      -125.5296  0.7591     
  0.4169     0.1359    
583.4      
  0.1222     0.7107     0.7518     0.7452     0.76       0.7391     
  215.9      217.1748   215.489    216.3304   539.455    1798.6727  
  441.5389   50.0294    175.2396   209.9187   0.5462     0.4825     
  30.4934    1.8898     120.0456   0.3408     0.363      2.0431     
  0.7802     0.7837     0.8048999999999999 0.8262     0.8451     0.86       
  0.5819     0.6967     0.2775     -125.8308  0.7918     0.4064     
  0.1478    
583.5      
  0.1223     0.7111     0.7532     0.7453     0.7582     0.7369     
  215.9      216.983    215.4698   216.2249   547.6997   1799.7701  
  439.9533   52.9736    175.1838   210.1896   0.5729     0.506      
  30.4934    1.8699     84.32250000000001 0.3205     0.3461     2.0526     
  0.7982     0.8042     0.8265     0.8482     0.8711     0.889      
  0.5875     0.712      0.2777     -126.1366  0.8255     0.3965     
  0.1706    
