~Version
 VERS              .         2.0                           : CWLS LOG ASCII STANDARD - VERSION 2.0
 WRAP              .         YES                            : ONE LINE PER DEPTH STEP
 DLM               .         SPACE                         : DELIMITING CHARACTER(SPACE TAB OR COMMA)
~Well Information
#_______________________________________________________________________________
#
#PARAMETER_NAME    .UNIT     VALUE                         : DESCRIPTION
#_______________________________________________________________________________
STRT               .M        0                             : First reference value
STOP               .M        750                           : Last reference value
STEP               .M        0.1                           : Step increment
NULL               .         -999.25                       : Missing value
COMP               .         COMPANY                       : Company
WELL               .         355                           : Well name
FLD                .         Field Name                    : Field
LOC                .         Location                      : Location
CNTY               .                                       : County
STAT               .                                       : State
CTRY               .                                       : Country
SRVC               .         SCH                           : Service Company
DATE               .         22.09.2024                    : Date
API                .                                       : API number
APDAT              .         136.988                       : Elevation Above Permanent Datum
BHS                .         OPEN                          : Completion Status
COUNT              .         Kazakhstan                    : Country
DF                 .         136.988                       : DF Elevation
DRMEA              .         DF                            : Drill Measured From
EPDAT              .         0                             : Elevation of Permanent Datum
GL                 .         131.788                       : GL Elevation
KB                 .         0                             : KB Elevation
LGMEA              .         DF                            : Log Measured from
LATI               .         47.93162                      : Latitude/Northing
LONG               .         56.55725                      : Longitude/Easting
ORIGINALWELLNAME   .         355                           : 
PDAT               .         MSL                           : Permanent Datum
RWS                .         -999                          : Def_Rw
STATE              .         1_500 / 1_200                 : State
WST                .         -999                          : Def_Rwt
~Parameter Information Block
#_______________________________________________________________________________
#
#PARAMETER_NAME    .UNIT     VALUE                         : DESCRIPTION
#_______________________________________________________________________________
SET                .         model                         : 
TLFamily_AHMF      .                                       : 
TLFamily_AT10      .         Resistivity - Medium          : 
TLFamily_AT20      .         Resistivity (Array)           : 
TLFamily_AT30      .         Resistivity (Array)           : 
TLFamily_AT60      .         Resistivity (Array)           : 
TLFamily_AT90      .         Resistivity - Deep            : 
TLFamily_BSC       .         Bit Size                      : 
TLFamily_C1        .         Caliper 1                     : 
TLFamily_C2        .         Caliper 2                     : 
TLFamily_CALI      .         Caliper                       : 
TLFamily_CFTC      .         Neutron Far                   : 
TLFamily_CNTC      .         Neutron Near                  : 
TLFamily_DEPTH     .         Measured Depth                : 
TLFamily_DT        .         Compressional Slowness        : 
TLFamily_GR        .         Gamma Ray                     : 
TLFamily_HAZIM     .         Hole Azimuth                  : 
TLFamily_HCAL      .         Caliper                       : 
TLFamily_HMIN      .                                       : 
TLFamily_HMNO      .                                       : 
TLFamily_MTEM_FILT .         Temperature                   : 
TLFamily_PEFZ      .         Photoelectric Factor          : 
TLFamily_PHIE      .         Effective Porosity            : 
TLFamily_PHIT      .         Total Porosity                : 
TLFamily_Perm      .         Permeability                  : 
TLFamily_RHOZ      .         Bulk Density                  : 
TLFamily_RLA1      .         Resistivity (Array)           : 
TLFamily_RLA2      .         Resistivity (Array)           : 
TLFamily_RLA3      .         Resistivity (Array)           : 
TLFamily_RLA4      .         Resistivity (Array)           : 
TLFamily_RLA5      .         Resistivity (Array)           : 
TLFamily_RT        .         Resistivity - True Formation  : 
TLFamily_RXO       .         Resistivity - Flushed Zone    : 
TLFamily_RXOZ      .         Resistivity - Flushed Zone    : 
TLFamily_SDEVM     .         Sonde Deviation               : 
TLFamily_SP        .         Spontaneous Potential         : 
TLFamily_SW        .         Water Saturation              : 
TLFamily_TNPH      .         Neutron Porosity              : 
TLFamily_VCLAV     .         Clay Volume Fraction          : 
~Curve Information
#_______________________________________________________________________________
#
#LOGNAME           .UNIT     LOG_ID                        : DESCRIPTION
#_______________________________________________________________________________
DEPTH              .M                                      : Depth 
AHMF               .ohm.m                                  : 21 Array Induction Mud Resistivity Fully Calibrated 
AT10               .ohm.m                                  : MedRes     30 Array Induction Two Foot Resistivity A10 
AT20               .ohm.m                                  : MedRes     31 Array Induction Two Foot Resistivity A20 
AT30               .ohm.m                                  : MedRes     32 Array Induction Two Foot Resistivity A30 
AT60               .ohm.m                                  : DeepRes    33 Array Induction Two Foot Resistivity A60 
AT90               .ohm.m                                  : XDeepRes   34 Array Induction Two Foot Resistivity A90 
BSC                .mm                                     : 20 Nominal Caliper 
C1                 .mm                                     : 17 CALIPER DIAMETER 1 
C2                 .mm                                     : 18 CALIPER DIAMETER 2 
CALI               .mm                                     : Caliper    19 
CFTC               .1/s                                    : 7 Corrected Far Thermal Count Rate 
CNTC               .1/s                                    : Neutron    8 Corrected Near Thermal Count Rate 
DT                 .uSec/m                                 : Sonic      12 Sonic travel time 
GR                 .gAPI                                   : GammaRay   9 Gamma Ray 
HAZIM              .deg                                    : Azimuth    13 Hole Azimuth 
HCAL               .mm                                     : 16 HRCC Caliper Calibrated 
HMIN               .ohm.m                                  : 2 HIP Micro Inverse Resistivity 
HMNO               .ohm.m                                  : 3 HIP Micro Normal Resistivity 
MTEM_FILT          .degC                                   : 10 Filtered Mud Temperature 
PEFZ               .B/E                                    : PEF        4 Formation Photoelectric Factor 
Perm               .md                                     : perm 
PHIE               .Dec                                    : Phi 
PHIT               .Dec                                    : PhiT 
RHOZ               .g/cm3                                  : Density    5 Bulk Density 
RLA1               .ohm.m                                  : ShalRes    22 HRLT Borehole Corrected Resistivity 1 
RLA2               .ohm.m                                  : MedRes     23 HRLT Borehole Corrected Resistivity 2 
RLA3               .ohm.m                                  : DeepRes    24 HRLT Borehole Corrected Resistivity 3 
RLA4               .ohm.m                                  : XDeepRes   25 HRLT Borehole Corrected Resisitivity 4 
RLA5               .ohm.m                                  : UltraDeepR 26 HRLT Borehole Corrected Resistivity 5 
RT                 .ohm.m                                  : 27 HRLT True Formation Resistivity 
RXO                .ohm.m                                  : 28 HRLT Invaded Zone Resistivity 
RXOZ               .ohm.m                                  : MicroRes   6 Invaded Formation Resistivity filtered at 18 inches 
SDEVM              .deg                                    : 15 Sonde Deviation 
SP                 .mV                                     : SP         36 Spontaneous Potential 
SW                 .Dec                                    : Sw 
TNPH               .v/v                                    : Neutron    11 Compensated Neutron Porosity 
VCLAV              .Dec                                    : Vcl 
~Ascii
# ...
182.6      
  0.1391     1.1039     1.5137     1.7687     2.2844     2.8994     
  215.9      219.9142   220.8844   220.3985   474.3258056640625 1616.5831  
  507.5631   67.2431    132.3174   216.6566   0.5427     0.4793     
  23.9552    2.0772     47.53860092163086 0.307      0.3489     2.0094     
  1.7988     2.210400104522705 2.282599925994873 2.203999996185303 
  2.077600002288818 2.509599924087524 1.166399955749512 0.6782     0.5129     
  -118.1192  1          0.4178     0.279     
182.7      
  0.139      1.1545     1.5933     1.9199     2.4616     3.4498     
  215.9      220.8861   223.3346   222.1069   474.8883056640625 1606.4371  
  505.6544   67.9647    132.8553   218.2531   0.5414     0.4783     
  23.9599    2.0998     45.57789993286133 0.3041     0.3469     2.0076     
  1.8272     2.269599914550781 2.305900096893311 2.225699901580811 
  2.104700088500977 2.529299974441528 1.197800040245056 0.6768     0.5125     
  -117.8339  1          0.4126     0.2856    
182.8      
  0.1389     1.2261     1.7224     2.059      2.587      3.8626     
  215.9      222.0639   224.157    223.1077   467.4769897460938 1623.718   
  504.5482   68.8016    132.9007   218.9258   0.5386     0.4757     
  23.9599    2.1428     47.42729949951172 0.3069     0.3509     2.0042     
  1.8828     2.242000102996826 2.254300117492676 2.174799919128418 
  2.066499948501587 2.309299945831299 1.391299962997437 0.6807     0.5107     
  -117.6123  1          0.4305     0.2934    
182.9      
  0.1388     1.264      1.8574     2.2003     2.751      3.9405     
  215.9      223.512    224.338    223.9245   465.5863037109375 1659.6486  
  505.6947   69.8216    132.7046   219.1452   0.5475     0.4836     
  23.9618    2.2054     48.95380020141602 0.3091     0.3545     2.0002     
  1.984      2.238399982452393 2.249799966812134 2.16700005531311 
  2.062000036239624 2.160099983215332 1.927700042724609 0.6927     0.5088     
  -117.4554  1          0.4484     0.303     
183        
  0.1387     1.3284     1.8819     2.1449     2.672      3.4056     
  215.9      225.185    224.2729   224.7284   470.1355895996094 1712.8018  
  506.5738   70.8886    132.3261   217.5488   0.5697     0.5032     
  23.965     2.2907     48.96049880981445 0.3091     0.3561     2.0021     
  2.1593     2.300400018692017 2.320899963378906 2.24399995803833 
  2.144500017166138 2.228100061416626 2.243799924850464 0.7047     0.5069     
  -117.3553  1          0.4642     0.3132    
183.1      
  0.1387     1.321      1.848      2.0845     2.5232     3.0352     
  215.9      226.4174   227.3171   226.8662   512.9462890625 1824.1965  
  477.7066   70.6162    131.8264   219.1452   0.5829     0.5148     
  23.9685    2.3956     37.37120056152344 0.2907     0.3373     2.0356     
  2.1374     2.18779993057251 2.209000110626221 2.142499923706055 
  2.060400009155273 2.11929988861084 2.353499889373779 0.7257     0.5062     
  -117.2982  1          0.444      0.3106    
183.2      
  0.1386     1.3016     1.712      2.0147     2.4872     3.0101     
  215.9      226.541    227.6065   227.0724   602.2393798828125 2022.4558  
  447.1738   69.3247    131.2046   223.418    0.5925     0.5234     
  23.9701    2.5433     21.29649925231934 0.2558     0.3006     2.1099     
  1.9453     1.937800049781799 1.947000026702881 1.897500038146973 
  1.829399943351746 1.831200003623962 2.321599960327148 0.8003     0.506      
  -117.2696  1          0.4066     0.2983    
183.3      
  0.1387     1.2725     1.5921     1.7021     1.9809     2.1937     
  215.9      225.2458   224.4518   224.8485   734.2454223632813 2297.8203  
  414.9651   67.1244    130.4761   221.0703   0.6349     0.5862     
  23.9701    2.7702     8.385499954223633 0.207      0.2487     2.2214     
  1.7701     1.759400010108948 1.759799957275391 1.725100040435791 
  1.667400002479553 1.657799959182739 2.153700113296509 1.072      0.5062     
  -117.258   1          0.3535     0.2779    
183.4      
  0.1388     1.244      1.4796     1.5852     1.7384     1.8359     
  215.9      222.6394   220.5646   221.5989   1014.0136  2580.5483  
  363.0907   64.4256    129.9193   215.946    1.0164     1.0269     
  23.9741    3.0938     1.273200035095215 0.1349     0.1729     2.3643     
  2.1068     2.142800092697144 2.142199993133545 2.121999979019165 
  2.056400060653687 2.081599950790405 2.565900087356567 1.641      0.5045     
  -117.2567  1          0.2613     0.2536    
183.5      
  0.1389     1.633      1.7802     1.9534     2.0994     2.2275     
  215.9      220.9681   218.4458   219.7031   1347.0265  2853.6455  
  308.6002   60.2825    129.4623   213.4403   24.7902    22.7511    
  23.9762    3.5033     0          0          0          2.508      
  5.1788     5.573599815368652 5.632199764251709 5.649700164794922 
  5.483200073242188 5.646500110626221 4.699999809265137 3.3069     0.502      
  -117.2654  1          0.1854     0.2179    
183.6      
  0.1389     2.4931     3.1128     3.6119     3.7529     3.7809     
  215.9      220.7953   218.8926   219.8416   1737.7212  3116.3093  
  251.2753   54.5748    129.1136   213.4403   73.7422    66.4425    
  23.9762    3.951      0          0          0          2.612      
  12.5591    14.24720001220703 14.78829956054688 14.98369979858398 
  14.34379959106445 16.35440063476563 8.78279972076416 110.4059   0.4986     
  -117.2908  1          0.1273     0.1721    
183.7      
  0.1389     3.788      5.5801     7.6924     7.4752     7.1546     
  215.9      220.7646   219.2914   220.027    2072.1582  3320.4587  
  229.2888   51.9758    129.2306   213.4403   74.1856    66.8342    
  23.9799    4.3379     0          0          0          2.6904     
  41.4308    52.99029922485352 55.88990020751953 56.01779937744141 
  53.61130142211914 68.16699981689453 24.33239936828613 510.4098   0.4925     
  -117.3476  1          0.1018     0.1526    
183.8      
  0.139      6.0053     8.6485     11.5148    12.2674    9.8176     
  215.9      220.6883   219.2836   219.9849   2288.8677  3497.7939  
  208.305    49.6453    129.4764   213.0646   76.2432    68.6522    
  23.9821    4.6626     0          0          0          2.743      
  95.9782    121.0566024780273 127.5113983154297 125.7136001586914 
  119.2779998779297 145.7586975097656 66.23480224609375 508.4922   0.4856     
  -117.458   1          0.0892     0.1359    
183.9      
  0.1394     9.5601     18.6995    22.7085    18.4087    11.2575    
  215.9      220.5007   218.6826   219.5902   2358.7258  3644.105   
  186.7235   47.4917    129.8614   213.2484   75.8826    68.3336    
  23.9821    4.8906     0          0          0          2.767      
  244.861    324.34521484375 333.6202087402344 334.9018859863281 
  315.4869995117188 313.4247131347656 370.4584045410156 528.3346   0.4775     
  -117.6492  1          0.0912     0.1211    
184        
  0.1397     9.43       34.4436    56.9451    32.8402    10.3327    
  215.9      220.3189   218.5646   219.4406   2323.5703  3644.9468  
  186.5949   47.2354    130.3468   212.9707   74.5144    67.1246    
  23.9846    5.0316     0          0          0          2.7922     
  468.8512   627.6253051757813 627.8037719726563 628.888916015625 
  595.6712036132813 599.5106201171875 755.6677856445313 551.3253   0.4685     
  -117.9475  1          0.0945     0.1193    
184.1      
  0.1401     9.3555     35.2901    101.5499   51.9891    7.8771     
  215.9      220.2652   218.4847   219.3724   2262.9636  3633.5427  
  182.7703   48.1929    130.8637   212.8533   74.1091    66.7664    
  23.9876    5.1153     0          0          0          2.8099     
  586.6512   942.9006958007813 929.3831176757813 945.0006713867188 
  902.3626098632813 918.623779296875 1031.845   588.5104   0.4584     
  -118.3702  1          0.0996     0.1258    
184.2      
  0.1402     9.5885     32.5718    85.14      23.3421    5.9009     
  215.9      220.4135   218.2957   219.3517   2178.7937  3625.4885  
  169.8465   50.7554    131.4142   213.3048   73.5132    66.2397    
  23.9908    5.0919     0          0          0          2.8115     
  618.2809   1111.2048  1079.5824  1119.3756  1074.8821  1086.598   
  1179.9023  660.7938   0.4467     -118.9186  1          0.1074     
  0.1438    
