~Version
 VERS              .         2.0                           : CWLS LOG ASCII STANDARD - VERSION 2.0
 WRAP              .         YES                            : ONE LINE PER DEPTH STEP
 DLM               .         SPACE                         : DELIMITING CHARACTER(SPACE TAB OR COMMA)
~Well Information
#_______________________________________________________________________________
#
#PARAMETER_NAME    .UNIT     VALUE                         : DESCRIPTION
#_______________________________________________________________________________
STRT               .M        0                             : First reference value
STOP               .M        750                           : Last reference value
STEP               .M        0.1                           : Step increment
NULL               .         -999.25                       : Missing value
COMP               .         COMPANY                       : Company
WELL               .         355                           : Well name
FLD                .         Field Name                    : Field
LOC                .         Location                      : Location
CNTY               .                                       : County
STAT               .                                       : State
CTRY               .                                       : Country
SRVC               .         SCH                           : Service Company
DATE               .         22.09.2024                    : Date
API                .                                       : API number
APDAT              .         136.988                       : Elevation Above Permanent Datum
BHS                .         OPEN                          : Completion Status
COUNT              .         Kazakhstan                    : Country
DF                 .         136.988                       : DF Elevation
DRMEA              .         DF                            : Drill Measured From
EPDAT              .         0                             : Elevation of Permanent Datum
GL                 .         131.788                       : GL Elevation
KB                 .         0                             : KB Elevation
LGMEA              .         DF                            : Log Measured from
LATI               .         47.93162                      : Latitude/Northing
LONG               .         56.55725                      : Longitude/Easting
ORIGINALWELLNAME   .         355                           : 
PDAT               .         MSL                           : Permanent Datum
RWS                .         -999                          : Def_Rw
STATE              .         1_500 / 1_200                 : State
WST                .         -999                          : Def_Rwt
~Parameter Information Block
#_______________________________________________________________________________
#
#PARAMETER_NAME    .UNIT     VALUE                         : DESCRIPTION
#_______________________________________________________________________________
SET                .         model                         : 
TLFamily_AHMF      .                                       : 
TLFamily_AT10      .         Resistivity - Medium          : 
TLFamily_AT20      .         Resistivity (Array)           : 
TLFamily_AT30      .         Resistivity (Array)           : 
TLFamily_AT60      .         Resistivity (Array)           : 
TLFamily_AT90      .         Resistivity - Deep            : 
TLFamily_BSC       .         Bit Size                      : 
TLFamily_C1        .         Caliper 1                     : 
TLFamily_C2        .         Caliper 2                     : 
TLFamily_CALI      .         Caliper                       : 
TLFamily_CFTC      .         Neutron Far                   : 
TLFamily_CNTC      .         Neutron Near                  : 
TLFamily_DEPTH     .         Measured Depth                : 
TLFamily_DT        .         Compressional Slowness        : 
TLFamily_GR        .         Gamma Ray                     : 
TLFamily_HAZIM     .         Hole Azimuth                  : 
TLFamily_HCAL      .         Caliper                       : 
TLFamily_HMIN      .                                       : 
TLFamily_HMNO      .                                       : 
TLFamily_MTEM_FILT .         Temperature                   : 
TLFamily_PEFZ      .         Photoelectric Factor          : 
TLFamily_PHIE      .         Effective Porosity            : 
TLFamily_PHIT      .         Total Porosity                : 
TLFamily_Perm      .         Permeability                  : 
TLFamily_RHOZ      .         Bulk Density                  : 
TLFamily_RLA1      .         Resistivity (Array)           : 
TLFamily_RLA2      .         Resistivity (Array)           : 
TLFamily_RLA3      .         Resistivity (Array)           : 
TLFamily_RLA4      .         Resistivity (Array)           : 
TLFamily_RLA5      .         Resistivity (Array)           : 
TLFamily_RT        .         Resistivity - True Formation  : 
TLFamily_RXO       .         Resistivity - Flushed Zone    : 
TLFamily_RXOZ      .         Resistivity - Flushed Zone    : 
TLFamily_SDEVM     .         Sonde Deviation               : 
TLFamily_SP        .         Spontaneous Potential         : 
TLFamily_SW        .         Water Saturation              : 
TLFamily_TNPH      .         Neutron Porosity              : 
TLFamily_VCLAV     .         Clay Volume Fraction          : 
~Curve Information
#_______________________________________________________________________________
#
#LOGNAME           .UNIT     LOG_ID                        : DESCRIPTION
#_______________________________________________________________________________
DEPTH              .M                                      : Depth 
AHMF               .ohm.m                                  : 21 Array Induction Mud Resistivity Fully Calibrated 
AT10               .ohm.m                                  : MedRes     30 Array Induction Two Foot Resistivity A10 
AT20               .ohm.m                                  : MedRes     31 Array Induction Two Foot Resistivity A20 
AT30               .ohm.m                                  : MedRes     32 Array Induction Two Foot Resistivity A30 
AT60               .ohm.m                                  : DeepRes    33 Array Induction Two Foot Resistivity A60 
AT90               .ohm.m                                  : XDeepRes   34 Array Induction Two Foot Resistivity A90 
BSC                .mm                                     : 20 Nominal Caliper 
C1                 .mm                                     : 17 CALIPER DIAMETER 1 
C2                 .mm                                     : 18 CALIPER DIAMETER 2 
CALI               .mm                                     : Caliper    19 
CFTC               .1/s                                    : 7 Corrected Far Thermal Count Rate 
CNTC               .1/s                                    : Neutron    8 Corrected Near Thermal Count Rate 
DT                 .uSec/m                                 : Sonic      12 Sonic travel time 
GR                 .gAPI                                   : GammaRay   9 Gamma Ray 
HAZIM              .deg                                    : Azimuth    13 Hole Azimuth 
HCAL               .mm                                     : 16 HRCC Caliper Calibrated 
HMIN               .ohm.m                                  : 2 HIP Micro Inverse Resistivity 
HMNO               .ohm.m                                  : 3 HIP Micro Normal Resistivity 
MTEM_FILT          .degC                                   : 10 Filtered Mud Temperature 
PEFZ               .B/E                                    : PEF        4 Formation Photoelectric Factor 
Perm               .md                                     : perm 
PHIE               .Dec                                    : Phi 
PHIT               .Dec                                    : PhiT 
RHOZ               .g/cm3                                  : Density    5 Bulk Density 
RLA1               .ohm.m                                  : ShalRes    22 HRLT Borehole Corrected Resistivity 1 
RLA2               .ohm.m                                  : MedRes     23 HRLT Borehole Corrected Resistivity 2 
RLA3               .ohm.m                                  : DeepRes    24 HRLT Borehole Corrected Resistivity 3 
RLA4               .ohm.m                                  : XDeepRes   25 HRLT Borehole Corrected Resisitivity 4 
RLA5               .ohm.m                                  : UltraDeepR 26 HRLT Borehole Corrected Resistivity 5 
RT                 .ohm.m                                  : 27 HRLT True Formation Resistivity 
RXO                .ohm.m                                  : 28 HRLT Invaded Zone Resistivity 
RXOZ               .ohm.m                                  : MicroRes   6 Invaded Formation Resistivity filtered at 18 inches 
SDEVM              .deg                                    : 15 Sonde Deviation 
SP                 .mV                                     : SP         36 Spontaneous Potential 
SW                 .Dec                                    : Sw 
TNPH               .v/v                                    : Neutron    11 Compensated Neutron Porosity 
VCLAV              .Dec                                    : Vcl 
~Ascii
# ...
541.9      
  0.1246     5.0407     5.6953     6.3407     6.8195     7.2935     
  215.9      216.9466   215.4925   216.2181   495.8919   1629.0443  
  431.1139   86.2728    174.4508   210.5508   1.3337     1.5255     
  29.945     2.439      396.233    0.2924     0.3252     2.0699     
  6.8191     6.8497     6.7959     6.6055     6.2247     6.0143     
  9.036899999999999 3.5121     0.4388     -134.6132  0.3111     0.3985     
  0.219     
542        
  0.1247     4.9522     5.5774     6.1876     6.6378     7.0009     
  215.9      216.7967   215.5246   216.1597   487.8358   1646.377   
  431.3316   86.2319    173.7692   210.5057   1.4981     1.6369     
  29.9467    2.4646     420.7943   0.2968     0.3298     2.0777     
  6.688      6.6291     6.5837     6.4019     6.0334     5.7409     
  8.8688     3.5217     0.4412     -134.2031  0.3119     0.4167     
  0.2205    
542.1      
  0.1247     4.8811     5.4749     6.0437     6.4862     6.7635     
  215.9      216.6946   215.5263   216.1099   484.3214   1671.6238  
  431.7371   86.9324    173.2154   210.5057   1.3539     1.5361     
  29.9476    2.4948     447.5299   0.3007     0.3341     2.0823     
  6.5686     6.4627     6.4212     6.2607     5.9141     5.6009     
  8.6782     3.4853     0.4434     -133.8613  0.3114     0.4319     
  0.2224    
542.2      
  0.1247     4.8203     5.3479     5.8959     6.3        6.5194     
  215.9      216.7081   215.5124   216.1093   485.1705   1704.4745  
  432.323    88.3453    172.7845   211.0926   1.287      1.4808     
  29.9476    2.5222     483.2431   0.305      0.338      2.087      
  6.492      6.3692     6.3316     6.1838     5.8483     5.5381     
  8.550000000000001 3.4271     0.4455     -133.6165  0.3091     0.4441     
  0.2202    
542.3      
  0.1246     4.7687     5.2675     5.8398     6.2066     6.3847     
  215.9      216.8813   215.7013   216.2908   502.4807   1737.1346  
  425.3799   89.1694    172.5733   211.3522   1.2891     1.4683     
  29.9492    2.5597     418.419    0.2984     0.3314     2.0935     
  6.4212     6.3199     6.2735     6.1482     5.8139     5.5478     
  8.4024     3.2907     0.448      -133.4856  0.3166     0.4322     
  0.2202    
542.4      
  0.1246     4.7534     5.2729     5.8592     6.2297     6.355      
  215.9      217.0744   215.83     216.4516   526.1254   1766.597   
  416.9887   90.8608    172.4212   211.0926   1.1829     1.3613     
  29.95      2.6016     316.4464   0.286      0.3193     2.1061     
  6.3074     6.2098     6.1844     6.0635     5.7452     5.5204     
  8.1906     3.4612     0.4501     -133.4736  0.3317     0.412      
  0.2218    
542.5      
  0.1246     5.1531     5.506      6.0518     6.436      6.5286     
  215.9      217.1876   215.7928   216.4888   557.011    1792.3083  
  406.9868   93.5773    172.336    211.163    1.1659     1.3787     
  29.95      2.6347     208.6386   0.2654     0.2995     2.1264     
  6.6039     6.5078     6.4953     6.3815     6.0465     5.8325     
  8.5746     3.8355     0.4515     -133.5762  0.3463     0.3826     
  0.228     
542.6      
  0.1245     5.617      6.149      6.794      7.2808     7.3175     
  215.9      216.589    215.4222   216.0051   588.7528   1817.3975  
  400.2547   93.6373    172.2773   211.2732   1.3595     1.6509     
  29.9523    2.6601     150.7291   0.2435     0.2794     2.1467     
  7.9582     7.8825     7.9143     7.7877     7.3831     7.2513     
  10.0809    4.3669     0.4534     -133.7826  0.3372     0.357      
  0.2395    
542.7      
  0.1245     6.2571     6.8641     7.5859     8.1719     8.0572     
  215.9      216.1944   215.0822   215.6377   614.3326   1839.5889  
  391.4465   94.1919    172.2388   212.2664   2.6075     2.664      
  29.9536    2.6837     129.768    0.2284     0.2655     2.1573     
  9.8967     9.851800000000001 9.9641     9.8131     9.317500000000001 
  9.3767     11.7772    4.7265     0.4549     -134.0773  0.3159     
  0.3381     0.247     
542.8      
  0.1244     6.9618     7.9865     9.1012     9.9606     9.5931     
  215.9      216.3876   214.8975   215.641    631.3277   1857.834   
  379.4828   95.6639    172.2259   210.5057   2.4496     2.4455     
  29.9536    2.6819     106.558    0.2213     0.259      2.1604     
  9.8831     9.8535     9.973000000000001 9.8286     9.3445     
  9.510199999999999 11.2223    4.9532     0.456      -134.4402  0.325      
  0.3278     0.2513    
542.9      
  0.1244     6.8203     7.9049     9.2029     10.0785    9.5374     
  215.9      216.5634   214.6517   215.6055   624.3751   1870.5842  
  372.7886   95.7893    172.4746   210.5057   1.8538     1.9659     
  29.956     2.6606     98.142     0.225      0.263      2.1617     
  8.2703     8.289999999999999 8.3782     8.269299999999999 7.8598     
  8.0053     9.4274     4.8137     0.457      -134.8456  0.3513     
  0.338      0.2536    
543        
  0.1245     6.4516     7.7471     8.7997     9.5889     8.889      
  215.9      216.6202   214.4017   215.5084   617.4811999999999 1873.5538  
  369.0974   95.4659    172.7061   210.0831   1.7095     1.8945     
  29.9576    2.6319     98.0904    0.2258     0.2645     2.1649     
  8.0488     8.0885     8.193099999999999 8.0938     7.7006     7.8597     
  9.138      4.7447     0.4573     -135.2626  0.3541     0.3452     
  0.2582    
543.1      
  0.1246     6.4093     7.4646     8.5471     9.2148     8.5854     
  215.9      216.4601   214.2118   215.333    615.7268   1861.0264  
  369.4108   94.6619    172.8535   210.0993   1.9088     2.0977     
  29.9576    2.5958     129.9048   0.2317     0.2675     2.166      
  8.9219     8.983499999999999 9.117100000000001 9.0168     8.589399999999999 
  8.795199999999999 9.937200000000001 5.1303     0.4565     -135.6582  
  0.3257     0.3431     0.2387    
543.2      
  0.1247     6.5171     7.8181     8.8994     9.6688     8.8387     
  215.9      216.5568   214.3266   215.4392   600.1116   1836.3851  
  375.4388   93.2885    173.0629   210.1065   1.9387     2.1787     
  29.9596    2.5641     321.8446   0.2629     0.288      2.1626     
  9.9218     9.9488     10.1077    10.0301    9.5404     9.7758     
  10.9045    5.4284     0.4554     -136.0028  0.2731     0.3509     
  0.168     
543.3      
  0.1248     6.61       8.528      10.0349    10.809     9.8138     
  215.9      216.69     214.485    215.585    586.8896   1817.4072  
  383.7425   91.0163    173.2844   210.0767   2.2596     2.4002     
  29.962     2.5422     779.006    0.3005     0.313      2.1532     
  10.3253    10.3244    10.4974    10.4349    9.9239     10.2289    
  10.7938    4.884      0.4543     -136.2774  0.2356     0.3582     
  0.0839    
543.4      
  0.125      6.1145     8.2806     10.127     11.0182    10.3655    
  215.9      216.7967   214.5773   215.6844   584.3635   1815.3669  
  394.569    87.0648    173.5064   210.1535   1.6771     1.8474     
  29.9642    2.5318     740.7568   0.3087     0.3211     2.1297     
  8.4392     8.415699999999999 8.539899999999999 8.5014     8.088100000000001 
  8.317500000000001 8.952      4.3147     0.4529     -136.476   0.2565     
  0.3601     0.0827    
543.5      
  0.1251     5.4889     7.0953     8.4759     9.3793     9.1946     
  215.9      217.8704   215.5061   216.6847   564.8921   1801.8594  
  404.8464   86.3726    173.7263   211.1278   1.2461     1.4494     
  29.9647    2.5146     513.9362   0.3006     0.3226     2.1024     
  7.0715     7.0308     7.1096     7.0803     6.7357     6.8729     
  7.8419     3.7103     0.4516     -136.6056  0.2903     0.3772     
  0.1464    
543.6      
  0.1251     5.1884     6.1145     6.923      7.6137     7.5581     
  215.9      218.8144   216.3223   217.5644   546.9559   1781.9678  
  415.5855   86.5066    173.9896   212.2664   1.2154     1.3969     
  29.9653    2.4902     560.5463999999999 0.3094     0.3324     2.0837     
  6.4822     6.4577     6.5012     6.4762     6.1686     6.2654     
  7.3605     3.248      0.4501     -136.681   0.2963     0.3904     
  0.1535    
