~Version
 VERS              .         2.0                           : CWLS LOG ASCII STANDARD - VERSION 2.0
 WRAP              .         YES                            : ONE LINE PER DEPTH STEP
 DLM               .         SPACE                         : DELIMITING CHARACTER(SPACE TAB OR COMMA)
~Well Information
#_______________________________________________________________________________
#
#PARAMETER_NAME    .UNIT     VALUE                         : DESCRIPTION
#_______________________________________________________________________________
STRT               .M        0                             : First reference value
STOP               .M        750                           : Last reference value
STEP               .M        0.1                           : Step increment
NULL               .         -999.25                       : Missing value
COMP               .         COMPANY                       : Company
WELL               .         355                           : Well name
FLD                .         Field Name                    : Field
LOC                .         Location                      : Location
CNTY               .                                       : County
STAT               .                                       : State
CTRY               .                                       : Country
SRVC               .         SCH                           : Service Company
DATE               .         22.09.2024                    : Date
API                .                                       : API number
APDAT              .         136.988                       : Elevation Above Permanent Datum
BHS                .         OPEN                          : Completion Status
COUNT              .         Kazakhstan                    : Country
DF                 .         136.988                       : DF Elevation
DRMEA              .         DF                            : Drill Measured From
EPDAT              .         0                             : Elevation of Permanent Datum
GL                 .         131.788                       : GL Elevation
KB                 .         0                             : KB Elevation
LGMEA              .         DF                            : Log Measured from
LATI               .         47.93162                      : Latitude/Northing
LONG               .         56.55725                      : Longitude/Easting
ORIGINALWELLNAME   .         355                           : 
PDAT               .         MSL                           : Permanent Datum
RWS                .         -999                          : Def_Rw
STATE              .         1_500 / 1_200                 : State
WST                .         -999                          : Def_Rwt
~Parameter Information Block
#_______________________________________________________________________________
#
#PARAMETER_NAME    .UNIT     VALUE                         : DESCRIPTION
#_______________________________________________________________________________
SET                .         model                         : 
TLFamily_AHMF      .                                       : 
TLFamily_AT10      .         Resistivity - Medium          : 
TLFamily_AT20      .         Resistivity (Array)           : 
TLFamily_AT30      .         Resistivity (Array)           : 
TLFamily_AT60      .         Resistivity (Array)           : 
TLFamily_AT90      .         Resistivity - Deep            : 
TLFamily_BSC       .         Bit Size                      : 
TLFamily_C1        .         Caliper 1                     : 
TLFamily_C2        .         Caliper 2                     : 
TLFamily_CALI      .         Caliper                       : 
TLFamily_CFTC      .         Neutron Far                   : 
TLFamily_CNTC      .         Neutron Near                  : 
TLFamily_DEPTH     .         Measured Depth                : 
TLFamily_DT        .         Compressional Slowness        : 
TLFamily_GR        .         Gamma Ray                     : 
TLFamily_HAZIM     .         Hole Azimuth                  : 
TLFamily_HCAL      .         Caliper                       : 
TLFamily_HMIN      .                                       : 
TLFamily_HMNO      .                                       : 
TLFamily_MTEM_FILT .         Temperature                   : 
TLFamily_PEFZ      .         Photoelectric Factor          : 
TLFamily_PHIE      .         Effective Porosity            : 
TLFamily_PHIT      .         Total Porosity                : 
TLFamily_Perm      .         Permeability                  : 
TLFamily_RHOZ      .         Bulk Density                  : 
TLFamily_RLA1      .         Resistivity (Array)           : 
TLFamily_RLA2      .         Resistivity (Array)           : 
TLFamily_RLA3      .         Resistivity (Array)           : 
TLFamily_RLA4      .         Resistivity (Array)           : 
TLFamily_RLA5      .         Resistivity (Array)           : 
TLFamily_RT        .         Resistivity - True Formation  : 
TLFamily_RXO       .         Resistivity - Flushed Zone    : 
TLFamily_RXOZ      .         Resistivity - Flushed Zone    : 
TLFamily_SDEVM     .         Sonde Deviation               : 
TLFamily_SP        .         Spontaneous Potential         : 
TLFamily_SW        .         Water Saturation              : 
TLFamily_TNPH      .         Neutron Porosity              : 
TLFamily_VCLAV     .         Clay Volume Fraction          : 
~Curve Information
#_______________________________________________________________________________
#
#LOGNAME           .UNIT     LOG_ID                        : DESCRIPTION
#_______________________________________________________________________________
DEPTH              .M                                      : Depth 
AHMF               .ohm.m                                  : 21 Array Induction Mud Resistivity Fully Calibrated 
AT10               .ohm.m                                  : MedRes     30 Array Induction Two Foot Resistivity A10 
AT20               .ohm.m                                  : MedRes     31 Array Induction Two Foot Resistivity A20 
AT30               .ohm.m                                  : MedRes     32 Array Induction Two Foot Resistivity A30 
AT60               .ohm.m                                  : DeepRes    33 Array Induction Two Foot Resistivity A60 
AT90               .ohm.m                                  : XDeepRes   34 Array Induction Two Foot Resistivity A90 
BSC                .mm                                     : 20 Nominal Caliper 
C1                 .mm                                     : 17 CALIPER DIAMETER 1 
C2                 .mm                                     : 18 CALIPER DIAMETER 2 
CALI               .mm                                     : Caliper    19 
CFTC               .1/s                                    : 7 Corrected Far Thermal Count Rate 
CNTC               .1/s                                    : Neutron    8 Corrected Near Thermal Count Rate 
DT                 .uSec/m                                 : Sonic      12 Sonic travel time 
GR                 .gAPI                                   : GammaRay   9 Gamma Ray 
HAZIM              .deg                                    : Azimuth    13 Hole Azimuth 
HCAL               .mm                                     : 16 HRCC Caliper Calibrated 
HMIN               .ohm.m                                  : 2 HIP Micro Inverse Resistivity 
HMNO               .ohm.m                                  : 3 HIP Micro Normal Resistivity 
MTEM_FILT          .degC                                   : 10 Filtered Mud Temperature 
PEFZ               .B/E                                    : PEF        4 Formation Photoelectric Factor 
Perm               .md                                     : perm 
PHIE               .Dec                                    : Phi 
PHIT               .Dec                                    : PhiT 
RHOZ               .g/cm3                                  : Density    5 Bulk Density 
RLA1               .ohm.m                                  : ShalRes    22 HRLT Borehole Corrected Resistivity 1 
RLA2               .ohm.m                                  : MedRes     23 HRLT Borehole Corrected Resistivity 2 
RLA3               .ohm.m                                  : DeepRes    24 HRLT Borehole Corrected Resistivity 3 
RLA4               .ohm.m                                  : XDeepRes   25 HRLT Borehole Corrected Resisitivity 4 
RLA5               .ohm.m                                  : UltraDeepR 26 HRLT Borehole Corrected Resistivity 5 
RT                 .ohm.m                                  : 27 HRLT True Formation Resistivity 
RXO                .ohm.m                                  : 28 HRLT Invaded Zone Resistivity 
RXOZ               .ohm.m                                  : MicroRes   6 Invaded Formation Resistivity filtered at 18 inches 
SDEVM              .deg                                    : 15 Sonde Deviation 
SP                 .mV                                     : SP         36 Spontaneous Potential 
SW                 .Dec                                    : Sw 
TNPH               .v/v                                    : Neutron    11 Compensated Neutron Porosity 
VCLAV              .Dec                                    : Vcl 
~Ascii
# ...
462.3      
  0.1284     1.9378     2.1427     2.1688     2.2962     2.2954     
  215.9      218.2495   235.2363   226.5838   341.0778   1209.9373  
  516.5636   79.614     179.002    226.5991   0.96       1.0072     
  28.8735    1.7466     0          0.0092     0.1093     1.9503     
  2.6448     2.6466     2.6935     2.7568     2.9635     3.0055     
  1.9216     1.9523     0.8106     -136.7466  1          0.4551     
  0.6672    
462.4      
  0.1283     1.9055     2.1594     2.2012     2.333      2.325      
  215.9      218.4344   237.5125   227.7737   332.2546   1219.7037  
  517.5147   78.3621    178.7487   228.2489   1.0536     1.116      
  28.8735    1.7229     0          0.009      0.1093     1.9478     
  2.7282     2.7373     2.7877     2.8395     3.1147     3.1651     
  2.0008     2.0162     0.8079     -136.7407  1          0.4822     
  0.6687    
462.5      
  0.1282     1.9456     2.2023     2.2448     2.3822     2.3692     
  215.9      218.4198   238.7607   228.3634   318.7975   1234.9395  
  518.223    77.1734    178.4601   230.8016   1.0497     1.151      
  28.8735    1.7074     0.0001     0.0153     0.1114     1.948      
  3.0551     3.0709     3.1237     3.1707     3.5264     3.5903     
  2.2548     2.1394     0.8043     -136.7263  1          0.5257     
  0.6408    
462.6      
  0.128      2.0386     2.261      2.3001     2.4455     2.4219     
  215.9      218.3007   235.4088   226.6934   302.5049   1237.6757  
  512.9943   76.4326    178.3939   229.3108   0.975      1.0784     
  28.8735    1.6851     0.009900000000000001 0.0447     0.1313     1.9482     
  3.2088     3.2198     3.2714     3.3121     3.7084     3.7676     
  2.3661     2.2197     0.8056     -136.6961  1          0.5976     
  0.5774    
462.7      
  0.1279     2.1107     2.3125     2.3449     2.4894     2.4665     
  215.9      218.836    232.6329   225.6282   293.9233   1235.9679  
  510.0076   75.1627    178.306    229.7613   0.9106     1.0121     
  28.8735    1.6647     0.0188     0.0517     0.1369     1.9464     
  3.2178     3.2103     3.2634     3.3049     3.7153     3.7621     
  2.3591     2.2174     0.8052     -136.6395  1          0.6331     
  0.5678    
462.8      
  0.1279     2.2161     2.3618     2.3937     2.5398     2.511      
  215.9      220.201    231.0751   225.572    292.4594   1230.1581  
  509.0906   73.4045    178.1978   223.4406   0.8985     1.0053     
  28.8735    1.6575     0.0008     0.0253     0.1171     1.9414     
  3.2256     3.2149     3.2746     3.3184     3.752      3.8074     
  2.3702     2.2976     0.8034     -136.5442  1          0.635      
  0.6125    
462.9      
  0.1279     2.2594     2.4095     2.4343     2.5798     2.5451     
  215.9      221.7022   231.0906   226.3477   289.0603   1243.9033  
  508.9153   74.2563    177.99     226.3526   1.4417     1.4276     
  28.8735    1.6516     0.0001     0.0145     0.111      1.933      
  3.3073     3.3075     3.3581     3.4267     3.8924     3.9687     
  2.4463     2.2086     0.8049     -136.3986  1          0.6758     
  0.6436    
463        
  0.1279     2.2784     2.4465     2.4613     2.6076     2.5655     
  215.9      221.2824   231.2247   226.1989   289.7084   1260.6027  
  508.1243   74.0297    177.8918   225.8596   1.5695     1.4605     
  28.8735    1.646      0.0008     0.0254     0.1172     1.9255     
  3.2047     3.2146     3.2564     3.3364     3.797      3.8879     
  2.3942     2.3113     0.8055     -136.195   1          0.6951     
  0.6122    
463.1      
  0.1278     2.2639     2.475      2.478      2.6127     2.567      
  215.9      218.3914   231.2472   224.7275   294.9424   1280.4105  
  506.6305   72.5575    177.9181   225.0659   1.324      1.2876     
  28.8735    1.6466     0.1046     0.0764     0.1575     1.9298     
  2.978      2.9987     3.0509     3.1341     3.5632     3.702      
  2.3084     2.1695     0.8051     -135.9336  1          0.6896     
  0.5404    
463.2      
  0.1277     2.253      2.4594     2.4649     2.6063     2.5491     
  215.9      218.5856   231.2642   224.8356   292.2876   1300.5635  
  502.7306   74.339     177.9084   225.6835   1.2992     1.2493     
  28.8735    1.6588     0.4692     0.1075     0.1845     1.9459     
  2.9513     2.965      3.0284     3.1156     3.5355     3.6826     
  2.2741     2.0836     0.8067     -135.6236  1          0.7421     
  0.5138    
463.3      
  0.1276     2.2605     2.4642     2.4509     2.5797     2.5213     
  215.9      219.4249   231.6727   225.4657   302.8567   1324.5157  
  499.7897   75.3315    177.9793   226.9396   1.4444     1.3335     
  28.8737    1.6813     0.4936     0.1087     0.1856     1.9664     
  2.9097     2.904      2.9732     3.0638     3.4634     3.5806     
  2.1724     2.2945     0.8081     -135.2823  1          0.7184     
  0.5128    
463.4      
  0.1276     2.3431     2.5474     2.5153     2.6711     2.5892     
  215.9      220.3076   232.7156   226.427    332.3825   1353.6842  
  498.3852   74.9474    178.1647   227.2917   1.7708     1.6202     
  28.8741    1.7173     0.6421     0.1154     0.1916     1.9861     
  3.294      3.2825     3.3726     3.4868     3.9227     4.0801     
  2.4872     2.3466     0.8091     -134.9323  1          0.5843     
  0.5078    
463.5      
  0.1276     2.4339     2.6845     2.6464     2.7953     2.7101     
  215.9      220.4427   233.2706   226.7653   342.5979   1383.4775  
  493.3837   74.0257    178.3964   228.4186   2.2453     1.9897     
  28.8741    1.7458     1.5847     0.1417     0.2151     2.0001     
  3.8529     3.8612     3.9836     4.1283     4.6077     4.838      
  2.8739     2.4619     0.8113     -134.5969  1          0.5673     
  0.4894    
463.6      
  0.1276     2.5555     2.8423     2.7926     2.9279     2.84       
  215.9      219.9169   233.8507   226.7763   353.1503   1407.0973  
  487.9981   74.0978    178.5953   228.9713   1.6291     1.5523     
  28.8741    1.7636     0.8728     0.1238     0.199      2.0091     
  3.6073     3.6161     3.7156     3.8553     4.2329     4.4063     
  2.5921     2.753      0.8129     -134.2976  1          0.5521     
  0.5017    
463.7      
  0.1278     2.5726     2.8989     2.8442     3.0116     2.9005     
  215.9      218.4776   234.754    226.4694   367.9301   1420.0875  
  482.6391   75.9639    178.7292   229.6981   1.3767     1.4071     
  28.8741    1.769      0.1455     0.0824     0.1626     2.0133     
  3.3762     3.4025     3.5007     3.6337     3.9396     4.1161     
  2.4231     2.668      0.8132     -134.0522  1          0.5177     
  0.5348    
463.8      
  0.1281     2.5188     2.8475     2.7885     3.0033     2.8625     
  215.9      217.9957   235.7942   226.7204   354.7904   1417.9893  
  481.565    77.4949    178.945    231.1497   1.5026     1.5272     
  28.8741    1.7605     0.1137     0.0779     0.1587     2.0158     
  3.4036     3.4745     3.5827     3.7238     3.972      4.2047     
  2.4312     2.6434     0.8163     -133.8754  1          0.5592     
  0.539     
463.9      
  0.1283     2.5028     2.791      2.7422     2.975      2.8031     
  215.9      217.9216   236.6922   227.1134   341.9475   1414.1534  
  480.8118   79.4968    179.1018   229.4516   1.3713     1.4306     
  28.8741    1.7502     0.0575     0.0667     0.1492     2.0226     
  3.4321     3.5125     3.6271     3.7604     3.9363     4.1667     
  2.3959     2.8362     0.8205     -133.7787  1          0.5983     
  0.5503    
464        
  0.1283     2.5077     2.762      2.7225     2.9456     2.782      
  215.9      218.0948   237.0156   227.3583   340.2052   1412.2831  
  479.1335   82.6249    179.1026   230.2264   1.2468     1.359      
  28.8741    1.7541     1.8847     0.1474     0.2203     2.0342     
  3.4506     3.5439     3.6624     3.7874     3.9156     4.1442     
  2.3882     2.8385     0.8258     -133.7702  1          0.6038     
  0.4856    
464.1      
  0.1283     2.5053     2.7291     2.7059     2.8891     2.7889     
  215.9      218.1439   236.4639   227.1192   351.1514   1393.6527  
  480.3432   82.537     179.0937   230.4611   1.1291     1.2913     
  28.8741    1.7792     20.4082    0.2533     0.3159     2.0513     
  3.5913     3.6688     3.803      3.91       3.9799     4.1694     
  2.52       2.5918     0.8278     -133.8535  1          0.5532     
  0.4172    
