~Version
 VERS              .         2.0                           : CWLS LOG ASCII STANDARD - VERSION 2.0
 WRAP              .         YES                            : ONE LINE PER DEPTH STEP
 DLM               .         SPACE                         : DELIMITING CHARACTER(SPACE TAB OR COMMA)
~Well Information
#_______________________________________________________________________________
#
#PARAMETER_NAME    .UNIT     VALUE                         : DESCRIPTION
#_______________________________________________________________________________
STRT               .M        0                             : First reference value
STOP               .M        750                           : Last reference value
STEP               .M        0.1                           : Step increment
NULL               .         -999.25                       : Missing value
COMP               .         COMPANY                       : Company
WELL               .         355                           : Well name
FLD                .         Field Name                    : Field
LOC                .         Location                      : Location
CNTY               .                                       : County
STAT               .                                       : State
CTRY               .                                       : Country
SRVC               .         SCH                           : Service Company
DATE               .         22.09.2024                    : Date
API                .                                       : API number
APDAT              .         136.988                       : Elevation Above Permanent Datum
BHS                .         OPEN                          : Completion Status
COUNT              .         Kazakhstan                    : Country
DF                 .         136.988                       : DF Elevation
DRMEA              .         DF                            : Drill Measured From
EPDAT              .         0                             : Elevation of Permanent Datum
GL                 .         131.788                       : GL Elevation
KB                 .         0                             : KB Elevation
LGMEA              .         DF                            : Log Measured from
LATI               .         47.93162                      : Latitude/Northing
LONG               .         56.55725                      : Longitude/Easting
ORIGINALWELLNAME   .         355                           : 
PDAT               .         MSL                           : Permanent Datum
RWS                .         -999                          : Def_Rw
STATE              .         1_500 / 1_200                 : State
WST                .         -999                          : Def_Rwt
~Parameter Information Block
#_______________________________________________________________________________
#
#PARAMETER_NAME    .UNIT     VALUE                         : DESCRIPTION
#_______________________________________________________________________________
SET                .         model                         : 
TLFamily_AHMF      .                                       : 
TLFamily_AT10      .         Resistivity - Medium          : 
TLFamily_AT20      .         Resistivity (Array)           : 
TLFamily_AT30      .         Resistivity (Array)           : 
TLFamily_AT60      .         Resistivity (Array)           : 
TLFamily_AT90      .         Resistivity - Deep            : 
TLFamily_BSC       .         Bit Size                      : 
TLFamily_C1        .         Caliper 1                     : 
TLFamily_C2        .         Caliper 2                     : 
TLFamily_CALI      .         Caliper                       : 
TLFamily_CFTC      .         Neutron Far                   : 
TLFamily_CNTC      .         Neutron Near                  : 
TLFamily_DEPTH     .         Measured Depth                : 
TLFamily_DT        .         Compressional Slowness        : 
TLFamily_GR        .         Gamma Ray                     : 
TLFamily_HAZIM     .         Hole Azimuth                  : 
TLFamily_HCAL      .         Caliper                       : 
TLFamily_HMIN      .                                       : 
TLFamily_HMNO      .                                       : 
TLFamily_MTEM_FILT .         Temperature                   : 
TLFamily_PEFZ      .         Photoelectric Factor          : 
TLFamily_PHIE      .         Effective Porosity            : 
TLFamily_PHIT      .         Total Porosity                : 
TLFamily_Perm      .         Permeability                  : 
TLFamily_RHOZ      .         Bulk Density                  : 
TLFamily_RLA1      .         Resistivity (Array)           : 
TLFamily_RLA2      .         Resistivity (Array)           : 
TLFamily_RLA3      .         Resistivity (Array)           : 
TLFamily_RLA4      .         Resistivity (Array)           : 
TLFamily_RLA5      .         Resistivity (Array)           : 
TLFamily_RT        .         Resistivity - True Formation  : 
TLFamily_RXO       .         Resistivity - Flushed Zone    : 
TLFamily_RXOZ      .         Resistivity - Flushed Zone    : 
TLFamily_SDEVM     .         Sonde Deviation               : 
TLFamily_SP        .         Spontaneous Potential         : 
TLFamily_SW        .         Water Saturation              : 
TLFamily_TNPH      .         Neutron Porosity              : 
TLFamily_VCLAV     .         Clay Volume Fraction          : 
~Curve Information
#_______________________________________________________________________________
#
#LOGNAME           .UNIT     LOG_ID                        : DESCRIPTION
#_______________________________________________________________________________
DEPTH              .M                                      : Depth 
AHMF               .ohm.m                                  : 21 Array Induction Mud Resistivity Fully Calibrated 
AT10               .ohm.m                                  : MedRes     30 Array Induction Two Foot Resistivity A10 
AT20               .ohm.m                                  : MedRes     31 Array Induction Two Foot Resistivity A20 
AT30               .ohm.m                                  : MedRes     32 Array Induction Two Foot Resistivity A30 
AT60               .ohm.m                                  : DeepRes    33 Array Induction Two Foot Resistivity A60 
AT90               .ohm.m                                  : XDeepRes   34 Array Induction Two Foot Resistivity A90 
BSC                .mm                                     : 20 Nominal Caliper 
C1                 .mm                                     : 17 CALIPER DIAMETER 1 
C2                 .mm                                     : 18 CALIPER DIAMETER 2 
CALI               .mm                                     : Caliper    19 
CFTC               .1/s                                    : 7 Corrected Far Thermal Count Rate 
CNTC               .1/s                                    : Neutron    8 Corrected Near Thermal Count Rate 
DT                 .uSec/m                                 : Sonic      12 Sonic travel time 
GR                 .gAPI                                   : GammaRay   9 Gamma Ray 
HAZIM              .deg                                    : Azimuth    13 Hole Azimuth 
HCAL               .mm                                     : 16 HRCC Caliper Calibrated 
HMIN               .ohm.m                                  : 2 HIP Micro Inverse Resistivity 
HMNO               .ohm.m                                  : 3 HIP Micro Normal Resistivity 
MTEM_FILT          .degC                                   : 10 Filtered Mud Temperature 
PEFZ               .B/E                                    : PEF        4 Formation Photoelectric Factor 
Perm               .md                                     : perm 
PHIE               .Dec                                    : Phi 
PHIT               .Dec                                    : PhiT 
RHOZ               .g/cm3                                  : Density    5 Bulk Density 
RLA1               .ohm.m                                  : ShalRes    22 HRLT Borehole Corrected Resistivity 1 
RLA2               .ohm.m                                  : MedRes     23 HRLT Borehole Corrected Resistivity 2 
RLA3               .ohm.m                                  : DeepRes    24 HRLT Borehole Corrected Resistivity 3 
RLA4               .ohm.m                                  : XDeepRes   25 HRLT Borehole Corrected Resisitivity 4 
RLA5               .ohm.m                                  : UltraDeepR 26 HRLT Borehole Corrected Resistivity 5 
RT                 .ohm.m                                  : 27 HRLT True Formation Resistivity 
RXO                .ohm.m                                  : 28 HRLT Invaded Zone Resistivity 
RXOZ               .ohm.m                                  : MicroRes   6 Invaded Formation Resistivity filtered at 18 inches 
SDEVM              .deg                                    : 15 Sonde Deviation 
SP                 .mV                                     : SP         36 Spontaneous Potential 
SW                 .Dec                                    : Sw 
TNPH               .v/v                                    : Neutron    11 Compensated Neutron Porosity 
VCLAV              .Dec                                    : Vcl 
~Ascii
# ...
741.9      
  -999.25    -999.25    -999.25    -999.25    -999.25    -999.25    
  215.9      223.8065   214.8656   219.2905   11868.0801 8151.3599  
  176.0262   62.1811    52.2105    205.1351   0.5029     0.7285     
  31.0878    4.2708     0          -999.25    -999.25    2.7677     
  -999.25    -999.25    -999.25    -999.25    -999.25    -999.25    
  -999.25    11.9079    0.3852     -999.25    -999.25    -0.0205    
  0.2495    
742        
  -999.25    -999.25    -999.25    -999.25    -999.25    -999.25    
  215.9      228.1829   221.6082   224.8712   11868.0801 8151.3599  
  176.0262   62.1811    52.2105    210.57     0.5102     0.7443     
  31.0878    4.225      0          -999.25    -999.25    2.7651     
  -999.25    -999.25    -999.25    -999.25    -999.25    -999.25    
  -999.25    9.6623     0.3852     -999.25    -999.25    -0.0205    
  0.2495    
742.1      
  -999.25    -999.25    -999.25    -999.25    -999.25    -999.25    
  215.9      229.8217   221.7942   225.771    11868.0801 8151.3599  
  176.0262   62.1811    52.2105    211.5039   0.5225     0.7684     
  31.0878    4.1987     0          -999.25    -999.25    2.7593     
  -999.25    -999.25    -999.25    -999.25    -999.25    -999.25    
  -999.25    7.7374     0.3852     -999.25    -999.25    -0.0205    
  0.2495    
742.2      
  -999.25    -999.25    -999.25    -999.25    -999.25    -999.25    
  215.9      233.8113   220.6456   227.1294   11868.0801 8151.3599  
  176.0262   62.1811    52.2105    210.3477   0.4637     0.6784     
  31.0878    4.2064     0          -999.25    -999.25    2.7476     
  -999.25    -999.25    -999.25    -999.25    -999.25    -999.25    
  -999.25    7.7424     0.3852     -999.25    -999.25    -0.0205    
  0.2495    
742.3      
  -999.25    -999.25    -999.25    -999.25    -999.25    -999.25    
  215.9      239.3875   218.4463   228.6745   11868.0801 8151.3599  
  176.0262   62.1811    52.2105    216.8005   0.4264     0.6215     
  31.0878    4.2527     0          -999.25    -999.25    2.7482     
  -999.25    -999.25    -999.25    -999.25    -999.25    -999.25    
  -999.25    7.2862     0.3852     -999.25    -999.25    -0.0205    
  0.2495    
742.4      
  -999.25    -999.25    -999.25    -999.25    -999.25    -999.25    
  215.9      229.0332   215.531    222.1781   11868.0801 8151.3599  
  176.0262   62.1811    52.2105    202.8639   0.4975     0.7164     
  31.0878    4.3281     0          -999.25    -999.25    2.7601     
  -999.25    -999.25    -999.25    -999.25    -999.25    -999.25    
  -999.25    6.921      0.3852     -999.25    -999.25    -0.0205    
  0.2495    
742.5      
  -999.25    -999.25    -999.25    -999.25    -999.25    -999.25    
  215.9      218.8081   210.2596   214.4904   11868.0801 8151.3599  
  176.0262   62.1811    52.2105    200.4151   0.572      0.8219     
  31.0878    4.3973     0          -999.25    -999.25    2.7665     
  -999.25    -999.25    -999.25    -999.25    -999.25    -999.25    
  -999.25    7.8228     0.3852     -999.25    -999.25    -0.0205    
  0.2495    
742.6      
  -999.25    -999.25    -999.25    -999.25    -999.25    -999.25    
  215.9      212.3272   199.9849   206.041    11868.0801 8151.3599  
  176.0262   62.1811    52.2105    199.4818   0.5245     0.7654     
  31.0878    4.4395     0          -999.25    -999.25    2.7692     
  -999.25    -999.25    -999.25    -999.25    -999.25    -999.25    
  -999.25    7.9826     0.3852     -999.25    -999.25    -0.0205    
  0.2495    
742.7      
  -999.25    -999.25    -999.25    -999.25    -999.25    -999.25    
  215.9      207.8409   176.6734   191.6011   11868.0801 8151.3599  
  176.0262   62.1811    52.2105    198.5891   0.5024     0.7272     
  31.0878    4.4235     0          -999.25    -999.25    2.7576     
  -999.25    -999.25    -999.25    -999.25    -999.25    -999.25    
  -999.25    4.8767     0.3852     -999.25    -999.25    -0.0205    
  0.2495    
742.8      
  -999.25    -999.25    -999.25    -999.25    -999.25    -999.25    
  215.9      204.6342   157.3509   179.4399   11868.0801 8151.3599  
  176.0262   62.1811    52.2105    195.8247   0.4151     0.5834     
  31.0878    4.3398     0          -999.25    -999.25    2.7197     
  -999.25    -999.25    -999.25    -999.25    -999.25    -999.25    
  -999.25    3.4275     0.3852     -999.25    -999.25    -0.0205    
  0.2495    
742.9      
  -999.25    -999.25    -999.25    -999.25    -999.25    -999.25    
  215.9      201.8147   150.6189   174.3455   11868.0801 8151.3599  
  176.0262   62.1811    52.2105    192.5848   0.3579     0.4957     
  31.0878    4.2052     0          -999.25    -999.25    2.6692     
  -999.25    -999.25    -999.25    -999.25    -999.25    -999.25    
  -999.25    2.7361     0.3852     -999.25    -999.25    -0.0205    
  0.2495    
743        
  -999.25    -999.25    -999.25    -999.25    -999.25    -999.25    
  215.9      187.1232   145.1448   164.7953   11868.0801 8151.3599  
  176.0262   62.1811    52.2105    191.0769   0.3814     0.5206     
  31.0878    4.0461     0          -999.25    -999.25    2.6171     
  -999.25    -999.25    -999.25    -999.25    -999.25    -999.25    
  -999.25    2.0821     0.3852     -999.25    -999.25    -0.0205    
  0.2495    
743.1      
  -999.25    -999.25    -999.25    -999.25    -999.25    -999.25    
  215.9      168.3761   139.6411   153.3265   11868.0801 8151.3599  
  176.0262   62.1811    52.2105    177.8778   0.4183     0.5515     
  31.0878    -999.25    0          -999.25    -999.25    -999.25    
  -999.25    -999.25    -999.25    -999.25    -999.25    -999.25    
  -999.25    1.8255     0.3852     -999.25    -999.25    -0.0205    
  0.2495    
743.2      
  -999.25    -999.25    -999.25    -999.25    -999.25    -999.25    
  215.9      147.6192   132.4251   139.8133   11868.0801 8151.3599  
  176.0262   62.1811    52.2105    175.8462   0.4384     0.5462     
  31.0878    -999.25    0          -999.25    -999.25    -999.25    
  -999.25    -999.25    -999.25    -999.25    -999.25    -999.25    
  -999.25    1.6925     0.3852     -999.25    -999.25    -0.0205    
  0.2495    
743.3      
  -999.25    -999.25    -999.25    -999.25    -999.25    -999.25    
  215.9      125.1302   117.1933   121.095    11868.0801 8151.3599  
  176.0262   62.1811    52.2105    171.0459   0.4223     0.5221     
  31.0878    -999.25    0          -999.25    -999.25    -999.25    
  -999.25    -999.25    -999.25    -999.25    -999.25    -999.25    
  -999.25    1.4991     0.3852     -999.25    -999.25    -0.0205    
  0.2495    
743.4      
  -999.25    -999.25    -999.25    -999.25    -999.25    -999.25    
  215.9      105.8669   102.7768   104.3083   11868.0801 8151.3599  
  176.0262   62.1811    52.2105    169.9817   0.4493     0.5448     
  31.0878    -999.25    0          -999.25    -999.25    -999.25    
  -999.25    -999.25    -999.25    -999.25    -999.25    -999.25    
  -999.25    1.4123     0.3852     -999.25    -999.25    -0.0205    
  0.2495    
743.5      
  -999.25    -999.25    -999.25    -999.25    -999.25    -999.25    
  215.9      97.4441    98.6076    98.0232    11868.0801 8151.3599  
  176.0262   62.1811    52.2105    165.1305   0.4602     0.5483     
  31.0878    -999.25    0          -999.25    -999.25    -999.25    
  -999.25    -999.25    -999.25    -999.25    -999.25    -999.25    
  -999.25    1.4197     0.3852     -999.25    -999.25    -0.0205    
  0.2495    
743.6      
  -999.25    -999.25    -999.25    -999.25    -999.25    -999.25    
  215.9      92.4698    96.8439    94.6314    11868.0801 8151.3599  
  176.0262   62.1811    52.2105    162.332    0.4361     0.5297     
  31.0878    -999.25    0          -999.25    -999.25    -999.25    
  -999.25    -999.25    -999.25    -999.25    -999.25    -999.25    
  -999.25    1.3268     0.3852     -999.25    -999.25    -0.0205    
  0.2495    
743.7      
  -999.25    -999.25    -999.25    -999.25    -999.25    -999.25    
  215.9      89.813     96.312     93.006     11868.0801 8151.3599  
  176.0262   62.1811    52.2105    162.9998   0.4035     0.494      
  31.0878    -999.25    0          -999.25    -999.25    -999.25    
  -999.25    -999.25    -999.25    -999.25    -999.25    -999.25    
  -999.25    1.3064     0.3852     -999.25    -999.25    -0.0205    
  0.2495    
