~Version
 VERS              .         2.0                           : CWLS LOG ASCII STANDARD - VERSION 2.0
 WRAP              .         YES                            : ONE LINE PER DEPTH STEP
 DLM               .         SPACE                         : DELIMITING CHARACTER(SPACE TAB OR COMMA)
~Well Information
#_______________________________________________________________________________
#
#PARAMETER_NAME    .UNIT     VALUE                         : DESCRIPTION
#_______________________________________________________________________________
STRT               .M        0                             : First reference value
STOP               .M        750                           : Last reference value
STEP               .M        0.1                           : Step increment
NULL               .         -999.25                       : Missing value
COMP               .         COMPANY                       : Company
WELL               .         355                           : Well name
FLD                .         Field Name                    : Field
LOC                .         Location                      : Location
CNTY               .                                       : County
STAT               .                                       : State
CTRY               .                                       : Country
SRVC               .         SCH                           : Service Company
DATE               .         22.09.2024                    : Date
API                .                                       : API number
APDAT              .         136.988                       : Elevation Above Permanent Datum
BHS                .         OPEN                          : Completion Status
COUNT              .         Kazakhstan                    : Country
DF                 .         136.988                       : DF Elevation
DRMEA              .         DF                            : Drill Measured From
EPDAT              .         0                             : Elevation of Permanent Datum
GL                 .         131.788                       : GL Elevation
KB                 .         0                             : KB Elevation
LGMEA              .         DF                            : Log Measured from
LATI               .         47.93162                      : Latitude/Northing
LONG               .         56.55725                      : Longitude/Easting
ORIGINALWELLNAME   .         355                           : 
PDAT               .         MSL                           : Permanent Datum
RWS                .         -999                          : Def_Rw
STATE              .         1_500 / 1_200                 : State
WST                .         -999                          : Def_Rwt
~Parameter Information Block
#_______________________________________________________________________________
#
#PARAMETER_NAME    .UNIT     VALUE                         : DESCRIPTION
#_______________________________________________________________________________
SET                .         model                         : 
TLFamily_AHMF      .                                       : 
TLFamily_AT10      .         Resistivity - Medium          : 
TLFamily_AT20      .         Resistivity (Array)           : 
TLFamily_AT30      .         Resistivity (Array)           : 
TLFamily_AT60      .         Resistivity (Array)           : 
TLFamily_AT90      .         Resistivity - Deep            : 
TLFamily_BSC       .         Bit Size                      : 
TLFamily_C1        .         Caliper 1                     : 
TLFamily_C2        .         Caliper 2                     : 
TLFamily_CALI      .         Caliper                       : 
TLFamily_CFTC      .         Neutron Far                   : 
TLFamily_CNTC      .         Neutron Near                  : 
TLFamily_DEPTH     .         Measured Depth                : 
TLFamily_DT        .         Compressional Slowness        : 
TLFamily_GR        .         Gamma Ray                     : 
TLFamily_HAZIM     .         Hole Azimuth                  : 
TLFamily_HCAL      .         Caliper                       : 
TLFamily_HMIN      .                                       : 
TLFamily_HMNO      .                                       : 
TLFamily_MTEM_FILT .         Temperature                   : 
TLFamily_PEFZ      .         Photoelectric Factor          : 
TLFamily_PHIE      .         Effective Porosity            : 
TLFamily_PHIT      .         Total Porosity                : 
TLFamily_Perm      .         Permeability                  : 
TLFamily_RHOZ      .         Bulk Density                  : 
TLFamily_RLA1      .         Resistivity (Array)           : 
TLFamily_RLA2      .         Resistivity (Array)           : 
TLFamily_RLA3      .         Resistivity (Array)           : 
TLFamily_RLA4      .         Resistivity (Array)           : 
TLFamily_RLA5      .         Resistivity (Array)           : 
TLFamily_RT        .         Resistivity - True Formation  : 
TLFamily_RXO       .         Resistivity - Flushed Zone    : 
TLFamily_RXOZ      .         Resistivity - Flushed Zone    : 
TLFamily_SDEVM     .         Sonde Deviation               : 
TLFamily_SP        .         Spontaneous Potential         : 
TLFamily_SW        .         Water Saturation              : 
TLFamily_TNPH      .         Neutron Porosity              : 
TLFamily_VCLAV     .         Clay Volume Fraction          : 
~Curve Information
#_______________________________________________________________________________
#
#LOGNAME           .UNIT     LOG_ID                        : DESCRIPTION
#_______________________________________________________________________________
DEPTH              .M                                      : Depth 
AHMF               .ohm.m                                  : 21 Array Induction Mud Resistivity Fully Calibrated 
AT10               .ohm.m                                  : MedRes     30 Array Induction Two Foot Resistivity A10 
AT20               .ohm.m                                  : MedRes     31 Array Induction Two Foot Resistivity A20 
AT30               .ohm.m                                  : MedRes     32 Array Induction Two Foot Resistivity A30 
AT60               .ohm.m                                  : DeepRes    33 Array Induction Two Foot Resistivity A60 
AT90               .ohm.m                                  : XDeepRes   34 Array Induction Two Foot Resistivity A90 
BSC                .mm                                     : 20 Nominal Caliper 
C1                 .mm                                     : 17 CALIPER DIAMETER 1 
C2                 .mm                                     : 18 CALIPER DIAMETER 2 
CALI               .mm                                     : Caliper    19 
CFTC               .1/s                                    : 7 Corrected Far Thermal Count Rate 
CNTC               .1/s                                    : Neutron    8 Corrected Near Thermal Count Rate 
DT                 .uSec/m                                 : Sonic      12 Sonic travel time 
GR                 .gAPI                                   : GammaRay   9 Gamma Ray 
HAZIM              .deg                                    : Azimuth    13 Hole Azimuth 
HCAL               .mm                                     : 16 HRCC Caliper Calibrated 
HMIN               .ohm.m                                  : 2 HIP Micro Inverse Resistivity 
HMNO               .ohm.m                                  : 3 HIP Micro Normal Resistivity 
MTEM_FILT          .degC                                   : 10 Filtered Mud Temperature 
PEFZ               .B/E                                    : PEF        4 Formation Photoelectric Factor 
Perm               .md                                     : perm 
PHIE               .Dec                                    : Phi 
PHIT               .Dec                                    : PhiT 
RHOZ               .g/cm3                                  : Density    5 Bulk Density 
RLA1               .ohm.m                                  : ShalRes    22 HRLT Borehole Corrected Resistivity 1 
RLA2               .ohm.m                                  : MedRes     23 HRLT Borehole Corrected Resistivity 2 
RLA3               .ohm.m                                  : DeepRes    24 HRLT Borehole Corrected Resistivity 3 
RLA4               .ohm.m                                  : XDeepRes   25 HRLT Borehole Corrected Resisitivity 4 
RLA5               .ohm.m                                  : UltraDeepR 26 HRLT Borehole Corrected Resistivity 5 
RT                 .ohm.m                                  : 27 HRLT True Formation Resistivity 
RXO                .ohm.m                                  : 28 HRLT Invaded Zone Resistivity 
RXOZ               .ohm.m                                  : MicroRes   6 Invaded Formation Resistivity filtered at 18 inches 
SDEVM              .deg                                    : 15 Sonde Deviation 
SP                 .mV                                     : SP         36 Spontaneous Potential 
SW                 .Dec                                    : Sw 
TNPH               .v/v                                    : Neutron    11 Compensated Neutron Porosity 
VCLAV              .Dec                                    : Vcl 
~Ascii
# ...
702.1      
  0.1181     1.9758     2.1667     2.0905     2.1708     2.269      
  215.9      220.251    219.4486   219.8492   1034.2034  2592.3374  
  298.0458   64.9476    123.2979   214.6141   1.6424     1.4541     
  31.5772    2.9283     0.3735     0.102      0.1434     2.45       
  2.2417     2.2052     2.2625     2.3462     2.3912     2.396      
  1.7595     2.1412     0.158      -131.968   1          0.2436     
  0.2753    
702.2      
  0.1182     1.9936     2.1165     2.0454     2.1852     2.2251     
  215.9      220.5065   219.3465   219.9251   1047.3047  2587.5156  
  300.607    67.5271    122.742    214.2737   1.6258     1.4393     
  31.5796    2.9552     0.2012     0.0887     0.1337     2.4531     
  2.1827     2.1261     2.1862     2.2669     2.3326     2.3243     
  1.6998     2.0718     0.1592     -132.3471  1          0.2374     
  0.3002    
702.3      
  0.1182     2.0199     2.0982     2.0263     2.2154     2.2149     
  215.9      221.3444   220.3504   220.8469   1073.4529  2593.4014  
  298.7104   66.1522    121.8957   214.2868   1.6326     1.4454     
  31.5801    3.0363     0.1957     0.0881     0.1311     2.4511     
  2.2397     2.1631     2.2283     2.3095     2.4061     2.3866     
  1.7201     2.0995     0.1607     -132.6223  1          0.2283     
  0.2869    
702.4      
  0.1183     2.0441     2.0999     2.0124     2.1768     2.1703     
  215.9      221.9262   221.1931   221.5592   1105.1387  2605.9336  
  295.7619   63.7576    121.0281   215.2128   1.6953     1.5011     
  31.5808    3.1641     0.2273     0.0912     0.1308     2.445      
  2.4233     2.3392     2.3998     2.4802     2.6088     2.5763     
  1.8734     2.3535     0.162      -132.7846  1          0.2186     
  0.2641    
702.5      
  0.1184     2.0974     2.052      2.0258     2.1309     2.1412     
  215.9      220.8396   219.9491   220.3943   1142.7144  2629.2822  
  293.1924   61.4526    120.3195   214.6367   2.1123     1.8781     
  31.5835    3.3239     0.2423     0.0925     0.1289     2.4478     
  2.6473     2.5636     2.6162     2.6924     2.8471     2.8064     
  2.0593     2.6619     0.1622     -132.8332  1          0.2091     
  0.2429    
702.6      
  0.1185     2.0846     2.116      2.0926     2.1681     2.1294     
  215.9      220.3446   219.5101   219.9269   1148.0255  2641.7725  
  293.9573   58.7617    119.566    214.0742   2.7327     2.4235     
  31.5842    3.4649     0.3593     0.1012     0.134      2.4489     
  2.7868     2.7164     2.7581     2.823      2.9954     2.9558     
  2.1689     2.7929     0.1626     -132.7751  1          0.2089     
  0.2189    
702.7      
  0.1185     2.1249     2.1712     2.1549     2.2134     2.1663     
  215.9      220.2338   219.3729   219.8032   1134.4081  2640.532   
  295.3176   56.5151    118.7735   214.5238   2.4109     2.1373     
  31.5846    3.5513     0.5592     0.1119     0.1418     2.4456     
  2.604      2.5459     2.572      2.6213     2.7862     2.7413     
  2.059      3.0172     0.1632     -132.6238  1          0.2133     
  0.1997    
702.8      
  0.1185     2.1368     2.1893     2.1775     2.2363     2.2485     
  215.9      220.4107   218.7637   219.5856   1093.8721  2604.1367  
  294.6351   56.3242    117.8986   214.262    2.1434     1.8994     
  31.5864    3.5382     0.7029     0.1178     0.1475     2.4487     
  2.3663     2.32       2.3337     2.3641     2.5171     2.4609     
  1.9529     2.8034     0.1644     -132.3969  1          0.2223     
  0.198     
702.9      
  0.1186     2.0308     2.1058     2.1025     2.1553     2.2051     
  215.9      220.48     218.6552   219.5652   1059.3101  2559.571   
  298.8576   58.4519    117.5468   214.6141   2.0065     1.7776     
  31.587     3.4533     0.6309     0.115      0.1474     2.4485     
  2.2622     2.2169     2.2235     2.2424     2.3883     2.3227     
  1.9317     2.4071     0.1647     -132.1122  1          0.2285     
  0.2162    
703        
  0.1186     1.9123     1.9848     1.9757     1.9911     2.0689     
  215.9      220.48     218.8377   219.6574   1028.0876  2508.2378  
  304.9141   61.4856    117.4364   214.1288   1.7511     1.5507     
  31.5873    3.3308     0.4955     0.1088     0.1453     2.4397     
  2.1788     2.1371     2.1406     2.148      2.2922     2.2229     
  1.9023     2.1787     0.1642     -131.7842  1          0.2327     
  0.2432    
703.1      
  0.1186     1.7964     1.8434     1.8177     1.8547     1.8897     
  215.9      220.4698   218.8443   219.656    1000.0682  2441.7834  
  309.1662   63.8574    117.3577   214.0272   1.5023     1.3297     
  31.5891    3.1806     0.3614     0.1013     0.141      2.4382     
  2.1747     2.1275     2.1297     2.1326     2.2803     2.2071     
  1.9059     1.8766     0.1624     -131.4219  1          0.2335     
  0.2651    
703.2      
  0.1186     1.7086     1.7364     1.7238     1.7745     1.7847     
  215.9      220.3598   218.8466   219.6018   979.5895   2385.9792  
  311.8965   65.9406    117.3446   214.2981   1.2873     1.1388     
  31.5898    3.0702     0.2546     0.0935     0.1363     2.4381     
  2.0289     1.9674     1.9696     1.9665     2.1045     2.0255     
  1.8294     1.7465     0.1612     -131.0289  1          0.2328     
  0.2848    
703.3      
  0.1187     1.6077     1.646      1.6124     1.6812     1.6877     
  215.9      220.215    218.8205   219.5171   961.1114   2342.4478  
  314.262    67.7248    117.3938   214.1681   1.2841     1.1361     
  31.5898    3.0251     0.198      0.0883     0.1337     2.433      
  1.867      1.8        1.7995     1.7939     1.9186     1.8405     
  1.7712     1.6959     0.1602     -130.607   1          0.2335     
  0.3022    
703.4      
  0.1187     1.5125     1.5408     1.5063     1.5697     1.5581     
  215.9      220.3858   218.618    219.4999   926.1979   2344.9866  
  320.2305   68.507     117.629    214.262    1.4207     1.2572     
  31.5902    3.0033     0.2791     0.0955     0.142      2.4344     
  1.8592     1.7943     1.7861     1.7845     1.9001     1.8285     
  1.8034     1.7059     0.1583     -130.1599  1          0.2499     
  0.3099    
703.5      
  0.1187     1.4592     1.4945     1.468      1.5091     1.522      
  215.9      220.3648   218.6403   219.5006   910.4722   2359.5144  
  319.9548   67.6176    117.8333   214.5125   1.4166     1.2536     
  31.5908    3.0228     0.4132     0.1044     0.1496     2.4373     
  1.8601     1.8041     1.7915     1.7918     1.8985     1.8329     
  1.8018     1.8065     0.1564     -129.6959  1          0.2598     
  0.3011    
703.6      
  0.1186     1.4367     1.4895     1.4594     1.5002     1.5103     
  215.9      220.2102   218.8416   219.5244   908.5885   2382.9829  
  315.4163   65.8115    117.988    214.5319   1.4635     1.2952     
  31.5914    3.066      0.606      0.1139     0.1565     2.4405     
  1.8329     1.779      1.7678     1.7679     1.8646     1.8057     
  1.775      1.7892     0.1546     -129.2286  1          0.2652     
  0.2836    
703.7      
  0.1185     1.4375     1.4994     1.4663     1.5068     1.517      
  215.9      220.4015   218.8765   219.6375   920.6553   2419.0403  
  309.5512   66.6348    117.7586   214.3884   1.419      1.2557     
  31.5914    3.1256     0.5338000000000001 0.1107     0.1544     2.4441     
  1.7497     1.7019     1.6933     1.6872     1.7642     1.7203     
  1.7354     1.9263     0.1529     -128.7754  1          0.2657     
  0.2915    
703.8      
  0.1184     1.4729     1.523      1.485      1.527      1.5376     
  215.9      220.6866   219.2074   219.9456   951.3493999999999 2457.5669  
  306.328    66.9153    117.7173   214.1211   1.5651     1.3854     
  31.5915    3.2035     0.4075     0.1041     0.1482     2.4496     
  1.7864     1.7403     1.7328     1.7226     1.7814     1.7532     
  1.8571     1.9993     0.151      -128.3548  1          0.2581     
  0.2943    
703.9      
  0.1183     1.5663     1.5936     1.54       1.5846     1.6023     
  215.9      220.9932   219.8018   220.397    996.7841   2498.2937  
  305.2552   66.7536    117.8295   214.708    1.7772     1.5738     
  31.5916    3.2596     0.2687     0.0947     0.1386     2.4592     
  2.2206     2.1733     2.1747     2.1579     2.1858     2.173      
  2.3231     2.138      0.149      -127.9847  1          0.2441     
  0.2927    
