~Version
 VERS              .         3.0                           : CWLS LOG ASCII STANDARD - VERSION 3.0
 WRAP              .         NO                            : ONE LINE PER DEPTH STEP
 DLM               .         SPACE                         : DELIMITING CHARACTER(SPACE TAB OR COMMA)
~Well Information
#_______________________________________________________________________________
#
#PARAMETER_NAME    .UNIT     VALUE                         : DESCRIPTION
#_______________________________________________________________________________
STRT               .m        0.2                           : First reference value
STOP               .m        937.8                         : Last reference value
STEP               .m        0.1                           : Step increment
NULL               .         -9999                         : Missing value
COMP               .         ICPetroleum                   : Company
WELL               .         329                           : Well name
FLD                .         Karatobe                      : Field
LOC                .                                       : Location
SRVC               .                                       : Service Company
CTRY               .         KZ                            : Country
DATE               .         27.01.2007                    : Service Date
LATI               .         0                             : Latitude
LONG               .         0                             : Longitude
GDAT               .         WGS 84                        : Geodetic Datum
CNTY               .                                       : 
COORDIN            .                                       : Grid System
COUNTRY            .         Kazakhstan                    : 
COUNTRY            .         Kazakhstan                    : 
EREF               .m        141.8                         : 
KB                 .         0                             : KB Elevation
ORIGINALWELLNAME   .         329                           : 
PROV               .                                       : Province
RWS                .         -999                          : Def_Rw
STAT               .                                       : 
UWI                .                                       : 
WST                .         -999                          : Def_Rwt
X                  .km       466696.75                     : 
XCOORD             .                                       : X or East-West Coordinate
Y                  .km       5307893.42                    : 
YCOORD             .                                       : Y or North-South Coordinate
~Parameter Information Block
#_______________________________________________________________________________
#
#PARAMETER_NAME    .UNIT     VALUE                         : DESCRIPTION
#_______________________________________________________________________________
SET                .         Las                           : 
TLFamily_DEPT      .         Measured Depth                : 
TLFamily_PHI_FINAL .         Porosity                      : 
TLFamily_SW_AR     .         Water Saturation              : 
TLFamily_VSH_FINAL .         Shale Volume                  : 
~Curve Information
#_______________________________________________________________________________
#
#LOGNAME           .UNIT     LOG_ID                        : DESCRIPTION
#_______________________________________________________________________________
DEPT               .m                                      :  {F}
PHI_FINAL          .m3/m3                                  : Porosity {F}
SW_AR              .m3/m3                                  :  {F}
VSH_FINAL          .unitless                               : Vshale {F}
~Ascii
# ...
780.3      0          1          0.5732984 
780.4      0          1          0.6561213 
780.5      0          1          0.6931897 
780.6      0          1          0.6525576 
780.6999999999999 0.02788871 1          0.5427583 
780.8      0.0730205  1          0.4293101 
780.9      0.1105412  1          0.3417403 
781        0.1198104  1          0.2902251 
781.1      0.1390385  1          0.2648492 
781.1999999999999 0.1427973  1          0.2616276 
781.3      0.1292643  1          0.2780817 
781.4      0.1100776  1          0.3033161 
781.5      0.09085293 1          0.3286799 
781.6      0.07694533 1          0.3359658 
781.6999999999999 0.1022936  1          0.3297815 
781.8      0.1196771  1          0.3106782 
781.9      0.1238546  1          0.2964747 
782        0.1307349  1          0.2930817 
782.1      0.1220414  1          0.3209297 
782.1999999999999 0.08564698 1          0.3882734 
782.3      0.03758491 1          0.483607  
782.4      0          1          0.5657829 
782.5      0          1          0.58329   
782.6      0          1          0.5466559 
782.6999999999999 0.02586776 1          0.4845138 
782.8      0.06237253 1          0.4255133 
782.9      0.08483836 1          0.3691295 
783        0.1171944  1          0.3191194 
783.1      0.1245461  1          0.2941237 
783.1999999999999 0.1112669  1          0.2992724 
783.3      0.08402411 1          0.3318979 
783.4      0.0680485  1          0.3662151 
783.5      0.05842563 1          0.3789328 
783.6      0.04417667 1          0.3673793 
783.6999999999999 0.04961561 1          0.3488869 
783.8      0.04429088 1          0.366991  
783.9      0.03427936 1          0.4410302 
784        0          1          0.5655334 
784.1      0          1          0.6755341 
784.1999999999999 0          1          0.7084044 
784.3      0          1          0.6627344 
784.4      0.01796956 1          0.5964834 
784.5      0.04510666 1          0.5439745 
784.6      0.06190644 1          0.5110226 
784.6999999999999 0.07664685 1          0.4713512 
784.8      0.08872238 1          0.4313217 
784.9      0.09373847 1          0.4093814 
785        0.08731231 1          0.4241468 
785.1      0.07895912 1          0.4585112 
785.1999999999999 0.07342352 1          0.4723562 
785.3      0.07914312 1          0.4564278 
785.4      0.08830328 1          0.4324888 
785.5      0.08971031 1          0.4285704 
785.6      0.08373326 1          0.4367476 
785.6999999999999 0.08130786 1          0.4178723 
785.8      0.0953832  1          0.3593657 
785.9      0.1130852  1          0.2939499 
786        0.1171006  1          0.279438  
786.1      0.0858626  1          0.335595  
786.1999999999999 0.03371131 1          0.4368544 
786.3      0.001512873 1          0.5148962 
786.4      0.01329779 1          0.519024  
786.5      0.04983606 1          0.4842871 
786.6      0.0722834  1          0.4595    
786.6999999999999 0.07182874 1          0.4741458 
786.8      0.06560987 1          0.5020533 
786.9      0.02058852 1          0.527579  
787        0.01449534 1          0.5282958 
787.1      0          1          0.528774  
787.1999999999999 0.0008252982 1          0.534774  
787.3      0          1          0.5515524 
787.4      0          1          0.5654088 
787.5      0          1          0.5639138 
787.6      0          1          0.5397253 
787.6999999999999 0.006196942 1          0.4965104 
787.8      0.02515306 1          0.4520596 
787.9      0.03268215 1          0.4264607 
788        0.03853352 1          0.426566  
788.1      0.0380998  1          0.4480406 
788.1999999999999 0.02860349 1          0.4803281 
788.3      0.01636548 1          0.5019374 
788.4      0.004498534 1          0.502285  
788.5      0.01500649 1          0.486558  
788.6      0.01997083 1          0.4696792 
788.6999999999999 0.01682355 1          0.46038   
788.8      0.02045276 1          0.4480406 
788.9      0.02565053 1          0.4303682 
789        0.03384257 1          0.4025153 
789.1      0.0595549  1          0.3750933 
789.1999999999999 0.08488189 1          0.3489815 
789.3      0.08421377 1          0.3312531 
789.4      0.08338313 1          0.3140773 
789.5      0.1001454  1          0.2970856 
789.6      0.11204    1          0.2766439 
789.6999999999999 0.1098944  1          0.2639388 
789.8      0.1217126  1          0.2726866 
789.9      0.1126117  1          0.303669  
790        0.1011398  1          0.3443645 
790.1      0.0957239  1          0.3624444 
790.1999999999999 0.08967678 1          0.3526789 
790.3      0.08282767 1          0.3359658 
790.4      0.08187073 1          0.3392194 
790.5      0.08018353 1          0.3649559 
790.6      0.07528724 1          0.3816033 
790.6999999999999 0.06232423 1          0.3856776 
790.8      0.04938384 1          0.389675  
790.9      0.03722831 1          0.4310037 
791        0.04706854 1          0.4975469 
791.1      0.04828798 1          0.5535187 
791.1999999999999 0.03850701 1          0.5666565 
791.3      0.03818371 1          0.5477552 
791.4      0.0441179  1          0.527579  
791.5      0.04458177 1          0.5060019 
791.6      0.05375352 1          0.4748179 
791.6999999999999 0.07412575 1          0.4455528 
791.8      0.07555062 1          0.4407082 
791.9      0.06196083 1          0.4753785 
792        0.04016387 1          0.519852  
792.1      0.02310008 1          0.5495905 
792.1999999999999 0.007799528 1          0.5510616 
792.3      0          1          0.5417866 
792.4      0          1          0.5204439 
792.5      0.01530728 1          0.4855353 
792.6      0.02890166 1          0.4393144 
792.6999999999999 0.0486161  1          0.3922853 
792.8      0.05956484 1          0.3550596 
792.9      0.06132469 1          0.3490761 
793        0.06899647 1          0.3829919 
793.1      0.06131034 1          0.4491248 
793.1999999999999 0.04938917 1          0.502285  
793.3      0.03413969 1          0.5269821 
793.4      0.02811622 1          0.5219848 
793.5      0.02397248 1          0.5160735 
793.6      0.01902396 1          0.5128985 
793.6999999999999 0.0004777627 1          0.5159556 
793.8      0          1          0.5196154 
793.9      0          1          0.5200887 
794        0.01274271 1          0.5229344 
794.1      0.02516797 1          0.5320088 
794.1999999999999 0.01985274 1          0.5500806 
794.3      0.01023112 1          0.5627941 
794.4      0          1          0.5699086 
794.5      0.004458425 1          0.5624213 
794.6      0.01967245 1          0.5506936 
794.6999999999999 0.02829064 1          0.5213917 
794.8      0.02857029 1          0.480441  
794.9      0.05975812 1          0.4344023 
795        0.0674803  1          0.4081469 
795.1      0.05828246 1          0.4216307 
795.1999999999999 0.03973557 1          0.4789751 
795.3      0.02473034 1          0.5514297 
795.4      0.009523588 1          0.5851997 
795.5      0.02749835 1          0.5473886 
795.6      0.06379651 1          0.4534766 
795.6999999999999 0.09049241 1          0.3487924 
795.8      0.1188655  1          0.2751253 
795.9      0.1094867  1          0.2571956 
796        0.05661849 1          0.2886725 
796.1      0.02620588 1          0.3313453 
796.1999999999999 0.02656473 1          0.3431448 
796.3      0.04601231 1          0.3243832 
796.4      0.06755976 1          0.3047287 
796.5      0.08856817 1          0.2941237 
796.6      0.1032522  1          0.2865225 
796.6999999999999 0.09189104 1          0.2851504 
796.8      0.0977934  1          0.3050824 
796.9      0.1059476  1          0.3373583 
797        0.09308356 1          0.3610958 
797.1      0.07830312 1          0.3513493 
797.1999999999999 0.06992269 1          0.3198429 
797.3      0.08047872 1          0.2839524 
797.4      0.08556049 1          0.2666744 
797.5      0.07509856 1          0.2822449 
797.6      0.06818488 1          0.3257514 
797.6999999999999 0.04179231 1          0.3754862 
797.8      0.03363247 1          0.4032296 
797.9      0.03263919 1          0.4066068 
