~Version
 VERS              .         3.0                           : CWLS LOG ASCII STANDARD - VERSION 3.0
 WRAP              .         NO                            : ONE LINE PER DEPTH STEP
 DLM               .         SPACE                         : DELIMITING CHARACTER(SPACE TAB OR COMMA)
~Well Information
#_______________________________________________________________________________
#
#PARAMETER_NAME    .UNIT     VALUE                         : DESCRIPTION
#_______________________________________________________________________________
STRT               .m        0.2                           : First reference value
STOP               .m        937.8                         : Last reference value
STEP               .m        0.1                           : Step increment
NULL               .         -9999                         : Missing value
COMP               .         ICPetroleum                   : Company
WELL               .         329                           : Well name
FLD                .         Karatobe                      : Field
LOC                .                                       : Location
SRVC               .                                       : Service Company
CTRY               .         KZ                            : Country
DATE               .         27.01.2007                    : Service Date
LATI               .         0                             : Latitude
LONG               .         0                             : Longitude
GDAT               .         WGS 84                        : Geodetic Datum
CNTY               .                                       : 
COORDIN            .                                       : Grid System
COUNTRY            .         Kazakhstan                    : 
COUNTRY            .         Kazakhstan                    : 
EREF               .m        141.8                         : 
KB                 .         0                             : KB Elevation
ORIGINALWELLNAME   .         329                           : 
PROV               .                                       : Province
RWS                .         -999                          : Def_Rw
STAT               .                                       : 
UWI                .                                       : 
WST                .         -999                          : Def_Rwt
X                  .km       466696.75                     : 
XCOORD             .                                       : X or East-West Coordinate
Y                  .km       5307893.42                    : 
YCOORD             .                                       : Y or North-South Coordinate
~Parameter Information Block
#_______________________________________________________________________________
#
#PARAMETER_NAME    .UNIT     VALUE                         : DESCRIPTION
#_______________________________________________________________________________
SET                .         Las                           : 
TLFamily_DEPT      .         Measured Depth                : 
TLFamily_PHI_FINAL .         Porosity                      : 
TLFamily_SW_AR     .         Water Saturation              : 
TLFamily_VSH_FINAL .         Shale Volume                  : 
~Curve Information
#_______________________________________________________________________________
#
#LOGNAME           .UNIT     LOG_ID                        : DESCRIPTION
#_______________________________________________________________________________
DEPT               .m                                      :  {F}
PHI_FINAL          .m3/m3                                  : Porosity {F}
SW_AR              .m3/m3                                  :  {F}
VSH_FINAL          .unitless                               : Vshale {F}
~Ascii
# ...
691.8      0.3433729  0.9681163  0.0762189 
691.9      0.3412607  1          0.07835981
692        0.3339769  1          0.08264865
692.1      0.3283702  1          0.08285572
692.1999999999999 0.3238564  1          0.08353408
692.3      0.3202043  1          0.08542511
692.4      0.3173974  1          0.09012309
692.5      0.3177892  1          0.09559412
692.6      0.3274672  1          0.09911526
692.6999999999999 0.3433783  1          0.09906044
692.8      0.3561904  1          0.1000865 
692.9      0.3647039  1          0.1043212 
693        0.3640369  1          0.1221822 
693.1      0.3549905  1          0.1464196 
693.1999999999999 0.3355845  1          0.171282  
693.3      0.3234424  1          0.1777605 
693.4      0.3176318  1          0.1734848 
693.5      0.3095371  1          0.1659903 
693.6      0.3042923  1          0.161028  
693.6999999999999 0.3027297  1          0.1548762 
693.8      0.3028648  1          0.1473935 
693.9      0.2933875  1          0.1447287 
694        0.2824793  1          0.1419214 
694.1      0.2757851  1          0.1379521 
694.1999999999999 0.2768012  1          0.123594  
694.3      0.2796727  1          0.1136293 
694.4      0.2867957  1          0.1112574 
694.5      0.2855562  1          0.1219223 
694.6      0.2840009  1          0.128933  
694.6999999999999 0.2881281  1          0.125302  
694.8      0.3039894  1          0.1128759 
694.9      0.308776   1          0.1073064 
695        0.314518   1          0.1105544 
695.1      0.3122301  1          0.1175871 
695.1999999999999 0.3102851  1          0.1157806 
695.3      0.3095037  1          0.1027286 
695.4      0.3107153  1          0.08239059
695.5      0.3094656  1          0.06390344
695.6      0.3180827  1          0.0482244 
695.6999999999999 0.3186903  1          0.03647102
695.8      0.3118367  1          0.02840251
695.9      0.3039579  1          0.02822907
696        0.2983218  1          0.03627973
696.1      0.2859046  1          0.04888378
696.1999999999999 0.2760586  1          0.05766597
696.3      0.2828003  1          0.05615212
696.4      0.2854306  1          0.04585942
696.5      0.2946493  1          0.03402183
696.6      0.3039789  1          0.02688173
696.6999999999999 0.3056467  1          0.02690825
696.8      0.3039272  1          0.03172357
696.9      0.3048142  1          0.03579961
697        0.3039516  1          0.03585828
697.1      0.2990578  1          0.03227852
697.1999999999999 0.3011283  1          0.02915203
697.3      0.3070347  -9999      0.02599866
697.4      0.308687   1          0.02144874
697.5      0.2928168  1          0.01614289
697.6      0.2845843  1          0.0140765 
697.6999999999999 0.2719622  1          0.01786098
697.8      0.2522769  1          0.025321  
697.9      0.2438538  1          0.03199578
698        0.2395331  1          0.03428915
698.1      0.2445042  1          0.03368635
698.1999999999999 0.2459592  1          0.03145954
698.3      0.2435948  1          0.02893022
698.4      0.24725    1          0.02500611
698.5      0.2517812  1          0.02164876
698.6      0.2540261  1          0.01962638
698.6999999999999 0.2442953  1          0.018395  
698.8      0.2397454  1          0.01409132
698.9      0.2464633  1          0.007476469
699        0.2588245  1          0.002840719
699.1      0.2730675  1          0.005161532
699.1999999999999 0.2918639  1          0.01182355
699.3      0.311079   1          0.01635444
699.4      0.3253391  1          0.01329268
699.5      0.3321337  1          0.008712092
699.6      0.3359251  1          0.009443621
699.6999999999999 0.3288991  1          0.01783925
699.8      0.3240263  1          0.0271092 
699.9      0.3172782  1          0.03040266
700        0.3169708  1          0.0253137 
700.1      0.3185099  -9999      0.01755094
700.1999999999999 0.319708   -9999      0.011066  
700.3      0.3103203  1          0.008755074
700.4      0.2998391  1          0.01227811
700.5      0.2835402  1          0.02194425
700.6      0.2596219  1          0.03607825
700.6999999999999 0.2355175  1          0.05201006
700.8      0.2160001  1          0.06704172
700.9      0.2037443  1          0.08340351
701        0.195919   1          0.09999334
701.1      0.1984865  1          0.1155206 
701.1999999999999 0.2052462  1          0.1271303 
701.3      0.2087904  1          0.1346819 
701.4      0.2044749  1          0.1427352 
701.5      0.2034636  1          0.153436  
701.6      0.1952484  1          0.1681567 
701.6999999999999 0.1996414  1          0.1855062 
701.8      0.2067506  1          0.2056743 
701.9      0.1974429  1          0.2386855 
702        0.09409863 1          0.4854217 
702.1      0.07885405 1          0.5434877 
702.1999999999999 0.06448293 1          0.5644118 
702.3      0.07329492 1          0.527579  
702.4      0.08340946 1          0.4796514 
702.5      0.1002591  1          0.4332324 
702.6      0.1098963  1          0.399157  
702.6999999999999 0.1248032  1          0.3532495 
702.8      0.1262404  1          0.3083629 
702.9      0.1278642  1          0.2828419 
703        0.1060791  1          0.296911  
703.1      0.08979798 1          0.3322668 
703.1999999999999 0.09129255 1          0.3671852 
703.3      0.08005919 1          0.3853787 
703.4      0.06079454 1          0.3908785 
703.5      0.05094023 1          0.3843832 
703.6      0.03866529 1          0.3661181 
703.6999999999999 0.03812874 1          0.3479424 
703.8      0.03541401 1          0.3371724 
703.9      0.04238629 1          0.3334667 
704        0.04600023 1          0.3411793 
704.1      0.05469001 1          0.351634  
704.1999999999999 0.04746316 1          0.3562053 
704.3      0.06345476 1          0.3418338 
704.4      0.05940478 1          0.3156038 
704.5      0.06579909 1          0.2938631 
704.6      0.07552432 1          0.2807973 
704.6999999999999 0.08485038 1          0.2690887 
704.8      0.08937938 1          0.2536901 
704.9      0.08720943 1          0.241068  
705        0.08078828 1          0.2428999 
705.1      0.08714174 1          0.2612981 
705.1999999999999 0.08520069 1          0.2878976 
705.3      0.09845411 1          0.3228359 
705.4      0.1113807  1          0.358886  
705.5      0.09703141 1          0.3876735 
705.6      0.09299272 1          0.3814051 
705.6999999999999 0.1057836  1          0.3379161 
705.8      0.1119654  1          0.2768974 
705.9      0.1142107  1          0.2292636 
706        0.1221878  1          0.2021415 
706.1      0.1295235  1          0.1971998 
706.1999999999999 0.1325514  1          0.206905  
706.3      0.1262729  1          0.2282522 
706.4      0.1029276  1          0.247626  
706.5      0.08854065 1          0.2565418 
706.6      0.08398952 1          0.2720156 
706.6999999999999 0.07577839 1          0.3199334 
706.8      0.0412742  1          0.4172477 
706.9      0          1          0.5174885 
707        0          1          0.5601872 
707.1      0          1          0.5205623 
707.1999999999999 0.01255417 1          0.44275   
707.3      0.05495857 1          0.3622515 
707.4      0.08211268 1          0.2983968 
707.5      0.08810636 1          0.270007  
707.6      0.06442258 1          0.2810525 
707.6999999999999 0.02590063 1          0.3151545 
707.8      0          1          0.3442706 
707.9      0          1          0.352774  
708        0          1          0.3476591 
708.1      0          1          0.3228359 
708.1999999999999 0          1          0.2870378 
708.3      0.04757585 1          0.2558072 
708.4      0.1003698  1          0.2540967 
708.5      0.1064307  1          0.2757154 
708.6      0.08683327 1          0.3023469 
708.6999999999999 0.07773803 1          0.3132707 
708.8      0.07303755 1          0.3092524 
708.9      0.07219175 1          0.2921281 
709        0.07298751 1          0.2694225 
709.1      0.08383138 1          0.2525533 
709.1999999999999 0.09628657 1          0.2502056 
709.3      0.09970376 1          0.2585872 
709.4      0.08084723 1          0.2626995 
