~Version
 VERS              .         3.0                           : CWLS LOG ASCII STANDARD - VERSION 3.0
 WRAP              .         NO                            : ONE LINE PER DEPTH STEP
 DLM               .         SPACE                         : DELIMITING CHARACTER(SPACE TAB OR COMMA)
~Well Information
#_______________________________________________________________________________
#
#PARAMETER_NAME    .UNIT     VALUE                         : DESCRIPTION
#_______________________________________________________________________________
STRT               .m        0.2                           : First reference value
STOP               .m        937.8                         : Last reference value
STEP               .m        0.1                           : Step increment
NULL               .         -9999                         : Missing value
COMP               .         ICPetroleum                   : Company
WELL               .         329                           : Well name
FLD                .         Karatobe                      : Field
LOC                .                                       : Location
SRVC               .                                       : Service Company
CTRY               .         KZ                            : Country
DATE               .         27.01.2007                    : Service Date
LATI               .         0                             : Latitude
LONG               .         0                             : Longitude
GDAT               .         WGS 84                        : Geodetic Datum
CNTY               .                                       : 
COORDIN            .                                       : Grid System
COUNTRY            .         Kazakhstan                    : 
COUNTRY            .         Kazakhstan                    : 
EREF               .m        141.8                         : 
KB                 .         0                             : KB Elevation
ORIGINALWELLNAME   .         329                           : 
PROV               .                                       : Province
RWS                .         -999                          : Def_Rw
STAT               .                                       : 
UWI                .                                       : 
WST                .         -999                          : Def_Rwt
X                  .km       466696.75                     : 
XCOORD             .                                       : X or East-West Coordinate
Y                  .km       5307893.42                    : 
YCOORD             .                                       : Y or North-South Coordinate
~Parameter Information Block
#_______________________________________________________________________________
#
#PARAMETER_NAME    .UNIT     VALUE                         : DESCRIPTION
#_______________________________________________________________________________
SET                .         Las                           : 
TLFamily_DEPT      .         Measured Depth                : 
TLFamily_PHI_FINAL .         Porosity                      : 
TLFamily_SW_AR     .         Water Saturation              : 
TLFamily_VSH_FINAL .         Shale Volume                  : 
~Curve Information
#_______________________________________________________________________________
#
#LOGNAME           .UNIT     LOG_ID                        : DESCRIPTION
#_______________________________________________________________________________
DEPT               .m                                      :  {F}
PHI_FINAL          .m3/m3                                  : Porosity {F}
SW_AR              .m3/m3                                  :  {F}
VSH_FINAL          .unitless                               : Vshale {F}
~Ascii
# ...
886.3      0          1          0.2611335 
886.4      0          1          0.2720994 
886.5      0          1          0.3032279 
886.6      0          1          0.350875  
886.6999999999999 0          1          0.4051721 
886.8      0          1          0.4508626 
886.9      0          1          0.4692339 
887        0          1          0.4565373 
887.1      0          1          0.4315338 
887.1999999999999 0          1          0.3940979 
887.3      0          1          0.3685456 
887.4      0          1          0.3453041 
887.5      0          1          0.3235636 
887.6      0          1          0.297173  
887.6999999999999 0          1          0.2867801 
887.8      0          1          0.3075633 
887.9      0          1          0.3490761 
888        0          1          0.3693243 
888.1      0          1          0.354678  
888.1999999999999 0          1          0.3165034 
888.3      0          1          0.2860076 
888.4      0          1          0.2605575 
888.5      0          1          0.2390834 
888.6      0          1          0.2240702 
888.6999999999999 0          1          0.2273201 
888.8      0          1          0.2509332 
888.9      0          1          0.2882419 
889        0          1          0.319481  
889.1      0          1          0.3342062 
889.1999999999999 0          1          0.3198429 
889.3      0          1          0.2814781 
889.4      0          1          0.2384498 
889.5      0          1          0.2125416 
889.6      0          1          0.1960998 
889.6999999999999 0          1          0.173382  
889.8      0          1          0.1451832 
889.9      0          1          0.1291175 
890        0          1          0.1387427 
890.1      0          1          0.1740834 
890.1999999999999 0          1          0.2309014 
890.3      0          1          0.2929949 
890.4      0          1          0.329047  
890.5      0          1          0.3208391 
890.6      0          1          0.2858361 
890.6999999999999 0          1          0.1676668 
890.8      0          1          0.1732418 
890.9      0          1          0.173943  
891        0          1          0.1725415 
891.1      0          1          0.1767578 
891.1999999999999 0          1          0.1802984 
891.3      0          1          0.1725415 
891.4      0          1          0.1662828 
891.5      0          1          0.1774639 
891.6      0          1          0.1917953 
891.6999999999999 0          1          0.1947097 
891.8      0          1          0.1881749 
891.9      0          1          0.1795883 
892        0          1          0.1725415 
892.1      0          1          0.1788792 
892.1999999999999 0          1          0.1939796 
892.3      0          1          0.199112  
892.4      0          1          0.2028088 
892.5      0          1          0.2186193 
892.6      0          1          0.2178559 
892.6999999999999 0          1          0.2396384 
892.8      0          1          0.2631123 
892.9      0          1          0.2680885 
893        0          1          0.313898  
893.1      0          1          0.3555367 
893.1999999999999 0          1          0.4029234 
893.3      0          1          0.4101025 
893.4      0          1          0.3887736 
893.5      0          1          0.3729366 
893.6      0          1          0.3690322 
893.6999999999999 0          1          0.3612883 
893.8      0          1          0.3432386 
893.9      0          1          0.304994  
894        0          1          0.3156936 
894.1      0.01716192 1          0.2858361 
894.1999999999999 0.03260268 1          0.2573591 
894.3      0.04176893 1          0.228641  
894.4      0.04350407 1          0.199112  
894.5      0.03392895 1          0.1824346 
894.6      0.02208128 1          0.1774639 
894.6999999999999 0.007775416 1          0.1711439 
894.8      0          1          0.1635262 
894.9      0.004939682 1          0.160785  
895        0.001053435 1          0.1539982 
895.1      0.01630195 1          0.1621537 
895.1999999999999 0.01122362 1          0.15942   
895.3      0.004133433 1          0.1635262 
895.4      0          1          0.1697502 
895.5      0.002507383 1          0.1690548 
895.6      0.0108661  1          0.1704465 
895.6999999999999 0.006593248 1          0.1655922 
895.8      0.005676761 1          0.1628395 
895.9      0.0043381  1          0.1628395 
896        0.001114613 1          0.1669743 
896.1      0          1          0.1704465 
896.1999999999999 0          1          0.1669743 
896.3      0          1          0.1628395 
896.4      0          1          0.1546727 
896.5      0          1          0.1635262 
896.6      0          1          0.1649026 
896.6999999999999 0          1          0.1704465 
896.8      0          1          0.1810094 
896.9      0          1          0.1845797 
897        0          1          0.1939796 
897.1      0          1          0.2110328 
897.1999999999999 0.008086009 1          0.2224523 
897.3      0.02587362 1          0.2301989 
897.4      0.03907408 1          0.2364744 
897.5      0.0377991  1          0.2436183 
897.6      0.0156824  1          0.259818  
897.6999999999999 0          1          0.2849791 
897.8      0          1          0.2918682 
897.9      0          1          0.2901387 
898        0          1          0.2798625 
898.1      0          1          0.275631  
898.1999999999999 0          1          0.2875535 
898.3      0          1          0.3058788 
898.4      0          1          0.313898  
898.5      0          1          0.296213  
898.6      0          1          0.3005882 
898.6999999999999 0          1          0.3041103 
898.8      0          1          0.3076521 
898.9      0          1          0.313002  
899        0          1          0.3284049 
899.1      0          1          0.3284049 
899.1999999999999 0          1          0.3320824 
899.3      0          1          0.3311611 
899.4      0          1          0.3367081 
899.5      0          1          0.3423017 
899.6      0          1          0.3348539 
899.6999999999999 0          1          0.3274887 
899.8      0          1          0.3302411 
899.9      0          1          0.3517289 
900        -9999      -9999      0.3603263 
900.1      -9999      -9999      0.3948041 
900.1999999999999 -9999      -9999      0.4331261 
900.3      -9999      -9999      0.4858761 
900.4      -9999      -9999      0.538636  
900.5      -9999      -9999      0.6130136 
900.6      -9999      -9999      0.7329828 
900.6999999999999 -9999      -9999      0.9280581 
900.8      -9999      -9999      1         
900.9      -9999      -9999      1         
901        -9999      -9999      1         
901.1      -9999      -9999      1         
901.1999999999999 -9999      -9999      1         
901.3      -9999      -9999      1         
901.4      -9999      -9999      1         
901.5      -9999      -9999      1         
901.6      -9999      -9999      1         
901.6999999999999 -9999      -9999      1         
901.8      -9999      -9999      1         
901.9      -9999      -9999      1         
902        -9999      -9999      1         
902.1      -9999      -9999      1         
902.1999999999999 -9999      -9999      1         
902.3      -9999      -9999      1         
902.4      -9999      -9999      1         
902.5      -9999      -9999      1         
902.6      -9999      -9999      0.7630025 
902.6999999999999 -9999      -9999      0.3827933 
902.8      -9999      -9999      0.1932505 
902.9      -9999      -9999      0.1214466 
903        -9999      -9999      0.09225858
903.1      -9999      -9999      0.08066107
903.1999999999999 -9999      -9999      0.07385602
903.3      -9999      -9999      0.06993859
903.4      -9999      -9999      0.07105397
903.5      -9999      -9999      0.07611173
903.6      -9999      -9999      0.07894912
903.6999999999999 -9999      -9999      0.07554663
903.8      -9999      -9999      0.07724433
903.9      -9999      -9999      0.08526135
