~Version
 VERS              .         3.0                           : CWLS LOG ASCII STANDARD - VERSION 3.0
 WRAP              .         NO                            : ONE LINE PER DEPTH STEP
 DLM               .         SPACE                         : DELIMITING CHARACTER(SPACE TAB OR COMMA)
~Well Information
#_______________________________________________________________________________
#
#PARAMETER_NAME    .UNIT     VALUE                         : DESCRIPTION
#_______________________________________________________________________________
STRT               .m        0.2                           : First reference value
STOP               .m        937.8                         : Last reference value
STEP               .m        0.1                           : Step increment
NULL               .         -9999                         : Missing value
COMP               .         ICPetroleum                   : Company
WELL               .         329                           : Well name
FLD                .         Karatobe                      : Field
LOC                .                                       : Location
SRVC               .                                       : Service Company
CTRY               .         KZ                            : Country
DATE               .         27.01.2007                    : Service Date
LATI               .         0                             : Latitude
LONG               .         0                             : Longitude
GDAT               .         WGS 84                        : Geodetic Datum
CNTY               .                                       : 
COORDIN            .                                       : Grid System
COUNTRY            .         Kazakhstan                    : 
COUNTRY            .         Kazakhstan                    : 
EREF               .m        141.8                         : 
KB                 .         0                             : KB Elevation
ORIGINALWELLNAME   .         329                           : 
PROV               .                                       : Province
RWS                .         -999                          : Def_Rw
STAT               .                                       : 
UWI                .                                       : 
WST                .         -999                          : Def_Rwt
X                  .km       466696.75                     : 
XCOORD             .                                       : X or East-West Coordinate
Y                  .km       5307893.42                    : 
YCOORD             .                                       : Y or North-South Coordinate
~Parameter Information Block
#_______________________________________________________________________________
#
#PARAMETER_NAME    .UNIT     VALUE                         : DESCRIPTION
#_______________________________________________________________________________
SET                .         Las                           : 
TLFamily_DEPT      .         Measured Depth                : 
TLFamily_PHI_FINAL .         Porosity                      : 
TLFamily_SW_AR     .         Water Saturation              : 
TLFamily_VSH_FINAL .         Shale Volume                  : 
~Curve Information
#_______________________________________________________________________________
#
#LOGNAME           .UNIT     LOG_ID                        : DESCRIPTION
#_______________________________________________________________________________
DEPT               .m                                      :  {F}
PHI_FINAL          .m3/m3                                  : Porosity {F}
SW_AR              .m3/m3                                  :  {F}
VSH_FINAL          .unitless                               : Vshale {F}
~Ascii
# ...
322.4      0.1434901  1          0.3229965 
322.4999999999999 0.1371405  1          0.3752496 
322.6      0.1564535  1          0.3701754 
322.7      0.1771608  1          0.3657391 
322.8      0.1899991  1          0.3743442 
322.9      0.2008985  1          0.4075898 
322.9999999999999 0.2249134  0.9403692  0.4126396 
323.1      0.2481312  0.850904   0.3966289 
323.2      0.2705634  0.7918031  0.3717639 
323.3      0.2840535  0.7717134  0.3550876 
323.4      0.2915992  0.7618737  0.3435589 
323.4999999999999 0.2938108  0.7657628  0.3347628 
323.6      0.2874493  0.7916356  0.34944   
323.7      0.2774114  0.8252624  0.3668098 
323.8      0.2743767  0.8325568  0.3690923 
323.9      0.2771822  0.8180516  0.3430394 
323.9999999999999 0.2704516  0.8320556  0.3368311 
324.1      0.2467511  0.9088842  0.3850083 
324.2      0.2022423  1          0.5146635 
324.3      0.1323649  1          0.6851673 
324.4      0.08444116 1          0.7942963 
324.4999999999999 0.09942887 1          0.7504369 
324.6      0.1495208  1          0.6246932 
324.7      0.2017814  1          0.499935  
324.8      0.2468254  0.877503   0.3923919 
324.9      0.2800273  0.7799003  0.300956  
324.9999999999999 0.3063862  0.7183957  0.2289266 
325.1      0.32219    0.6850174  0.1963283 
325.2      0.31443    0.6979069  0.2033472 
325.3      0.2923064  0.7510871  0.2504292 
325.4      0.2718842  0.8165063  0.317097  
325.4999999999999 0.2612559  0.8651488  0.3595165 
325.6      0.2671325  0.8608192  0.3505436 
325.7      0.2859524  0.8137701  0.3057469 
325.8      0.2981101  0.7784928  0.2761071 
325.9      0.2995493  0.76622    0.2729502 
325.9999999999999 0.288032   0.781498   0.3019958 
326.1      0.2716605  0.8109938  0.3315271 
326.2      0.2575153  0.8430062  0.3526309 
326.3      0.2503921  0.8593885  0.3586755 
326.4      0.2378345  0.8970684  0.3728328 
326.4999999999999 0.2329671  0.9227481  0.3733681 
326.6      0.2438716  0.9022194  0.3400874 
326.7      0.2685867  0.8336242  0.2769386 
326.8      0.2875525  0.7888719  0.2268039 
326.9      0.2891648  0.7934965  0.212983  
326.9999999999999 0.2815531  0.8217308  0.2327065 
327.1      0.2724463  0.8532906  0.2744749 
327.2      0.2621786  0.8892971  0.3067535 
327.3      0.259557   0.908476   0.3213257 
327.4      0.278448   0.8589081  0.3166088 
327.4999999999999 0.2915356  0.8281765  0.3263591 
327.6      0.3018798  0.8041492  0.3543215 
327.7      0.2951077  0.824528   0.4067375 
327.8      0.2835622  0.8562503  0.4656044 
327.9      0.2686764  0.8946809  0.5232622 
327.9999999999999 0.2524963  0.9438366  0.5932708 
328.1      0.2252514  1          0.6597562 
328.2      0.2145744  1          0.7012724 
328.3      0.2265628  1          0.6441169 
328.4      0.2628793  0.8782824  0.5309115 
328.4999999999999 0.3010977  0.7724487  0.4192094 
328.6      0.3140079  0.7423729  0.3566441 
328.7      0.3148571  0.7453859  0.3403095 
328.8      0.3125947  0.7580775  0.3507668 
328.9      0.310459   0.7643043  0.386233  
328.9999999999999 0.2955959  0.7952235  0.4350133 
329.1      0.2697004  0.8615064  0.5062696 
329.2      0.2490691  0.9212607  0.5836506 
329.3      0.2209662  1          0.6809715 
329.4      0.1743194  1          0.8098744 
329.4999999999999 0.1245615  1          0.9544651 
329.6      0.1091607  1          1         
329.7      0.1029963  1          1         
329.8      0.09135161 1          1         
329.9      0.07877558 1          1         
329.9999999999999 0.06860265 1          1         
330.1      0.05788168 1          1         
330.2      0.06045337 1          0.9535258 
330.3      0.04936249 1          0.9865948 
330.4      0.05010986 1          1         
330.4999999999999 0.05472704 1          1         
330.6      0.06007517 1          1         
330.7      0.06427634 1          1         
330.8      0.06704289 1          1         
330.9      0.1236647  1          0.7864075 
330.9999999999999 0.1940255  1          0.619567  
331.1      0.2259896  0.9876794  0.5447787 
331.2      0.2349148  0.9263511  0.5246019 
331.3      0.2297456  0.9460551  0.5276561 
331.4      0.2120936  1          0.5625504 
331.4999999999999 0.1829018  1          0.6149893 
331.6      0.1575233  1          0.6661121 
331.7      0.1447109  1          0.6769278 
331.8      0.1560858  1          0.6358835 
331.9      0.1745828  1          0.5698202 
331.9999999999999 0.1877222  1          0.5123218 
332.1      0.1862447  1          0.4805467 
332.2      0.1861591  1          0.4635049 
332.3      0.1712208  1          0.4740868 
332.4      0.1557227  1          0.4861528 
332.4999999999999 0.1368409  1          0.4954922 
332.6      0.1351717  1          0.4670993 
332.7      0.1393318  1          0.4407771 
332.8      0.1373591  1          0.4481758 
332.9      0.1158848  1          0.5177423 
332.9999999999999 0.0806957  1          0.6279306 
333.1      0.05730338 1          0.6873413 
333.2      0.05947187 1          0.6693501 
333.3      0.08650573 1          0.6066751 
333.4      0.09465496 1          0.6108    
333.4999999999999 0.07763757 1          0.6873609 
333.6      0.02415847 1          0.8544399 
333.7      0.007176381 1          1         
333.8      0.01122963 1          1         
333.9      0.007887855 1          1         
333.9999999999999 0.01516098 1          0.9377599 
334.1      0.02021511 1          0.8761976 
334.2      0.009327762 1          0.9240476 
334.3      0.000351324 1          1         
334.4      0.002824282 1          1         
334.4999999999999 0.00369621 1          1         
334.6      0.007634111 1          0.9246458 
334.7      0.00806688 1          0.8764548 
334.8      0.001445067 1          0.9104781 
334.9      0          1          0.9823602 
334.9999999999999 0          1          1         
335.1      0          1          1         
335.2      0.0009227687 1          1         
335.3      0.003659526 1          1         
335.4      0.02218194 1          0.9110492 
335.4999999999999 0.1270548  1          0.6588121 
335.6      0.1957864  1          0.5164857 
335.7      0.2081993  1          0.5053455 
335.8      0.1851371  1          0.5884525 
335.9      0.1448911  1          0.6984373 
335.9999999999999 0.1199542  1          0.7641418 
336.1      0.1302622  1          0.7502539 
336.2      0.1619249  1          0.677542  
336.3      0.1921736  1          0.5975085 
336.4      0.2047518  1          0.565434  
336.4999999999999 0.1878275  1          0.6041114 
336.6      0.1550456  1          0.6988426 
336.7      0.1291789  1          0.7876998 
336.8      0.1171417  1          0.8144985 
336.9      0.1263889  1          0.7992232 
336.9999999999999 0.1315386  1          0.8013455 
337.1      0.1348068  1          0.8311926 
337.2      0.1391678  1          0.8560003 
337.3      0.1572468  1          0.8273794 
337.4      0.2040668  1          0.7432123 
337.4999999999999 0.2495729  0.9784833  0.6613274 
337.6      0.2648832  0.9198596  0.6405097 
337.7      0.2340628  1          0.7320344 
337.8      0.1627128  1          0.9022143 
337.9      0.13427    1          1         
337.9999999999999 0.1273332  1          1         
338.1      0.1172938  1          1         
338.2      0.107818   1          1         
338.3      0.1003749  1          1         
338.4      0.09500232 1          1         
338.4999999999999 0.1111612  1          0.9230356 
338.6      0.1677369  1          0.7600745 
338.7      0.211255   1          0.6493404 
338.8      0.2067187  1          0.667758  
338.9      0.1389282  1          0.8420008 
338.9999999999999 0.09751341 1          1         
339.1      0.09751349 1          1         
339.2      0.09816851 1          1         
339.3      0.09967475 1          1         
339.4      0.1019932  1          1         
339.4999999999999 0.1033703  1          1         
339.6      0.0996408  1          1         
339.7      0.09176882 1          1         
339.8      0.08406118 1          1         
339.9      0.0792339  1          1         
339.9999999999999 0.07897161 1          0.9984885 
