~Version
 VERS              .         3.0                           : CWLS LOG ASCII STANDARD - VERSION 3.0
 WRAP              .         NO                            : ONE LINE PER DEPTH STEP
 DLM               .         SPACE                         : DELIMITING CHARACTER(SPACE TAB OR COMMA)
~Well Information
#_______________________________________________________________________________
#
#PARAMETER_NAME    .UNIT     VALUE                         : DESCRIPTION
#_______________________________________________________________________________
STRT               .m        0.2                           : First reference value
STOP               .m        937.8                         : Last reference value
STEP               .m        0.1                           : Step increment
NULL               .         -9999                         : Missing value
COMP               .         ICPetroleum                   : Company
WELL               .         329                           : Well name
FLD                .         Karatobe                      : Field
LOC                .                                       : Location
SRVC               .                                       : Service Company
CTRY               .         KZ                            : Country
DATE               .         27.01.2007                    : Service Date
LATI               .         0                             : Latitude
LONG               .         0                             : Longitude
GDAT               .         WGS 84                        : Geodetic Datum
CNTY               .                                       : 
COORDIN            .                                       : Grid System
COUNTRY            .         Kazakhstan                    : 
COUNTRY            .         Kazakhstan                    : 
EREF               .m        141.8                         : 
KB                 .         0                             : KB Elevation
ORIGINALWELLNAME   .         329                           : 
PROV               .                                       : Province
RWS                .         -999                          : Def_Rw
STAT               .                                       : 
UWI                .                                       : 
WST                .         -999                          : Def_Rwt
X                  .km       466696.75                     : 
XCOORD             .                                       : X or East-West Coordinate
Y                  .km       5307893.42                    : 
YCOORD             .                                       : Y or North-South Coordinate
~Parameter Information Block
#_______________________________________________________________________________
#
#PARAMETER_NAME    .UNIT     VALUE                         : DESCRIPTION
#_______________________________________________________________________________
SET                .         Las                           : 
TLFamily_DEPT      .         Measured Depth                : 
TLFamily_PHI_FINAL .         Porosity                      : 
TLFamily_SW_AR     .         Water Saturation              : 
TLFamily_VSH_FINAL .         Shale Volume                  : 
~Curve Information
#_______________________________________________________________________________
#
#LOGNAME           .UNIT     LOG_ID                        : DESCRIPTION
#_______________________________________________________________________________
DEPT               .m                                      :  {F}
PHI_FINAL          .m3/m3                                  : Porosity {F}
SW_AR              .m3/m3                                  :  {F}
VSH_FINAL          .unitless                               : Vshale {F}
~Ascii
# ...
233.5      0.0830492  1          0.8580611 
233.6      0.09755659 1          0.8373162 
233.7      0.1289687  1          0.7677546 
233.8      0.1396459  1          0.7570955 
233.9      0.1252855  1          0.8043679 
234        0.121445   1          0.8218498 
234.1      0.1590729  1          0.7329357 
234.2      0.2041752  1          0.6091467 
234.3      0.2260087  1          0.5428821 
234.4      0.2096111  1          0.5836025 
234.5      0.154198   1          0.7211983 
234.6      0.09620329 1          0.8672807 
234.7      0.07882078 1          0.9093428 
234.8      0.1004457  1          0.8600753 
234.9      0.1183746  1          0.8049477 
235        0.1158712  1          0.7827047 
235.1      0.1221198  1          0.7480167 
235.2      0.1343783  1          0.7125246 
235.3      0.1369533  1          0.7012184 
235.4      0.1155366  1          0.7433023 
235.5      0.09236468 1          0.7760029 
235.6      0.0897848  1          0.7384736 
235.7      0.1130412  1          0.6507283 
235.8      0.1202012  1          0.6247615 
235.9      0.08424915 1          0.7118636 
236        0.03563969 1          0.8967772 
236.1      0.02585453 1          0.9727095 
236.2      0.04477191 1          0.8314691 
236.3      0.1273928  1          0.6061459 
236.4      0.1769544  1          0.494943  
236.5      0.1712474  1          0.5075465 
236.6      0.1248022  1          0.5989695 
236.7      0.08211108 1          0.6924085 
236.8      0.05442001 1          0.7507585 
236.9      0.04304416 1          0.775987  
237        0.04703199 1          0.7441778 
237.1      0.06565476 1          0.6442904 
237.2      0.09036858 1          0.5453386 
237.3      0.1039156  1          0.5119606 
237.4      0.1043363  1          0.5523313 
237.5      0.08503176 1          0.6262614 
237.6      0.07396809 1          0.701452  
237.7      0.06497858 1          0.7463261 
237.8      0.05140953 1          0.7832552 
237.9      0.04634143 1          0.7718449 
238        0.05293919 1          0.7416308 
238.1      0.07779851 1          0.6598092 
238.2      0.100999   1          0.5710837 
238.3      0.1303045  1          0.4777068 
238.4      0.1604239  1          0.4243638 
238.5      0.1773275  1          0.4127303 
238.6      0.1752039  1          0.4405459 
238.7      0.171566   1          0.472397  
238.8      0.1779097  1          0.4927513 
238.9      0.1700576  1          0.5132327 
239        0.1444823  1          0.5675911 
239.1      0.1125795  1          0.6281184 
239.2      0.1004989  1          0.6460874 
239.3      0.1186126  1          0.5895898 
239.4      0.1418213  1          0.5336477 
239.5      0.1508063  1          0.510052  
239.6      0.1304064  1          0.5437257 
239.7      0.09710716 1          0.6105409 
239.8      0.06858092 1          0.6881715 
239.9      0.06241648 1          0.7120048 
240        0.07568406 1          0.6818443 
240.1      0.09052923 1          0.6658479 
240.2      0.0798301  1          0.6977956 
240.3      0.06361221 1          0.7517886 
240.4      0.05427864 1          0.7793497 
240.5      0.06221589 1          0.7466413 
240.6      0.06299882 1          0.7306883 
240.7      0.05379174 1          0.7483558 
240.8      0.02678828 1          0.8547643 
240.9      0.01406731 1          0.9606934 
241        0.01096303 1          1         
241.1      0.01339588 1          0.964612  
241.2      0.03626122 1          0.8895101 
241.3      0.05314439 1          0.847828  
241.4      0.05543158 1          0.8673658 
241.5      0.02230641 1          0.9602365 
241.6      0.01412521 1          1         
241.7      0.01139412 1          1         
241.8      0.009995355 1          1         
241.9      0.008674084 1          1         
242        0.01112743 1          1         
242.1      0.009716655 1          1         
242.2      0.008309073 1          1         
242.3      0.01095749 1          1         
242.4      0.06787728 1          0.7927443 
242.5      0.1303546  1          0.6004247 
242.6      0.1534101  1          0.5063716 
242.7      0.14477    1          0.4913141 
242.8      0.1210314  1          0.5267678 
242.9      0.1045031  1          0.5881517 
243        0.0883346  1          0.6656546 
243.1      0.06617114 1          0.740431  
243.2      0.04736893 1          0.8130841 
243.3      0.04050799 1          0.8599027 
243.4      0.04368107 1          0.8649207 
243.5      0.08074948 1          0.7671221 
243.6      0.1436257  1          0.6086769 
243.7      0.1920811  1          0.5024141 
243.8      0.1935058  1          0.5235776 
243.9      0.1554044  1          0.6538731 
244        0.1060588  1          0.7849352 
244.1      0.09080973 1          0.8113602 
244.2      0.07294019 1          0.8541946 
244.3      0.02983976 1          1         
244.4      0.03708111 1          1         
244.5      0.05661169 1          1         
244.6      0.07930871 1          0.9914678 
244.7      0.1939205  1          0.7129914 
244.8      0.2646088  0.8588519  0.5299938 
244.9      0.2919843  0.7496551  0.4357229 
245        0.296488   0.7220456  0.4140833 
245.1      0.2577305  0.8302316  0.4893486 
245.2      0.1791545  1          0.654853  
245.3      0.1144715  1          0.80369   
245.4      0.1120406  1          0.8253548 
245.5      0.1217257  1          0.811613  
245.6      0.08930354 1          0.9092394 
245.7      0.06025035 1          1         
245.8      0.05207301 1          1         
245.9      0.04592049 1          1         
246        0.04514054 1          1         
246.1      0.04690722 1          1         
246.2      0.0450261  1          1         
246.3      0.03627136 1          1         
246.4      0.02499411 1          1         
246.5      0.01451209 1          1         
246.6      0.01513802 1          0.9503497 
246.7      0.07360601 1          0.652065  
246.8      0.1334865  0.7798679  0.5086445 
246.9      0.1356332  0.8425198  0.4847675 
247        0.1049096  1          0.5560097 
247.1      0.06112159 1          0.6969035 
247.2      0.02778866 1          0.8925638 
247.3      0.02556853 1          1         
247.4      0.05157617 1          1         
247.5      0.07507612 1          1         
247.6      0.1182103  1          0.9333784 
247.7      0.1551862  1          0.8679796 
247.8      0.1872956  1          0.7813144 
247.9      0.2137095  1          0.7122852 
248        0.230885   1          0.6647066 
248.1      0.2415833  1          0.6499119 
248.2      0.2580972  1          0.6167541 
248.3      0.2795834  0.9823845  0.5642025 
248.4      0.2963182  0.9319187  0.5180638 
248.5      0.3105158  0.9017945  0.4788559 
248.6      0.3203399  0.8485738  0.4499837 
248.7      0.3420725  0.7617229  0.4039521 
248.8      0.3616256  0.6940629  0.3691024 
248.9      0.3887309  0.6353388  0.3390516 
249        0.3848119  0.6426076  0.3453909 
249.1      0.3651183  0.6827298  0.3792356 
249.2      0.3456054  0.7231184  0.4306135 
249.3      0.3301971  0.7563981  0.4308953 
249.4      0.3373971  0.7397488  0.3703091 
249.5      0.3501625  0.7102823  0.3046405 
249.6      0.3482165  0.7114365  0.3045965 
249.7      0.3220797  0.7617874  0.3898938 
249.8      0.2645395  0.9143832  0.5636192 
249.9      0.1870396  1          0.7773096 
250        0.1245268  1          0.9686793 
250.1      0.1142553  1          1         
250.2      0.1224077  1          0.9295558 
250.3      0.1874618  1          0.7029265 
250.4      0.241828   0.9680532  0.5165201 
250.5      0.2493146  0.9234198  0.4467899 
250.6      0.2228243  1          0.4913251 
250.7      0.1728581  1          0.6125917 
250.8      0.1332618  1          0.7095426 
250.9      0.1468503  1          0.6642622 
251        0.1959842  1          0.5408075 
251.1      0.2319413  0.8861165  0.4505252 
251.2      0.2253284  0.9070568  0.4482738 
251.3      0.1971487  1          0.498831  
251.4      0.1724462  1          0.5544081 
251.5      0.1525913  1          0.5811523 
251.6      0.150842   1          0.5844552 
