~Version
 VERS              .         3.0                           : CWLS LOG ASCII STANDARD - VERSION 3.0
 WRAP              .         NO                            : ONE LINE PER DEPTH STEP
 DLM               .         SPACE                         : DELIMITING CHARACTER(SPACE TAB OR COMMA)
~Well Information
#_______________________________________________________________________________
#
#PARAMETER_NAME    .UNIT     VALUE                         : DESCRIPTION
#_______________________________________________________________________________
STRT               .m        0.2                           : First reference value
STOP               .m        937.8                         : Last reference value
STEP               .m        0.1                           : Step increment
NULL               .         -9999                         : Missing value
COMP               .         ICPetroleum                   : Company
WELL               .         329                           : Well name
FLD                .         Karatobe                      : Field
LOC                .                                       : Location
SRVC               .                                       : Service Company
CTRY               .         KZ                            : Country
DATE               .         27.01.2007                    : Service Date
LATI               .         0                             : Latitude
LONG               .         0                             : Longitude
GDAT               .         WGS 84                        : Geodetic Datum
CNTY               .                                       : 
COORDIN            .                                       : Grid System
COUNTRY            .         Kazakhstan                    : 
COUNTRY            .         Kazakhstan                    : 
EREF               .m        141.8                         : 
KB                 .         0                             : KB Elevation
ORIGINALWELLNAME   .         329                           : 
PROV               .                                       : Province
RWS                .         -999                          : Def_Rw
STAT               .                                       : 
UWI                .                                       : 
WST                .         -999                          : Def_Rwt
X                  .km       466696.75                     : 
XCOORD             .                                       : X or East-West Coordinate
Y                  .km       5307893.42                    : 
YCOORD             .                                       : Y or North-South Coordinate
~Parameter Information Block
#_______________________________________________________________________________
#
#PARAMETER_NAME    .UNIT     VALUE                         : DESCRIPTION
#_______________________________________________________________________________
SET                .         Las                           : 
TLFamily_DEPT      .         Measured Depth                : 
TLFamily_PHI_FINAL .         Porosity                      : 
TLFamily_SW_AR     .         Water Saturation              : 
TLFamily_VSH_FINAL .         Shale Volume                  : 
~Curve Information
#_______________________________________________________________________________
#
#LOGNAME           .UNIT     LOG_ID                        : DESCRIPTION
#_______________________________________________________________________________
DEPT               .m                                      :  {F}
PHI_FINAL          .m3/m3                                  : Porosity {F}
SW_AR              .m3/m3                                  :  {F}
VSH_FINAL          .unitless                               : Vshale {F}
~Ascii
# ...
178.9      0.3413125  0.4781296  0.4822954 
179        0.2729349  0.6062039  0.6020536 
179.1      0.1618438  1          0.8110774 
179.2      0.08697391 1          0.9527377 
179.3      0.1343295  1          0.8562736 
179.4      0.2540509  0.6893147  0.6178133 
179.5      0.3433421  0.5032094  0.4254386 
179.6      0.3871842  0.4313096  0.321933  
179.7      0.3982159  0.4128895  0.2902537 
179.8      0.3984399  0.4165348  0.2982193 
179.9      0.3986562  0.4274041  0.3247075 
180        0.4018828  0.4295836  0.3480395 
180.1      0.4035589  0.4294766  0.3626498 
180.2      0.4082668  0.4205296  0.3692132 
180.3      0.4065441  0.4162055  0.3732385 
180.4      0.4139536  0.4080737  0.3695824 
180.5      0.4174769  0.4055294  0.367736  
180.6      0.4138241  0.4085542  0.3667053 
180.7      0.4073952  0.4135581  0.3643883 
180.8      0.4173784  0.402784   0.345283  
180.9      0.4334356  0.3863044  0.3223056 
181        0.4467018  0.3735164  0.301946  
181.1      0.4476584  0.3705531  0.3005188 
181.2      0.4390644  0.3745738  0.3081309 
181.3      0.4166591  0.3932728  0.3267933 
181.4      0.3934016  0.4152315  0.3539717 
181.5      0.3592087  0.4510301  0.4115936 
181.6      0.3012296  0.5283988  0.5129267 
181.7      0.232781   0.6635865  0.6303709 
181.8      0.2046367  0.7431784  0.6721888 
181.9      0.2482453  0.6249098  0.5963681 
182        0.3157481  0.5159747  0.4716688 
182.1      0.3578534  0.4772341  0.3952893 
182.2      0.3686586  0.4665482  0.3841878 
182.3      0.3479543  0.4927672  0.4316969 
182.4      0.3297049  0.5138195  0.47574   
182.5      0.3427093  0.4883296  0.4549834 
182.6      0.3792848  0.4405669  0.3888259 
182.7      0.4001219  0.4232712  0.3548113 
182.8      0.3704376  0.4585523  0.4174882 
182.9      0.2870415  0.5779843  0.5786676 
183        0.1781523  0.9051586  0.7820356 
183.1      0.1182816  1          0.8944983 
183.2      0.1340394  1          0.866988  
183.3      0.1921164  0.8579856  0.7601144 
183.4      0.2559809  0.6539947  0.6417553 
183.5      0.2981794  0.5702462  0.5676748 
183.6      0.2962649  0.5785402  0.572492  
183.7      0.2555904  0.6684067  0.6566237 
183.8      0.1970675  0.8539981  0.7733762 
183.9      0.194631   0.8632957  0.7686265 
184        0.2669624  0.6408378  0.6337912 
184.1      0.3462225  0.5025455  0.4830041 
184.2      0.3780606  0.4655092  0.4237337 
184.3      0.3735758  0.4712455  0.4304307 
184.4      0.35708    0.4918133  0.458146  
184.5      0.3485     0.5037432  0.4714227 
184.6      0.3390677  0.5169892  0.4860422 
184.7      0.325434   0.5359107  0.5082079 
184.8      0.3212172  0.5394759  0.5121583 
184.9      0.3361153  0.5144005  0.4833469 
185        0.3590085  0.4810652  0.4406999 
185.1      0.3705885  0.4651064  0.4209245 
185.2      0.3580145  0.4761639  0.4422423 
185.3      0.3259931  0.5193521  0.5091537 
185.4      0.2909513  0.5793854  0.5821887 
185.5      0.2768094  0.6084535  0.6113013 
185.6      0.2832156  0.5938056  0.6037661 
185.7      0.2620707  0.6390302  0.6431212 
185.8      0.1851371  0.8837476  0.7801323 
185.9      0.07042716 1          0.9903334 
186        0.06596278 1          1         
186.1      0.07043999 1          1         
186.2      0.1373156  1          0.8776738 
186.3      0.2074775  0.8096077  0.7430826 
186.4      0.2530245  0.6624247  0.64696   
186.5      0.2864203  0.5869868  0.593008  
186.6      0.3074752  0.5503884  0.5617017 
186.7      0.3031667  0.5593125  0.5655343 
186.8      0.2861023  0.5886701  0.5931638 
186.9      0.2732679  0.6142333  0.6015764 
187        0.2845366  0.5933521  0.5661545 
187.1      0.2988971  0.574795   0.5301519 
187.2      0.2797239  0.6250077  0.554441  
187.3      0.2203435  0.7925938  0.6616755 
187.4      0.1507337  1          0.7969456 
187.5      0.1092062  1          0.8784084 
187.6      0.1212845  1          0.8737673 
187.7      0.1596425  1          0.8136175 
187.8      0.2201532  0.7535694  0.7210937 
187.9      0.2723706  0.5994979  0.6317109 
188        0.2959147  0.5351984  0.5846516 
188.1      0.2974939  0.5204409  0.5731844 
188.2      0.3097479  0.5001696  0.5419397 
188.3      0.340239   0.4626856  0.4691365 
188.4      0.3647456  0.443453   0.4016948 
188.5      0.3601856  0.4582667  0.3986928 
188.6      0.342437   0.4886969  0.44629   
188.7      0.3308195  0.5117189  0.5017081 
188.8      0.3573538  0.4836219  0.486158  
188.9      0.3992308  0.4481691  0.4370655 
189        0.4202371  0.4387173  0.4102066 
189.1      0.4004297  0.465999   0.4564092 
189.2      0.3596719  0.5174537  0.5517616 
189.3      0.3479454  0.5373871  0.600131  
189.4      0.4009358  0.4788132  0.5210394 
189.5      0.4870001  0.4038116  0.3742501 
189.6      0.534711   0.3696433  0.2808961 
189.7      0.5516949  0.3613637  0.2526405 
189.8      0.5422232  0.372113   0.2762943 
189.9      0.5139465  0.3947505  0.3233535 
190        0.4611652  0.4347412  0.3977158 
190.1      0.4012019  0.4867369  0.4948816 
190.2      0.3414341  0.5696094  0.5822989 
190.3      0.3142333  0.6219604  0.6187818 
190.4      0.3114741  0.6370458  0.6269805 
190.5      0.3079322  0.6479353  0.6453422 
190.6      0.3158393  0.6389102  0.6493906 
190.7      0.3561319  0.5851746  0.6012626 
190.8      0.4187394  0.5122672  0.5050899 
190.9      0.4715576  0.4590764  0.4078715 
191        0.5069674  0.4178931  0.3206418 
191.1      0.5318447  0.3902604  0.2521359 
191.2      0.5381243  0.3859511  0.2127675 
191.3      0.5312812  0.3877391  0.2080295 
191.4      0.5149097  0.3926308  0.2317555 
191.5      0.4920772  0.4007895  0.2588718 
191.6      0.4645786  0.4217399  0.2677255 
191.7      0.4446272  0.4447344  0.2510853 
191.8      0.4216278  0.4715222  0.228501  
191.9      0.395205   0.5061169  0.213621  
192        0.3665894  0.5521438  0.2188187 
192.1      0.3413442  0.6051527  0.2445754 
192.2      0.3259333  0.6305459  0.2824188 
192.3      0.3082247  0.6571398  0.3202921 
192.4      0.3013083  0.6630383  0.3378631 
192.5      0.2997884  0.6565191  0.3485939 
192.6      0.3069441  0.6307119  0.3528666 
192.7      0.3077122  0.6241431  0.3741245 
192.8      0.2881414  0.6824179  0.4290803 
192.9      0.2368364  0.8388799  0.5463064 
193        0.1197817  1          0.7025607 
193.1      0.09914433 1          0.7885195 
193.2      0.1334848  1          0.7281598 
193.3      0.1762501  1          0.6116187 
193.4      0.1946172  1          0.5446985 
193.5      0.1867455  1          0.5599836 
193.6      0.1602516  1          0.6359333 
193.7      0.1383914  1          0.7341145 
193.8      0.1438774  1          0.7602718 
193.9      0.1776366  1          0.6776933 
194        0.2355906  0.8206574  0.5219683 
194.1      0.2851537  0.6834196  0.3937074 
194.2      0.3203562  0.6136229  0.3079298 
194.3      0.3329196  0.5902864  0.2770348 
194.4      0.3264551  0.5949954  0.3009442 
194.5      0.2951922  0.646191   0.3776152 
194.6      0.2677214  0.703945   0.4575251 
194.7      0.2757777  0.6829412  0.4498109 
194.8      0.304299   0.6278828  0.3789101 
194.9      0.3296421  0.5902413  0.3377509 
195        0.3179086  0.6210656  0.3804341 
195.1      0.2708988  0.7269576  0.5069436 
195.2      0.2202089  0.8811194  0.6297101 
195.3      0.2118742  0.9073001  0.6609237 
195.4      0.234883   0.8220142  0.5987431 
195.5      0.2560598  0.7639573  0.5460033 
195.6      0.2670314  0.7460569  0.5222155 
195.7      0.2779319  0.7312142  0.4980897 
195.8      0.2962712  0.6946171  0.4503019 
195.9      0.3162305  0.658268   0.3993691 
196        0.3277436  0.6415108  0.3846188 
196.1      0.3256538  0.6542899  0.4004403 
196.2      0.3162282  0.6851533  0.4345066 
196.3      0.3072415  0.7133434  0.4594748 
196.4      0.3007151  0.7247948  0.4704939 
196.5      0.2911119  0.7441482  0.482538  
196.6      0.2754349  0.7818978  0.5305972 
196.7      0.2321507  0.9178308  0.6502667 
196.8      0.1656491  1          0.8255802 
196.9      0.09538127 1          1         
197        0.1005934  1          1         
