~Version
 VERS              .         3.0                           : CWLS LOG ASCII STANDARD - VERSION 3.0
 WRAP              .         NO                            : ONE LINE PER DEPTH STEP
 DLM               .         SPACE                         : DELIMITING CHARACTER(SPACE TAB OR COMMA)
~Well Information
#_______________________________________________________________________________
#
#PARAMETER_NAME    .UNIT     VALUE                         : DESCRIPTION
#_______________________________________________________________________________
STRT               .m        0.2                           : First reference value
STOP               .m        937.8                         : Last reference value
STEP               .m        0.1                           : Step increment
NULL               .         -9999                         : Missing value
COMP               .         ICPetroleum                   : Company
WELL               .         329                           : Well name
FLD                .         Karatobe                      : Field
LOC                .                                       : Location
SRVC               .                                       : Service Company
CTRY               .         KZ                            : Country
DATE               .         27.01.2007                    : Service Date
LATI               .         0                             : Latitude
LONG               .         0                             : Longitude
GDAT               .         WGS 84                        : Geodetic Datum
CNTY               .                                       : 
COORDIN            .                                       : Grid System
COUNTRY            .         Kazakhstan                    : 
COUNTRY            .         Kazakhstan                    : 
EREF               .m        141.8                         : 
KB                 .         0                             : KB Elevation
ORIGINALWELLNAME   .         329                           : 
PROV               .                                       : Province
RWS                .         -999                          : Def_Rw
STAT               .                                       : 
UWI                .                                       : 
WST                .         -999                          : Def_Rwt
X                  .km       466696.75                     : 
XCOORD             .                                       : X or East-West Coordinate
Y                  .km       5307893.42                    : 
YCOORD             .                                       : Y or North-South Coordinate
~Parameter Information Block
#_______________________________________________________________________________
#
#PARAMETER_NAME    .UNIT     VALUE                         : DESCRIPTION
#_______________________________________________________________________________
SET                .         Las                           : 
TLFamily_DEPT      .         Measured Depth                : 
TLFamily_PHI_FINAL .         Porosity                      : 
TLFamily_SW_AR     .         Water Saturation              : 
TLFamily_VSH_FINAL .         Shale Volume                  : 
~Curve Information
#_______________________________________________________________________________
#
#LOGNAME           .UNIT     LOG_ID                        : DESCRIPTION
#_______________________________________________________________________________
DEPT               .m                                      :  {F}
PHI_FINAL          .m3/m3                                  : Porosity {F}
SW_AR              .m3/m3                                  :  {F}
VSH_FINAL          .unitless                               : Vshale {F}
~Ascii
# ...
374.4      0.1798012  1          0.5430395 
374.4999999999999 0.1915332  1          0.5133428 
374.6      0.1743712  1          0.5497552 
374.6999999999999 0.1329503  1          0.6620439 
374.8      0.05619612 1          0.8493765 
374.9      0.01510643 1          1         
374.9999999999999 0.01624947 1          1         
375.1      0.05413641 1          0.8701288 
375.1999999999999 0.09957386 1          0.751969  
375.3      0.1087153  1          0.7168533 
375.4      0.08455782 1          0.7632644 
375.4999999999999 0.0504128  1          0.8267436 
375.6      0.02784339 1          0.8816229 
375.6999999999999 0.009540035 1          0.9624181 
375.8      0.00672651 1          1         
375.9      0.00672651 1          1         
375.9999999999999 0.005968935 1          1         
376.1      0.007457084 1          1         
376.1999999999999 0.0125955  1          1         
376.3      0.01443431 1          1         
376.4      0.0254566  1          1         
376.4999999999999 0.03440506 1          1         
376.6      0.03850969 1          1         
376.6999999999999 0.03316239 1          1         
376.8      0.03039443 1          1         
376.9      0.02347771 1          1         
376.9999999999999 0.01749334 1          1         
377.1      0.01500021 1          1         
377.1999999999999 0.02144244 1          0.9797901 
377.3      0.1433732  1          0.6447403 
377.4      0.2295626  1          0.4234944 
377.4999999999999 0.2641268  0.9846935  0.3374917 
377.6      0.2595274  1          0.3506354 
377.6999999999999 0.2307613  1          0.4365914 
377.8      0.2018302  1          0.5105535 
377.9      0.208078   1          0.4976563 
377.9999999999999 0.2482565  1          0.4045307 
378.1      0.2977746  0.9033983  0.307031  
378.1999999999999 0.3307219  0.8110749  0.2378221 
378.3      0.3465024  0.7728233  0.198938  
378.4      0.3587484  0.7558193  0.1905151 
378.4999999999999 0.3560206  0.7712637  0.2096393 
378.6      0.3328478  0.8237725  0.2620865 
378.6999999999999 0.2927731  0.9280156  0.3236706 
378.8      0.2666983  1          0.3700827 
378.9      0.2658688  1          0.3514968 
378.9999999999999 0.259963   1          0.3065448 
379.1      0.2517763  1          0.2692001 
379.1999999999999 0.2353947  1          0.276597  
379.3      0.2509389  1          0.3050907 
379.4      0.2794142  0.949293   0.3251435 
379.4999999999999 0.2762217  0.9496998  0.3244645 
379.6      0.2362129  1          0.3330158 
379.6999999999999 0.1587892  1          0.3884738 
379.8      0.09404973 1          0.4840751 
379.9      0.05077311 1          0.5990446 
379.9999999999999 0.02592293 1          0.6824933 
380.1      0.01729206 1          0.7539514 
380.1999999999999 0.01450714 1          0.7892141 
380.3      0.01398974 1          0.7986341 
380.4      0.01916819 1          0.7651039 
380.4999999999999 0.03177669 1          0.7531719 
380.6      0.03796216 1          0.7862242 
380.6999999999999 0.0313358  1          0.8517699 
380.8      0.02138887 1          0.9045666 
380.9      0.02106238 1          0.9158416 
380.9999999999999 0.01186505 1          0.9696198 
381.1      0.01110485 1          1         
381.1999999999999 0.01902512 1          1         
381.3      0.02481578 1          1         
381.4      0.02447682 1          1         
381.4999999999999 0.02313606 1          1         
381.6      0.01352777 1          1         
381.6999999999999 0.0094108  1          1         
381.8      0.005921578 1          1         
381.9      0.03040236 1          0.8681195 
381.9999999999999 0.1171636  1          0.650879  
382.1      0.1632662  1          0.5423504 
382.1999999999999 0.1658247  1          0.5265197 
382.3      0.1394159  1          0.6171206 
382.4      0.08478399 1          0.786734  
382.4999999999999 0.02644461 1          0.9870414 
382.6      0.02998946 1          1         
382.6999999999999 0.04209435 1          0.9594223 
382.8      0.09561972 1          0.821194  
382.9      0.1016924  1          0.7874014 
382.9999999999999 0.06789033 1          0.8702558 
383.1      0.02810198 1          0.9902707 
383.1999999999999 0.02517431 1          1         
383.3      0.02952122 1          0.9935769 
383.4      0.03945574 1          0.9462813 
383.4999999999999 0.04512777 1          0.9261553 
383.6      0.04475204 1          0.9263005 
383.6999999999999 0.03281217 1          0.9512094 
383.8      0.02165075 1          1         
383.9      0.02106626 1          1         
383.9999999999999 0.02032036 1          1         
384.1      0.01890282 1          1         
384.1999999999999 0.01676721 1          0.9885819 
384.3      0.03084968 1          0.9380393 
384.4      0.0210928  1          1         
384.4999999999999 0.02246246 1          1         
384.6      0.02047913 1          1         
384.6999999999999 0.01856128 1          1         
384.8      0.01372786 1          1         
384.9      0.01192921 1          1         
384.9999999999999 0.0103963  1          1         
385.1      0.06046671 1          0.810357  
385.1999999999999 0.1628864  1          0.542448  
385.3      0.2076327  1          0.4146423 
385.4      0.2085335  1          0.4113501 
385.4999999999999 0.1617224  1          0.5215864 
385.6      0.08878397 1          0.7260132 
385.6999999999999 0.01961364 1          0.9429381 
385.8      0.01060389 1          1         
385.9      0.00959237 1          1         
385.9999999999999 0.02792945 1          0.9216371 
386.1      0.1003512  1          0.7423764 
386.1999999999999 0.1499792  1          0.6130218 
386.3      0.1543617  1          0.6077612 
386.4      0.1210456  1          0.6859073 
386.4999999999999 0.08946612 1          0.7636415 
386.6      0.07701661 1          0.7956065 
386.6999999999999 0.0678293  1          0.8225749 
386.8      0.0302405  1          0.9237265 
386.9      0.01513143 1          1         
386.9999999999999 0.01630516 1          1         
387.1      0.01753262 1          0.9909124 
387.1999999999999 0.055763   1          0.8497633 
387.3      0.09714122 1          0.7329785 
387.4      0.09474188 1          0.73691   
387.4999999999999 0.06299242 1          0.8155513 
387.6      0.02852381 1          0.9192734 
387.6999999999999 0.03199545 1          0.9113731 
387.8      0.06617329 1          0.831127  
387.9      0.1098831  1          0.7279482 
387.9999999999999 0.1295309  1          0.6692523 
388.1      0.1396466  1          0.6401219 
388.1999999999999 0.1411651  1          0.6262627 
388.3      0.1316805  1          0.639689  
388.4      0.1002582  1          0.7104417 
388.4999999999999 0.03722412 1          0.8521411 
388.6      0.005552326 1          1         
388.6999999999999 0.008229865 1          1         
388.8      0.007968925 1          1         
388.9      0.006970694 1          1         
388.9999999999999 0.007604862 1          1         
389.1      0.02198293 1          0.895948  
389.1999999999999 0.06005068 1          0.7640302 
389.3      0.1088691  1          0.6585753 
389.4      0.1320266  1          0.6019778 
389.4999999999999 0.1466292  1          0.5629649 
389.6      0.1655248  1          0.5312907 
389.6999999999999 0.1910078  1          0.4776163 
389.8      0.2213832  1          0.4209382 
389.9      0.2387127  1          0.3749295 
389.9999999999999 0.2533427  0.9903638  0.3422381 
390.1      0.2639386  0.9472665  0.3197817 
390.1999999999999 0.268375   0.9271721  0.3035038 
390.3      0.2680382  0.9265327  0.3070676 
390.4      0.258866   0.9648159  0.3417899 
390.4999999999999 0.2278645  1          0.4318537 
390.6      0.1675857  1          0.5888719 
390.6999999999999 0.09422594 1          0.7826987 
390.8      0.03304248 1          0.9440029 
390.9      0.01807466 1          1         
390.9999999999999 0.01759864 1          1         
391.1      0.01704479 1          1         
391.1999999999999 0.0158867  1          1         
391.3      0.01884137 1          1         
391.4      0.02029686 1          1         
