~Version
 VERS              .         3.0                           : CWLS LOG ASCII STANDARD - VERSION 3.0
 WRAP              .         NO                            : ONE LINE PER DEPTH STEP
 DLM               .         SPACE                         : DELIMITING CHARACTER(SPACE TAB OR COMMA)
~Well Information
#_______________________________________________________________________________
#
#PARAMETER_NAME    .UNIT     VALUE                         : DESCRIPTION
#_______________________________________________________________________________
STRT               .m        0.2                           : First reference value
STOP               .m        937.8                         : Last reference value
STEP               .m        0.1                           : Step increment
NULL               .         -9999                         : Missing value
COMP               .         ICPetroleum                   : Company
WELL               .         329                           : Well name
FLD                .         Karatobe                      : Field
LOC                .                                       : Location
SRVC               .                                       : Service Company
CTRY               .         KZ                            : Country
DATE               .         27.01.2007                    : Service Date
LATI               .         0                             : Latitude
LONG               .         0                             : Longitude
GDAT               .         WGS 84                        : Geodetic Datum
CNTY               .                                       : 
COORDIN            .                                       : Grid System
COUNTRY            .         Kazakhstan                    : 
COUNTRY            .         Kazakhstan                    : 
EREF               .m        141.8                         : 
KB                 .         0                             : KB Elevation
ORIGINALWELLNAME   .         329                           : 
PROV               .                                       : Province
RWS                .         -999                          : Def_Rw
STAT               .                                       : 
UWI                .                                       : 
WST                .         -999                          : Def_Rwt
X                  .km       466696.75                     : 
XCOORD             .                                       : X or East-West Coordinate
Y                  .km       5307893.42                    : 
YCOORD             .                                       : Y or North-South Coordinate
~Parameter Information Block
#_______________________________________________________________________________
#
#PARAMETER_NAME    .UNIT     VALUE                         : DESCRIPTION
#_______________________________________________________________________________
SET                .         Las                           : 
TLFamily_DEPT      .         Measured Depth                : 
TLFamily_PHI_FINAL .         Porosity                      : 
TLFamily_SW_AR     .         Water Saturation              : 
TLFamily_VSH_FINAL .         Shale Volume                  : 
~Curve Information
#_______________________________________________________________________________
#
#LOGNAME           .UNIT     LOG_ID                        : DESCRIPTION
#_______________________________________________________________________________
DEPT               .m                                      :  {F}
PHI_FINAL          .m3/m3                                  : Porosity {F}
SW_AR              .m3/m3                                  :  {F}
VSH_FINAL          .unitless                               : Vshale {F}
~Ascii
# ...
287.2      0.1478007  1          0.6717077 
287.3      0.1436122  1          0.6680605 
287.4      0.1348477  1          0.6596385 
287.4999999999999 0.1399286  1          0.6454786 
287.6      0.1508493  1          0.6282499 
287.7      0.1501216  1          0.6126177 
287.8      0.1401872  1          0.599545  
287.9      0.1181964  1          0.5931172 
287.9999999999999 0.1079744  1          0.5973944 
288.1      0.1031643  1          0.6159323 
288.2      0.1067892  1          0.631655  
288.3      0.1127484  1          0.6396788 
288.4      0.1227103  1          0.6408341 
288.4999999999999 0.1337077  1          0.6431517 
288.6      0.1344995  1          0.6513367 
288.7      0.1369871  1          0.6525155 
288.8      0.1372505  1          0.6466455 
288.9      0.146159   1          0.6350803 
288.9999999999999 0.1527586  1          0.621499  
289.1      0.1534919  1          0.6181525 
289.2      0.1480827  1          0.6259909 
289.3      0.137418   1          0.6454786 
289.4      0.1227728  1          0.6680605 
289.4999999999999 0.1107049  1          0.6741518 
289.6      0.09974097 1          0.6717077 
289.7      0.08135065 1          0.6717077 
289.8      0.06634397 1          0.6778374 
289.9      0.05636329 1          0.6890364 
289.9999999999999 0.04812612 1          0.7056033 
290.1      0.03971354 1          0.7199995 
290.2      0.03290614 1          0.749907  
290.3      0.0269231  1          0.8242055 
290.4      0.02169256 1          0.9223921 
290.4999999999999 0.01860136 1          0.9963278 
290.6      0.01915444 1          1         
290.7      0.02129373 1          1         
290.8      0.03280436 1          0.9963278 
290.9      0.04995996 1          0.9552003 
290.9999999999999 0.06127757 1          0.9205186 
291.1      0.06085279 1          0.8877888 
291.2      0.06510686 1          0.8534597 
291.3      0.02798493 1          0.9592859 
291.4      0.02760942 1          0.9375783 
291.4999999999999 0.01528503 1          1         
291.6      0.01852741 1          1         
291.7      0.02365889 1          1         
291.8      0.02318024 1          1         
291.9      0.01884587 1          1         
291.9999999999999 0.01311181 1          1         
292.1      0.01042808 1          1         
292.2      0.01278109 1          1         
292.3      0.02144029 1          0.9754677 
292.4      0.03600111 1          0.9323866 
292.4999999999999 0.03029176 1          0.969844  
292.6      0.01755954 1          1         
292.7      0.01063209 1          1         
292.8      0.006415716 1          1         
292.9      0.05171091 1          0.8289605 
292.9999999999999 0.1532698  1          0.5915466 
293.1      0.2204929  0.9501414  0.4702106 
293.2      0.2512743  0.8528364  0.4789883 
293.3      0.2010695  1          0.6440575 
293.4      0.09118521 1          0.9688244 
293.4999999999999 0.08423133 1          1         
293.6      0.08176883 1          1         
293.7      0.07832806 1          1         
293.8      0.07068926 1          1         
293.9      0.06427831 1          1         
293.9999999999999 0.0617052  1          1         
294.1      0.1038061  1          0.8819326 
294.2      0.1694108  1          0.7139784 
294.3      0.1882944  1          0.6653473 
294.4      0.1630431  1          0.7318297 
294.4999999999999 0.1081361  1          0.8629516 
294.6      0.05461962 1          0.9985839 
294.7      0.04713126 1          1         
294.8      0.0575027  1          0.9476112 
294.9      0.109555   1          0.7905252 
294.9999999999999 0.1493513  1          0.6652685 
295.1      0.1714723  1          0.5872187 
295.2      0.1666741  1          0.5893361 
295.3      0.1562897  1          0.6129581 
295.4      0.146247   1          0.6274828 
295.4999999999999 0.1551205  1          0.607255  
295.6      0.17415    1          0.5709852 
295.7      0.1816784  1          0.5612452 
295.8      0.1641194  1          0.6080828 
295.9      0.1164104  1          0.7186518 
295.9999999999999 0.06394113 1          0.839249  
296.1      0.04396306 1          0.8798398 
296.2      0.05938008 1          0.8283437 
296.3      0.09011688 1          0.7279779 
296.4      0.114688   1          0.6489922 
296.4999999999999 0.1323158  1          0.6057609 
296.6      0.1439212  1          0.5868308 
296.7      0.1498111  1          0.5639253 
296.8      0.1485589  1          0.5625516 
296.9      0.1127696  1          0.651812  
296.9999999999999 0.02102161 1          0.905016  
297.1      0.006637882 1          1         
297.2      0.004949939 1          1         
297.3      0.002381241 1          1         
297.4      0.002073014 1          1         
297.4999999999999 0.0215622  1          0.8686659 
297.6      0.06889676 1          0.7249385 
297.7      0.09718908 1          0.6640854 
297.8      0.09664891 1          0.664708  
297.9      0.0866883  1          0.6750146 
297.9999999999999 0.07039122 1          0.7091249 
298.1      0.05185474 1          0.7557516 
298.2      0.0215099  1          0.8379064 
298.3      0.001094748 1          0.9874207 
298.4      0          1          1         
298.4999999999999 0          1          1         
298.6      0          1          1         
298.7      0.01396003 1          0.8595194 
298.8      0.06160226 1          0.7394719 
298.9      0.08152372 1          0.7113782 
298.9999999999999 0.08177471 1          0.7104664 
299.1      0.1111674  1          0.6352181 
299.2      0.1488804  1          0.5392506 
299.3      0.1714141  1          0.490931  
299.4      0.1587212  1          0.5323488 
299.4999999999999 0.1303466  1          0.6251523 
299.6      0.1036236  1          0.7089212 
299.7      0.091646   1          0.7502522 
299.8      0.09285203 1          0.7589394 
299.9      0.09955363 1          0.7483357 
299.9999999999999 0.112267   1          0.7160054 
300.1      0.1261926  1          0.6758907 
300.2      0.14083    1          0.63827   
300.3      0.1634438  1          0.5939991 
300.4      0.1824012  1          0.5562265 
300.4999999999999 0.1853523  1          0.5624748 
300.6      0.1643105  1          0.6260654 
300.7      0.121595   1          0.7161589 
300.8      0.09823808 1          0.740585  
300.9      0.09410495 1          0.7020934 
300.9999999999999 0.0921215  1          0.6488507 
301.1      0.08932587 1          0.6302028 
301.2      0.0862455  1          0.6338565 
301.3      0.08989625 1          0.6346904 
301.4      0.09761893 1          0.6303456 
301.4999999999999 0.1074793  1          0.6243973 
301.6      0.09129167 1          0.6803564 
301.7      0.05134502 1          0.8019428 
301.8      0.007490198 1          0.9615924 
301.9      0.001423485 1          1         
301.9999999999999 0.01657124 1          0.896383  
302.1      0.0661557  1          0.7677056 
302.2      0.11488    1          0.6945699 
302.3      0.1235095  1          0.6949577 
302.4      0.1313705  1          0.6930472 
302.4999999999999 0.1438749  1          0.6626782 
302.6      0.1712602  1          0.5872687 
302.7      0.1793395  1          0.5373726 
302.8      0.1672299  1          0.5263768 
302.9      0.1477365  1          0.5495415 
302.9999999999999 0.1315017  1          0.571215  
303.1      0.1080843  1          0.6187525 
303.2      0.06164476 1          0.7245477 
303.3      0.01580415 1          0.8779301 
303.4      0.001843725 1          0.9824712 
303.4999999999999 0.006998176 1          0.9529563 
303.6      0.02723856 1          0.8828066 
303.7      0.04088187 1          0.8545226 
303.8      0.02063726 1          0.9137115 
303.9      0.007756271 1          0.978369  
303.9999999999999 0.01007486 1          0.960218  
304.1      0.0433131  1          0.8194708 
304.2      0.1091758  1          0.6435814 
304.3      0.153865   1          0.5349467 
304.4      0.1763161  1          0.4906938 
304.4999999999999 0.167162   1          0.5275164 
304.6      0.1321203  1          0.6252519 
304.7      0.07511485 1          0.7730128 
