~Version
 VERS              .         3.0                           : CWLS LOG ASCII STANDARD - VERSION 3.0
 WRAP              .         NO                            : ONE LINE PER DEPTH STEP
 DLM               .         SPACE                         : DELIMITING CHARACTER(SPACE TAB OR COMMA)
~Well Information
#_______________________________________________________________________________
#
#PARAMETER_NAME    .UNIT     VALUE                         : DESCRIPTION
#_______________________________________________________________________________
STRT               .m        0.2                           : First reference value
STOP               .m        937.8                         : Last reference value
STEP               .m        0.1                           : Step increment
NULL               .         -9999                         : Missing value
COMP               .         ICPetroleum                   : Company
WELL               .         329                           : Well name
FLD                .         Karatobe                      : Field
LOC                .                                       : Location
SRVC               .                                       : Service Company
CTRY               .         KZ                            : Country
DATE               .         27.01.2007                    : Service Date
LATI               .         0                             : Latitude
LONG               .         0                             : Longitude
GDAT               .         WGS 84                        : Geodetic Datum
CNTY               .                                       : 
COORDIN            .                                       : Grid System
COUNTRY            .         Kazakhstan                    : 
COUNTRY            .         Kazakhstan                    : 
EREF               .m        141.8                         : 
KB                 .         0                             : KB Elevation
ORIGINALWELLNAME   .         329                           : 
PROV               .                                       : Province
RWS                .         -999                          : Def_Rw
STAT               .                                       : 
UWI                .                                       : 
WST                .         -999                          : Def_Rwt
X                  .km       466696.75                     : 
XCOORD             .                                       : X or East-West Coordinate
Y                  .km       5307893.42                    : 
YCOORD             .                                       : Y or North-South Coordinate
~Parameter Information Block
#_______________________________________________________________________________
#
#PARAMETER_NAME    .UNIT     VALUE                         : DESCRIPTION
#_______________________________________________________________________________
SET                .         Las                           : 
TLFamily_DEPT      .         Measured Depth                : 
TLFamily_PHI_FINAL .         Porosity                      : 
TLFamily_SW_AR     .         Water Saturation              : 
TLFamily_VSH_FINAL .         Shale Volume                  : 
~Curve Information
#_______________________________________________________________________________
#
#LOGNAME           .UNIT     LOG_ID                        : DESCRIPTION
#_______________________________________________________________________________
DEPT               .m                                      :  {F}
PHI_FINAL          .m3/m3                                  : Porosity {F}
SW_AR              .m3/m3                                  :  {F}
VSH_FINAL          .unitless                               : Vshale {F}
~Ascii
# ...
637.5      0.08804187 1          0.5626162 
637.6      0.09854095 1          0.5548719 
637.7      0.1248275  1          0.5050218 
637.8      0.1502076  1          0.4770687 
637.9      0.1638559  1          0.4822359 
638        0.1699524  1          0.5035766 
638.1      0.1915573  1          0.4855729 
638.2      0.2356511  1          0.4127328 
638.3      0.2814996  1          0.3340154 
638.4      0.311676   1          0.3033908 
638.5      0.3055617  1          0.3469751 
638.6      0.2646608  1          0.4497672 
638.7      0.2102744  1          0.5900306 
638.8      0.1562834  1          0.7038047 
638.9      0.1051068  1          0.7823355 
639        0.08737493 1          0.7749036 
639.1      0.08115979 1          0.7378271 
639.2      0.07896183 1          0.7126339 
639.3      0.05397998 1          0.7682134 
639.4      0.03460143 1          0.846215  
639.5      0.02579855 1          0.8889444 
639.6      0.05610365 1          0.8099586 
639.7      0.1170116  1          0.6833386 
639.8      0.1732286  1          0.5610476 
639.9      0.1902391  1          0.5177449 
640        0.1704345  1          0.5495571 
640.1      0.1298459  1          0.6362924 
640.2      0.09241552 1          0.7318777 
640.3      0.04576097 1          0.8507376 
640.4      0.01213591 1          1         
640.5      0.01174748 1          1         
640.6      0.008595408 1          1         
640.7      0.007484104 1          1         
640.8      0.00521136 1          1         
640.9      0.005643802 1          0.9650928 
641        0.03672316 1          0.784261  
641.1      0.06250848 1          0.6872669 
641.2      0.08289577 1          0.6076881 
641.3      0.1007396  1          0.5477672 
641.4      0.1125649  1          0.5151395 
641.5      0.1014576  1          0.54296   
641.6      0.06925516 1          0.6232651 
641.7      0.02174396 1          0.7809262 
641.8      0.007712343 1          0.94886   
641.9      0.007484104 1          1         
642        0.009126812 1          0.9637017 
642.1      0.06673298 1          0.8090595 
642.2      0.1268691  1          0.6987183 
642.3      0.131865   1          0.7079895 
642.4      0.09723271 1          0.7939423 
642.5      0.05731739 1          0.8894811 
642.6      0.03899708 1          0.9077991 
642.7      0.06858239 1          0.8281403 
642.8      0.1087167  1          0.6964655 
642.9      0.1420367  1          0.5783808 
643        0.1635959  1          0.5164375 
643.1      0.1628189  1          0.5113137 
643.2      0.1545309  1          0.5415689 
643.3      0.1265745  1          0.6092271 
643.4      0.07267288 1          0.7384266 
643.5      0.01621565 1          0.9086351 
643.6      0.001602481 1          1         
643.7      0.01427541 1          0.9146715 
643.8      0.06244863 1          0.721225  
643.9      0.1229068  1          0.5472055 
644        0.1656331  1          0.4423975 
644.1      0.1931519  1          0.3882122 
644.2      0.2030353  1          0.3772012 
644.3      0.1942226  1          0.4114881 
644.4      0.1639158  1          0.4964853 
644.5      0.1294698  1          0.5975192 
644.6      0.1075215  1          0.6589099 
644.7      0.09956776 1          0.6698861 
644.8      0.09548721 1          0.6626587 
644.9      0.07411943 1          0.6999486 
645        0.04134769 1          0.776218  
645.1      0.02365425 1          0.8372453 
645.2      0.03686937 1          0.7897249 
645.3      0.08227282 1          0.6563049 
645.4      0.1294855  1          0.5296996 
645.5      0.1586425  1          0.4547686 
645.6      0.169552   1          0.4168764 
645.7      0.1630592  1          0.4210711 
645.8      0.1425228  1          0.4541705 
645.9      0.1166565  1          0.5063269 
646        0.1025351  1          0.5341551 
646.1      0.1012298  1          0.5335954 
646.2      0.09763003 1          0.5338508 
646.3      0.1022824  1          0.5456272 
646.4      0.1134552  1          0.547218  
646.5      0.1368751  1          0.5005112 
646.6      0.1666765  1          0.4331324 
646.7      0.1858855  1          0.4006055 
646.8      0.1816913  1          0.4203687 
646.9      0.170992   1          0.4721409 
647        0.1674765  1          0.5062259 
647.1      0.149929   1          0.5443847 
647.2      0.1102882  1          0.6311714 
647.3      0.06069369 1          0.7806339 
647.4      0.0183463  1          0.9170887 
647.5      0.008938678 1          0.9742438 
647.6      0.009714666 1          0.9960877 
647.7      0.01247729 1          1         
647.8      0.02055871 1          0.9816259 
647.9      0.05383749 1          0.8745396 
648        0.1131705  1          0.7211052 
648.1      0.1575807  1          0.5972804 
648.2      0.1850226  1          0.5200619 
648.3      0.1720304  1          0.5206307 
648.4      0.130367   1          0.5932773 
648.5      0.09429757 1          0.7144592 
648.6      0.07299756 1          0.7908212 
648.7      0.09474439 1          0.7510539 
648.8      0.1334314  1          0.6530927 
648.9      0.1545011  1          0.5857782 
649        0.1514901  1          0.5729427 
649.1      0.1389042  1          0.5732116 
649.2      0.1437264  1          0.5408928 
649.3      0.1550171  1          0.513936  
649.4      0.1387069  1          0.5567464 
649.5      0.07459679 1          0.7142748 
649.6      0.01236918 1          0.9208399 
649.7      0.00521136 1          1         
649.8      0.01703756 1          0.8798531 
649.9      0.06888346 1          0.691286  
650        0.1144744  1          0.5542812 
650.1      0.1228247  1          0.5121437 
650.2      0.1126846  1          0.5276536 
650.3      0.09527973 1          0.5674676 
650.4      0.1045371  1          0.5598907 
650.5      0.1347732  1          0.5253575 
650.6      0.1503176  1          0.5057273 
650.7      0.1353148  1          0.5554451 
650.8      0.09625063 1          0.6659286 
650.9      0.0436095  1          0.8083425 
651        0.009879922 1          0.9404681 
651.1      0.005968935 1          1         
651.2      0.004453785 1          1         
651.3      0.005968935 1          1         
651.4      0.004453785 1          1         
651.5      0.003005756 1          1         
651.6      0.01263782 1          0.9153684 
651.7      0.05330124 1          0.748     
651.8      0.1005855  1          0.6070661 
651.9      0.133493   1          0.4929215 
652        0.1523506  1          0.4104959 
652.1      0.1616409  1          0.3757283 
652.2      0.1635271  1          0.3764092 
652.3      0.1579824  1          0.3927388 
652.4      0.1738926  1          0.3978555 
652.5      0.1649841  1          0.3839578 
652.6      0.1435008  1          0.3847733 
652.7      0.112118   1          0.4211743 
652.8      0.08294885 1          0.5094135 
652.9      0.05723355 1          0.5944621 
653        0.05575038 1          0.6265035 
653.1      0.06197393 1          0.6176944 
653.2      0.06551688 1          0.6240937 
653.3      0.05356625 1          0.659871  
653.4      0.04146015 1          0.6894844 
653.5      0.03948    1          0.6961241 
653.6      0.04920533 1          0.6706184 
653.7      0.06523866 1          0.6277668 
653.8      0.1011067  1          0.5428652 
653.9      0.1511305  1          0.4514062 
654        0.1860177  1          0.3626425 
654.1      0.2038229  0.8456773  0.3089134 
654.2      0.2129282  0.9041323  0.2860656 
654.3      0.2042608  1          0.3051512 
654.4      0.1795196  1          0.3694399 
654.5      0.1477564  1          0.4664559 
654.6      0.1185063  1          0.5577748 
654.7      0.1065393  1          0.6152374 
654.8      0.08661734 1          0.6770454 
654.9      0.06852509 1          0.7376003 
655        0.06517529 1          0.7468233 
655.1      0.1113358  1          0.6263698 
655.2      0.1708668  1          0.4614444 
655.3      0.2183271  0.9320711  0.3305043 
655.4      0.2545004  0.6113391  0.2571945 
655.5      0.2756439  0.4277165  0.21099   
655.6      0.2963842  0.3268213  0.1693346 
