~Version
 VERS              .         3.0                           : CWLS LOG ASCII STANDARD - VERSION 3.0
 WRAP              .         NO                            : ONE LINE PER DEPTH STEP
 DLM               .         SPACE                         : DELIMITING CHARACTER(SPACE TAB OR COMMA)
~Well Information
#_______________________________________________________________________________
#
#PARAMETER_NAME    .UNIT     VALUE                         : DESCRIPTION
#_______________________________________________________________________________
STRT               .m        0.2                           : First reference value
STOP               .m        937.8                         : Last reference value
STEP               .m        0.1                           : Step increment
NULL               .         -9999                         : Missing value
COMP               .         ICPetroleum                   : Company
WELL               .         329                           : Well name
FLD                .         Karatobe                      : Field
LOC                .                                       : Location
SRVC               .                                       : Service Company
CTRY               .         KZ                            : Country
DATE               .         27.01.2007                    : Service Date
LATI               .         0                             : Latitude
LONG               .         0                             : Longitude
GDAT               .         WGS 84                        : Geodetic Datum
CNTY               .                                       : 
COORDIN            .                                       : Grid System
COUNTRY            .         Kazakhstan                    : 
COUNTRY            .         Kazakhstan                    : 
EREF               .m        141.8                         : 
KB                 .         0                             : KB Elevation
ORIGINALWELLNAME   .         329                           : 
PROV               .                                       : Province
RWS                .         -999                          : Def_Rw
STAT               .                                       : 
UWI                .                                       : 
WST                .         -999                          : Def_Rwt
X                  .km       466696.75                     : 
XCOORD             .                                       : X or East-West Coordinate
Y                  .km       5307893.42                    : 
YCOORD             .                                       : Y or North-South Coordinate
~Parameter Information Block
#_______________________________________________________________________________
#
#PARAMETER_NAME    .UNIT     VALUE                         : DESCRIPTION
#_______________________________________________________________________________
SET                .         Las                           : 
TLFamily_DEPT      .         Measured Depth                : 
TLFamily_PHI_FINAL .         Porosity                      : 
TLFamily_SW_AR     .         Water Saturation              : 
TLFamily_VSH_FINAL .         Shale Volume                  : 
~Curve Information
#_______________________________________________________________________________
#
#LOGNAME           .UNIT     LOG_ID                        : DESCRIPTION
#_______________________________________________________________________________
DEPT               .m                                      :  {F}
PHI_FINAL          .m3/m3                                  : Porosity {F}
SW_AR              .m3/m3                                  :  {F}
VSH_FINAL          .unitless                               : Vshale {F}
~Ascii
# ...
833.3      0.08246477 1          0.1971998 
833.4      0.101893   1          0.1711439 
833.5      0.1098289  1          0.1529883 
833.6      0.1169096  1          0.1423465 
833.6999999999999 0.1147085  1          0.1475713 
833.8      0.1025892  1          0.1687769 
833.9      0.08991702 1          0.2118621 
834        0.07115766 1          0.255644  
834.1      0.04209663 1          0.2744516 
834.1999999999999 0.03034062 1          0.2544221 
834.3      0.0655421  1          0.214737  
834.4      0.09764592 1          0.1855839 
834.5      0.07706486 1          0.1755596 
834.6      0.0742221  1          0.185225  
834.6999999999999 0.07158281 1          0.1941986 
834.8      0.0709374  1          0.1963929 
834.9      0.07436973 1          0.184723  
835        0.07826093 1          0.1714929 
835.1      0.08102793 1          0.1620852 
835.1999999999999 0.09220698 1          0.1640763 
835.3      0.08693337 1          0.1820066 
835.4      0.0788609  1          0.209453  
835.5      0.0692815  1          0.242023  
835.6      0.0689611  1          0.2631123 
835.6999999999999 0.05339035 1          0.2760529 
835.8      0.04182411 1          0.2753781 
835.9      0.03859942 1          0.2663421 
836        0.04422241 1          0.247224  
836.1      0.0629558  1          0.2235304 
836.1999999999999 0.06985571 1          0.2000707 
836.3      0.08092514 1          0.1824346 
836.4      0.08276073 1          0.1761936 
836.5      0.08678651 1          0.1825059 
836.6      0.08127267 1          0.201253  
836.6999999999999 0.07447094 1          0.2243789 
836.8      0.06134856 1          0.2489949 
836.9      0.05761886 1          0.2763061 
837        0.04190286 1          0.2993601 
837.1      0.04180631 1          0.2992724 
837.1999999999999 0.05830286 1          0.2695895 
837.3      0.07340032 1          0.228019  
837.4      0.08085872 1          0.2026604 
837.5      0.06900675 1          0.2029572 
837.6      0.05041851 1          0.2261572 
837.6999999999999 0.04210532 1          0.2544221 
837.8      0.03622271 1          0.2567052 
837.9      0.03553705 1          0.2208392 
838        0.02760504 1          0.1666976 
838.1      0          1          0.1242211 
838.1999999999999 0          1          0.1040627 
838.3      0          1          0.0983585 
838.4      0          1          0.09728616
838.5      0          1          0.09734567
838.6      0          1          0.09913462
838.6999999999999 0          1          0.1037002 
838.8      0          1          0.1094144 
838.9      0          1          0.1180023 
839        0          1          0.1293733 
839.1      0          1          0.1458453 
839.1999999999999 0          1          0.1631141 
839.3      0          1          0.1783834 
839.4      0          1          0.1798012 
839.5      0          1          0.1701679 
839.6      0          1          0.1588071 
839.6999999999999 0          1          0.1754188 
839.8      0          1          0.2375007 
839.9      0          1          0.3497383 
840        0          1          0.4588406 
840.1      0          1          0.5017057 
840.1999999999999 0          1          0.4617018 
840.3      0.03649347 1          0.4062991 
840.4      0.05501838 1          0.3688376 
840.5      0.04740695 1          0.3563964 
840.6      0.0417494  1          0.3556321 
840.6999999999999 0.03340919 1          0.3639888 
840.8      0.02402964 1          0.3758793 
840.9      0.0307199  1          0.3731324 
841        0.04506014 1          0.3643755 
841.1      0.06420888 1          0.3592698 
841.1999999999999 0.06027557 1          0.372643  
841.3      0.07557849 1          0.3806131 
841.4      0.04464788 1          0.3857772 
841.5      0.0414877  1          0.3965218 
841.6      0.03682278 1          0.4323826 
841.6999999999999 0.02163521 1          0.4640203 
841.8      0.0178893  1          0.4567564 
841.9      0.03145944 1          0.4106179 
842        0.03974579 1          0.3624444 
842.1      0.03467485 1          0.3396856 
842.1999999999999 0.02857298 1          0.340432  
842.3      0.03074141 1          0.3530593 
842.4      0.01442191 1          0.3685456 
842.5      0.01695865 1          0.3799207 
842.6      0.04613764 1          0.380712  
842.6999999999999 0.03326702 1          0.3644722 
842.8      0.06141421 1          0.3287717 
842.9      0.07137458 1          0.2949064 
843        0.06934154 1          0.2818188 
843.1      0.07452393 1          0.3041987 
843.1999999999999 0.05754296 1          0.3391263 
843.3      0.03172518 1          0.3591738 
843.4      0.02005125 1          0.3398721 
843.5      0.01963194 1          0.2986594 
843.6      0.031333   1          0.2450579 
843.6999999999999 0.04760079 1          0.1983022 
843.8      0.06377205 1          0.1620852 
843.9      0.06995563 1          0.1536614 
844        0.06647643 1          0.1744345 
844.1      0.0580122  1          0.2222985 
844.1999999999999 0.05574826 1          0.2786747 
844.3      0.06766403 1          0.3273056 
844.4      0.07255759 1          0.3708841 
844.5      0.06651074 1          0.4114434 
844.6      0.06722458 1          0.4490163 
844.6999999999999 0.0707078  1          0.4463091 
844.8      0.08228004 1          0.4029234 
844.9      0.08526711 1          0.3276717 
845        0.06791344 1          0.2666744 
845.1      0.06447335 1          0.2383707 
845.1999999999999 0.06618434 1          0.2525533 
845.3      0.07336006 1          0.2881558 
845.4      0.05468228 1          0.3116603 
845.5      0.06418234 1          0.2993601 
845.6      0.06771785 1          0.2673394 
845.6999999999999 0.05796133 1          0.2405116 
845.8      0.05462961 1          0.2318395 
845.9      0.04920682 1          0.230277  
846        0.03844867 1          0.2268547 
846.1      0.03554925 1          0.2167127 
846.1999999999999 0.05599294 1          0.2072041 
846.3      0.07586826 1          0.199628  
846.4      0.08739417 1          0.2004399 
846.5      0.06147876 1          0.2085523 
846.6      0.03951707 1          0.2232221 
846.6999999999999 0.05103235 1          0.2240702 
846.8      0.04626118 1          0.2002922 
846.9      0.03358572 1          0.1633888 
847        0.04795911 1          0.1345192 
847.1      0.05067137 1          0.1252976 
847.1999999999999 0.05770485 1          0.1213837 
847.3      0.06415904 1          0.1194394 
847.4      0.06932157 1          0.1218869 
847.5      0.08141459 1          0.1407705 
847.6      0.06191875 1          0.1717724 
847.6999999999999 0.04825637 1          0.1966129 
847.8      0.04970425 1          0.2031799 
847.9      0.06292057 1          0.1868778 
848        0.07478977 1          0.1633201 
848.1      0.07966151 0.9600552  0.1403774 
848.1999999999999 0.07527448 0.9243839  0.1289257 
848.3      0.06817437 0.9790373  0.1249807 
848.4      0.06116139 1          0.1249807 
848.5      0.05427444 1          0.1256147 
848.6      0.04803207 1          0.1264402 
848.6999999999999 0.0462066  1          0.1303338 
848.8      0.05555637 1          0.1328405 
848.9      0.07238696 1          0.1393306 
849        0.06745396 1          0.1482367 
849.1      0.09269182 1          0.1624279 
849.1999999999999 0.08586012 1          0.1856557 
849.3      0.07158054 1          0.2142062 
849.4      0.06433363 1          0.2388457 
849.5      0.0490803  1          0.2424214 
849.6      0.02830346 1          0.2257701 
849.6999999999999 0.0103076  1          0.2023638 
849.8      0          1          0.1835775 
849.9      0          1          0.1744345 
850        0          1          0.1687074 
850.1      0          1          0.1603068 
850.1999999999999 0          1          0.1465748 
850.3      0.007836484 1          0.1330984 
850.4      0.01618846 1          0.128734  
850.5      0.02343995 1          0.1360094 
850.6      0.03199239 1          0.1520477 
850.6999999999999 0.04107611 1          0.1712137 
850.8      0.04524338 1          0.1936149 
850.9      0.0409057  1          0.2191543 
