~Version
 VERS              .         3.0                           : CWLS LOG ASCII STANDARD - VERSION 3.0
 WRAP              .         NO                            : ONE LINE PER DEPTH STEP
 DLM               .         SPACE                         : DELIMITING CHARACTER(SPACE TAB OR COMMA)
~Well Information
#_______________________________________________________________________________
#
#PARAMETER_NAME    .UNIT     VALUE                         : DESCRIPTION
#_______________________________________________________________________________
STRT               .m        0.2                           : First reference value
STOP               .m        937.8                         : Last reference value
STEP               .m        0.1                           : Step increment
NULL               .         -9999                         : Missing value
COMP               .         ICPetroleum                   : Company
WELL               .         329                           : Well name
FLD                .         Karatobe                      : Field
LOC                .                                       : Location
SRVC               .                                       : Service Company
CTRY               .         KZ                            : Country
DATE               .         27.01.2007                    : Service Date
LATI               .         0                             : Latitude
LONG               .         0                             : Longitude
GDAT               .         WGS 84                        : Geodetic Datum
CNTY               .                                       : 
COORDIN            .                                       : Grid System
COUNTRY            .         Kazakhstan                    : 
COUNTRY            .         Kazakhstan                    : 
EREF               .m        141.8                         : 
KB                 .         0                             : KB Elevation
ORIGINALWELLNAME   .         329                           : 
PROV               .                                       : Province
RWS                .         -999                          : Def_Rw
STAT               .                                       : 
UWI                .                                       : 
WST                .         -999                          : Def_Rwt
X                  .km       466696.75                     : 
XCOORD             .                                       : X or East-West Coordinate
Y                  .km       5307893.42                    : 
YCOORD             .                                       : Y or North-South Coordinate
~Parameter Information Block
#_______________________________________________________________________________
#
#PARAMETER_NAME    .UNIT     VALUE                         : DESCRIPTION
#_______________________________________________________________________________
SET                .         Las                           : 
TLFamily_DEPT      .         Measured Depth                : 
TLFamily_PHI_FINAL .         Porosity                      : 
TLFamily_SW_AR     .         Water Saturation              : 
TLFamily_VSH_FINAL .         Shale Volume                  : 
~Curve Information
#_______________________________________________________________________________
#
#LOGNAME           .UNIT     LOG_ID                        : DESCRIPTION
#_______________________________________________________________________________
DEPT               .m                                      :  {F}
PHI_FINAL          .m3/m3                                  : Porosity {F}
SW_AR              .m3/m3                                  :  {F}
VSH_FINAL          .unitless                               : Vshale {F}
~Ascii
# ...
528.3      0.246803   1          0.3506174 
528.4      0.2555114  1          0.3256497 
528.5      0.2484887  1          0.3025588 
528.6      0.2397148  1          0.2926065 
528.7      0.2401344  1          0.2917219 
528.8      0.2298376  1          0.3111712 
528.9      0.2130112  1          0.3389715 
529        0.2051102  1          0.3673239 
529.1      0.2073943  1          0.3684263 
529.2      0.2162232  1          0.3466812 
529.3      0.2218768  1          0.3286579 
529.4      0.2176211  1          0.3398381 
529.5      0.2044054  1          0.3719594 
529.6      0.197466   1          0.3909721 
529.7      0.1980589  1          0.3821505 
529.8      0.1897202  1          0.3782997 
529.9      0.1718479  1          0.4112288 
530        0.1373633  1          0.4806774 
530.1      0.09424173 1          0.5609672 
530.2      0.06782531 1          0.6376408 
530.3      0.05898036 1          0.6905788 
530.4      0.06150082 1          0.6906922 
530.5      0.09155115 1          0.6214346 
530.6      0.1261058  1          0.5411999 
530.7      0.1522306  1          0.4822916 
530.8      0.1628883  1          0.4544717 
530.9      0.1742999  1          0.433254  
531        0.1828056  1          0.4255167 
531.1      0.173703   1          0.446295  
531.2      0.1501325  1          0.5092818 
531.3      0.1144111  1          0.5962616 
531.4      0.09786914 1          0.6391519 
531.5      0.1149621  1          0.602453  
531.6      0.1377664  1          0.5311607 
531.7      0.1398928  1          0.5022714 
531.8      0.1144972  1          0.5292778 
531.9      0.07539207 1          0.5862142 
532        0.04964555 1          0.6141226 
532.1      0.04491426 1          0.5913596 
532.2      0.05853732 1          0.5385665 
532.3      0.07009619 1          0.5053349 
532.4      0.0744481  1          0.5234944 
532.5      0.06013826 1          0.5870278 
532.6      0.04483353 1          0.6480623 
532.7      0.04613026 1          0.6523153 
532.8      0.08468369 1          0.5835634 
532.9      0.135734   1          0.4968319 
533        0.1682133  1          0.4478539 
533.1      0.1602617  1          0.486631  
533.2      0.1150051  1          0.6179717 
533.3      0.04445323 1          0.7923356 
533.4      0.01381638 1          0.8877876 
533.5      0.01710575 1          0.8857254 
533.6      0.03114975 1          0.8412264 
533.7      0.0352789  1          0.8128306 
533.8      0.04614955 1          0.7518932 
533.9      0.07075962 1          0.6844177 
534        0.09325633 1          0.6200169 
534.1      0.09338561 1          0.6199254 
534.2      0.08411884 1          0.6535504 
534.3      0.07251754 1          0.6997489 
534.4      0.0823404  1          0.677862  
534.5      0.1150026  1          0.605234  
534.6      0.1437342  1          0.5306507 
534.7      0.1461231  1          0.5276396 
534.8      0.1346586  1          0.5738577 
534.9      0.1140163  1          0.6168215 
535        0.1302937  1          0.5621234 
535.1      0.1618431  1          0.4738711 
535.2      0.1746143  1          0.420604  
535.3      0.1684207  1          0.4506763 
535.4      0.1494392  1          0.516037  
535.5      0.1475667  1          0.5301524 
535.6      0.1779056  1          0.448393  
535.7      0.216217   1          0.351796  
535.8      0.23172    1          0.3079046 
535.9      0.2150067  1          0.3252151 
536        0.1916267  1          0.3617063 
536.1      0.182264   1          0.379303  
536.2      0.1923917  1          0.3611144 
536.3      0.1984199  1          0.3453307 
536.4      0.2090776  1          0.3522253 
536.5      0.188501   1          0.4070137 
536.6      0.1502151  1          0.50052   
536.7      0.1104809  1          0.5946416 
536.8      0.1078702  1          0.6190474 
536.9      0.1388867  1          0.5739752 
537        0.1832128  1          0.4922456 
537.1      0.2120071  1          0.42755   
537.2      0.2275523  1          0.3910328 
537.3      0.2399735  0.9938412  0.373679  
537.4      0.2595325  0.9360941  0.3583282 
537.5      0.2896333  0.8377657  0.3316481 
537.6      0.3148299  0.7568371  0.3194109 
537.7      0.3258023  0.737761   0.3318008 
537.8      0.3152706  0.8163348  0.3784842 
537.9      0.2913968  0.9028485  0.452569  
538        0.2585004  0.998844   0.5163611 
538.1      0.2299406  1          0.5341001 
538.2      0.2263947  1          0.4784811 
538.3      0.2341692  1          0.3954401 
538.4      0.2480566  1          0.3170699 
538.5      0.2586162  1          0.2801064 
538.6      0.2525184  1          0.2892856 
538.7      0.2324653  1          0.3507312 
538.8      0.1991793  1          0.4433601 
538.9      0.1565848  1          0.5307294 
539        0.129159   1          0.5645456 
539.1      0.1249779  1          0.5538028 
539.2      0.1384637  1          0.5253482 
539.3      0.1410601  1          0.5293967 
539.4      0.1271251  1          0.5752428 
539.5      0.1035938  1          0.6385878 
539.6      0.1004669  1          0.6545013 
539.7      0.1040937  1          0.6099524 
539.8      0.1069909  1          0.5429553 
539.9      0.1210721  1          0.4861129 
540        0.1554515  1          0.442653  
540.1      0.1706013  1          0.4449647 
540.2      0.1653874  1          0.4972246 
540.3      0.1472252  1          0.585876  
540.4      0.1487932  1          0.6187376 
540.5      0.1615369  1          0.6082673 
540.6      0.1686095  1          0.5888259 
540.7      0.1589613  1          0.6075068 
540.8      0.1621792  1          0.5996974 
540.9      0.1821326  1          0.5459909 
541        0.2123981  1          0.458555  
541.1      0.2160523  1          0.4154031 
541.2      0.1907481  1          0.4489287 
541.3      0.134903   1          0.5887964 
541.4      0.04736811 1          0.7952586 
541.5      0.005464289 1          0.9596319 
541.6      0.007353446 1          0.9328666 
541.7      0.05557213 1          0.7567598 
541.8      0.1337966  1          0.5497256 
541.9      0.1746362  1          0.4137127 
542        0.18575    1          0.3557851 
542.1      0.1745791  1          0.3635749 
542.2      0.1586615  1          0.4034727 
542.3      0.1487082  1          0.4389523 
542.4      0.1465512  1          0.4579984 
542.5      0.1376477  1          0.4867859 
542.6      0.1059665  1          0.5665596 
542.7      0.04696655 1          0.7287075 
542.8      0          1          0.9321594 
542.9      0          1          1         
543        0.001487935 1          0.8869985 
543.1      0.05603176 1          0.658762  
543.2      0.0996118  1          0.5370423 
543.3      0.08721601 1          0.5979067 
543.4      0.04304651 1          0.7363899 
543.5      0.004523642 1          0.8738426 
543.6      0.005621053 1          0.8566698 
543.7      0.02691706 1          0.7648165 
543.8      0.05962744 1          0.6512432 
543.9      0.07541062 1          0.5847142 
544        0.0743704  1          0.5705431 
544.1      0.06487955 1          0.5837971 
544.2      0.06173242 1          0.6227874 
544.3      0.04460047 1          0.6842309 
544.4      0.03194522 1          0.728171  
544.5      0.04503955 1          0.6885561 
544.6      0.08160254 1          0.5798351 
544.7      0.1212806  1          0.473341  
544.8      0.1407937  1          0.4256698 
544.9      0.1392317  1          0.431496  
545        0.1273402  1          0.4666372 
545.1      0.1231082  1          0.5112968 
545.2      0.1212697  1          0.5456781 
545.3      0.1276479  1          0.557162  
545.4      0.161965   1          0.4922362 
545.5      0.2168714  1          0.3637834 
545.6      0.2758265  1          0.2206763 
545.7      0.3150434  1          0.1237642 
545.8      0.3309297  1          0.07374097
545.9      0.3260313  1          0.0610951 
546        0.3159784  1          0.0758961 
546.1      0.2988571  1          0.114876  
546.2      0.2836355  1          0.1611437 
546.3      0.2742956  1          0.1915406 
546.4      0.2699253  1          0.1877776 
