~Version
 VERS              .         3.0                           : CWLS LOG ASCII STANDARD - VERSION 3.0
 WRAP              .         NO                            : ONE LINE PER DEPTH STEP
 DLM               .         SPACE                         : DELIMITING CHARACTER(SPACE TAB OR COMMA)
~Well Information
#_______________________________________________________________________________
#
#PARAMETER_NAME    .UNIT     VALUE                         : DESCRIPTION
#_______________________________________________________________________________
STRT               .m        0.2                           : First reference value
STOP               .m        937.8                         : Last reference value
STEP               .m        0.1                           : Step increment
NULL               .         -9999                         : Missing value
COMP               .         ICPetroleum                   : Company
WELL               .         329                           : Well name
FLD                .         Karatobe                      : Field
LOC                .                                       : Location
SRVC               .                                       : Service Company
CTRY               .         KZ                            : Country
DATE               .         27.01.2007                    : Service Date
LATI               .         0                             : Latitude
LONG               .         0                             : Longitude
GDAT               .         WGS 84                        : Geodetic Datum
CNTY               .                                       : 
COORDIN            .                                       : Grid System
COUNTRY            .         Kazakhstan                    : 
COUNTRY            .         Kazakhstan                    : 
EREF               .m        141.8                         : 
KB                 .         0                             : KB Elevation
ORIGINALWELLNAME   .         329                           : 
PROV               .                                       : Province
RWS                .         -999                          : Def_Rw
STAT               .                                       : 
UWI                .                                       : 
WST                .         -999                          : Def_Rwt
X                  .km       466696.75                     : 
XCOORD             .                                       : X or East-West Coordinate
Y                  .km       5307893.42                    : 
YCOORD             .                                       : Y or North-South Coordinate
~Parameter Information Block
#_______________________________________________________________________________
#
#PARAMETER_NAME    .UNIT     VALUE                         : DESCRIPTION
#_______________________________________________________________________________
SET                .         Las                           : 
TLFamily_DEPT      .         Measured Depth                : 
TLFamily_PHI_FINAL .         Porosity                      : 
TLFamily_SW_AR     .         Water Saturation              : 
TLFamily_VSH_FINAL .         Shale Volume                  : 
~Curve Information
#_______________________________________________________________________________
#
#LOGNAME           .UNIT     LOG_ID                        : DESCRIPTION
#_______________________________________________________________________________
DEPT               .m                                      :  {F}
PHI_FINAL          .m3/m3                                  : Porosity {F}
SW_AR              .m3/m3                                  :  {F}
VSH_FINAL          .unitless                               : Vshale {F}
~Ascii
# ...
727.1999999999999 0.1265306  1          0.3473761 
727.3      0.1291201  1          0.2985718 
727.4      0.1332361  1          0.2445776 
727.5      0.1398566  1          0.2020673 
727.6      0.1338243  1          0.1825773 
727.6999999999999 0.1162402  1          0.1823632 
727.8      0.1190275  1          0.1928863 
727.9      0.1288528  1          0.1994805 
728        0.1391796  1          0.2043691 
728.1      0.1434785  1          0.2097536 
728.1999999999999 0.1453088  1          0.2235304 
728.3      0.1224567  1          0.241227  
728.4      0.1165292  1          0.2613805 
728.5      0.09579755 1          0.2918682 
728.6      0.07012091 1          0.3386606 
728.6999999999999 0.04361341 1          0.3923858 
728.8      0.03483618 1          0.4254081 
728.9      0.04444285 1          0.4240419 
729        0.05790081 1          0.4077359 
729.1      0.06204546 1          0.3981424 
729.1999999999999 0.06223238 1          0.3886735 
729.3      0.07109316 1          0.3583106 
729.4      0.09432978 1          0.3075633 
729.5      0.1169803  1          0.2721832 
729.6      0.1252206  1          0.2802872 
729.6999999999999 0.114666   1          0.3298734 
729.8      0.09611557 1          0.3880733 
729.9      0.08306396 1          0.423517  
730        0.08188226 1          0.4290987 
730.1      0.0868284  1          0.4223637 
730.1999999999999 0.07894246 1          0.4091755 
730.3      0.08073199 1          0.3830912 
730.4      0.08717665 1          0.3411793 
730.5      0.08180359 1          0.2994477 
730.6      0.08828683 1          0.2774047 
730.6999999999999 0.08520069 1          0.2878976 
730.8      0.08056629 1          0.3236546 
730.9      0.07642078 1          0.3777493 
731        0.06741787 1          0.4283591 
731.1      0.07098435 1          0.4650159 
731.1999999999999 0.05767794 1          0.4753785 
731.3      0.0539287  1          0.4684553 
731.4      0.06104338 1          0.4466335 
731.5      0.07477567 1          0.4192273 
731.6      0.09473957 1          0.3816033 
731.6999999999999 0.1151438  1          0.3400587 
731.8      0.1307596  1          0.3060558 
731.9      0.1350279  1          0.3009395 
732        0.125413   1          0.3282215 
732.1      0.1072565  1          0.3631196 
732.1999999999999 0.09327027 1          0.366312  
732.3      0.08434549 1          0.3395923 
732.4      0.07275548 1          0.3174944 
732.5      0.04859097 1          0.3379161 
732.6      0.01950532 1          0.3914811 
732.6999999999999 0          1          0.4526042 
732.8      0          1          0.4771748 
732.9      0.02386561 1          0.4646839 
733        0.05981789 1          0.429839  
733.1      0.08738971 1          0.4015978 
733.1999999999999 0.1032288  1          0.3835879 
733.3      0.0843223  1          0.3708841 
733.4      0.07158189 1          0.3542016 
733.5      0.06906176 1          0.34277   
733.6      0.06900664 1          0.3429574 
733.6999999999999 0.06944094 1          0.3614808 
733.8      0.0818679  1          0.3792291 
733.9      0.06507658 1          0.3963195 
734        0.06831265 1          0.4005798 
734.1      0.06669205 1          0.4077359 
734.1999999999999 0.06527548 1          0.408661  
734.3      0.05681094 1          0.4051721 
734.4      0.05017426 1          0.383886  
734.5      0.05727861 1          0.3453982 
734.6      0.08511644 1          0.2989221 
734.6999999999999 0.1250323  1          0.2640215 
734.8      0.1334947  1          0.2436982 
734.9      0.1349219  1          0.2388457 
735        0.1346421  1          0.239797  
735.1      0.1408276  1          0.2387665 
735.1999999999999 0.1393584  1          0.2237616 
735.3      0.1418056  1          0.1954409 
735.4      0.1183655  1          0.1751374 
735.5      0.1121103  1          0.1764051 
735.6      0.1055401  1          0.1987437 
735.6999999999999 0.09401408 1          0.2179321 
735.8      0.09676966 1          0.2285632 
735.9      0.09576001 1          0.231996  
736        0.09761211 1          0.2456988 
736.1      0.1127653  1          0.254178  
736.1999999999999 0.1249362  1          0.2527967 
736.3      0.1289462  1          0.2391627 
736.4      0.120196   1          0.235135  
736.5      0.1028527  1          0.2433787 
736.6      0.08828438 1          0.2604753 
736.6999999999999 0.08933241 1          0.2682551 
736.8      0.1075815  1          0.2677554 
736.9      0.1336671  1          0.2631123 
737        0.1082816  1          0.2694225 
737.1      0.1058095  1          0.2778277 
737.1999999999999 0.1015626  1          0.2722671 
737.3      0.1048097  1          0.241227  
737.4      0.1041698  1          0.2034027 
737.5      0.1031477  1          0.1868778 
737.6      0.09870198 1          0.2019933 
737.6999999999999 0.0909499  1          0.2483504 
737.8      0.07920765 1          0.3082739 
737.9      0.09203359 1          0.3646656 
738        0.09971517 1          0.3863755 
738.1      0.102494   1          0.3786368 
738.1999999999999 0.1038067  1          0.3530593 
738.3      0.1050217  1          0.3438013 
738.4      0.1067165  1          0.3426763 
738.5      0.1022944  1          0.3456804 
738.6      0.1040751  1          0.3298734 
738.6999999999999 0.1047331  1          0.2956029 
738.8      0.1074085  1          0.2523911 
738.9      0.1184163  1          0.2149646 
739        0.128375   1          0.201105  
739.1      0.118617   1          0.214282  
739.1999999999999 0.1061636  1          0.2566235 
739.3      0.1022798  1          0.3024349 
739.4      0.09782106 1          0.3176748 
739.5      0.1159041  1          0.2860934 
739.6      0.1505194  1          0.2425011 
739.6999999999999 0.1507491  1          0.2273977 
739.8      0.147254   1          0.251095  
739.9      0.1282722  1          0.2885002 
740        0.1109928  1          0.3071196 
740.1      0.11409    1          0.2972603 
740.1999999999999 0.1274793  1          0.2869519 
740.3      0.1409338  1          0.2899661 
740.4      0.1200702  1          0.3093415 
740.5      0.1055624  1          0.3186676 
740.6      0.1002901  1          0.3165934 
740.6999999999999 0.1079909  1          0.3104106 
740.8      0.08849895 1          0.3166835 
740.9      0.08372567 1          0.3329126 
741        0.06958458 1          0.3409924 
741.1      0.06438807 1          0.3386606 
741.1999999999999 0.07344852 1          0.327855  
741.3      0.07820539 1          0.3175846 
741.4      0.07397769 1          0.3060558 
741.5      0.07576652 1          0.2999738 
741.6      0.08022436 1          0.3048171 
741.6999999999999 0.07816886 1          0.3318058 
741.8      0.08643556 1          0.363699  
741.9      0.1025845  1          0.3819006 
742        0.1066744  1          0.3536302 
742.1      0.1225788  1          0.297872  
742.1999999999999 0.1452755  1          0.2443376 
742.3      0.1631005  1          0.2228371 
742.4      0.1612238  1          0.2294194 
742.5      0.1511418  1          0.2436982 
742.6      0.1399166  1          0.2418637 
742.6999999999999 0.1490921  1          0.2306672 
742.8      0.1441485  1          0.2274753 
742.9      0.1327884  1          0.2460998 
743        0.1323014  1          0.2677554 
743.1      0.1283405  1          0.2812227 
743.1999999999999 0.1167007  1          0.2807973 
743.3      0.1282654  1          0.2814781 
743.4      0.1231078  1          0.2790138 
743.5      0.1261496  1          0.2686717 
743.6      0.1303885  1          0.2542593 
743.6999999999999 0.1359356  1          0.2553994 
743.8      0.1246476  1          0.2737786 
743.9      0.1058736  1          0.2976097 
744        0.1033634  1          0.3061444 
744.1      0.09732463 1          0.3066761 
744.1999999999999 0.0861587  1          0.3046404 
744.3      0.09659309 1          0.3091634 
744.4      0.1179638  1          0.3165034 
744.5      0.1293939  1          0.3298734 
744.6      0.1307463  1          0.3352244 
744.6999999999999 0.136679   1          0.3245654 
744.8      0.1463222  1          0.2942106 
