~Version
 VERS              .         3.0                           : CWLS LOG ASCII STANDARD - VERSION 3.0
 WRAP              .         NO                            : ONE LINE PER DEPTH STEP
 DLM               .         SPACE                         : DELIMITING CHARACTER(SPACE TAB OR COMMA)
~Well Information
#_______________________________________________________________________________
#
#PARAMETER_NAME    .UNIT     VALUE                         : DESCRIPTION
#_______________________________________________________________________________
STRT               .m        0.2                           : First reference value
STOP               .m        937.8                         : Last reference value
STEP               .m        0.1                           : Step increment
NULL               .         -9999                         : Missing value
COMP               .         ICPetroleum                   : Company
WELL               .         329                           : Well name
FLD                .         Karatobe                      : Field
LOC                .                                       : Location
SRVC               .                                       : Service Company
CTRY               .         KZ                            : Country
DATE               .         27.01.2007                    : Service Date
LATI               .         0                             : Latitude
LONG               .         0                             : Longitude
GDAT               .         WGS 84                        : Geodetic Datum
CNTY               .                                       : 
COORDIN            .                                       : Grid System
COUNTRY            .         Kazakhstan                    : 
COUNTRY            .         Kazakhstan                    : 
EREF               .m        141.8                         : 
KB                 .         0                             : KB Elevation
ORIGINALWELLNAME   .         329                           : 
PROV               .                                       : Province
RWS                .         -999                          : Def_Rw
STAT               .                                       : 
UWI                .                                       : 
WST                .         -999                          : Def_Rwt
X                  .km       466696.75                     : 
XCOORD             .                                       : X or East-West Coordinate
Y                  .km       5307893.42                    : 
YCOORD             .                                       : Y or North-South Coordinate
~Parameter Information Block
#_______________________________________________________________________________
#
#PARAMETER_NAME    .UNIT     VALUE                         : DESCRIPTION
#_______________________________________________________________________________
SET                .         Las                           : 
TLFamily_DEPT      .         Measured Depth                : 
TLFamily_PHI_FINAL .         Porosity                      : 
TLFamily_SW_AR     .         Water Saturation              : 
TLFamily_VSH_FINAL .         Shale Volume                  : 
~Curve Information
#_______________________________________________________________________________
#
#LOGNAME           .UNIT     LOG_ID                        : DESCRIPTION
#_______________________________________________________________________________
DEPT               .m                                      :  {F}
PHI_FINAL          .m3/m3                                  : Porosity {F}
SW_AR              .m3/m3                                  :  {F}
VSH_FINAL          .unitless                               : Vshale {F}
~Ascii
# ...
425.6999999999999 0.1350719  1          0.5128633 
425.8      0.09919083 1          0.5842804 
425.9      0.07122607 1          0.6178757 
425.9999999999999 0.08157416 1          0.5607323 
426.1      0.1039462  1          0.4759426 
426.1999999999999 0.1188084  1          0.4254447 
426.3      0.1210073  1          0.4534716 
426.4      0.1094334  1          0.5186559 
426.4999999999999 0.111168   1          0.5370274 
426.6      0.1415948  1          0.4658948 
426.6999999999999 0.1840824  1          0.3947811 
426.8      0.1953754  1          0.3993659 
426.9      0.1595411  1          0.4864568 
426.9999999999999 0.113962   1          0.5868254 
427.1      0.09488214 1          0.6286408 
427.1999999999999 0.09962691 1          0.6075873 
427.3      0.1002333  1          0.6047872 
427.4      0.0869017  1          0.6393793 
427.4999999999999 0.0647312  1          0.7010859 
427.6      0.05229139 1          0.7432478 
427.6999999999999 0.06539364 1          0.7132567 
427.8      0.1042308  1          0.6204743 
427.9      0.1487223  1          0.5070743 
427.9999999999999 0.1793677  1          0.4263611 
428.1      0.1959269  1          0.3818002 
428.1999999999999 0.2144907  1          0.3595771 
428.3      0.2252031  1          0.3481941 
428.4      0.2315093  1          0.3569517 
428.4999999999999 0.2188164  1          0.4041259 
428.6      0.17959    1          0.4916234 
428.6999999999999 0.1467303  1          0.5683648 
428.8      0.1356799  1          0.5861988 
428.9      0.1462335  1          0.5644695 
428.9999999999999 0.1342665  1          0.5807921 
429.1      0.09811202 1          0.6689568 
429.1999999999999 0.03480484 1          0.8201337 
429.3      0.001454714 1          1         
429.4      0.0014925  1          1         
429.4999999999999 0.001505758 1          1         
429.6      0.004391452 1          1         
429.6999999999999 0.007766357 1          1         
429.8      0.008970609 1          1         
429.9      0.04362677 1          0.8523802 
429.9999999999999 0.1065465  1          0.7034282 
430.1      0.1339864  0.9688413  0.6464685 
430.1999999999999 0.1488875  0.8362088  0.6204619 
430.3      0.1536004  0.7447309  0.6267514 
430.4      0.1598298  0.7002208  0.6170954 
430.4999999999999 0.1906307  0.6053988  0.5499867 
430.6      0.2338018  0.5350699  0.4431797 
430.6999999999999 0.2666669  0.5259596  0.3591745 
430.8      0.2810065  0.5434192  0.3253288 
430.9      0.2809461  0.517392   0.3256557 
430.9999999999999 0.2773026  0.4831068  0.34257   
431.1      0.2686463  0.4779325  0.3667707 
431.1999999999999 0.2625017  0.4641498  0.3860871 
431.3      0.2656141  0.4256325  0.3819563 
431.4      0.2777219  0.3835479  0.358041  
431.4999999999999 0.2822563  0.4016788  0.3408102 
431.6      0.2741747  0.458756   0.3610093 
431.6999999999999 0.2569697  0.5251715  0.4071846 
431.8      0.2319139  0.5751977  0.4686817 
431.9      0.2169363  0.5919644  0.5009055 
431.9999999999999 0.2108814  0.5989479  0.5237637 
432.1      0.1998792  0.6325269  0.5530408 
432.1999999999999 0.1662486  0.7670709  0.6449685 
432.3      0.1018708  1          0.8021193 
432.4      0.03973743 1          0.9742307 
432.4999999999999 0.03753131 1          1         
432.6      0.04812691 1          0.9459563 
432.6999999999999 0.09231034 1          0.8077183 
432.8      0.1365263  0.7493722  0.6906223 
432.9      0.172583   0.658954   0.5913622 
432.9999999999999 0.2103724  0.6189289  0.4948555 
433.1      0.2358072  0.6319423  0.426829  
433.1999999999999 0.2431292  0.6733128  0.4149495 
433.3      0.2256405  0.7688718  0.4519956 
433.4      0.1997299  0.9055682  0.5068515 
433.4999999999999 0.1789424  1          0.5537784 
433.6      0.1598593  1          0.605259  
433.6999999999999 0.1273453  1          0.6886869 
433.8      0.09797466 1          0.7568428 
433.9      0.1000673  1          0.7589917 
433.9999999999999 0.1389244  1          0.6590139 
434.1      0.176108   1          0.5636859 
434.1999999999999 0.1970645  1          0.5112321 
434.3      0.1921175  1          0.5221495 
434.4      0.1828399  1          0.5420321 
434.4999999999999 0.1818319  0.9961054  0.5389528 
434.6      0.1947918  0.7768514  0.5038332 
434.6999999999999 0.2051674  0.6290311  0.4698696 
434.8      0.2121565  0.6005111  0.4484669 
434.9      0.212739   0.663041   0.452731  
434.9999999999999 0.2062768  0.7666645  0.4696659 
435.1      0.1969072  0.8467188  0.502054  
435.1999999999999 0.1924286  0.9091375  0.5169273 
435.3      0.1719454  1          0.5520771 
435.4      0.1383479  1          0.6204709 
435.4999999999999 0.0839359  1          0.7617799 
435.6      0.05984284 1          0.8572343 
435.6999999999999 0.0771265  1          0.8411336 
435.8      0.1387365  1          0.7086124 
435.9      0.1939964  1          0.6006275 
435.9999999999999 0.2188892  1          0.5607012 
436.1      0.2079343  1          0.607867  
436.1999999999999 0.1517455  1          0.754835  
436.3      0.07689094 1          0.9462404 
436.4      0.05831122 1          1         
436.4999999999999 0.06342822 1          0.9586436 
436.6      0.1300131  1          0.7473273 
436.6999999999999 0.1999461  1          0.5524312 
436.8      0.2625956  1          0.4272147 
436.9      0.3048598  0.8545374  0.3583317 
436.9999999999999 0.3290071  0.8049041  0.3417863 
437.1      0.3425642  0.7929582  0.3574427 
437.1999999999999 0.3464272  0.8093816  0.3728529 
437.3      0.3527184  0.8264489  0.3622621 
437.4      0.3536498  0.849726   0.3575643 
437.4999999999999 0.3348913  0.8832865  0.4001485 
437.6      0.2930381  0.9683369  0.5047755 
437.6999999999999 0.2434988  1          0.6348348 
437.8      0.2231153  1          0.6945618 
437.9      0.2602806  1          0.6161562 
437.9999999999999 0.3322504  0.8362917  0.4404321 
438.1      0.3937037  0.6722723  0.2774425 
438.1999999999999 0.4194882  0.6230698  0.1874383 
438.3      0.4250498  0.627831   0.1689481 
438.4      0.4015134  0.6680743  0.2107183 
438.4999999999999 0.359706   0.7122305  0.2808872 
438.6      0.3102859  0.7686317  0.3403081 
438.6999999999999 0.276176   0.8327773  0.3534016 
438.8      0.2443865  0.9143423  0.3689254 
438.9      0.2190342  1          0.3986572 
438.9999999999999 0.1948957  1          0.4541    
439.1      0.1729675  1          0.4836228 
439.1999999999999 0.1600972  1          0.5027099 
439.3      0.1610328  1          0.5173798 
439.4      0.1397586  1          0.5667037 
439.4999999999999 0.1230279  1          0.6308954 
439.6      0.1071567  1          0.6906865 
439.6999999999999 0.1151272  1          0.7060179 
439.8      0.1281975  1          0.6937129 
439.9      0.1353835  1          0.6811438 
439.9999999999999 0.1384407  1          0.6625029 
440.1      0.1551317  1          0.6119596 
440.1999999999999 0.1840189  1          0.5336226 
440.3      0.1927108  1          0.4889112 
440.4      0.1950221  1          0.4820334 
440.4999999999999 0.1833808  1          0.515564  
440.6      0.1655181  1          0.5596784 
440.6999999999999 0.1406009  1          0.6331281 
440.8      0.1125321  1          0.7021688 
440.9      0.1146278  1          0.6910903 
440.9999999999999 0.1611107  1          0.5715634 
441.1      0.2139246  1          0.4065999 
441.1999999999999 0.252623   0.8959231  0.2905281 
441.3      0.2695401  0.8386518  0.2392727 
441.4      0.2628799  0.8429376  0.2493288 
441.4999999999999 0.2443036  0.8899947  0.3073235 
441.6      0.2220632  0.9669611  0.3705193 
441.6999999999999 0.2061706  1          0.3942669 
441.8      0.2112614  0.994937   0.3586418 
441.9      0.2211129  0.9436772  0.3228785 
441.9999999999999 0.2310997  0.9088379  0.3172923 
442.1      0.2261471  0.9276543  0.3406509 
442.1999999999999 0.2277527  0.9189051  0.3556882 
442.3      0.2353005  0.8922376  0.3606532 
442.4      0.2317943  0.9466255  0.3914727 
442.4999999999999 0.19467    1          0.4916268 
442.6      0.1433115  1          0.6318818 
442.6999999999999 0.1214217  1          0.7153738 
