~Version
 VERS              .         3.0                           : CWLS LOG ASCII STANDARD - VERSION 3.0
 WRAP              .         NO                            : ONE LINE PER DEPTH STEP
 DLM               .         SPACE                         : DELIMITING CHARACTER(SPACE TAB OR COMMA)
~Well Information
#_______________________________________________________________________________
#
#PARAMETER_NAME    .UNIT     VALUE                         : DESCRIPTION
#_______________________________________________________________________________
STRT               .m        0.2                           : First reference value
STOP               .m        937.8                         : Last reference value
STEP               .m        0.1                           : Step increment
NULL               .         -9999                         : Missing value
COMP               .         ICPetroleum                   : Company
WELL               .         329                           : Well name
FLD                .         Karatobe                      : Field
LOC                .                                       : Location
SRVC               .                                       : Service Company
CTRY               .         KZ                            : Country
DATE               .         27.01.2007                    : Service Date
LATI               .         0                             : Latitude
LONG               .         0                             : Longitude
GDAT               .         WGS 84                        : Geodetic Datum
CNTY               .                                       : 
COORDIN            .                                       : Grid System
COUNTRY            .         Kazakhstan                    : 
COUNTRY            .         Kazakhstan                    : 
EREF               .m        141.8                         : 
KB                 .         0                             : KB Elevation
ORIGINALWELLNAME   .         329                           : 
PROV               .                                       : Province
RWS                .         -999                          : Def_Rw
STAT               .                                       : 
UWI                .                                       : 
WST                .         -999                          : Def_Rwt
X                  .km       466696.75                     : 
XCOORD             .                                       : X or East-West Coordinate
Y                  .km       5307893.42                    : 
YCOORD             .                                       : Y or North-South Coordinate
~Parameter Information Block
#_______________________________________________________________________________
#
#PARAMETER_NAME    .UNIT     VALUE                         : DESCRIPTION
#_______________________________________________________________________________
SET                .         Las                           : 
TLFamily_DEPT      .         Measured Depth                : 
TLFamily_PHI_FINAL .         Porosity                      : 
TLFamily_SW_AR     .         Water Saturation              : 
TLFamily_VSH_FINAL .         Shale Volume                  : 
~Curve Information
#_______________________________________________________________________________
#
#LOGNAME           .UNIT     LOG_ID                        : DESCRIPTION
#_______________________________________________________________________________
DEPT               .m                                      :  {F}
PHI_FINAL          .m3/m3                                  : Porosity {F}
SW_AR              .m3/m3                                  :  {F}
VSH_FINAL          .unitless                               : Vshale {F}
~Ascii
# ...
476.9999999999999 0.1606943  1          0.4563076 
477.1      0.1989359  1          0.3947564 
477.1999999999999 0.2248405  1          0.345216  
477.3      0.2332179  1          0.3429242 
477.4      0.2144831  1          0.3606744 
477.4999999999999 0.1966655  1          0.3862418 
477.6      0.1889764  0.9137835  0.3700164 
477.6999999999999 0.1775864  0.7886987  0.339278  
477.8      0.169221   0.8194482  0.3063946 
477.9      0.1649113  0.9850659  0.3064706 
477.9999999999999 0.1601936  1          0.3548559 
478.1      0.1362711  1          0.4848663 
478.1999999999999 0.09477033 1          0.6684566 
478.3      0.07327934 1          0.7709419 
478.3999999999999 0.116345   1          0.7113663 
478.4999999999999 0.1765684  1          0.6045042 
478.6      0.1796135  1          0.6100591 
478.6999999999999 0.1331495  1          0.7410402 
478.8      0.0505329  1          0.9614813 
478.8999999999999 0.03416196 1          1         
478.9999999999999 0.0278864  1          1         
479.1      0.05414054 1          0.8997355 
479.1999999999999 0.06915747 1          0.8489918 
479.3      0.07576048 1          0.817812  
479.3999999999999 0.08790322 1          0.7848869 
479.4999999999999 0.1319492  1          0.6864021 
479.6      0.1859847  1          0.5656943 
479.6999999999999 0.2342893  1          0.4617047 
479.8      0.2474688  1          0.4262709 
479.8999999999999 0.2309467  1          0.4596714 
479.9999999999999 0.1910799  1          0.5393969 
480.1      0.1528611  1          0.6129247 
480.1999999999999 0.1406496  1          0.634905  
480.3      0.1457698  1          0.6176289 
480.3999999999999 0.1584563  1          0.5745481 
480.4999999999999 0.1734296  1          0.5285641 
480.6      0.1924189  1          0.4841436 
480.6999999999999 0.2076179  1          0.4516188 
480.8      0.2113244  1          0.438615  
480.8999999999999 0.2046167  1          0.4490045 
480.9999999999999 0.19462    1          0.4908576 
481.1      0.1829432  1          0.5519069 
481.1999999999999 0.1708214  1          0.6247895 
481.3      0.1611935  1          0.6946046 
481.3999999999999 0.168326   1          0.720545  
481.4999999999999 0.2206356  1          0.6351045 
481.6      0.3135676  0.7291167  0.4440935 
481.6999999999999 0.3997221  0.5561572  0.2629209 
481.8      0.4557681  0.5008725  0.1555004 
481.8999999999999 0.4852008  0.4967898  0.1163378 
481.9999999999999 0.4914174  0.5164188  0.1236041 
482.1      0.4781403  0.5593979  0.1670568 
482.1999999999999 0.4465744  0.5872615  0.2342755 
482.3      0.4189677  0.6141847  0.3019938 
482.3999999999999 0.3827243  0.6652552  0.3449175 
482.4999999999999 0.3578629  0.707554   0.3568853 
482.6      0.3584876  0.7050577  0.3487117 
482.6999999999999 0.3463533  0.7270354  0.3333476 
482.8      0.3480172  0.7183769  0.3161989 
482.8999999999999 0.3489283  0.7126586  0.3087852 
482.9999999999999 0.3442962  0.7284171  0.3176347 
483.1      0.3306467  0.772797   0.3442354 
483.1999999999999 0.2966851  0.8629299  0.3810373 
483.3      0.2580822  0.9444858  0.4275054 
483.3999999999999 0.2084698  1          0.5142195 
483.4999999999999 0.1504012  1          0.6517543 
483.6      0.0841143  1          0.8217289 
483.6999999999999 0.05307528 1          0.9324626 
483.8      0.03683382 1          0.9916248 
483.8999999999999 0.0319362  1          1         
483.9999999999999 0.03663601 1          0.9813167 
484.1      0.07690953 1          0.8412775 
484.1999999999999 0.1382398  1          0.6977832 
484.3      0.1603376  1          0.6691191 
484.3999999999999 0.133922   1          0.772023  
484.4999999999999 0.1032816  1          0.9285337 
484.6      0.101383   1          1         
484.6999999999999 0.1115697  1          1         
484.8      0.1194809  1          1         
484.8999999999999 0.1244944  1          1         
484.9999999999999 0.1315077  1          1         
485.1      0.1626675  1          0.9086492 
485.1999999999999 0.2136132  1          0.7797637 
485.3      0.225013   1          0.7375333 
485.3999999999999 0.2315076  1          0.7101919 
485.4999999999999 0.2660249  0.8558908  0.6198921 
485.6      0.3268592  0.6880672  0.4851813 
485.6999999999999 0.3663522  0.632345   0.3757665 
485.8      0.3742792  0.6138089  0.3266481 
485.8999999999999 0.3594464  0.6104684  0.3252988 
485.9999999999999 0.3382052  0.6185597  0.3296745 
486.1      0.3219738  0.64544    0.3143259 
486.1999999999999 0.3227685  0.6788495  0.2892357 
486.3      0.3202298  0.7204837  0.2876888 
486.3999999999999 0.291285   0.8050027  0.3150181 
486.4999999999999 0.2443125  0.9587384  0.3785826 
486.6      0.1919817  1          0.465361  
486.6999999999999 0.1399421  1          0.573     
486.8      0.1071365  1          0.6456899 
486.8999999999999 0.1052472  1          0.6553971 
486.9999999999999 0.1342628  1          0.6115852 
487.1      0.1670508  1          0.5596442 
487.1999999999999 0.1914707  1          0.5239879 
487.3      0.1991841  1          0.5232073 
487.3999999999999 0.1841835  1          0.5748859 
487.4999999999999 0.1440208  1          0.6783074 
487.6      0.1047067  1          0.7687778 
487.6999999999999 0.100677   1          0.7689009 
487.8      0.1060845  1          0.7188376 
487.8999999999999 0.1106022  1          0.6805416 
487.9999999999999 0.0906129  1          0.6999717 
488.1      0.08049873 1          0.7003166 
488.1999999999999 0.07666008 1          0.6817765 
488.3      0.08965454 1          0.6370607 
488.3999999999999 0.1032315  1          0.6232973 
488.4999999999999 0.1124811  1          0.6486663 
488.6      0.08180702 1          0.7310556 
488.6999999999999 0.02790048 1          0.8668751 
488.8      0.004816447 1          0.9898783 
488.8999999999999 0.002910491 1          0.9950129 
488.9999999999999 0.0180304  1          0.8797609 
489.1      0.06149401 1          0.7404512 
489.1999999999999 0.09207312 1          0.6562895 
489.3      0.1101037  1          0.6206061 
489.3999999999999 0.1143696  1          0.6326604 
489.4999999999999 0.09758011 1          0.6978714 
489.6      0.06516784 1          0.8199195 
489.6999999999999 0.03839671 1          0.9338211 
489.8      0.037034   1          0.9648033 
489.8999999999999 0.06854676 1          0.8927635 
489.9999999999999 0.09717626 1          0.8126006 
490.1      0.111453   1          0.7698781 
490.1999999999999 0.09090674 1          0.818327  
490.3      0.03863801 1          0.9275766 
490.3999999999999 0.01306616 1          1         
490.4999999999999 0.006679863 1          1         
490.6      0.0143449  1          0.9036549 
490.6999999999999 0.06385083 1          0.7290904 
490.8      0.1186202  1          0.5627585 
490.8999999999999 0.1715046  1          0.4218006 
490.9999999999999 0.2160098  1          0.3292814 
491.1      0.247247   0.940019   0.2788256 
491.1999999999999 0.2517949  0.9496471  0.2725547 
491.3      0.2417872  1          0.3102525 
491.3999999999999 0.2188423  1          0.3700835 
491.4999999999999 0.2047454  1          0.4091846 
491.6      0.2081584  1          0.4060024 
491.6999999999999 0.2232719  1          0.3806961 
491.8      0.2388833  1          0.3627313 
491.8999999999999 0.2372713  1          0.3689258 
491.9999999999999 0.2260692  1          0.3908662 
492.1      0.2143005  1          0.4147332 
492.1999999999999 0.222978   1          0.3993487 
492.3      0.2445419  1          0.3485266 
492.3999999999999 0.2751374  1          0.2718588 
492.4999999999999 0.2915102  0.9921649  0.2264908 
492.6      0.2938688  0.9798114  0.2171098 
492.6999999999999 0.2814302  1          0.2558962 
492.8      0.2622373  1          0.3135652 
492.8999999999999 0.2466418  1          0.3674036 
492.9999999999999 0.2537508  1          0.3850363 
493.1      0.2751711  1          0.3678302 
493.1999999999999 0.306367   0.9009454  0.3296871 
493.3      0.3302153  0.8355215  0.2897782 
493.3999999999999 0.3358549  0.835375   0.2609239 
493.4999999999999 0.3338143  0.8560597  0.2468548 
493.6      0.3227112  0.8881271  0.2458731 
