~Version
 VERS              .         3.0                           : CWLS LOG ASCII STANDARD - VERSION 3.0
 WRAP              .         NO                            : ONE LINE PER DEPTH STEP
 DLM               .         SPACE                         : DELIMITING CHARACTER(SPACE TAB OR COMMA)
~Well Information
#_______________________________________________________________________________
#
#PARAMETER_NAME    .UNIT     VALUE                         : DESCRIPTION
#_______________________________________________________________________________
STRT               .m        0.2                           : First reference value
STOP               .m        937.8                         : Last reference value
STEP               .m        0.1                           : Step increment
NULL               .         -9999                         : Missing value
COMP               .         ICPetroleum                   : Company
WELL               .         329                           : Well name
FLD                .         Karatobe                      : Field
LOC                .                                       : Location
SRVC               .                                       : Service Company
CTRY               .         KZ                            : Country
DATE               .         27.01.2007                    : Service Date
LATI               .         0                             : Latitude
LONG               .         0                             : Longitude
GDAT               .         WGS 84                        : Geodetic Datum
CNTY               .                                       : 
COORDIN            .                                       : Grid System
COUNTRY            .         Kazakhstan                    : 
COUNTRY            .         Kazakhstan                    : 
EREF               .m        141.8                         : 
KB                 .         0                             : KB Elevation
ORIGINALWELLNAME   .         329                           : 
PROV               .                                       : Province
RWS                .         -999                          : Def_Rw
STAT               .                                       : 
UWI                .                                       : 
WST                .         -999                          : Def_Rwt
X                  .km       466696.75                     : 
XCOORD             .                                       : X or East-West Coordinate
Y                  .km       5307893.42                    : 
YCOORD             .                                       : Y or North-South Coordinate
~Parameter Information Block
#_______________________________________________________________________________
#
#PARAMETER_NAME    .UNIT     VALUE                         : DESCRIPTION
#_______________________________________________________________________________
SET                .         Las                           : 
TLFamily_DEPT      .         Measured Depth                : 
TLFamily_PHI_FINAL .         Porosity                      : 
TLFamily_SW_AR     .         Water Saturation              : 
TLFamily_VSH_FINAL .         Shale Volume                  : 
~Curve Information
#_______________________________________________________________________________
#
#LOGNAME           .UNIT     LOG_ID                        : DESCRIPTION
#_______________________________________________________________________________
DEPT               .m                                      :  {F}
PHI_FINAL          .m3/m3                                  : Porosity {F}
SW_AR              .m3/m3                                  :  {F}
VSH_FINAL          .unitless                               : Vshale {F}
~Ascii
# ...
582.9      0.01892569 1          0.9094674 
583        0.03764207 1          0.8357524 
583.1      0.04592039 1          0.8149583 
583.2      0.04537817 1          0.8247297 
583.3      0.04433274 1          0.82485   
583.4      0.04349701 1          0.8200074 
583.5      0.04208094 1          0.8171621 
583.6      0.04483736 1          0.8064924 
583.7      0.05206032 1          0.7866071 
583.8      0.0605125  1          0.7609019 
583.9      0.06942711 1          0.7303694 
584        0.09574882 1          0.6638364 
584.1      0.1437134  1          0.542963  
584.2      0.1916884  1          0.4238629 
584.3      0.2094821  1          0.3713371 
584.4      0.1813034  1          0.4251445 
584.5      0.1206783  1          0.5871888 
584.6      0.05399377 1          0.7727717 
584.7      0.0366781  1          0.8285324 
584.8      0.06907515 1          0.7298287 
584.9      0.11575    1          0.5940502 
585        0.1509784  1          0.4988462 
585.1      0.1607897  1          0.465221  
585.2      0.1440103  1          0.4949031 
585.3      0.1079062  1          0.5684482 
585.4      0.09431444 1          0.6146975 
585.5      0.09785849 1          0.5911442 
585.6      0.1244185  1          0.5253066 
585.7      0.1365649  1          0.4956796 
585.8      0.1301049  1          0.5157502 
585.9      0.1032151  1          0.5862169 
586        0.06351925 1          0.6871912 
586.1      0.0187791  1          0.8128962 
586.2      0.007067828 1          0.8901992 
586.3      0.01979613 1          0.8392527 
586.4      0.07603094 1          0.6971756 
586.5      0.1241174  1          0.5879217 
586.6      0.1301658  1          0.5736769 
586.7      0.1074027  1          0.6291648 
586.8      0.07500981 1          0.7036178 
586.9      0.05419972 1          0.7605562 
587        0.04004829 1          0.8000971 
587.1      0.03001649 1          0.835941  
587.2      0.02234739 1          0.8446468 
587.3      0.03152565 1          0.8079724 
587.4      0.07447296 1          0.7023484 
587.5      0.1242458  1          0.5808957 
587.6      0.1583767  1          0.4958452 
587.7      0.1671306  1          0.4795556 
587.8      0.1627844  1          0.4897324 
587.9      0.1645289  1          0.4778934 
588        0.1822471  1          0.4339614 
588.1      0.1894427  1          0.4045402 
588.2      0.1879043  1          0.4258611 
588.3      0.166531   1          0.4799438 
588.4      0.1413794  1          0.5409595 
588.5      0.1237306  1          0.589388  
588.6      0.1013457  1          0.6441468 
588.7      0.08223202 1          0.6977918 
588.8      0.09238109 1          0.6795602 
588.9      0.1341909  1          0.5781307 
589        0.1880385  1          0.4509043 
589.1      0.2205395  1          0.3712637 
589.2      0.2305188  1          0.3442616 
589.3      0.2243174  1          0.359178  
589.4      0.2027233  1          0.4128706 
589.5      0.1605386  1          0.5195617 
589.6      0.101917   1          0.6637299 
589.7      0.05434724 1          0.7853292 
589.8      0.0602463  1          0.7650601 
589.9      0.1076947  1          0.6453224 
590        0.1637275  1          0.5099118 
590.1      0.1973052  1          0.4315283 
590.2      0.2111356  1          0.4014869 
590.3      0.2024418  1          0.4230618 
590.4      0.1702978  1          0.4995343 
590.5      0.1237237  1          0.6096871 
590.6      0.09502141 1          0.6775637 
590.7      0.1139741  1          0.6253787 
590.8      0.1555897  1          0.5207872 
590.9      0.186409   1          0.4420021 
591        0.1875857  1          0.4321549 
591.1      0.1704606  1          0.4603935 
591.2      0.1474455  1          0.5086052 
591.3      0.1320286  1          0.5516698 
591.4      0.114589   1          0.6045824 
591.5      0.09881441 1          0.6430432 
591.6      0.09935182 1          0.6429505 
591.7      0.1302883  1          0.5825585 
591.8      0.1566042  1          0.5291973 
591.9      0.1665993  1          0.5097417 
592        0.1543269  1          0.542381  
592.1      0.1438121  1          0.5609944 
592.2      0.1517057  1          0.5444524 
592.3      0.1817734  1          0.4774162 
592.4      0.2073973  1          0.4155056 
592.5      0.2285581  1          0.3563495 
592.6      0.2545781  1          0.3087845 
592.7      0.2756208  1          0.2699149 
592.8      0.2780844  1          0.2687326 
592.9      0.2608851  1          0.3058058 
593        0.2295446  1          0.3670383 
593.1      0.2025425  1          0.4244549 
593.2      0.1820147  1          0.464629  
593.3      0.1583342  1          0.5246332 
593.4      0.1211318  1          0.6122844 
593.5      0.06494022 1          0.7495986 
593.6      0.0217873  1          0.886687  
593.7      0.005968935 1          1         
593.8      0.007484104 1          1         
593.9      0.008535617 1          1         
594        0.008682826 1          1         
594.1      0.008623146 1          1         
594.2      0.07998011 1          0.7293337 
594.3      0.161459   1          0.5183303 
594.4      0.1962407  1          0.4277716 
594.5      0.1995728  1          0.4193048 
594.6      0.2020664  1          0.4214444 
594.7      0.2135533  1          0.3985786 
594.8      0.2377493  1          0.3439382 
594.9      0.2642037  1          0.2739861 
595        0.2914928  1          0.2054375 
595.1      0.3112207  1          0.1597695 
595.2      0.3186052  1          0.1513153 
595.3      0.3087848  1          0.1823316 
595.4      0.2789224  1          0.2518187 
595.5      0.243826   1          0.3283739 
595.6      0.2206133  1          0.375259  
595.7      0.2275418  1          0.3555737 
595.8      0.2511755  1          0.3038375 
595.9      0.2730912  1          0.2595114 
596        0.2765503  1          0.252566  
596.1      0.2682438  1          0.2777176 
596.2      0.2611759  1          0.3033825 
596.3      0.26184    1          0.3012516 
596.4      0.2739542  1          0.2713051 
596.5      0.2864557  1          0.2413055 
596.6      0.2892538  1          0.2226137 
596.7      0.2856756  1          0.2231727 
596.8      0.2782762  1          0.2433507 
596.9      0.261417   1          0.2881104 
597        0.2406526  1          0.3402666 
597.1      0.2185604  1          0.384759  
597.2      0.2181393  1          0.3922737 
597.3      0.2262034  1          0.3760991 
597.4      0.2431459  1          0.3360989 
597.5      0.2574406  1          0.2944236 
597.6      0.2729503  1          0.248954  
597.7      0.2826105  1          0.2259464 
597.8      0.2832241  1          0.2247497 
597.9      0.2769311  1          0.242178  
598        0.275156   1          0.2440127 
598.1      0.2818849  1          0.2288872 
598.2      0.2839868  1          0.220834  
598.3      0.2706465  1          0.2446452 
598.4      0.2492157  1          0.2877232 
598.5      0.2462735  1          0.3008064 
598.6      0.2635477  1          0.2603264 
598.7      0.286595   1          0.198477  
598.8      0.3036147  1          0.152652  
598.9      0.3103676  1          0.1287836 
599        0.314251   1          0.1210379 
599.1      0.3157115  1          0.1294515 
599.2      0.3135283  1          0.1525945 
599.3      0.3052359  1          0.1844275 
599.4      0.3022408  1          0.2056086 
599.5      0.3002315  1          0.2073952 
599.6      0.3031804  1          0.1995205 
599.7      0.304058   1          0.1964494 
599.8      0.3042807  1          0.1994033 
599.9      0.3025482  1          0.2038636 
600        0.304908   1          0.2018259 
600.1      0.304034   1          0.2060099 
600.2      0.2966944  1          0.2236842 
600.3      0.2849935  1          0.2609601 
600.4      0.2789176  1          0.2868738 
600.5      0.2855197  1          0.2742176 
600.6      0.3064798  1          0.2319369 
600.7      0.317914   1          0.2021459 
600.8      0.3181052  1          0.2017388 
600.9      0.3106572  1          0.2214485 
601        0.3093156  1          0.2259171 
