~Version
 VERS              .         3.0                           : CWLS LOG ASCII STANDARD - VERSION 3.0
 WRAP              .         NO                            : ONE LINE PER DEPTH STEP
 DLM               .         SPACE                         : DELIMITING CHARACTER(SPACE TAB OR COMMA)
~Well Information
#_______________________________________________________________________________
#
#PARAMETER_NAME    .UNIT     VALUE                         : DESCRIPTION
#_______________________________________________________________________________
STRT               .m        0.2                           : First reference value
STOP               .m        937.8                         : Last reference value
STEP               .m        0.1                           : Step increment
NULL               .         -9999                         : Missing value
COMP               .         ICPetroleum                   : Company
WELL               .         329                           : Well name
FLD                .         Karatobe                      : Field
LOC                .                                       : Location
SRVC               .                                       : Service Company
CTRY               .         KZ                            : Country
DATE               .         27.01.2007                    : Service Date
LATI               .         0                             : Latitude
LONG               .         0                             : Longitude
GDAT               .         WGS 84                        : Geodetic Datum
CNTY               .                                       : 
COORDIN            .                                       : Grid System
COUNTRY            .         Kazakhstan                    : 
COUNTRY            .         Kazakhstan                    : 
EREF               .m        141.8                         : 
KB                 .         0                             : KB Elevation
ORIGINALWELLNAME   .         329                           : 
PROV               .                                       : Province
RWS                .         -999                          : Def_Rw
STAT               .                                       : 
UWI                .                                       : 
WST                .         -999                          : Def_Rwt
X                  .km       466696.75                     : 
XCOORD             .                                       : X or East-West Coordinate
Y                  .km       5307893.42                    : 
YCOORD             .                                       : Y or North-South Coordinate
~Parameter Information Block
#_______________________________________________________________________________
#
#PARAMETER_NAME    .UNIT     VALUE                         : DESCRIPTION
#_______________________________________________________________________________
SET                .         Las                           : 
TLFamily_DEPT      .         Measured Depth                : 
TLFamily_PHI_FINAL .         Porosity                      : 
TLFamily_SW_AR     .         Water Saturation              : 
TLFamily_VSH_FINAL .         Shale Volume                  : 
~Curve Information
#_______________________________________________________________________________
#
#LOGNAME           .UNIT     LOG_ID                        : DESCRIPTION
#_______________________________________________________________________________
DEPT               .m                                      :  {F}
PHI_FINAL          .m3/m3                                  : Porosity {F}
SW_AR              .m3/m3                                  :  {F}
VSH_FINAL          .unitless                               : Vshale {F}
~Ascii
# ...
124.3      0.0329259  -9999      0.1534017 
124.4      0.02750582 -9999      0.1777589 
124.5      0.02291162 -9999      0.2096393 
124.6      0.02410884 -9999      0.2177518 
124.7      0.03200392 -9999      0.2030536 
124.8      0.03635529 -9999      0.1743517 
124.9      0.03974712 -9999      0.149231  
125        0.04097265 -9999      0.1308628 
125.1      0.04258639 -9999      0.1238895 
125.2      0.04564386 -9999      0.1216319 
125.3      0.04639424 -9999      0.1246376 
125.4      0.04497962 -9999      0.1295158 
125.5      0.04023741 -9999      0.143005  
125.6      0.03445235 -9999      0.1550117 
125.7      0.03437964 -9999      0.1583224 
125.8      0.04159177 -9999      0.1491441 
125.9      0.04776961 -9999      0.1382292 
126        0.05532056 -9999      0.1336079 
126.1      0.06338274 -9999      0.1307629 
126.2      0.06823133 -9999      0.1275601 
126.3      0.06954486 -9999      0.1201665 
126.4      0.0670781  -9999      0.1140668 
126.5      0.06480086 -9999      0.1070779 
126.6      0.06260093 -9999      0.09625472
126.7      0.06125325 -9999      0.08074114
126.8      0.06136689 -9999      0.06803904
126.9      0.06272786 -9999      0.06600497
127        0.06321712 -9999      0.07204409
127.1      0.06363212 -9999      0.07526904
127.2      0.06537008 -9999      0.06570457
127.3      0.0708221  -9999      0.05132266
127.4      0.07401503 -9999      0.04676087
127.5      0.07181949 -9999      0.05691755
127.6      0.06683717 -9999      0.07816264
127.7      0.06240074 -9999      0.09227748
127.8      0.06031277 -9999      0.09591945
127.9      0.06009846 -9999      0.09166583
128        0.05896077 -9999      0.09562913
128.1      0.05653119 -9999      0.1057387 
128.2      0.05380836 -9999      0.117468  
128.3      0.05542649 -9999      0.1141746 
128.4      0.0584014  -9999      0.09352177
128.5      0.06423775 -9999      0.07134714
128.6      0.06350893 -9999      0.06627636
128.7      0.05830921 -9999      0.08750849
128.8      0.04755543 -9999      0.1324915 
128.9      0.0357483  -9999      0.1750274 
129        0.03472787 -9999      0.1779199 
129.1      0.04634137 -9999      0.1406656 
129.2      0.0575055  -9999      0.0992121 
129.3      0.06126778 -9999      0.07874127
129.4      0.05915244 -9999      0.08068258
129.5      0.05399869 -9999      0.1000665 
129.6      0.04868643 -9999      0.1202907 
129.7      0.04500243 -9999      0.1264573 
129.8      0.04794256 -9999      0.1164916 
129.9      0.04982115 -9999      0.1136597 
130        0.04880679 -9999      0.1306066 
130.1      0.0401844  -9999      0.1585823 
130.2      0.04135337 -9999      0.1525791 
130.3      0.05408693 -9999      0.105041  
130.4      0.06637366 -9999      0.05648547
130.5      0.07306661 -9999      0.03632826
130.6      0.07272857 -9999      0.04241312
130.7      0.06833663 -9999      0.06146014
130.8      0.05903585 -9999      0.07818812
130.9      0.05660643 -9999      0.08183799
131        0.05882895 -9999      0.07992866
131.1      0.0617931  -9999      0.07541321
131.2      0.06245696 -9999      0.07346199
131.3      0.06106094 -9999      0.07646649
131.4      0.05874858 -9999      0.09064905
131.5      0.05412577 -9999      0.1147676 
131.6      0.04124558 -9999      0.1422312 
131.7      0.03892035 -9999      0.1558269 
131.8      0.04070223 -9999      0.1516477 
131.9      0.04650323 -9999      0.1335107 
132        0.05288805 -9999      0.1168528 
132.1      0.05630643 -9999      0.1099404 
132.2      0.05685369 -9999      0.1118836 
132.3      0.0528794  -9999      0.1214933 
132.4      0.05269559 -9999      0.1227814 
132.5      0.05602835 -9999      0.1169314 
132.6      0.05835177 -9999      0.1032196 
132.7      0.06093987 -9999      0.09638028
132.8      0.06011268 -9999      0.09603447
132.9      0.05705892 -9999      0.09756781
133        0.05455735 -9999      0.097287  
133.1      0.05255747 -9999      0.09540069
133.2      0.05146305 -9999      0.09963573
133.3      0.0523434  -9999      0.1055127 
133.4      0.05250718 -9999      0.1117231 
133.5      0.05423648 -9999      0.1076816 
133.6      0.05969869 -9999      0.09521267
133.7      0.06115542 -9999      0.07662258
133.8      0.06387892 -9999      0.06040176
133.9      0.0661891  -9999      0.04978514
134        0.06576038 -9999      0.0441554 
134.1      0.06603998 -9999      0.04273573
134.2      0.06556792 -9999      0.04466956
134.3      0.0650652  -9999      0.05031102
134.4      0.06454143 -9999      0.05630469
134.5      0.06332517 -9999      0.05818199
134.6      0.06363119 -9999      0.0535667 
134.7      0.06440236 -9999      0.04695301
134.8      0.06524926 -9999      0.04336432
134.9      0.06374043 -9999      0.04988358
135        0.06178092 -9999      0.06879649
135.1      0.0537831  -9999      0.09955197
135.2      0.04722616 -9999      0.1205322 
135.3      0.04785722 -9999      0.1205934 
135.4      0.0519047  -9999      0.1022588 
135.5      0.05646669 -9999      0.08488818
135.6      0.05647819 -9999      0.08332191
135.7      0.0510051  -9999      0.1018782 
135.8      0.04251396 -9999      0.1339094 
135.9      0.0388274  -9999      0.1498028 
136        0.04438073 -9999      0.1346044 
136.1      0.05239341 -9999      0.1047451 
136.2      0.05904232 -9999      0.07910774
136.3      0.0664487  -9999      0.06083251
136.4      0.0706073  -9999      0.04985775
136.5      0.07377885 -9999      0.04315085
136.6      0.07285182 -9999      0.04338169
136.7      0.06890816 -9999      0.04841601
136.8      0.06651215 -9999      0.05915065
136.9      0.06746743 -9999      0.06944928
137        0.06273675 -9999      0.08067488
137.1      0.05768066 -9999      0.09187681
137.2      0.05289371 -9999      0.1016313 
137.3      0.04864314 -9999      0.1031373 
137.4      0.04470627 -9999      0.09585979
137.5      0.04703413 -9999      0.0920954 
137.6      0.05068694 -9999      0.09811446
137.7      0.05417225 -9999      0.1096403 
137.8      0.06114275 -9999      0.1126606 
137.9      0.06936429 -9999      0.1023741 
138        0.07089584 -9999      0.09191287
138.1      0.06411414 -9999      0.09248884
138.2      0.05688998 -9999      0.1056062 
138.3      0.04825646 -9999      0.1156721 
138.4      0.04718525 -9999      0.1113475 
138.5      0.04835486 -9999      0.09807986
138.6      0.05102028 -9999      0.09692779
138.7      0.0489962  -9999      0.1153951 
138.8      0.04066128 -9999      0.1519372 
138.9      0.03293755 -9999      0.18605   
139        0.02743159 -9999      0.2106863 
139.1      0.02434926 -9999      0.2215483 
139.2      0.02249002 -9999      0.2239021 
139.3      0.02772226 -9999      0.1985253 
139.4      0.04127394 -9999      0.1527814 
139.5      0.05221819 -9999      0.1090495 
139.6      0.05600593 -9999      0.08656625
139.7      0.05544633 -9999      0.08025275
139.8      0.05630209 -9999      0.07694305
139.9      0.05698753 -9999      0.07387566
140        0.05407    -9999      0.08279198
140.1      0.0450977  -9999      0.1205719 
140.2      0.03098798 -9999      0.1866204 
140.3      0.01689273 -9999      0.2500089 
140.4      0.0125083  -9999      0.2593729 
140.5      0.01800622 -9999      0.2268021 
140.6      0.02838881 -9999      0.187521  
140.7      0.03258562 -9999      0.1639844 
140.8      0.03673447 -9999      0.1465518 
140.9      0.04048353 -9999      0.1281468 
141        0.04450608 -9999      0.1056794 
141.1      0.04707896 -9999      0.09178429
141.2      0.04840593 -9999      0.09359889
141.3      0.04406538 -9999      0.1178474 
141.4      0.03416868 -9999      0.1528249 
141.5      0.02931087 -9999      0.1826201 
141.6      0.02877146 -9999      0.1941683 
141.7      0.0286354  -9999      0.1948619 
141.8      0.0269225  -9999      0.1907444 
141.9      0.03019567 -9999      0.1739021 
142        0.0385134  -9999      0.1462429 
142.1      0.04470562 -9999      0.1188533 
142.2      0.04719663 -9999      0.1039303 
142.3      0.0486229  -9999      0.09886077
142.4      0.04803748 -9999      0.09959228
