~Version information
  VERS.                            1.20: CWLS LAS  -  VERSION 1.20
  WRAP.                              NO: One line per depth step
~Well information
# MNEM.UNIT
# ====.================================:===================
  STRT.M                           0.20: First depth in file
  STOP.M                         937.80: Last depth in file
  STEP.M                           0.10: Depth increment
  NULL.                           -9999: Null values
  COMP.                         COMPANY:
  WELL.                            WELL: 329
  FLD .                           FIELD: Karatobe
  CNTY.                          COUNTY: 
  STAT.                           STATE: 
  DATE.                        LOG DATE: 27.01.2007
  SRVC.                 SERVICE COMPANY: 
  UWI.           Unique Well Identifier: 
~Parametr information block
# MNEM.UNIT
# ====.================================:===================
~Other information
# ------------------------- REMARKS  AREA ------------------
~Curve information
# MNEM.UNIT
# ====.================================:===================
  DEPT.M                               : Depth curve
GR    .UR/H                            : 
NGL   .C.U.                            : 
GZ3   .OHMM                            : 
GZ3B  .OHMM                            : 
LL3   .OHMM                            : 
MLL   .OHMM                            : 
CILR  .MMHO                            : 
RHOB  .G/C3                            : 
C1    .MM                              : 
C2    .MM                              : 
CALI  .MM                              : 
BS    .MM                              :
SP    .MV                              : 
DT    .UR/H                            : 
~ASCII Log Data
# ...
   715.60       6.06       1.69       6.33       5.86       3.87       1.23     387.24       2.48     227.53     256.32     241.92     215.90     454.26     301.52
   715.70       5.94       1.66       6.55       5.71       3.48       0.52     389.32       2.45     227.07     241.64     234.35     215.90     455.35     302.97
   715.80       5.96       1.55       6.62       5.48       3.49       0.42     394.17       2.42     227.52     233.38     230.45     215.90     456.03     309.15
   715.90       6.02       1.58       6.53       5.23       3.53       0.51     398.89       2.40     228.89     231.54     230.22     215.90     455.99     318.06
   716.00       5.93       1.61       6.37       5.09       3.53       0.65     402.55       2.37     238.73     244.76     241.75     215.90     455.77     328.92
   716.10       5.65       1.67       6.16       4.96       3.49       0.82     403.91       2.37     252.20     264.44     258.32     215.90     455.31     341.08
   716.20       5.45       1.68       5.98       4.88       3.52       0.82     404.59       2.36     243.36     286.65     265.00     215.90     454.73     352.40
   716.30       5.42       1.63       5.87       4.85       3.61       0.73     404.35       2.37     236.35     290.86     263.60     215.90     454.60     360.36
   716.40       5.39       1.57       5.80       4.84       3.69       0.74     404.38       2.39     230.45     292.84     261.64     215.90     454.53     362.97
   716.50       5.41       1.56       5.78       4.85       3.68       0.79     403.23       2.40     227.05     294.06     260.56     215.90     454.65     360.25
   716.60       5.24       1.57       5.79       4.87       3.71       0.77     400.67       2.40     223.81     295.40     259.60     215.90     454.98     353.37
   716.70       5.49       1.58       5.80       4.90       3.78       0.81     399.10       2.39     220.82     296.89     258.86     215.90     455.64     344.09
   716.80       5.79       1.59       5.79       4.94       3.89       0.91     398.00       2.38     222.46     298.41     260.44     215.90     456.69     334.63
   716.90       5.76       1.60       5.78       4.96       3.94       0.77     395.29       2.37     227.19     299.95     263.57     215.90     457.25     327.36
   717.00       5.81       1.64       5.74       4.96       3.88       0.64     392.56       2.39     224.86     292.51     258.68     215.90     457.22     323.68
   717.10       5.98       1.65       5.68       4.91       3.73       0.67     391.00       2.42     220.77     282.82     251.80     215.90     457.20     323.80
   717.20       6.03       1.63       5.60       4.85       3.67       0.55     389.12       2.39     220.70     288.71     254.71     215.90     457.58     326.88
   717.30       5.98       1.61       5.52       4.79       3.67       0.47     390.24       2.35     225.32     282.38     253.85     215.90     458.22     331.70
   717.40       6.02       1.58       5.45       4.75       3.73       0.59     394.63       2.33     231.38     274.69     253.04     215.90     458.05     335.44
   717.50       5.87       1.58       5.41       4.77       3.95       0.58     397.79       2.32     230.63     294.22     262.42     215.90     457.49     335.44
   717.60       6.05       1.59       5.43       4.85       4.36       0.43     398.73       2.34     230.17     307.57     268.87     215.90     456.88     331.15
   717.70       6.04       1.59       5.58       4.97       4.74       0.47     402.70       2.35     230.39     306.54     268.46     215.90     455.76     325.27
   717.80       5.97       1.60       5.80       5.08       4.70       1.89     398.50       2.37     228.64     303.87     266.25     215.90     454.25     320.15
   717.90       5.76       1.60       6.06       5.17       4.27       0.88     396.51       2.36     224.91     299.56     262.24     215.90     452.35     316.67
   718.00       5.66       1.60       6.32       5.21       4.28       0.89     396.19       2.33     223.55     273.92     248.74     215.90     450.58     313.98
   718.10       5.79       1.60       6.47       5.21       4.36       0.95     392.31       2.32     223.78     234.06     228.92     215.90     449.10     311.43
   718.20       5.73       1.56       6.58       5.19       4.24       1.24     388.68       2.28     227.93     253.07     240.50     215.90     447.75     307.63
   718.30       5.79       1.51       6.62       5.12       3.65       1.16     394.50       2.25     232.52     278.60     255.56     215.90     446.45     301.95
   718.40       5.96       1.47       6.55       5.03       3.37       0.76     400.06       2.21     227.49     281.08     254.29     215.90     444.91     294.99
   718.50       6.15       1.46       6.44       4.94       3.40       0.83     403.85       2.18     224.46     278.09     251.28     215.90     443.71     289.59
   718.60       6.45       1.44       6.30       4.88       3.40       0.80     411.22       2.18     229.44     253.13     241.29     215.90     442.57     287.97
   718.70       6.67       1.43       6.15       4.85       3.39       0.76     415.78       2.13     230.97     250.18     240.57     215.90     441.39     290.24
   718.80       6.61       1.45       5.99       4.88       3.47       0.74     419.45       2.13     227.32     280.25     253.78     215.90     440.60     294.58
   718.90       6.55       1.47       5.85       4.96       3.74       0.82     420.90       2.19     226.63     278.73     252.68     215.90     440.37     301.67
   719.00       6.65       1.48       5.80       5.06       3.80       1.17     419.05       2.22     227.20     263.69     245.44     215.90     440.61     311.34
   719.10       6.63       1.49       5.77       5.20       3.63       1.05     414.40       2.24     231.86     262.94     247.40     215.90     441.18     321.95
   719.20       6.66       1.49       5.74       5.26       3.58       0.74     409.26       2.25     237.55     265.77     251.66     215.90     442.46     329.84
   719.30       6.78       1.49       5.72       5.32       3.68       0.89     408.44       2.25     230.44     268.32     249.38     215.90     444.18     334.10
   719.40       6.82       1.49       5.71       5.37       3.82       1.04     404.66       2.28     225.86     269.54     247.70     215.90     446.01     337.90
   719.50       6.80       1.42       5.68       5.41       3.82       1.00     399.76       2.30     227.19     267.64     247.41     215.90     447.41     344.94
   719.60       6.83       1.40       5.63       5.44       3.69       0.96     394.79       2.28     228.21     268.75     248.48     215.90     448.82     356.02
   719.70       6.98       1.45       5.53       5.47       3.39       0.96     390.74       2.27     228.78     274.35     251.57     215.90     448.22     368.54
   719.80       7.20       1.47       5.46       5.50       3.17       0.80     390.87       2.25     227.98     273.81     250.89     215.90     448.68     379.45
   719.90       7.28       1.48       5.40       5.54       3.09       0.73     400.43       2.24     225.79     267.13     246.46     215.90     449.32     386.70
   720.00       7.38       1.48       5.36       5.64       3.22       0.74     401.58       2.24     229.23     262.37     245.80     215.90     449.92     391.78
   720.10       7.42       1.46       5.35       5.76       3.46       1.07     398.82       2.23     234.06     258.08     246.07     215.90     449.74     393.85
   720.20       7.30       1.46       5.36       5.86       3.66       1.23     395.32       2.22     237.40     248.88     243.14     215.90     449.94     392.83
   720.30       6.88       1.48       5.37       5.94       3.75       0.91     390.53       2.23     238.43     241.75     240.09     215.90     450.18     387.13
   720.40       6.46       1.48       5.38       5.99       3.86       0.97     381.47       2.22     230.87     245.12     238.00     215.90     450.35     378.03
