~Version information
  VERS.                            1.20: CWLS LAS  -  VERSION 1.20
  WRAP.                              NO: One line per depth step
~Well information
# MNEM.UNIT
# ====.================================:===================
  STRT.M                           0.20: First depth in file
  STOP.M                         937.80: Last depth in file
  STEP.M                           0.10: Depth increment
  NULL.                           -9999: Null values
  COMP.                         COMPANY:
  WELL.                            WELL: 329
  FLD .                           FIELD: Karatobe
  CNTY.                          COUNTY: 
  STAT.                           STATE: 
  DATE.                        LOG DATE: 27.01.2007
  SRVC.                 SERVICE COMPANY: 
  UWI.           Unique Well Identifier: 
~Parametr information block
# MNEM.UNIT
# ====.================================:===================
~Other information
# ------------------------- REMARKS  AREA ------------------
~Curve information
# MNEM.UNIT
# ====.================================:===================
  DEPT.M                               : Depth curve
GR    .UR/H                            : 
NGL   .C.U.                            : 
GZ3   .OHMM                            : 
GZ3B  .OHMM                            : 
LL3   .OHMM                            : 
MLL   .OHMM                            : 
CILR  .MMHO                            : 
RHOB  .G/C3                            : 
C1    .MM                              : 
C2    .MM                              : 
CALI  .MM                              : 
BS    .MM                              :
SP    .MV                              : 
DT    .UR/H                            : 
~ASCII Log Data
# ...
   931.20       1.13       8.46       2.24      -9999   25365.08     129.19     141.61       2.15     235.51     236.99     236.25     215.90     318.94     266.14
   931.30       1.21       8.41       2.23      -9999   25352.80     180.28     141.41       2.14     236.14     236.57     236.35     215.90     319.75     289.71
   931.40       1.11       8.38       2.22      -9999   25664.50     141.05     141.71       2.14     236.70     236.47     236.58     215.90     321.03     309.81
   931.50       1.19       8.36       2.21      -9999   25901.78      40.70     141.95       2.14     235.61     236.58     236.10     215.90     321.90     324.31
   931.60       1.23       8.39       2.21      -9999   25525.41     161.46     141.49       2.16     236.09     235.92     236.01     215.90     322.38      -9999
   931.70       1.23       8.46       2.21      -9999   25963.62     194.11     140.93       2.16     237.39     235.96     236.67     215.90     322.41      -9999
   931.80       1.24       8.44       2.22      -9999   25845.13     212.97     140.66       2.14     238.85     236.03     237.44     215.90     320.67      -9999
   931.90       1.16       8.47       2.21      -9999   25636.55      79.40     142.56       2.15     237.69     236.40     237.05     215.90     320.66      -9999
   932.00       1.16       8.60       2.21      -9999   25771.61      77.14     141.56       2.13     233.95     232.13     233.04     215.90     320.86      -9999
   932.10       1.19       8.56       2.21      -9999   25585.15     144.85     142.08       2.11     232.20     231.19     231.70     215.90     321.32      -9999
   932.20       1.21       8.42       2.20      -9999   26192.98     220.29     142.69       2.10     233.96     234.73     234.34     215.90     321.92      -9999
   932.30       1.25       8.34       2.19      -9999   26765.98     183.45     142.63       2.11     235.28     235.43     235.36     215.90     322.90      -9999
   932.40       1.26       8.22       2.18      -9999   26731.42     184.19     142.54       2.11     233.02     234.31     233.67     215.90     324.32      -9999
   932.50       1.05       8.25       2.19      -9999   26389.30     224.88     142.05       2.11     233.54     235.86     234.70     215.90     324.55      -9999
   932.60       0.91       8.28       2.20      -9999   26293.21     147.19     141.88       2.12     232.80     235.46     234.13     215.90      -9999      -9999
   932.70       0.95       8.30       2.18      -9999   26461.46      67.24     142.50       2.12     233.30     236.13     234.71     215.90      -9999      -9999
   932.80       1.01       8.34       2.13      -9999   26672.36      95.65     143.49       2.12     233.41     234.70     234.06     215.90      -9999      -9999
   932.90       0.96       8.36       2.15      -9999   26812.85      96.19     143.35       2.13     231.76     234.29     233.03     215.90      -9999      -9999
   933.00       0.97       8.38       2.17      -9999   26616.59      94.18     143.40       2.13     231.86     235.14     233.50     215.90      -9999      -9999
   933.10       0.97       8.38       2.18      -9999   26678.22      96.99     143.15       2.12     233.67     236.15     234.91     215.90      -9999      -9999
   933.20       1.09       8.45       2.18      -9999   26076.20     128.93     142.76       2.10     233.92     236.23     235.07     215.90      -9999      -9999
   933.30       1.15       8.26       2.18      -9999   24967.85     135.94     142.31       2.11     235.26     236.48     235.87     215.90      -9999      -9999
   933.40       1.17       8.32       2.17      -9999   24413.34     117.26     142.65       2.13     232.16     235.24     233.70     215.90      -9999      -9999
   933.50       1.22       8.18       2.17      -9999   24130.06     159.70     142.36       2.13     230.71     234.41     232.56     215.90      -9999      -9999
   933.60      -9999       8.13       2.17      -9999   24323.19     186.24     142.16       2.14     231.58     235.49     233.53     215.90      -9999      -9999
   933.70      -9999       8.07       2.17      -9999   24916.91     136.64     142.75       2.14     233.31     236.55     234.93     215.90      -9999      -9999
   933.80      -9999       7.94       2.16      -9999   25475.91      70.24     142.61       2.14     232.15     236.19     234.17     215.90      -9999      -9999
   933.90      -9999       7.75       2.16      -9999   25592.86     176.98     141.17       2.14     231.63     235.21     233.42     215.90      -9999      -9999
   934.00      -9999       7.55       2.18      -9999   25629.54      12.48     139.94       2.14     234.73     235.20     234.97     215.90      -9999      -9999
   934.10      -9999       7.36       2.20      -9999   25349.78       5.86     139.76       2.15     235.62     235.95     235.79     215.90      -9999      -9999
   934.20      -9999       7.23       2.20      -9999   24977.37       2.56     139.29       2.16     231.42     236.39     233.90     215.90      -9999      -9999
   934.30      -9999       7.29       2.19      -9999   25158.47       1.60     139.66       2.16     234.12     236.97     235.54     215.90      -9999      -9999
   934.40      -9999       7.45       2.18      -9999   25308.40       8.76     141.38       2.14     238.24     237.74     237.99     215.90      -9999      -9999
   934.50      -9999       7.65       2.18      -9999   24979.31       7.77     140.46       2.09     242.37     243.77     243.07     215.90      -9999      -9999
   934.60      -9999       7.71       2.18      -9999   25018.20      26.79     139.32       2.07     256.75     264.19     260.47     215.90      -9999      -9999
   934.70      -9999       7.73       2.18      -9999   25088.40      15.29     139.88       2.05     269.92     270.48     270.20     215.90      -9999      -9999
   934.80      -9999       7.92       2.18      -9999   24732.35      12.80     140.15       2.08     266.27     260.30     263.29     215.90      -9999      -9999
   934.90      -9999       8.00      -9999      -9999   24692.61      34.29      -9999       2.08     253.24     248.11     250.68     215.90      -9999      -9999
   935.00      -9999       8.01      -9999      -9999   24848.43      93.62      -9999       2.07     247.22     244.86     246.04     215.90      -9999      -9999
   935.10      -9999       7.96      -9999      -9999   24894.19      67.96      -9999       2.06     244.19     243.12     243.65     215.90      -9999      -9999
   935.20      -9999       8.09      -9999      -9999   25111.10      34.07      -9999       2.05     249.78     240.11     244.94     215.90      -9999      -9999
   935.30      -9999       8.35      -9999      -9999   25245.55      20.64      -9999       2.02     252.34     243.42     247.88     215.90      -9999      -9999
   935.40      -9999      -9999      -9999      -9999   24976.56      11.17      -9999       1.98     255.79     240.06     247.92     215.90      -9999      -9999
   935.50      -9999      -9999      -9999      -9999   25019.69      10.53      -9999       1.96     247.20     235.22     241.21     215.90      -9999      -9999
   935.60      -9999      -9999      -9999      -9999   24824.00       4.98      -9999       1.94     243.37     230.59     236.98     215.90      -9999      -9999
   935.70      -9999      -9999      -9999      -9999   24804.05       1.31      -9999       1.90     239.33     226.28     232.81     215.90      -9999      -9999
   935.80      -9999      -9999      -9999      -9999   25032.44       0.85      -9999       1.83     234.15     223.91     229.03     215.90      -9999      -9999
   935.90      -9999      -9999      -9999      -9999   24637.62       0.83      -9999       1.75     232.26     222.22     227.24     215.90      -9999      -9999
   936.00      -9999      -9999      -9999      -9999   25108.54       0.83      -9999       1.71     233.51     219.95     226.73     215.90      -9999      -9999
