~Version information
  VERS.                            1.20: CWLS LAS  -  VERSION 1.20
  WRAP.                              NO: One line per depth step
~Well information
# MNEM.UNIT
# ====.================================:===================
  STRT.M                           0.20: First depth in file
  STOP.M                         937.80: Last depth in file
  STEP.M                           0.10: Depth increment
  NULL.                           -9999: Null values
  COMP.                         COMPANY:
  WELL.                            WELL: 329
  FLD .                           FIELD: Karatobe
  CNTY.                          COUNTY: 
  STAT.                           STATE: 
  DATE.                        LOG DATE: 27.01.2007
  SRVC.                 SERVICE COMPANY: 
  UWI.           Unique Well Identifier: 
~Parametr information block
# MNEM.UNIT
# ====.================================:===================
~Other information
# ------------------------- REMARKS  AREA ------------------
~Curve information
# MNEM.UNIT
# ====.================================:===================
  DEPT.M                               : Depth curve
GR    .UR/H                            : 
NGL   .C.U.                            : 
GZ3   .OHMM                            : 
GZ3B  .OHMM                            : 
LL3   .OHMM                            : 
MLL   .OHMM                            : 
CILR  .MMHO                            : 
RHOB  .G/C3                            : 
C1    .MM                              : 
C2    .MM                              : 
CALI  .MM                              : 
BS    .MM                              :
SP    .MV                              : 
DT    .UR/H                            : 
~ASCII Log Data
# ...
   877.30       4.62       1.98       5.25       6.18       4.93       3.00     332.49       2.49     218.55     230.89     224.72     215.90     451.62     288.96
   877.40       4.71       1.98       5.29       6.19       4.47       2.68     329.91       2.49     217.36     227.48     222.42     215.90     450.28     289.58
   877.50       4.69       1.98       5.30       6.17       4.16       2.97     329.87       2.48     216.36     227.22     221.79     215.90     448.85     291.99
   877.60       4.71       1.95       5.28       6.13       3.99       1.43     331.53       2.47     215.43     228.32     221.87     215.90     447.28     291.60
   877.70       4.68       1.96       5.22       6.11       3.90       1.17     331.03       2.46     216.82     232.57     224.69     215.90     445.58     288.50
   877.80       4.66       1.95       5.12       6.13       3.86       1.13     333.00       2.41     219.02     233.92     226.47     215.90     443.96     284.49
   877.90       4.93       1.89       5.02       6.19       3.83       0.84     334.90       2.36     222.51     227.69     225.10     215.90     442.21     283.74
   878.00       4.88       1.83       4.93       6.31       3.89       0.78     335.23       2.35     223.51     225.16     224.34     215.90     440.33     287.04
   878.10       4.83       1.88       4.86       6.52       4.07       0.84     334.59       2.36     222.00     226.34     224.17     215.90     438.47     292.77
   878.20       4.99       1.91       4.80       6.76       4.36       1.55     332.77       2.40     221.70     228.99     225.34     215.90     437.14     297.16
   878.30       4.88       1.93       4.80       7.03       4.65       3.23     329.25       2.39     222.47     233.41     227.94     215.90     435.93     296.66
   878.40       4.58       1.95       4.82       7.33       4.91       3.11     324.46       2.42     223.13     236.71     229.92     215.90     434.62     291.09
   878.50       4.40       1.96       4.88       7.63       5.05       5.24     318.25       2.44     221.91     232.55     227.23     215.90     433.28     281.75
   878.60       4.26       1.98       4.95       7.88       4.99       3.85     314.93       2.44     220.76     230.32     225.54     215.90     432.88     272.31
   878.70       4.19       2.04       5.01       8.09       4.94       3.43     312.74       2.42     219.74     230.97     225.36     215.90     432.48     264.19
   878.80       4.23       2.07       5.06       8.32       5.08       3.45     311.55       2.41     220.88     230.63     225.75     215.90     432.60     259.44
   878.90       4.21       2.05       5.09       8.55       5.44       3.60     310.93       2.41     222.95     229.85     226.40     215.90     433.01     260.69
   879.00       4.10       2.01       5.13       8.80       6.19       3.37     310.13       2.40     221.88     230.51     226.20     215.90     433.66     270.42
   879.10       4.01       1.97       5.21       9.08       7.12       3.14     309.43       2.39     221.32     230.36     225.84     215.90     434.48     285.11
   879.20       3.98       1.91       5.32       9.33       7.82       3.99     308.70       2.38     222.80     226.95     224.88     215.90     435.35     296.01
   879.30       3.98       1.91       5.44       9.41       8.10       4.98     307.15       2.39     223.75     224.11     223.93     215.90     436.41     295.72
   879.40       3.99       1.92       5.59       9.37       7.92       4.07     306.84       2.44     224.15     221.83     222.99     215.90     437.41     284.16
   879.50       3.82       1.89       5.78       9.24       7.44       2.40     307.35       2.50     221.88     222.01     221.94     215.90     438.52     266.80
   879.60       3.88       1.84       5.99       9.05       6.84       2.52     307.30       2.56     218.86     223.20     221.03     215.90     439.92     249.89
   879.70       3.97       1.84       6.19       8.89       6.32       2.04     306.41       2.57     219.49     223.96     221.73     215.90     441.29     238.29
   879.80       3.97       1.81       6.35       8.74       6.04       1.36     305.54       2.57     219.68     224.15     221.91     215.90     442.29     233.14
   879.90       4.05       1.81       6.45       8.61       6.09       0.86     304.73       2.58     219.19     223.48     221.33     215.90     443.04     233.53
   880.00       4.11       1.86       6.51       8.54       6.44       0.80     303.63       2.57     219.22     223.00     221.11     215.90     443.82     236.23
   880.10       4.14       1.88       6.54       8.50       6.95       0.84     301.16       2.55     219.61     222.64     221.12     215.90     443.62     239.32
   880.20       4.27       1.86       6.55       8.46       7.08       0.78     298.13       2.53     219.74     222.61     221.17     215.90     443.38     241.34
   880.30       4.24       1.90       6.58       8.38       6.94       0.94     294.43       2.53     219.95     222.70     221.32     215.90     443.24     242.57
   880.40       4.19       1.90       6.62       8.26       6.86       1.64     292.53       2.54     220.61     223.13     221.87     215.90     443.40     242.78
   880.50       4.08       1.95       6.68       8.12       6.95       1.88     291.85       2.56     220.95     224.85     222.90     215.90     443.61     242.18
   880.60       4.16       1.99       6.76       7.98       7.24       1.56     291.74       2.56     220.96     227.85     224.40     215.90     444.11     240.19
   880.70       4.22       2.00       6.88       7.84       7.61       1.78     291.72       2.52     220.16     228.42     224.29     215.90     444.60     238.17
   880.80       4.19       2.00       7.03       7.70       7.81       2.12     291.38       2.49     219.48     228.28     223.88     215.90     444.90     236.56
   880.90       3.88       2.00       7.20       7.56       7.77       2.15     290.66       2.49     221.82     227.21     224.51     215.90     444.86     236.11
   881.00       3.86       2.00       7.41       7.43       7.90       2.61     289.29       2.50     222.34     226.31     224.33     215.90     444.94     235.86
   881.10       3.93       2.00       7.64       7.27       8.15       2.27     286.63       2.51     218.63     225.84     222.24     215.90     444.94     236.27
   881.20       3.92       1.98       7.88       7.08       8.11       1.75     286.71       2.52     220.11     225.47     222.79     215.90     444.73     236.97
   881.30       3.91       1.97       8.12       6.89       7.68       2.92     286.15       2.51     220.30     225.96     223.13     215.90     445.58     237.76
   881.40       4.04       2.01       8.40       6.70       7.11       1.75     284.49       2.51     219.68     226.82     223.25     215.90     446.54     237.35
   881.50       4.26       1.99       8.71       6.51       6.58       1.04     285.16       2.51     219.95     228.10     224.03     215.90     447.24     236.57
   881.60       4.38       1.99       9.00       6.35       6.38       0.93     284.15       2.51     219.68     228.27     223.97     215.90     447.55     236.22
   881.70       4.40       1.94       9.23       6.20       6.26       0.99     285.90       2.50     218.13     225.83     221.98     215.90     447.63     237.91
   881.80       4.46       1.87       9.38       6.11       6.18       1.07     286.95       2.51     217.25     225.04     221.15     215.90     447.15     241.62
   881.90       4.69       1.86       9.47       6.05       6.27       1.09     288.30       2.53     217.05     225.91     221.48     215.90     446.19     247.92
   882.00       4.60       1.87       9.51       6.00       6.41       1.23     289.78       2.53     219.15     226.76     222.96     215.90     444.97     256.06
   882.10       4.59       1.86       9.54       5.95       6.41       1.38     290.73       2.53     221.32     227.45     224.39     215.90     443.88     264.19
