~Version information
  VERS.                            1.20: CWLS LAS  -  VERSION 1.20
  WRAP.                              NO: One line per depth step
~Well information
# MNEM.UNIT
# ====.================================:===================
  STRT.M                           0.20: First depth in file
  STOP.M                         937.80: Last depth in file
  STEP.M                           0.10: Depth increment
  NULL.                           -9999: Null values
  COMP.                         COMPANY:
  WELL.                            WELL: 329
  FLD .                           FIELD: Karatobe
  CNTY.                          COUNTY: 
  STAT.                           STATE: 
  DATE.                        LOG DATE: 27.01.2007
  SRVC.                 SERVICE COMPANY: 
  UWI.           Unique Well Identifier: 
~Parametr information block
# MNEM.UNIT
# ====.================================:===================
~Other information
# ------------------------- REMARKS  AREA ------------------
~Curve information
# MNEM.UNIT
# ====.================================:===================
  DEPT.M                               : Depth curve
GR    .UR/H                            : 
NGL   .C.U.                            : 
GZ3   .OHMM                            : 
GZ3B  .OHMM                            : 
LL3   .OHMM                            : 
MLL   .OHMM                            : 
CILR  .MMHO                            : 
RHOB  .G/C3                            : 
C1    .MM                              : 
C2    .MM                              : 
CALI  .MM                              : 
BS    .MM                              :
SP    .MV                              : 
DT    .UR/H                            : 
~ASCII Log Data
# ...
   338.30      11.08       1.33       7.19       6.36       4.33       1.15     329.73       2.26     228.92     221.34     225.13     215.90     410.06     656.53
   338.40      11.10       1.36       7.17       6.38       4.33       1.18     328.89       2.26     226.03     225.34     225.69     215.90     411.32     648.19
   338.50      11.22       1.31       7.16       6.37       4.25       1.05     327.81       2.26     223.86     230.60     227.23     215.90     412.58     642.33
   338.60      11.36       1.29       7.15       6.32       4.13       1.09     326.60       2.26     221.68     233.93     227.80     215.90     413.51     639.74
   338.70      11.30       1.30       7.13       6.23       3.99       0.96     326.76       2.25     221.35     227.89     224.62     215.90     414.33     640.66
   338.80      11.26       1.29       7.08       6.14       3.96       1.02     328.36       2.25     223.38     224.80     224.09     215.90     414.72     643.58
   338.90      11.36       1.30       7.01       6.05       3.97       1.05     328.28       2.26     228.95     226.14     227.54     215.90     414.93     646.14
   339.00      11.37       1.28       6.93       6.00       4.00       1.01     328.89       2.23     231.81     229.32     230.56     215.90     415.44     646.24
   339.10      11.11       1.26       6.85       5.99       4.04       1.08     329.61       2.23     232.86     233.74     233.30     215.90     415.59     644.37
   339.20      10.91       1.24       6.79       6.01       4.09       1.15     329.02       2.25     233.22     235.28     234.25     215.90     415.14     643.77
   339.30      10.77       1.25       6.75       6.07       4.12       1.06     328.18       2.25     233.41     236.11     234.76     215.90     414.30     647.77
   339.40      10.77       1.27       6.72       6.11       4.05       0.97     326.89       2.25     243.93     236.29     240.11     215.90     413.15     654.36
   339.50      10.89       1.28       6.68       6.11       3.92       1.00     325.17       2.26     251.73     236.71     244.22     215.90     411.83     658.09
   339.60      11.06       1.31       6.60       6.07       3.87       1.03     324.98       2.26     248.66     238.11     243.38     215.90     410.45     653.27
   339.70      11.20       1.35       6.47       6.00       3.93       1.09     327.06       2.25     247.17     240.23     243.70     215.90     408.90     640.81
   339.80      11.10       1.37       6.32       5.95       4.05       1.19     329.54       2.22     248.06     243.44     245.75     215.90     407.17     626.94
   339.90      10.79       1.38       6.19       5.94       4.08       1.21     331.59       2.22     258.09     249.69     253.89     215.90     405.26     618.07
   340.00      10.53       1.38       6.13       5.95       4.06       1.10     331.76       2.22     274.21     257.96     266.09     215.90     403.10     616.88
   340.10      10.59       1.34       6.14       5.98       4.06       1.01     329.77       2.20     271.19     256.75     263.97     215.90     400.93     619.01
   340.20      10.55       1.33       6.25       6.03       4.08       1.04     328.35       2.21     263.39     253.16     258.27     215.90     399.23     621.04
   340.30      10.72       1.32       6.38       6.08       4.06       1.13     326.29       2.22     251.22     252.89     252.06     215.90     397.95     620.19
   340.40      10.90       1.39       6.50       6.11       4.04       1.05     324.74       2.24     244.57     251.49     248.03     215.90     397.17     614.57
   340.50      10.81       1.40       6.61       6.14       4.05       1.07     323.21       2.24     250.84     247.42     249.13     215.90     396.61     599.33
   340.60      10.65       1.37       6.71       6.16       4.04       1.12     320.66       2.23     254.74     244.58     249.66     215.90     396.83     575.22
   340.70      10.43       1.33       6.79       6.18       3.96       1.14     322.05       2.23     256.28     242.99     249.63     215.90     397.68     548.45
   340.80      10.34       1.28       6.87       6.20       3.85       1.06     320.97       2.22     257.77     242.78     250.27     215.90     398.79     528.13
   340.90      10.14       1.26       6.94       6.19       3.77       1.01     322.09       2.21     259.23     243.17     251.20     215.90     400.58     515.49
   341.00      10.33       1.29       6.98       6.17       3.74       1.01     323.23       2.20     259.76     238.91     249.34     215.90     402.04     507.53
   341.10      10.24       1.34       6.97       6.13       3.72       1.04     325.52       2.19     257.37     235.86     246.62     215.90     403.41     500.88
   341.20      10.07       1.37       6.90       6.07       3.73       1.03     324.80       2.16     248.16     235.62     241.89     215.90     404.82     493.00
   341.30       9.84       1.41       6.79       6.02       3.94       0.99     324.68       2.17     256.18     235.38     245.78     215.90     406.36     481.80
   341.40       9.51       1.43       6.67       5.99       4.19       1.25     325.14       2.19     275.70     235.12     255.41     215.90     407.82     463.37
   341.50       9.52       1.40       6.60       5.98       4.33       1.45     324.68       2.19     288.96     232.84     260.90     215.90     408.74     438.11
   341.60       9.57       1.41       6.56       5.97       4.30       1.47     323.93       2.19     295.79     231.97     263.88     215.90     409.23     410.38
   341.70       9.46       1.43       6.55       5.94       4.24       1.34     322.62       2.22     279.69     237.64     258.66     215.90     409.59     389.00
   341.80       9.33       1.43       6.57       5.92       4.30       1.15     322.31       2.25     264.92     241.12     253.02     215.90     410.24     376.76
   341.90       9.17       1.44       6.62       5.91       4.45       1.22     322.87       2.23     257.00     241.17     249.08     215.90     410.61     374.41
   342.00       8.94       1.44       6.67       5.93       4.52       1.12     323.12       2.23     256.38     240.95     248.66     215.90     410.67     377.47
   342.10       8.68       1.44       6.72       5.99       4.51       1.04     322.00       2.20     253.31     238.53     245.92     215.90     410.60     383.38
   342.20       8.24       1.44       6.78       6.03       4.46       0.98     321.21       2.19     249.20     235.16     242.18     215.90     410.66     388.99
   342.30       8.19       1.42       6.88       6.05       4.39       1.04     321.16       2.17     232.70     230.04     231.37     215.90     410.75     393.09
   342.40       7.90       1.43       6.99       6.06       4.30       0.96     321.71       2.17     216.61     224.99     220.80     215.90     410.85     394.42
   342.50       8.05       1.42       7.03       6.05       4.21       0.89     322.53       2.16     216.64     222.32     219.48     215.90     410.91     391.79
   342.60       7.93       1.38       7.02       6.01       4.15       0.83     323.34       2.16     216.63     220.48     218.55     215.90     410.95     384.49
   342.70       7.99       1.38       6.99       5.97       4.15       0.79     324.46       2.15     216.55     220.55     218.55     215.90     411.43     375.86
   342.80       8.18       1.40       6.96       5.96       4.19       0.73     325.71       2.16     216.09     220.66     218.38     215.90     411.92     368.60
   342.90       8.36       1.42       6.94       5.97       4.25       0.73     326.46       2.16     215.12     221.30     218.21     215.90     412.14     365.26
   343.00       8.49       1.39       6.91       6.00       4.32       0.67     326.77       2.16     214.03     222.42     218.22     215.90     412.11     366.34
   343.10       8.52       1.40       6.91       6.04       4.35       0.75     326.28       2.14     213.02     222.20     217.61     215.90     411.83     372.45
