~Version information
  VERS.                            1.20: CWLS LAS  -  VERSION 1.20
  WRAP.                              NO: One line per depth step
~Well information
# MNEM.UNIT
# ====.================================:===================
  STRT.M                           0.20: First depth in file
  STOP.M                         937.80: Last depth in file
  STEP.M                           0.10: Depth increment
  NULL.                           -9999: Null values
  COMP.                         COMPANY:
  WELL.                            WELL: 329
  FLD .                           FIELD: Karatobe
  CNTY.                          COUNTY: 
  STAT.                           STATE: 
  DATE.                        LOG DATE: 27.01.2007
  SRVC.                 SERVICE COMPANY: 
  UWI.           Unique Well Identifier: 
~Parametr information block
# MNEM.UNIT
# ====.================================:===================
~Other information
# ------------------------- REMARKS  AREA ------------------
~Curve information
# MNEM.UNIT
# ====.================================:===================
  DEPT.M                               : Depth curve
GR    .UR/H                            : 
NGL   .C.U.                            : 
GZ3   .OHMM                            : 
GZ3B  .OHMM                            : 
LL3   .OHMM                            : 
MLL   .OHMM                            : 
CILR  .MMHO                            : 
RHOB  .G/C3                            : 
C1    .MM                              : 
C2    .MM                              : 
CALI  .MM                              : 
BS    .MM                              :
SP    .MV                              : 
DT    .UR/H                            : 
~ASCII Log Data
# ...
   446.10       9.94       1.41       5.54       4.84       3.86       1.36     406.42       2.17     215.15     220.53     217.84     215.90     413.28     429.81
   446.20       9.92       1.37       5.57       4.82       3.84       1.34     404.32       2.18     215.47     221.41     218.44     215.90     413.73     432.16
   446.30       9.73       1.36       5.63       4.81       3.82       1.38     403.24       2.19     214.96     221.51     218.24     215.90     414.20     433.02
   446.40       9.69       1.35       5.69       4.80       3.78       1.30     404.02       2.16     214.24     221.42     217.83     215.90     414.57     431.83
   446.50       9.98       1.31       5.75       4.80       3.74       1.30     406.13       2.15     216.16     220.91     218.53     215.90     414.88     429.24
   446.60       9.93       1.31       5.80       4.82       3.74       1.25     405.15       2.14     218.21     220.41     219.31     215.90     415.18     427.29
   446.70       9.98       1.33       5.83       4.85       3.75       1.27     406.43       2.12     218.83     220.48     219.66     215.90     415.43     425.93
   446.80       9.98       1.34       5.84       4.91       3.74       1.29     404.35       2.12     219.31     220.54     219.93     215.90     415.60     424.20
   446.90       9.98       1.33       5.86       4.99       3.74       1.24     406.89       2.11     218.48     220.45     219.47     215.90     415.65     421.49
   447.00       9.67       1.30       5.90       5.08       3.81       1.23     410.85       2.12     217.75     220.29     219.02     215.90     415.55     419.70
   447.10       9.35       1.24       5.91       5.17       3.91       1.25     411.30       2.11     217.48     220.28     218.88     215.90     415.07     421.80
   447.20       8.96       1.21       5.92       5.27       4.00       1.29     409.48       2.10     217.76     221.01     219.39     215.90     414.31     429.04
   447.30       8.84       1.19       5.95       5.36       3.97       1.32     407.63       2.10     217.90     221.43     219.66     215.90     413.32     439.11
   447.40       8.57       1.17       5.99       5.42       4.00       1.26     406.44       2.10     217.79     221.37     219.58     215.90     412.15     448.39
   447.50       8.67       1.14       6.03       5.46       4.16       1.36     404.52       2.08     218.04     221.71     219.88     215.90     410.94     454.92
   447.60       8.67       1.11       6.06       5.47       4.38       1.61     401.10       2.07     218.52     222.32     220.42     215.90     409.72     460.38
   447.70       8.95       1.14       6.08       5.44       4.51       1.79     399.51       2.04     220.85     223.46     222.16     215.90     408.39     465.81
   447.80       9.22       1.16       6.13       5.36       4.40       1.75     391.92       2.04     223.68     224.22     223.95     215.90     406.95     471.78
   447.90       9.10       1.18       6.17       5.25       3.97       1.65     389.37       2.06     225.94     224.36     225.15     215.90     405.34     476.19
   448.00       9.24       1.21       6.19       5.10       3.55       1.47     392.44       2.09     228.00     224.35     226.18     215.90     404.25     478.13
   448.10       9.28       1.23       6.16       4.97       3.22       1.03     396.77       2.13     216.26     223.82     220.04     215.90     403.26     477.24
   448.20       9.47       1.22       6.10       4.86       3.00       0.83     403.26       2.20     216.63     226.11     221.37     215.90     402.31     475.43
   448.30       9.87       1.21       5.98       4.81       2.86       0.78     409.46       2.17     216.67     228.88     222.78     215.90     401.31     476.26
   448.40      10.13       1.20       5.88       4.83       2.81       0.75     413.74       2.14     214.17     235.07     224.62     215.90     400.86     481.16
   448.50      10.50       1.19       5.77       4.91       2.83       0.77     417.02       2.09     215.11     233.22     224.17     215.90     400.70     489.40
   448.60      11.09       1.18       5.67       5.07       3.02       0.79     419.47       2.10     216.50     226.81     221.65     215.90     400.79     496.58
   448.70      11.38       1.21       5.56       5.23       3.48       0.88     420.61       2.11     217.42     221.57     219.49     215.90     401.29     498.85
   448.80      11.45       1.22       5.44       5.35       3.97       1.25     420.20       2.09     216.51     221.04     218.78     215.90     402.10     491.45
   448.90      11.51       1.29       5.34       5.42       4.28       1.51     416.26       2.08     215.63     220.28     217.96     215.90     403.16     472.98
   449.00      11.26       1.34       5.26       5.40       4.36       1.38     411.78       2.10     214.81     219.18     217.00     215.90     404.41     445.47
   449.10      10.88       1.38       5.20       5.33       4.34       1.38     406.69       2.13     216.02     218.01     217.02     215.90     405.41     416.70
   449.20      10.69       1.38       5.16       5.20       4.32       1.36     405.84       2.16     220.20     218.48     219.34     215.90     406.25     393.88
   449.30      10.70       1.37       5.14       5.07       4.32       1.38     402.36       2.19     222.07     219.91     220.99     215.90     406.98     380.92
   449.40      10.42       1.35       5.16       4.92       4.31       1.42     400.87       2.21     220.58     218.92     219.75     215.90     407.70     375.90
   449.50      10.58       1.37       5.20       4.79       4.21       1.47     400.33       2.19     220.74     219.37     220.05     215.90     408.39     375.36
   449.60      10.41       1.36       5.26       4.68       4.08       1.33     400.56       2.17     221.37     219.86     220.61     215.90     409.03     376.94
   449.70      10.52       1.36       5.34       4.62       3.96       1.31     401.59       2.16     221.58     219.73     220.66     215.90     409.39     380.54
   449.80      10.60       1.35       5.42       4.58       3.88       1.24     401.91       2.14     220.76     218.57     219.66     215.90     409.67     386.88
   449.90      11.07       1.35       5.50       4.56       3.83       1.22     404.35       2.13     219.66     217.14     218.40     215.90     409.91     395.41
   450.00      11.47       1.35       5.58       4.54       3.82       1.22     406.22       2.12     218.09     216.34     217.21     215.90     410.11     403.93
   450.10      11.86       1.35       5.67       4.53       3.80       1.27     407.65       2.12     218.64     217.14     217.89     215.90     410.43     409.93
   450.20      12.13       1.33       5.73       4.53       3.79       1.28     409.04       2.11     219.72     218.26     218.99     215.90     410.80     411.90
   450.30      12.00       1.31       5.78       4.53       3.77       1.24     409.08       2.14     220.58     218.96     219.77     215.90     411.15     410.98
   450.40      11.59       1.30       5.78       4.54       3.78       1.27     406.16       2.13     221.44     219.59     220.51     215.90     411.40     410.54
   450.50      11.28       1.28       5.77       4.56       3.81       1.25     408.79       2.12     222.19     219.69     220.94     215.90     411.72     414.22
   450.60      11.24       1.27       5.76       4.60       3.81       1.26     411.84       2.12     222.70     219.87     221.29     215.90     412.19     422.92
   450.70      11.22       1.25       5.72       4.65       3.78       1.24     413.94       2.10     222.20     220.33     221.27     215.90     413.21     433.68
   450.80      10.79       1.21       5.73       4.70       3.70       1.24     411.30       2.07     221.66     220.98     221.32     215.90     414.42     442.75
   450.90      10.25       1.17       5.75       4.77       3.61       1.25     415.74       2.03     223.30     221.74     222.52     215.90     415.75     449.65
