~Version information
  VERS.                            1.20: CWLS LAS  -  VERSION 1.20
  WRAP.                              NO: One line per depth step
~Well information
# MNEM.UNIT
# ====.================================:===================
  STRT.M                           0.20: First depth in file
  STOP.M                         937.80: Last depth in file
  STEP.M                           0.10: Depth increment
  NULL.                           -9999: Null values
  COMP.                         COMPANY:
  WELL.                            WELL: 329
  FLD .                           FIELD: Karatobe
  CNTY.                          COUNTY: 
  STAT.                           STATE: 
  DATE.                        LOG DATE: 27.01.2007
  SRVC.                 SERVICE COMPANY: 
  UWI.           Unique Well Identifier: 
~Parametr information block
# MNEM.UNIT
# ====.================================:===================
~Other information
# ------------------------- REMARKS  AREA ------------------
~Curve information
# MNEM.UNIT
# ====.================================:===================
  DEPT.M                               : Depth curve
GR    .UR/H                            : 
NGL   .C.U.                            : 
GZ3   .OHMM                            : 
GZ3B  .OHMM                            : 
LL3   .OHMM                            : 
MLL   .OHMM                            : 
CILR  .MMHO                            : 
RHOB  .G/C3                            : 
C1    .MM                              : 
C2    .MM                              : 
CALI  .MM                              : 
BS    .MM                              :
SP    .MV                              : 
DT    .UR/H                            : 
~ASCII Log Data
# ...
   553.90       8.39       1.40       3.37       3.31       2.98       1.14     632.40       2.14     212.87     219.07     215.97     215.90     433.54     400.99
   554.00       8.53       1.43       3.40       3.29       2.92       1.10     636.55       2.14     213.24     218.57     215.90     215.90     433.80     401.21
   554.10       8.77       1.44       3.47       3.29       2.89       1.13     638.32       2.14     213.91     218.38     216.14     215.90     433.69     399.80
   554.20       8.97       1.42       3.55       3.31       2.85       1.10     637.77       2.13     213.71     217.81     215.76     215.90     433.01     396.39
   554.30       9.05       1.42       3.63       3.33       2.82       1.11     635.02       2.10     212.92     216.99     214.96     215.90     431.76     393.38
   554.40       9.05       1.42       3.68       3.36       2.80       1.13     631.63       2.12     212.69     216.83     214.76     215.90     429.83     392.52
   554.50       9.11       1.44       3.70       3.39       2.77       1.10     629.58       2.12     212.61     216.84     214.72     215.90     427.63     395.26
   554.60       9.61       1.45       3.69       3.45       2.75       1.04     623.24       2.11     212.56     216.83     214.70     215.90     425.72     400.63
   554.70       9.64       1.48       3.65       3.52       2.78       0.98     614.95       2.15     212.52     216.81     214.67     215.90     424.29     407.02
   554.80       9.94       1.52       3.61       3.60       2.84       1.05     606.53       2.18     212.52     216.75     214.63     215.90     422.12     412.09
   554.90      10.15       1.48       3.56       3.71       3.02       1.10     597.99       2.20     212.80     216.70     214.75     215.90     420.09     414.54
   555.00      10.32       1.50       3.52       3.83       3.32       1.17     589.03       2.19     213.72     216.70     215.21     215.90     418.31     414.16
   555.10      10.53       1.50       3.49       3.95       3.59       1.35     578.87       2.19     213.85     216.67     215.26     215.90     416.85     411.79
   555.20      10.78       1.48       3.52       4.08       3.66       1.52     568.62       2.20     213.20     216.60     214.90     215.90     415.58     408.59
   555.30      11.08       1.44       3.61       4.18       3.67       1.42     555.46       2.21     213.38     216.56     214.97     215.90     414.74     405.44
   555.40      11.36       1.44       3.70       4.25       3.64       1.33     545.09       2.22     214.12     216.54     215.33     215.90     414.28     402.40
   555.50      11.53       1.45       3.80       4.28       3.61       1.42     540.25       2.21     213.42     216.38     214.90     215.90     414.25     398.24
   555.60      11.29       1.44       3.89       4.29       3.57       1.45     538.10       2.22     212.36     216.20     214.28     215.90     414.56     388.70
   555.70      11.07       1.46       3.92       4.27       3.52       1.48     537.28       2.23     212.31     215.99     214.15     215.90     414.98     369.68
   555.80      11.38       1.49       3.94       4.24       3.47       1.49     539.16       2.21     212.37     215.78     214.08     215.90     415.60     343.97
   555.90      11.54       1.48       3.95       4.21       3.45       1.48     540.25       2.22     212.43     215.16     213.80     215.90     417.08     321.25
   556.00      11.35       1.48       3.94       4.18       3.51       1.47     535.84       2.24     212.51     214.48     213.49     215.90     418.74     314.53
   556.10      11.06       1.50       3.92       4.17       3.62       1.53     531.53       2.25     212.67     213.54     213.11     215.90     420.31     323.77
   556.20      10.98       1.51       3.90       4.17       3.73       1.52     526.21       2.26     213.06     212.73     212.90     215.90     421.68     345.55
   556.30      10.96       1.48       3.90       4.17       3.81       1.48     523.55       2.26     214.13     212.07     213.10     215.90     423.07     371.05
   556.40      10.99       1.52       3.88       4.15       3.80       1.59     518.74       2.25     214.25     210.08     212.17     215.90     424.48     395.81
   556.50      11.10       1.51       3.86       4.12       3.68       1.58     514.89       2.23     214.34     209.09     211.71     215.90     425.78     410.66
   556.60      11.27       1.49       3.84       4.08       3.56       1.44     512.67       2.22     214.37     209.60     211.98     215.90     426.75     414.18
   556.70      10.86       1.51       3.84       4.04       3.48       1.48     511.63       2.22     214.11     211.10     212.61     215.90     427.69     407.75
   556.80      10.63       1.49       3.83       3.98       3.43       1.47     513.13       2.20     213.66     213.28     213.47     215.90     428.50     400.48
   556.90      10.56       1.48       3.82       3.92       3.41       1.37     515.38       2.17     212.97     212.34     212.65     215.90     429.11     394.52
   557.00      10.50       1.44       3.81       3.89       3.42       1.35     516.00       2.15     212.21     210.62     211.41     215.90     429.30     389.06
   557.10      10.46       1.40       3.79       3.89       3.45       1.25     515.53       2.15     211.88     211.79     211.84     215.90     428.38     378.58
   557.20      10.40       1.39       3.78       3.90       3.60       1.15     516.92       2.13     211.60     213.29     212.45     215.90     427.25     362.91
   557.30      10.40       1.36       3.79       3.92       3.87       1.37     515.98       2.11     211.97     214.70     213.33     215.90     426.53     347.57
   557.40      10.14       1.35       3.82       3.93       4.12       1.48     514.49       2.08     212.63     215.46     214.05     215.90     426.07     342.35
   557.50      10.15       1.30       3.88       3.93       4.30       1.58     513.09       2.05     214.89     214.49     214.69     215.90     426.16     351.96
   557.60       9.71       1.22       3.97       3.90       4.36       2.07     508.08       2.00     218.87     216.88     217.88     215.90     426.52     376.64
   557.70       9.02       1.15       4.12       3.87       4.29       1.68     502.11       1.94     220.17     217.82     218.99     215.90     427.09     407.97
   557.80       8.85       1.13       4.28       3.82       3.94       1.97     494.07       1.88     217.43     216.57     217.00     215.90     427.94     434.60
   557.90       8.77       1.16       4.43       3.76       3.44       1.71     488.91       1.82     216.13     216.27     216.20     215.90     429.03     450.15
   558.00       8.70       1.20       4.58       3.69       3.15       1.08     488.46       1.76     215.79     216.59     216.19     215.90     430.46     455.48
   558.10       9.10       1.22       4.69       3.61       3.07       1.06     495.33       1.77     216.25     219.09     217.67     215.90     431.44     455.13
   558.20       9.81       1.20       4.75       3.55       3.15       0.80     507.07       1.85     217.24     223.04     220.14     215.90     432.42     452.68
   558.30      10.43       1.24       4.75       3.50       3.30       1.29     517.93       1.97     220.24     224.49     222.37     215.90     433.06     449.91
   558.40      10.93       1.27       4.74       3.47       3.34       1.19     529.27       2.08     223.46     225.66     224.56     215.90     432.89     448.38
   558.50      11.77       1.29       4.72       3.45       3.44       1.02     541.79       2.15     228.10     222.38     225.24     215.90     432.55     446.68
   558.60      12.22       1.30       4.71       3.45       3.60       1.53     553.81       2.17     227.19     224.90     226.04     215.90     432.13     443.34
   558.70      12.40       1.33       4.74       3.44       3.69       1.56     563.17       2.17     226.30     227.29     226.80     215.90     431.55     437.81
