~Version information
  VERS.                            1.20: CWLS LAS  -  VERSION 1.20
  WRAP.                              NO: One line per depth step
~Well information
# MNEM.UNIT
# ====.================================:===================
  STRT.M                           0.20: First depth in file
  STOP.M                         937.80: Last depth in file
  STEP.M                           0.10: Depth increment
  NULL.                           -9999: Null values
  COMP.                         COMPANY:
  WELL.                            WELL: 329
  FLD .                           FIELD: Karatobe
  CNTY.                          COUNTY: 
  STAT.                           STATE: 
  DATE.                        LOG DATE: 27.01.2007
  SRVC.                 SERVICE COMPANY: 
  UWI.           Unique Well Identifier: 
~Parametr information block
# MNEM.UNIT
# ====.================================:===================
~Other information
# ------------------------- REMARKS  AREA ------------------
~Curve information
# MNEM.UNIT
# ====.================================:===================
  DEPT.M                               : Depth curve
GR    .UR/H                            : 
NGL   .C.U.                            : 
GZ3   .OHMM                            : 
GZ3B  .OHMM                            : 
LL3   .OHMM                            : 
MLL   .OHMM                            : 
CILR  .MMHO                            : 
RHOB  .G/C3                            : 
C1    .MM                              : 
C2    .MM                              : 
CALI  .MM                              : 
BS    .MM                              :
SP    .MV                              : 
DT    .UR/H                            : 
~ASCII Log Data
# ...
   661.70      10.79       1.50       4.29       5.62       3.83       1.52     500.49       2.32     219.48     220.37     219.92     215.90     425.27     381.99
   661.80      11.17       1.50       4.32       5.75       3.83       1.49     492.68       2.34     218.86     221.16     220.01     215.90     426.36     384.86
   661.90      11.25       1.45       4.35       5.83       3.92       1.43     484.63       2.31     218.06     221.43     219.75     215.90     427.66     388.81
   662.00      10.96       1.40       4.35       5.86       4.06       1.39     478.65       2.27     216.53     219.61     218.07     215.90     429.97     389.87
   662.10      10.80       1.40       4.34       5.86       4.22       1.35     469.58       2.22     215.45     218.24     216.84     215.90     432.32     384.47
   662.20      10.55       1.45       4.34       5.84       4.17       1.57     461.58       2.22     216.15     218.65     217.40     215.90     434.11     371.84
   662.30      10.35       1.46       4.35       5.83       4.07       1.56     449.98       2.24     216.53     219.28     217.90     215.90     435.18     356.81
   662.40      10.66       1.44       4.38       5.82       3.95       1.53     439.93       2.25     216.58     220.10     218.34     215.90     436.09     345.15
   662.50      10.73       1.43       4.42       5.81       3.87       1.51     432.40       2.27     216.71     219.87     218.29     215.90     436.91     340.48
   662.60      10.45       1.42       4.46       5.80       3.81       1.47     426.46       2.27     216.92     218.58     217.75     215.90     437.67     340.88
   662.70      10.53       1.39       4.49       5.80       3.73       1.57     421.59       2.26     216.64     218.04     217.34     215.90     438.31     343.04
   662.80      10.76       1.43       4.48       5.81       3.66       1.40     417.59       2.25     216.23     217.68     216.95     215.90     438.92     345.72
   662.90      10.99       1.42       4.45       5.84       3.66       1.39     414.55       2.23     215.93     218.00     216.97     215.90     439.47     351.98
   663.00      11.16       1.48       4.42       5.92       3.69       1.43     411.31       2.25     215.62     218.35     216.99     215.90     439.91     362.58
   663.10      11.07       1.40       4.38       6.06       3.72       1.49     405.33       2.28     214.93     218.28     216.60     215.90     440.35     374.57
   663.20      10.81       1.41       4.36       6.24       3.73       1.44     402.53       2.29     214.45     218.26     216.35     215.90     440.85     383.92
   663.30      10.57       1.43       4.38       6.45       3.91       1.38     397.26       2.26     214.45     218.36     216.40     215.90     441.41     387.77
   663.40      10.07       1.43       4.42       6.73       4.31       1.57     389.87       2.25     214.51     218.19     216.35     215.90     441.93     388.36
   663.50       9.39       1.42       4.48       6.99       4.94       1.69     383.66       2.24     214.65     217.62     216.13     215.90     442.45     387.07
   663.60       8.79       1.41       4.62       7.26       6.08       1.92     378.56       2.23     215.18     217.62     216.40     215.90     443.31     387.52
   663.70       8.26       1.43       4.85       7.51       7.45       2.60     369.90       2.21     216.10     218.18     217.14     215.90     444.10     390.81
   663.80       7.81       1.45       5.15       7.65       8.19       3.02     361.41       2.19     216.27     218.50     217.38     215.90     444.90     397.18
   663.90       7.58       1.45       5.54       7.65       7.76       3.35     354.88       2.17     216.12     218.71     217.41     215.90     445.58     404.43
   664.00       7.58       1.45       5.98       7.56       6.80       2.90     350.77       2.17     216.39     218.40     217.40     215.90     445.53     409.68
   664.10       7.62       1.45       6.35       7.37       5.92       2.50     352.03       2.17     216.33     217.55     216.94     215.90     445.56     411.13
   664.20       7.26       1.41       6.73       7.14       5.60       1.83     357.74       2.18     216.16     216.61     216.38     215.90     445.46     408.98
   664.30       7.08       1.39       7.12       6.91       5.94       1.99     369.14       2.22     215.38     217.58     216.48     215.90     444.94     403.10
   664.40       7.11       1.39       7.35       6.69       6.61       2.32     380.09       2.22     214.69     218.37     216.53     215.90     444.37     393.71
   664.50       7.23       1.41       7.46       6.49       7.61       2.60     389.34       2.24     214.69     217.45     216.07     215.90     443.78     382.87
   664.60       7.02       1.44       7.56       6.26       7.71       4.62     397.28       2.27     214.80     217.08     215.94     215.90     443.24     375.03
   664.70       6.93       1.43       7.65       6.02       6.91       4.32     404.63       2.28     215.20     217.97     216.58     215.90     442.78     373.56
   664.80       7.04       1.40       7.73       5.76       5.97       2.55     412.54       2.31     216.09     218.51     217.30     215.90     442.40     376.65
   664.90       7.41       1.37       7.78       5.47       5.44       2.19     421.95       2.35     217.48     218.71     218.10     215.90     441.80     378.16
   665.00       7.97       1.35       7.81       5.25       5.22       1.99     435.25       2.37     218.07     219.12     218.60     215.90     441.04     373.90
   665.10       8.33       1.37       7.78       5.00       5.17       2.07     449.77       2.35     218.14     219.66     218.90     215.90     439.57     364.53
   665.20       8.25       1.38       7.67       4.77       5.04       2.00     463.76       2.30     217.56     219.16     218.36     215.90     437.90     352.84
   665.30       8.23       1.34       7.54       4.57       4.85       1.79     478.97       2.28     216.83     218.40     217.61     215.90     436.19     340.38
   665.40       8.55       1.33       7.41       4.41       4.54       1.53     493.76       2.29     216.62     218.31     217.47     215.90     434.88     328.29
   665.50       8.89       1.38       7.28       4.32       4.31       1.46     507.00       2.28     216.51     218.27     217.39     215.90     433.59     322.01
   665.60       8.74       1.38       7.18       4.23       4.28       1.47     519.44       2.27     216.54     218.11     217.32     215.90     432.74     322.74
   665.70       9.07       1.38       7.12       4.17       4.23       1.41     530.20       2.30     216.54     218.07     217.31     215.90     432.37     330.38
   665.80       9.10       1.38       7.09       4.15       4.16       1.41     538.26       2.28     216.49     218.33     217.41     215.90     432.10     336.80
   665.90       9.00       1.38       7.08       4.14       4.06       1.44     545.25       2.28     216.92     218.87     217.89     215.90     432.08     339.63
   666.00       9.00       1.38       7.09       4.15       4.00       1.51     547.56       2.25     218.06     219.86     218.96     215.90     432.60     336.41
   666.10       9.47       1.36       7.13       4.17       3.71       1.63     549.06       2.28     218.02     220.81     219.41     215.90     433.82     332.70
   666.20       9.84       1.37       7.15       4.19       3.14       1.58     549.46       2.30     216.78     221.72     219.25     215.90     435.35     332.25
   666.30      10.21       1.41       7.16       4.22       2.70       1.36     550.98       2.31     216.34     221.14     218.74     215.90     436.88     334.75
   666.40      10.61       1.40       7.09       4.29       2.58       0.77     554.13       2.32     217.80     221.38     219.59     215.90     438.34     334.83
   666.50      10.89       1.43       6.94       4.41       2.79       0.95     558.20       2.34     220.18     222.83     221.50     215.90     439.60     331.19
