~Version information
  VERS.                            1.20: CWLS LAS  -  VERSION 1.20
  WRAP.                              NO: One line per depth step
~Well information
# MNEM.UNIT
# ====.================================:===================
  STRT.M                           0.20: First depth in file
  STOP.M                         937.80: Last depth in file
  STEP.M                           0.10: Depth increment
  NULL.                           -9999: Null values
  COMP.                         COMPANY:
  WELL.                            WELL: 329
  FLD .                           FIELD: Karatobe
  CNTY.                          COUNTY: 
  STAT.                           STATE: 
  DATE.                        LOG DATE: 27.01.2007
  SRVC.                 SERVICE COMPANY: 
  UWI.           Unique Well Identifier: 
~Parametr information block
# MNEM.UNIT
# ====.================================:===================
~Other information
# ------------------------- REMARKS  AREA ------------------
~Curve information
# MNEM.UNIT
# ====.================================:===================
  DEPT.M                               : Depth curve
GR    .UR/H                            : 
NGL   .C.U.                            : 
GZ3   .OHMM                            : 
GZ3B  .OHMM                            : 
LL3   .OHMM                            : 
MLL   .OHMM                            : 
CILR  .MMHO                            : 
RHOB  .G/C3                            : 
C1    .MM                              : 
C2    .MM                              : 
CALI  .MM                              : 
BS    .MM                              :
SP    .MV                              : 
DT    .UR/H                            : 
~ASCII Log Data
# ...
   769.50       5.58       1.70       4.21       4.27       4.91       1.73     551.82       2.35     214.80     224.52     219.66     215.90     441.34     340.21
   769.60       5.59       1.74       4.18       4.21       4.77       1.80     550.21       2.33     214.13     225.24     219.68     215.90     439.46     337.94
   769.70       5.57       1.76       4.18       4.13       4.62       1.70     550.24       2.34     212.97     224.51     218.74     215.90     437.12     336.30
   769.80       5.57       1.75       4.20       4.05       4.61       1.59     550.46       2.33     211.74     223.48     217.61     215.90     434.77     335.93
   769.90       5.50       1.73       4.22       3.97       4.72       1.48     555.68       2.33     210.94     223.02     216.98     215.90     432.09     337.01
   770.00       5.45       1.70       4.23       3.91       4.78       1.51     558.84       2.35     210.95     222.56     216.75     215.90     429.52     339.09
   770.10       5.72       1.68       4.23       3.85       4.74       1.64     561.02       2.37     212.84     222.08     217.46     215.90     427.24     341.10
   770.20       5.88       1.69       4.22       3.80       4.68       1.68     565.05       2.37     213.88     221.94     217.91     215.90     425.60     342.29
   770.30       5.97       1.69       4.20       3.74       4.71       1.75     569.46       2.37     214.07     222.13     218.10     215.90     424.46     342.35
   770.40       5.90       1.65       4.20       3.69       4.78       1.48     572.59       2.37     214.16     222.17     218.17     215.90     423.87     341.67
   770.50       6.05       1.65       4.23       3.64       4.70       1.56     576.51       2.36     214.23     222.17     218.20     215.90     423.73     340.78
   770.60       5.90       1.63       4.29       3.60       4.58       1.59     577.56       2.35     214.42     223.80     219.11     215.90     423.99     340.07
   770.70       5.96       1.64       4.38       3.57       4.46       1.64     581.20       2.34     213.55     223.13     218.34     215.90     424.30     339.32
   770.80       6.01       1.61       4.51       3.54       4.32       1.51     585.25       2.36     212.93     222.92     217.92     215.90     424.72     337.80
   770.90       5.93       1.68       4.64       3.53       4.17       1.61     587.70       2.37     212.88     223.81     218.35     215.90     425.70     334.85
   771.00       5.76       1.69       4.78       3.51       4.03       1.62     590.50       2.38     213.36     223.70     218.53     215.90     426.89     331.31
   771.10       5.74       1.66       4.90       3.49       3.94       1.41     594.83       2.39     214.34     222.57     218.46     215.90     428.12     328.87
   771.20       5.75       1.66       4.95       3.47       3.94       1.23     600.41       2.41     214.47     223.41     218.94     215.90     429.44     328.86
   771.30       5.79       1.63       4.97       3.45       4.01       1.22     607.20       2.40     214.23     225.09     219.66     215.90     430.82     330.04
   771.40       5.75       1.63       4.96       3.42       4.05       1.31     616.11       2.39     214.23     224.06     219.15     215.90     432.08     330.72
   771.50       5.74       1.63       4.94       3.39       4.02       1.39     626.48       2.40     214.31     222.37     218.34     215.90     433.15     330.38
   771.60       6.02       1.64       4.92       3.36       3.92       1.45     636.19       2.41     215.19     221.85     218.52     215.90     433.98     330.83
   771.70       6.23       1.64       4.90       3.33       3.77       1.34     641.96       2.42     215.35     221.57     218.46     215.90     435.00     333.33
   771.80       6.32       1.60       4.89       3.30       3.58       1.38     647.61       2.42     214.31     221.54     217.93     215.90     435.95     337.42
   771.90       6.22       1.62       4.87       3.29       3.50       1.32     655.34       2.40     214.40     220.72     217.56     215.90     436.74     341.03
   772.00       6.24       1.62       4.82       3.29       3.49       1.20     661.56       2.38     214.40     221.28     217.84     215.90     437.40     342.54
   772.10       6.36       1.65       4.76       3.31       3.52       1.22     665.21       2.36     214.36     222.76     218.56     215.90     437.82     342.24
   772.20       6.37       1.66       4.68       3.33       3.55       1.27     665.18       2.37     214.42     223.11     218.76     215.90     437.83     341.71
   772.30       6.45       1.63       4.59       3.36       3.51       1.27     662.91       2.36     214.49     223.33     218.91     215.90     437.05     343.09
   772.40       6.64       1.65       4.50       3.38       3.41       1.35     660.71       2.36     214.49     222.18     218.34     215.90     436.22     346.56
   772.50       7.00       1.61       4.43       3.37       3.32       1.57     660.40       2.37     214.73     221.50     218.12     215.90     435.33     351.76
   772.60       7.33       1.58       4.36       3.33       3.28       1.22     661.76       2.38     215.53     221.89     218.71     215.90     434.63     357.52
   772.70       7.27       1.58       4.28       3.26       3.34       1.13     663.35       2.38     216.01     222.50     219.26     215.90     434.27     363.65
   772.80       7.18       1.62       4.18       3.19       3.47       1.22     662.75       2.36     216.18     223.34     219.76     215.90     434.14     369.15
   772.90       6.83       1.62       4.08       3.14       3.63       1.34     660.14       2.34     216.80     222.95     219.87     215.90     434.55     372.80
   773.00       6.48       1.62       4.00       3.12       3.80       1.40     653.85       2.36     217.61     222.03     219.82     215.90     435.36     373.47
   773.10       6.08       1.64       3.92       3.12       3.90       1.47     643.61       2.36     217.79     220.98     219.38     215.90     436.46     371.16
   773.20       5.81       1.64       3.86       3.12       3.95       1.69     635.14       2.35     217.90     219.98     218.94     215.90     437.67     366.90
   773.30       5.73       1.67       3.84       3.12       3.96       1.67     627.56       2.36     217.24     219.50     218.37     215.90     439.07     361.96
   773.40       5.73       1.66       3.82       3.11       3.87       1.56     618.01       2.35     216.92     219.33     218.12     215.90     440.19     357.45
   773.50       5.77       1.60       3.81       3.10       3.68       1.57     607.36       2.33     217.38     219.85     218.61     215.90     440.38     354.76
   773.60       5.74       1.62       3.79       3.11       3.49       1.54     602.08       2.35     217.77     220.08     218.93     215.90     439.91     354.61
   773.70       5.68       1.60       3.77       3.15       3.42       1.30     601.66       2.36     218.08     219.88     218.98     215.90     439.37     356.83
   773.80       5.91       1.61       3.74       3.22       3.53       1.23     599.70       2.34     217.44     220.62     219.03     215.90     438.80     358.74
   773.90       5.83       1.64       3.71       3.33       3.73       1.23     600.93       2.34     216.39     221.75     219.07     215.90     437.95     357.10
   774.00       5.76       1.65       3.66       3.44       3.89       1.46     596.15       2.31     216.22     220.93     218.57     215.90     437.13     350.04
   774.10       5.55       1.68       3.63       3.58       4.11       1.43     585.86       2.32     216.17     219.96     218.07     215.90     435.97     339.21
   774.20       5.59       1.71       3.64       3.73       4.47       1.46     576.65       2.34     216.46     219.53     217.99     215.90     434.55     327.73
   774.30       5.58       1.70       3.68       3.85       4.96       1.96     570.51       2.35     216.86     219.41     218.14     215.90     433.35     317.21
