~Version information
  VERS.                            1.20: CWLS LAS  -  VERSION 1.20
  WRAP.                              NO: One line per depth step
~Well information
# MNEM.UNIT
# ====.================================:===================
  STRT.M                           0.20: First depth in file
  STOP.M                         937.80: Last depth in file
  STEP.M                           0.10: Depth increment
  NULL.                           -9999: Null values
  COMP.                         COMPANY:
  WELL.                            WELL: 329
  FLD .                           FIELD: Karatobe
  CNTY.                          COUNTY: 
  STAT.                           STATE: 
  DATE.                        LOG DATE: 27.01.2007
  SRVC.                 SERVICE COMPANY: 
  UWI.           Unique Well Identifier: 
~Parametr information block
# MNEM.UNIT
# ====.================================:===================
~Other information
# ------------------------- REMARKS  AREA ------------------
~Curve information
# MNEM.UNIT
# ====.================================:===================
  DEPT.M                               : Depth curve
GR    .UR/H                            : 
NGL   .C.U.                            : 
GZ3   .OHMM                            : 
GZ3B  .OHMM                            : 
LL3   .OHMM                            : 
MLL   .OHMM                            : 
CILR  .MMHO                            : 
RHOB  .G/C3                            : 
C1    .MM                              : 
C2    .MM                              : 
CALI  .MM                              : 
BS    .MM                              :
SP    .MV                              : 
DT    .UR/H                            : 
~ASCII Log Data
# ...
   176.60       8.44       1.31       9.63      10.63       6.41       1.15     212.82       2.06     214.90     222.38     218.64     215.90     404.92     492.61
   176.70       8.51       1.26       9.67      10.70       6.76       1.19     212.39       2.06     215.11     222.42     218.77     215.90     405.80     498.30
   176.80       8.59       1.25       9.78      10.87       7.03       1.24     214.11       2.07     215.46     222.42     218.94     215.90     406.62     500.28
   176.90       8.51       1.23       9.93      11.05       7.15       1.20     214.00       2.08     215.69     222.39     219.04     215.90     407.02     501.68
   177.00       8.50       1.27      10.12      11.19       7.19       1.27     212.88       2.08     215.74     222.32     219.03     215.90     407.52     503.25
   177.10       8.67       1.25      10.31      11.28       7.26       1.27     210.87       2.08     215.74     221.89     218.81     215.90     408.10     505.24
   177.20       8.78       1.26      10.48      11.30       7.16       1.19     209.47       2.08     215.67     221.10     218.38     215.90     408.67     507.14
   177.30       8.96       1.26      10.65      11.25       7.05       1.15     208.43       2.08     215.70     220.99     218.35     215.90     409.22     508.18
   177.40       8.90       1.27      10.79      11.21       7.08       1.13     208.54       2.08     215.77     221.05     218.41     215.90     409.87     507.83
   177.50       8.97       1.28      10.93      11.18       7.16       1.16     208.82       2.08     215.66     220.95     218.30     215.90     410.27     505.62
   177.60       8.99       1.30      11.06      11.16       7.05       1.14     208.78       2.07     215.54     220.88     218.21     215.90     410.67     502.44
   177.70       8.97       1.29      11.15      11.15       6.78       1.16     207.76       2.06     215.46     220.85     218.16     215.90     410.97     499.84
   177.80       8.74       1.29      11.24      11.14       6.53       1.17     208.23       2.06     215.57     220.94     218.25     215.90     411.13     498.81
   177.90       8.62       1.30      11.30      11.14       6.49       1.25     209.36       2.04     215.63     220.94     218.28     215.90     411.15     500.48
   178.00       8.55       1.29      11.33      11.20       6.76       1.30     210.41       2.03     215.66     220.94     218.30     215.90     411.21     505.02
   178.10       8.56       1.25      11.35      11.30       7.07       1.37     210.78       2.03     215.70     221.03     218.37     215.90     411.50     512.22
   178.20       8.68       1.23      11.36      11.42       7.18       1.36     210.29       2.07     215.77     221.26     218.51     215.90     411.89     520.08
   178.30       8.72       1.25      11.39      11.55       7.15       1.35     209.77       2.08     215.87     222.00     218.93     215.90     412.30     525.49
   178.40       8.62       1.27      11.42      11.66       7.04       1.27     209.37       2.09     215.95     222.40     219.18     215.90     412.32     526.98
   178.50       8.57       1.28      11.46      11.73       7.15       1.27     209.28       2.10     216.01     222.36     219.19     215.90     412.63     524.59
   178.60       8.65       1.28      11.47      11.77       7.38       1.32     208.58       2.11     215.98     222.54     219.26     215.90     413.05     520.29
   178.70       8.48       1.31      11.44      11.78       7.55       1.42     207.99       2.12     215.91     222.79     219.35     215.90     413.48     515.93
   178.80       8.34       1.33      11.39      11.78       7.50       1.42     207.29       2.12     215.89     222.56     219.23     215.90     413.76     511.74
   178.90       8.36       1.32      11.33      11.82       7.29       1.35     206.23       2.10     215.87     222.32     219.09     215.90     413.79     507.88
   179.00       8.50       1.32      11.30      11.90       6.99       1.19     205.88       2.09     215.77     222.38     219.08     215.90     413.57     504.27
   179.10       8.63       1.30      11.35      12.03       6.75       1.18     207.69       2.10     215.55     222.38     218.96     215.90     413.18     501.80
   179.20       8.75       1.29      11.48      12.20       6.56       1.20     207.71       2.09     215.10     222.30     218.70     215.90     412.73     500.60
   179.30       8.81       1.31      11.66      12.37       6.39       1.13     207.65       2.08     214.86     222.29     218.58     215.90     412.19     500.02
   179.40       8.56       1.33      11.80      12.51       6.34       1.10     207.99       2.06     214.66     222.23     218.45     215.90     411.75     498.31
   179.50       8.00       1.37      11.83      12.61       6.65       1.09     208.88       2.06     214.50     222.11     218.31     215.90     411.42     493.81
   179.60       7.47       1.38      11.78      12.64       7.10       1.20     209.50       2.06     214.41     221.57     217.99     215.90     411.07     488.07
   179.70       7.18       1.37      11.65      12.59       7.30       1.30     208.68       2.06     214.34     220.87     217.61     215.90     410.58     484.08
   179.80       7.08       1.35      11.47      12.47       7.19       1.16     207.61       2.07     214.33     220.67     217.50     215.90     409.48     485.62
   179.90       6.98       1.31      11.26      12.28       6.89       1.11     204.74       2.08     214.33     220.54     217.43     215.90     408.82     491.86
   180.00       6.88       1.29      11.08      12.06       6.75       1.06     204.14       2.09     214.46     220.49     217.47     215.90     408.34     500.09
   180.10       7.04       1.30      10.90      11.83       6.71       1.00     204.69       2.08     214.67     220.44     217.55     215.90     407.89     506.47
   180.20       7.10       1.28      10.74      11.68       6.82       1.01     205.26       2.06     215.72     220.34     218.03     215.90     407.54     510.18
   180.30       7.34       1.30      10.62      11.61       6.98       1.09     205.86       2.04     217.91     219.56     218.73     215.90     407.32     511.72
   180.40       7.80       1.26      10.55      11.60       7.01       1.04     206.23       2.04     218.42     219.24     218.83     215.90     407.11     512.46
   180.50       8.04       1.24      10.55      11.62       6.99       1.03     205.95       2.06     215.01     220.01     217.51     215.90     407.36     512.66
   180.60       7.99       1.27      10.57      11.63       7.00       1.08     204.58       2.06     212.73     220.53     216.63     215.90     407.86     512.13
   180.70       7.83       1.32      10.61      11.61       7.03       1.05     204.81       2.06     213.07     220.47     216.77     215.90     408.52     510.67
   180.80       7.88       1.30      10.65      11.57       7.07       1.07     204.94       2.05     213.66     220.43     217.05     215.90     409.33     509.40
   180.90       7.81       1.26      10.67      11.52       7.14       1.09     204.95       2.04     213.96     220.36     217.16     215.90     410.38     509.26
   181.00       7.68       1.25      10.70      11.48       7.20       1.14     205.22       2.04     213.95     220.36     217.16     215.90     411.56     510.20
   181.10       7.70       1.25      10.73      11.46       7.27       1.11     205.58       2.04     213.94     220.44     217.19     215.90     412.78     510.33
   181.20       7.72       1.26      10.78      11.46       7.36       1.17     206.55       2.03     213.89     220.50     217.20     215.90     414.03     508.17
   181.30       7.68       1.32      10.85      11.47       7.37       1.16     207.34       2.04     213.84     220.56     217.20     215.90     415.10     504.27
   181.40       7.69       1.35      10.95      11.50       7.37       1.23     206.80       2.07     213.85     220.55     217.20     215.90     416.01     500.51
