~Version information
  VERS.                            1.20: CWLS LAS  -  VERSION 1.20
  WRAP.                              NO: One line per depth step
~Well information
# MNEM.UNIT
# ====.================================:===================
  STRT.M                           0.20: First depth in file
  STOP.M                         937.80: Last depth in file
  STEP.M                           0.10: Depth increment
  NULL.                           -9999: Null values
  COMP.                         COMPANY:
  WELL.                            WELL: 329
  FLD .                           FIELD: Karatobe
  CNTY.                          COUNTY: 
  STAT.                           STATE: 
  DATE.                        LOG DATE: 27.01.2007
  SRVC.                 SERVICE COMPANY: 
  UWI.           Unique Well Identifier: 
~Parametr information block
# MNEM.UNIT
# ====.================================:===================
~Other information
# ------------------------- REMARKS  AREA ------------------
~Curve information
# MNEM.UNIT
# ====.================================:===================
  DEPT.M                               : Depth curve
GR    .UR/H                            : 
NGL   .C.U.                            : 
GZ3   .OHMM                            : 
GZ3B  .OHMM                            : 
LL3   .OHMM                            : 
MLL   .OHMM                            : 
CILR  .MMHO                            : 
RHOB  .G/C3                            : 
C1    .MM                              : 
C2    .MM                              : 
CALI  .MM                              : 
BS    .MM                              :
SP    .MV                              : 
DT    .UR/H                            : 
~ASCII Log Data
# ...
   392.20      11.40       1.39       5.60       5.44       3.40       0.91     396.33       2.19     222.94     225.20     224.07     215.90     409.00     464.10
   392.30      11.17       1.39       5.52       5.45       3.34       0.89     393.22       2.20     224.24     225.20     224.72     215.90     409.96     472.08
   392.40      11.10       1.34       5.46       5.49       3.35       0.89     391.61       2.18     228.94     226.04     227.49     215.90     411.07     481.57
   392.50      11.14       1.35       5.41       5.55       3.50       1.05     390.16       2.16     224.22     224.40     224.31     215.90     412.31     489.56
   392.60      11.04       1.43       5.38       5.63       3.69       1.02     389.55       2.14     219.49     222.52     221.00     215.90     413.58     492.93
   392.70      10.98       1.43       5.34       5.70       3.78       0.94     386.67       2.13     223.63     222.46     223.05     215.90     414.84     490.02
   392.80      10.93       1.42       5.27       5.75       3.82       1.02     382.42       2.11     222.52     222.57     222.54     215.90     415.96     482.34
   392.90      11.17       1.41       5.21       5.79       3.89       1.05     379.79       2.10     220.48     222.56     221.52     215.90     416.75     473.50
   393.00      11.35       1.42       5.18       5.81       3.94       1.03     378.00       2.12     217.83     222.46     220.14     215.90     417.19     467.76
   393.10      11.17       1.46       5.15       5.82       4.08       0.97     376.20       2.15     217.02     222.38     219.70     215.90     417.35     467.32
   393.20      10.98       1.51       5.12       5.83       4.46       1.03     376.94       2.14     217.00     222.30     219.65     215.90     416.73     472.35
   393.30      10.92       1.52       5.11       5.85       5.04       0.97     374.78       2.12     216.93     222.16     219.55     215.90     415.84     480.74
   393.40      10.64       1.50       5.12       5.86       5.71       1.25     373.62       2.11     216.85     222.02     219.43     215.90     414.72     489.69
   393.50      10.18       1.45       5.16       5.85       5.90       1.39     368.87       2.11     216.53     221.72     219.12     215.90     413.33     497.01
   393.60       9.85       1.44       5.25       5.82       5.37       1.44     363.25       2.09     215.40     220.62     218.01     215.90     411.57     500.77
   393.70       9.92       1.46       5.41       5.68       4.70       1.48     359.76       2.08     214.89     220.14     217.52     215.90     409.74     499.78
   393.80      10.18       1.41       5.59       5.50       4.20       1.11     361.08       2.08     215.02     220.27     217.65     215.90     407.79     493.45
   393.90      10.29       1.38       5.69       5.33       4.15       1.07     365.45       2.09     215.10     220.27     217.68     215.90     405.93     483.35
   394.00      10.49       1.38       5.79       5.16       4.29       1.29     371.89       2.11     215.16     220.20     217.68     215.90     404.32     472.65
   394.10      10.62       1.39       5.85       5.02       4.28       1.33     376.50       2.13     215.80     220.27     218.03     215.90     402.85     464.56
   394.20      10.72       1.43       5.86       4.89       4.06       1.13     379.02       2.14     216.31     220.33     218.32     215.90     402.25     461.28
   394.30      10.97       1.46       5.82       4.74       3.85       0.92     381.99       2.11     216.04     220.31     218.17     215.90     401.93     461.35
   394.40      11.09       1.49       5.78       4.63       3.78       0.95     386.02       2.11     215.77     220.20     217.98     215.90     402.06     462.78
   394.50      10.86       1.45       5.75       4.53       3.74       1.00     389.68       2.12     215.50     219.96     217.73     215.90     402.44     464.76
   394.60      10.80       1.47       5.73       4.45       3.78       0.98     392.53       2.11     214.77     219.76     217.27     215.90     403.11     471.22
   394.70      11.24       1.48       5.69       4.39       3.76       0.96     395.16       2.10     213.73     219.58     216.65     215.90     403.85     482.93
   394.80      11.58       1.48       5.64       4.35       3.68       0.87     398.47       2.07     213.03     220.46     216.75     215.90     404.86     497.37
   394.90      11.97       1.47       5.63       4.32       3.57       0.78     400.46       2.06     214.22     220.56     217.39     215.90     406.13     509.07
   395.00      12.28       1.48       5.66       4.31       3.48       0.82     402.94       2.09     215.22     220.56     217.89     215.90     407.24     517.45
   395.10      12.82       1.45       5.74       4.30       3.44       0.70     407.04       2.10     215.24     220.53     217.89     215.90     408.12     523.79
   395.20      13.09       1.40       5.82       4.31       3.46       0.66     410.99       2.08     215.11     220.46     217.79     215.90     408.82     529.06
   395.30      13.23       1.38       5.88       4.34       3.52       0.72     409.86       2.11     215.06     220.43     217.74     215.90     409.29     532.11
   395.40      13.19       1.38       5.92       4.35       3.55       0.92     411.43       2.14     215.12     220.16     217.64     215.90     409.46     532.77
   395.50      12.49       1.39       5.96       4.37       3.56       0.89     414.28       2.19     215.21     219.74     217.47     215.90     409.30     534.26
   395.60      11.23       1.44       5.98       4.37       3.55       0.81     416.93       2.21     215.48     221.27     218.37     215.90     408.97     540.82
   395.70      10.45       1.44       6.05       4.37       3.55       0.85     419.52       2.21     218.79     232.75     225.77     215.90     408.67     554.48
   395.80      10.33       1.45       6.13       4.35       3.57       0.99     420.99       2.19     221.63     241.65     231.64     215.90     408.36     570.10
   395.90      10.48       1.42       6.20       4.32       3.57       1.09     421.79       2.19     221.68     236.03     228.85     215.90     407.89     578.85
   396.00      10.44       1.38       6.26       4.28       3.52       1.08     423.10       2.18     223.47     230.99     227.23     215.90     407.24     576.04
   396.10      10.45       1.37       6.29       4.24       3.41       1.03     426.07       2.19     224.12     232.25     228.19     215.90     406.66     565.82
   396.20      10.65       1.38       6.29       4.22       3.28       0.93     428.55       2.19     224.01     237.69     230.85     215.90     406.36     557.84
   396.30      10.66       1.34       6.28       4.24       3.18       0.83     432.35       2.20     225.98     235.26     230.62     215.90     406.09     554.20
   396.40      10.87       1.34       6.27       4.27       3.16       0.81     436.12       2.20     228.85     229.44     229.14     215.90     405.97     551.17
   396.50      11.07       1.30       6.28       4.31       3.13       0.93     438.23       2.19     232.56     231.49     232.03     215.90     405.99     544.83
   396.60      11.51       1.28       6.29       4.39       3.11       0.85     440.94       2.18     233.97     230.36     232.16     215.90     406.26     538.43
   396.70      11.65       1.28       6.27       4.46       3.14       0.81     443.78       2.17     230.12     222.95     226.54     215.90     406.72     537.09
   396.80      11.72       1.28       6.21       4.52       3.28       0.88     445.56       2.15     226.70     220.25     223.47     215.90     407.33     540.41
   396.90      11.41       1.28       6.11       4.59       3.41       0.82     448.47       2.13     226.93     220.62     223.78     215.90     408.05     544.60
   397.00      11.37       1.26       6.00       4.63       3.52       0.78     447.54       2.13     228.17     221.67     224.92     215.90     409.08     546.18
