~Version information
  VERS.                            1.20: CWLS LAS  -  VERSION 1.20
  WRAP.                              NO: One line per depth step
~Well information
# MNEM.UNIT
# ====.================================:===================
  STRT.M                           0.20: First depth in file
  STOP.M                         937.80: Last depth in file
  STEP.M                           0.10: Depth increment
  NULL.                           -9999: Null values
  COMP.                         COMPANY:
  WELL.                            WELL: 329
  FLD .                           FIELD: Karatobe
  CNTY.                          COUNTY: 
  STAT.                           STATE: 
  DATE.                        LOG DATE: 27.01.2007
  SRVC.                 SERVICE COMPANY: 
  UWI.           Unique Well Identifier: 
~Parametr information block
# MNEM.UNIT
# ====.================================:===================
~Other information
# ------------------------- REMARKS  AREA ------------------
~Curve information
# MNEM.UNIT
# ====.================================:===================
  DEPT.M                               : Depth curve
GR    .UR/H                            : 
NGL   .C.U.                            : 
GZ3   .OHMM                            : 
GZ3B  .OHMM                            : 
LL3   .OHMM                            : 
MLL   .OHMM                            : 
CILR  .MMHO                            : 
RHOB  .G/C3                            : 
C1    .MM                              : 
C2    .MM                              : 
CALI  .MM                              : 
BS    .MM                              :
SP    .MV                              : 
DT    .UR/H                            : 
~ASCII Log Data
# ...
   284.40       9.61       1.41       5.97       5.26       3.72       1.00     367.52       2.15     239.70     223.47     231.58     215.90     397.43     528.47
   284.50       9.74       1.41       5.97       5.43       3.65       0.88     366.23       2.16     239.19     221.13     230.16     215.90     397.40     496.85
   284.60       9.75       1.38       6.02       5.62       3.63       0.84     365.74       2.15     237.29     219.09     228.19     215.90     397.28     474.86
   284.70       9.84       1.36       6.07       5.78       3.61       0.81     364.47       2.17     233.63     218.49     226.06     215.90     397.16     473.58
   284.80       9.89       1.37       6.11       5.91       3.60       0.84     361.76       2.16     233.41     219.65     226.53     215.90     397.08     485.16
   284.90       9.85       1.40       6.11       6.04       3.61       0.96     361.20       2.16     230.97     219.52     225.24     215.90     396.83     488.53
   285.00      10.12       1.41       6.08       6.16       3.67       0.89     359.33       2.15     226.30     218.09     222.20     215.90     396.23     482.50
   285.10      10.44       1.42       6.03       6.27       3.76       0.86     355.72       2.14     224.95     218.56     221.75     215.90     395.28     470.24
   285.20      10.42       1.42       5.98       6.38       3.83       0.89     351.57       2.16     225.80     220.30     223.05     215.90     393.70     467.96
   285.30      10.69       1.42       5.93       6.48       3.89       0.85     347.25       2.16     224.56     220.04     222.30     215.90     391.93     464.98
   285.40      11.13       1.40       5.88       6.56       3.94       0.92     341.50       2.15     222.80     219.27     221.03     215.90     390.38     463.35
   285.50      11.52       1.40       5.83       6.67       3.97       0.94     336.60       2.14     221.77     218.20     219.98     215.90     389.44     460.25
   285.60      12.25       1.40       5.78       6.76       3.94       0.93     331.94       2.14     220.93     217.11     219.02     215.90     388.62     459.11
   285.70      13.23       1.40       5.72       6.84       3.82       0.88     327.44       2.13     220.98     216.19     218.58     215.90     387.91     462.33
   285.80      14.59       1.36       5.66       6.92       3.68       0.87     323.69       2.14     221.03     215.44     218.23     215.90     387.33     465.41
   285.90      16.14       1.35       5.61       7.00       3.63       0.79     321.98       2.16     221.09     215.63     218.36     215.90     387.24     468.21
   286.00      18.21       1.36       5.54       7.10       3.69       0.82     320.71       2.15     221.37     216.82     219.10     215.90     387.66     465.43
   286.10      19.37       1.39       5.46       7.22       3.89       0.87     319.75       2.13     222.68     218.47     220.58     215.90     388.50     468.86
   286.20      20.42       1.42       5.35       7.37       4.18       0.87     318.00       2.11     225.54     220.81     223.17     215.90     390.07     474.06
   286.30      20.65       1.45       5.25       7.50       4.54       0.98     313.90       2.09     225.70     220.50     223.10     215.90     391.96     477.64
   286.40      20.76       1.49       5.17       7.62       4.76       0.98     307.11       2.09     224.05     218.41     221.23     215.90     394.51     471.46
   286.50      19.94       1.56       5.12       7.74       4.80       0.94     302.28       2.07     223.99     217.12     220.55     215.90     396.53     468.62
   286.60      19.22       1.59       5.09       7.78       4.80       0.96     297.22       2.07     224.59     216.18     220.39     215.90     398.17     466.61
   286.70      18.85       1.58       5.09       7.77       4.81       1.04     292.01       2.06     223.70     215.95     219.82     215.90     400.05     467.28
   286.80      18.50       1.57       5.12       7.73       4.81       1.07     287.33       2.07     222.85     215.75     219.30     215.90     402.28     474.79
   286.90      18.08       1.55       5.16       7.68       4.80       1.05     285.42       2.08     222.36     215.94     219.15     215.90     404.31     494.19
   287.00      17.53       1.52       5.20       7.63       4.78       1.05     285.14       2.08     222.31     215.92     219.12     215.90     405.89     506.85
   287.10      17.03       1.54       5.24       7.57       4.76       0.99     282.35       2.06     222.33     215.85     219.09     215.90     407.46     508.83
   287.20      16.66       1.50       5.28       7.50       4.77       0.96     280.84       2.07     222.49     215.67     219.08     215.90     409.04     499.25
   287.30      16.13       1.54       5.31       7.44       4.80       0.94     280.30       2.07     222.49     215.61     219.05     215.90     410.63     494.24
   287.40      16.04       1.56       5.35       7.39       4.87       0.95     281.01       2.09     222.33     215.68     219.00     215.90     412.02     482.10
   287.50      16.40       1.54       5.41       7.35       4.99       0.98     281.64       2.09     222.35     215.70     219.03     215.90     413.11     480.44
   287.60      17.04       1.53       5.47       7.32       5.14       1.02     280.30       2.06     222.49     215.70     219.10     215.90     414.05     480.86
   287.70      17.20       1.50       5.55       7.28       5.28       0.99     278.29       2.08     222.52     215.71     219.11     215.90     414.93     472.88
   287.80      17.68       1.47       5.65       7.23       5.40       1.00     278.72       2.08     222.51     215.72     219.12     215.90     416.02     449.85
   287.90      17.40       1.52       5.75       7.16       5.46       0.95     278.60       2.09     222.02     215.73     218.87     215.90     416.63     422.25
   288.00      17.55       1.52       5.87       7.07       5.42       0.92     277.29       2.09     221.45     215.75     218.60     215.90     416.97     410.89
   288.10      17.90       1.51       5.99       6.94       5.25       0.93     276.43       2.07     220.77     215.85     218.31     215.90     417.06     409.66
   288.20      18.01       1.52       6.10       6.77       5.11       0.95     277.60       2.05     219.79     215.86     217.82     215.90     416.99     419.23
   288.30      17.80       1.56       6.19       6.57       5.04       0.83     280.04       2.06     218.18     215.70     216.94     215.90     417.29     435.55
   288.40      17.50       1.59       6.30       6.35       5.03       0.86     282.77       2.06     216.82     215.69     216.26     215.90     417.82     451.82
   288.50      17.30       1.58       6.39       6.15       5.01       0.86     285.64       2.05     216.79     215.62     216.21     215.90     418.36     465.99
   288.60      17.32       1.55       6.48       5.99       4.94       0.83     289.18       2.06     217.29     215.79     216.54     215.90     418.66     471.05
   288.70      18.06       1.57       6.58       5.86       4.93       0.86     293.26       2.06     217.55     216.15     216.85     215.90     418.87     476.68
   288.80      18.05       1.60       6.69       5.79       4.98       0.86     297.78       2.07     218.20     216.33     217.27     215.90     419.18     477.89
   288.90      18.03       1.59       6.79       5.74       5.08       0.84     303.17       2.07     218.91     216.11     217.51     215.90     419.50     483.93
   289.00      17.48       1.57       6.95       5.70       5.20       0.86     309.81       2.05     219.62     215.80     217.71     215.90     419.64     481.17
   289.10      17.24       1.54       7.12       5.67       5.23       0.98     314.97       2.06     221.69     215.58     218.63     215.90     419.52     480.07
   289.20      17.00       1.53       7.26       5.63       5.16       0.95     319.50       2.06     222.52     215.58     219.05     215.90     419.22     475.68
