~Version information
  VERS.                            1.20: CWLS LAS  -  VERSION 1.20
  WRAP.                              NO: One line per depth step
~Well information
# MNEM.UNIT
# ====.================================:===================
  STRT.M                           0.20: First depth in file
  STOP.M                         937.80: Last depth in file
  STEP.M                           0.10: Depth increment
  NULL.                           -9999: Null values
  COMP.                         COMPANY:
  WELL.                            WELL: 329
  FLD .                           FIELD: Karatobe
  CNTY.                          COUNTY: 
  STAT.                           STATE: 
  DATE.                        LOG DATE: 27.01.2007
  SRVC.                 SERVICE COMPANY: 
  UWI.           Unique Well Identifier: 
~Parametr information block
# MNEM.UNIT
# ====.================================:===================
~Other information
# ------------------------- REMARKS  AREA ------------------
~Curve information
# MNEM.UNIT
# ====.================================:===================
  DEPT.M                               : Depth curve
GR    .UR/H                            : 
NGL   .C.U.                            : 
GZ3   .OHMM                            : 
GZ3B  .OHMM                            : 
LL3   .OHMM                            : 
MLL   .OHMM                            : 
CILR  .MMHO                            : 
RHOB  .G/C3                            : 
C1    .MM                              : 
C2    .MM                              : 
CALI  .MM                              : 
BS    .MM                              :
SP    .MV                              : 
DT    .UR/H                            : 
~ASCII Log Data
# ...
   500.00       8.01       1.34       5.95       8.07       5.43       1.71     319.83       2.37     211.64     218.84     215.24     215.90     419.08     417.77
   500.10       8.10       1.32       6.06       8.06       5.53       1.86     320.34       2.37     211.64     218.93     215.29     215.90     419.29     403.72
   500.20       8.48       1.32       6.16       8.04       5.62       2.14     320.43       2.36     211.66     217.98     214.82     215.90     419.68     393.93
   500.30       8.79       1.35       6.24       8.01       5.64       2.05     320.44       2.33     211.72     217.04     214.38     215.90     420.22     389.68
   500.40       9.02       1.34       6.32       7.98       5.64       2.01     318.90       2.31     211.78     216.62     214.20     215.90     420.86     389.10
   500.50       9.17       1.33       6.42       7.96       5.68       1.87     318.67       2.31     211.78     218.25     215.01     215.90     421.50     389.84
   500.60       9.15       1.32       6.53       7.92       5.77       1.92     315.97       2.31     211.80     219.28     215.54     215.90     422.09     390.16
   500.70       9.09       1.34       6.64       7.85       5.79       2.16     315.91       2.30     211.87     218.77     215.32     215.90     422.59     389.87
   500.80       9.06       1.32       6.77       7.78       5.75       2.16     315.67       2.32     211.85     217.61     214.73     215.90     422.92     389.69
   500.90       8.96       1.33       6.93       7.69       5.68       2.06     315.40       2.32     211.72     216.14     213.93     215.90     423.12     390.04
   501.00       9.09       1.29       7.12       7.60       5.63       2.00     316.56       2.31     211.16     215.28     213.22     215.90     423.24     390.69
   501.10       9.06       1.29       7.37       7.51       5.57       1.97     317.62       2.33     210.21     216.05     213.13     215.90     423.25     390.83
   501.20       8.78       1.27       7.61       7.40       5.51       2.10     318.19       2.31     209.87     216.52     213.19     215.90     422.87     390.15
   501.30       8.69       1.29       7.83       7.32       5.51       1.96     320.37       2.29     209.84     216.62     213.23     215.90     422.02     389.24
   501.40       8.55       1.27       8.00       7.22       5.55       2.02     322.16       2.30     209.73     216.61     213.17     215.90     420.78     388.83
   501.50       8.54       1.24       8.18       7.09       5.58       2.12     322.63       2.31     209.79     216.78     213.29     215.90     419.67     389.34
   501.60       8.54       1.27       8.35       6.94       5.57       2.02     323.41       2.30     209.82     216.80     213.31     215.90     418.47     390.38
   501.70       8.72       1.29       8.47       6.77       5.52       2.13     324.35       2.29     210.52     216.76     213.64     215.90     417.09     391.57
   501.80       8.65       1.28       8.55       6.59       5.53       2.04     326.69       2.29     211.40     216.72     214.06     215.90     415.48     393.08
   501.90       8.72       1.27       8.63       6.41       5.55       2.11     328.50       2.30     211.24     216.78     214.01     215.90     413.95     395.53
   502.00       8.88       1.29       8.70       6.26       5.54       2.14     331.25       2.32     211.10     216.75     213.93     215.90     412.49     399.27
   502.10       8.91       1.29       8.76       6.14       5.45       2.22     334.61       2.33     212.17     215.89     214.03     215.90     411.18     403.46
   502.20       9.13       1.28       8.84       6.05       5.30       1.96     338.40       2.32     213.14     215.21     214.17     215.90     409.86     407.12
   502.30       9.20       1.26       8.92       5.95       5.19       1.76     343.43       2.31     213.29     216.08     214.69     215.90     408.62     409.85
   502.40       9.22       1.26       9.02       5.89       5.15       1.87     348.28       2.30     213.15     216.41     214.78     215.90     407.58     412.01
   502.50       9.10       1.28       9.09       5.86       5.19       1.77     352.40       2.27     212.32     215.46     213.89     215.90     406.92     413.77
   502.60       9.13       1.28       9.19       5.82       5.24       1.69     357.38       2.29     211.45     214.85     213.15     215.90     407.01     414.83
   502.70       9.02       1.28       9.29       5.79       5.23       1.94     361.61       2.32     210.53     214.72     212.63     215.90     407.53     415.05
   502.80       8.90       1.32       9.36       5.74       5.15       1.77     367.79       2.29     210.17     213.82     212.00     215.90     407.97     414.57
   502.90       9.07       1.34       9.43       5.66       5.11       1.85     370.71       2.29     210.35     212.15     211.25     215.90     409.66     414.02
   503.00       9.07       1.36       9.49       5.55       5.06       1.88     374.13       2.29     210.53     211.59     211.06     215.90     411.38     414.45
   503.10       9.02       1.34       9.54       5.44       5.06       1.79     380.68       2.30     210.71     211.76     211.23     215.90     413.07     416.69
   503.20       9.05       1.32       9.55       5.35       5.08       1.95     387.16       2.28     211.25     212.26     211.75     215.90     414.66     420.62
   503.30       9.00       1.32       9.56       5.24       5.10       1.91     391.73       2.29     211.88     212.85     212.36     215.90     416.04     423.87
   503.40       9.10       1.35       9.56       5.11       4.96       1.92     396.51       2.29     211.90     213.10     212.50     215.90     417.54     424.05
   503.50       9.03       1.38       9.55       5.00       4.75       1.78     400.44       2.30     211.78     213.26     212.52     215.90     418.80     420.24
   503.60       9.01       1.36       9.52       4.88       4.46       1.71     405.21       2.28     211.05     211.82     211.44     215.90     419.79     414.91
   503.70       9.04       1.32       9.47       4.77       4.12       1.64     412.05       2.28     211.26     211.16     211.21     215.90     421.10     410.89
   503.80       8.98       1.32       9.39       4.66       3.85       1.38     418.66       2.27     211.43     210.63     211.03     215.90     422.51     409.69
   503.90       9.25       1.32       9.24       4.58       3.74       1.31     427.14       2.26     211.47     210.58     211.02     215.90     423.88     410.50
   504.00       9.73       1.36       9.05       4.49       3.76       1.22     435.20       2.25     211.44     210.70     211.07     215.90     424.84     412.30
   504.10      10.29       1.38       8.80       4.43       3.74       1.24     444.60       2.22     211.17     211.20     211.18     215.90     425.75     414.49
   504.20      10.97       1.38       8.53       4.39       3.67       1.17     450.81       2.19     210.69     211.60     211.15     215.90     426.51     416.72
   504.30      11.62       1.39       8.24       4.35       3.59       1.28     455.01       2.19     210.67     212.22     211.44     215.90     427.11     418.19
   504.40      12.01       1.40       7.94       4.33       3.56       1.20     458.89       2.20     211.47     212.82     212.15     215.90     427.45     418.14
   504.50      12.05       1.44       7.67       4.32       3.73       1.17     462.23       2.20     212.47     212.95     212.71     215.90     427.87     416.19
   504.60      11.79       1.47       7.45       4.32       3.91       1.43     464.19       2.19     212.88     213.70     213.29     215.90     428.37     412.86
   504.70      11.44       1.46       7.25       4.30       3.95       1.61     463.67       2.18     212.39     214.01     213.20     215.90     428.80     409.33
   504.80      10.97       1.44       7.09       4.27       3.87       1.52     461.12       2.19     211.54     213.76     212.65     215.90     429.36     407.47
