~Version information
  VERS.                            1.20: CWLS LAS  -  VERSION 1.20
  WRAP.                              NO: One line per depth step
~Well information
# MNEM.UNIT
# ====.================================:===================
  STRT.M                           0.20: First depth in file
  STOP.M                         937.80: Last depth in file
  STEP.M                           0.10: Depth increment
  NULL.                           -9999: Null values
  COMP.                         COMPANY:
  WELL.                            WELL: 329
  FLD .                           FIELD: Karatobe
  CNTY.                          COUNTY: 
  STAT.                           STATE: 
  DATE.                        LOG DATE: 27.01.2007
  SRVC.                 SERVICE COMPANY: 
  UWI.           Unique Well Identifier: 
~Parametr information block
# MNEM.UNIT
# ====.================================:===================
~Other information
# ------------------------- REMARKS  AREA ------------------
~Curve information
# MNEM.UNIT
# ====.================================:===================
  DEPT.M                               : Depth curve
GR    .UR/H                            : 
NGL   .C.U.                            : 
GZ3   .OHMM                            : 
GZ3B  .OHMM                            : 
LL3   .OHMM                            : 
MLL   .OHMM                            : 
CILR  .MMHO                            : 
RHOB  .G/C3                            : 
C1    .MM                              : 
C2    .MM                              : 
CALI  .MM                              : 
BS    .MM                              :
SP    .MV                              : 
DT    .UR/H                            : 
~ASCII Log Data
# ...
   230.50       8.45       1.32       5.67       6.09       3.98       0.92     345.18       2.15     240.49     258.05     249.27     215.90     398.34     529.50
   230.60       8.85       1.29       5.86       6.25       4.00       0.85     343.20       2.15     231.98     276.38     254.18     215.90     396.54     528.62
   230.70       9.07       1.26       5.99       6.35       4.09       0.89     342.02       2.15     226.31     283.59     254.95     215.90     394.83     528.60
   230.80       9.10       1.27       6.09       6.46       4.14       0.97     341.66       2.14     224.90     274.09     249.49     215.90     393.55     529.32
   230.90       9.04       1.27       6.16       6.55       4.16       0.93     342.86       2.14     224.10     265.40     244.75     215.90     392.64     529.86
   231.00       8.98       1.28       6.21       6.61       4.15       0.92     344.32       2.14     223.71     257.25     240.48     215.90     392.13     528.98
   231.10       9.27       1.27       6.20       6.62       4.12       0.95     342.53       2.14     224.15     252.05     238.10     215.90     392.45     524.42
   231.20       9.17       1.26       6.15       6.60       4.06       0.93     342.29       2.13     224.80     247.58     236.19     215.90     392.96     517.99
   231.30       8.96       1.27       6.06       6.56       3.99       0.92     342.72       2.12     231.34     245.58     238.46     215.90     393.60     514.50
   231.40       9.01       1.25       5.97       6.51       3.96       0.89     342.69       2.14     237.36     244.80     241.08     215.90     394.61     517.25
   231.50       8.92       1.27       5.88       6.47       4.03       0.89     343.79       2.16     232.69     252.66     242.68     215.90     395.85     526.09
   231.60       8.76       1.28       5.80       6.49       4.13       0.93     345.09       2.14     229.65     265.67     247.66     215.90     397.10     536.78
   231.70       8.81       1.28       5.75       6.53       4.21       0.94     345.41       2.12     229.95     281.16     255.56     215.90     398.38     547.89
   231.80       8.85       1.28       5.73       6.59       4.20       1.00     344.44       2.13     228.92     273.35     251.13     215.90     399.62     559.72
   231.90       8.83       1.25       5.74       6.65       4.14       0.93     342.78       2.13     227.28     262.96     245.12     215.90     400.41     571.78
   232.00       8.68       1.22       5.76       6.71       4.11       0.83     340.91       2.14     227.37     254.58     240.97     215.90     401.17     583.06
   232.10       8.48       1.23       5.77       6.73       4.11       0.86     338.98       2.12     228.59     247.54     238.07     215.90     401.95     589.84
   232.20       8.55       1.25       5.73       6.71       4.13       0.85     337.57       2.11     228.58     246.09     237.34     215.90     402.66     591.99
   232.30       8.72       1.24       5.63       6.66       4.17       0.87     337.38       2.11     228.04     247.05     237.54     215.90     403.07     590.24
   232.40       8.62       1.23       5.51       6.59       4.25       0.83     336.85       2.10     225.01     253.23     239.12     215.90     403.41     586.27
   232.50       8.63       1.26       5.40       6.52       4.27       0.82     335.77       2.10     222.08     260.32     241.20     215.90     403.52     580.69
   232.60       8.79       1.29       5.30       6.49       4.27       0.85     335.68       2.11     222.47     270.27     246.37     215.90     403.41     573.34
   232.70       8.70       1.27       5.24       6.51       4.29       0.82     335.37       2.13     222.02     274.67     248.34     215.90     403.28     564.21
   232.80       8.55       1.27       5.24       6.61       4.34       0.82     333.39       2.15     219.61     266.13     242.87     215.90     402.97     554.23
   232.90       8.43       1.28       5.28       6.76       4.37       0.87     332.64       2.17     218.57     261.35     239.96     215.90     402.84     544.57
   233.00       8.39       1.29       5.37       6.88       4.34       0.91     331.08       2.18     218.44     259.09     238.76     215.90     402.84     536.01
   233.10       8.48       1.27       5.46       6.97       4.34       0.85     328.86       2.17     218.29     252.37     235.33     215.90     402.91     527.70
   233.20       8.41       1.26       5.56       7.01       4.44       0.84     327.68       2.16     218.13     243.75     230.94     215.90     403.52     519.69
   233.30       8.55       1.30       5.66       7.03       4.62       0.87     327.32       2.15     220.26     244.96     232.61     215.90     404.26     511.84
   233.40       8.35       1.33       5.75       7.11       4.81       0.91     326.24       2.13     222.39     246.43     234.41     215.90     405.14     505.04
   233.50       7.98       1.32       5.80       7.22       4.91       0.94     323.87       2.14     222.40     240.43     231.41     215.90     406.08     501.37
   233.60       8.23       1.31       5.85       7.33       4.69       0.98     318.88       2.12     222.27     235.91     229.09     215.90     406.73     503.06
   233.70       8.35       1.30       5.88       7.38       4.42       1.00     315.39       2.12     221.84     234.84     228.34     215.90     407.03     510.92
   233.80       8.40       1.28       5.88       7.31       4.19       0.96     314.12       2.12     221.85     234.02     227.93     215.90     407.39     520.83
   233.90       8.50       1.29       5.86       7.22       4.03       0.86     314.00       2.12     222.31     233.44     227.88     215.90     407.88     528.95
   234.00       8.49       1.27       5.81       7.13       3.94       0.82     315.94       2.12     224.55     242.15     233.35     215.90     408.34     531.00
   234.10       8.52       1.25       5.76       7.12       4.01       0.89     315.94       2.10     227.57     254.83     241.20     215.90     408.24     526.46
   234.20       8.71       1.22       5.71       7.19       4.08       0.99     312.25       2.10     226.83     255.47     241.15     215.90     408.07     516.39
   234.30       9.00       1.25       5.68       7.32       4.18       0.94     315.41       2.08     225.16     253.10     239.13     215.90     407.70     506.50
   234.40       9.15       1.27       5.69       7.46       4.27       0.97     315.39       2.05     226.20     270.86     248.53     215.90     407.01     500.48
   234.50       9.19       1.26       5.72       7.56       4.33       1.01     315.62       2.06     226.89     286.38     256.64     215.90     406.11     499.64
   234.60       9.33       1.25       5.73       7.62       4.28       0.93     311.61       2.08     224.52     281.84     253.18     215.90     405.00     501.02
   234.70       9.20       1.26       5.75       7.64       4.34       0.99     310.49       2.09     223.42     274.25     248.84     215.90     403.70     503.22
   234.80       9.13       1.27       5.72       7.68       4.58       1.03     309.77       2.06     223.52     266.01     244.77     215.90     402.29     502.39
   234.90       8.94       1.28       5.71       7.79       5.06       1.04     307.89       2.05     222.02     266.89     244.46     215.90     400.94     495.89
   235.00       8.83       1.27       5.76       7.95       5.68       1.20     307.86       2.08     224.80     275.73     250.26     215.90     399.51     483.21
   235.10       8.74       1.26       5.91       8.20       6.10       1.32     303.58       2.08     228.66     286.55     257.60     215.90     398.00     470.39
   235.20       8.51       1.21       6.16       8.45       5.95       1.19     296.71       2.10     237.25     266.39     251.82     215.90     396.50     462.51
   235.30       8.17       1.20       6.44       8.52       5.00       1.48     289.91       2.11     245.02     241.21     243.12     215.90     395.49     459.23
