~Version information
  VERS.                            1.20: CWLS LAS  -  VERSION 1.20
  WRAP.                              NO: One line per depth step
~Well information
# MNEM.UNIT
# ====.================================:===================
  STRT.M                           0.20: First depth in file
  STOP.M                         937.80: Last depth in file
  STEP.M                           0.10: Depth increment
  NULL.                           -9999: Null values
  COMP.                         COMPANY:
  WELL.                            WELL: 329
  FLD .                           FIELD: Karatobe
  CNTY.                          COUNTY: 
  STAT.                           STATE: 
  DATE.                        LOG DATE: 27.01.2007
  SRVC.                 SERVICE COMPANY: 
  UWI.           Unique Well Identifier: 
~Parametr information block
# MNEM.UNIT
# ====.================================:===================
~Other information
# ------------------------- REMARKS  AREA ------------------
~Curve information
# MNEM.UNIT
# ====.================================:===================
  DEPT.M                               : Depth curve
GR    .UR/H                            : 
NGL   .C.U.                            : 
GZ3   .OHMM                            : 
GZ3B  .OHMM                            : 
LL3   .OHMM                            : 
MLL   .OHMM                            : 
CILR  .MMHO                            : 
RHOB  .G/C3                            : 
C1    .MM                              : 
C2    .MM                              : 
CALI  .MM                              : 
BS    .MM                              :
SP    .MV                              : 
DT    .UR/H                            : 
~ASCII Log Data
# ...
   607.80      10.63       1.39       2.30       4.24       3.12       1.08     532.82       2.43     217.15     222.54     219.85     215.90     425.93     452.56
   607.90      11.19       1.37       2.22       3.96       3.31       1.15     551.04       2.36     216.51     222.68     219.59     215.90     424.62     443.96
   608.00      11.25       1.39       2.12       3.75       3.49       1.26     565.53       2.31     216.57     223.76     220.16     215.90     423.61     427.33
   608.10      11.10       1.39       1.96       3.60       3.49       1.19     574.75       2.27     216.94     225.24     221.09     215.90     423.00     411.85
   608.20      11.00       1.45       1.86       3.50       3.50       1.16     576.83       2.27     215.68     224.13     219.90     215.90     422.28     400.18
   608.30      11.01       1.43       1.77       3.43       3.54       1.22     579.88       2.28     214.23     222.74     218.49     215.90     421.42     395.48
   608.40      10.95       1.41       1.71       3.37       3.63       1.24     582.97       2.29     214.41     222.28     218.35     215.90     420.70     397.10
   608.50      11.29       1.41       1.70       3.31       3.76       1.30     583.66       2.27     214.59     221.97     218.28     215.90     420.38     401.25
   608.60      11.30       1.40       1.68       3.24       3.87       1.35     584.92       2.27     214.83     222.23     218.53     215.90     420.47     405.09
   608.70      11.35       1.39       1.72       3.20       3.94       1.39     585.82       2.27     215.64     223.30     219.47     215.90     420.77     405.84
   608.80      11.43       1.38       1.81       3.16       3.87       1.34     585.60       2.26     218.30     225.99     222.15     215.90     421.68     406.15
   608.90      11.51       1.39       1.93       3.12       3.65       1.29     584.28       2.25     219.03     222.08     220.56     215.90     422.86     406.81
   609.00      11.73       1.41       2.23       3.10       3.29       1.20     582.36       2.23     218.47     220.14     219.30     215.90     424.14     407.71
   609.10      11.70       1.42       2.66       3.10       3.02       1.11     581.85       2.25     216.61     220.17     218.39     215.90     425.44     407.23
   609.20      11.59       1.41       3.05       3.09       2.90       1.07     581.71       2.25     216.19     220.76     218.48     215.90     426.51     406.27
   609.30      11.47       1.37       3.40       3.09       2.81       1.11     583.26       2.26     216.72     221.74     219.23     215.90     427.51     406.36
   609.40      11.50       1.39       3.72       3.10       2.75       1.08     585.05       2.28     218.79     222.20     220.49     215.90     428.50     409.24
   609.50      11.68       1.41       3.90       3.11       2.75       0.88     585.75       2.28     221.51     222.44     221.98     215.90     429.54     415.06
   609.60      11.82       1.41       4.02       3.12       2.78       0.80     584.71       2.25     221.06     221.58     221.32     215.90     430.40     423.67
   609.70      11.85       1.41       4.06       3.13       2.73       0.77     583.78       2.24     220.25     220.61     220.43     215.90     431.08     434.70
   609.80      11.92       1.41       4.06       3.14       2.64       0.99     586.72       2.22     222.58     230.43     226.51     215.90     431.59     447.75
   609.90      12.19       1.43       4.02       3.16       2.74       0.91     587.53       2.20     226.38     237.99     232.18     215.90     432.13     459.96
   610.00      12.58       1.44       3.97       3.20       3.05       1.05     588.48       2.20     236.07     236.45     236.26     215.90     432.82     468.33
   610.10      12.91       1.43       3.90       3.23       3.31       1.34     589.49       2.20     237.40     234.93     236.17     215.90     433.24     470.55
   610.20      12.90       1.40       3.85       3.27       3.46       1.25     588.39       2.20     226.19     233.42     229.80     215.90     433.67     467.80
   610.30      12.97       1.45       3.82       3.30       3.48       1.39     584.67       2.23     221.23     229.78     225.51     215.90     434.01     461.86
   610.40      12.78       1.43       3.82       3.31       3.39       1.44     580.96       2.24     222.53     224.02     223.28     215.90     433.92     454.42
   610.50      12.72       1.44       3.85       3.31       3.21       1.35     579.93       2.22     221.73     221.09     221.41     215.90     433.93     446.19
   610.60      12.74       1.37       3.88       3.30       3.01       1.34     578.42       2.20     219.53     220.04     219.78     215.90     434.18     437.59
   610.70      12.31       1.38       3.91       3.29       2.78       1.14     577.38       2.22     219.71     219.35     219.53     215.90     434.66     429.76
   610.80      12.31       1.37       3.93       3.29       2.58       1.06     577.21       2.23     220.15     218.70     219.43     215.90     435.48     424.06
   610.90      11.97       1.36       3.90       3.29       2.54       0.87     577.96       2.22     220.44     218.56     219.50     215.90     435.90     422.04
   611.00      11.73       1.36       3.84       3.32       2.67       0.87     579.54       2.21     220.71     218.47     219.59     215.90     436.18     423.68
   611.10      11.51       1.37       3.76       3.34       2.84       1.11     579.63       2.21     222.33     219.88     221.10     215.90     436.09     426.51
   611.20      11.47       1.37       3.67       3.36       2.98       1.09     578.35       2.21     223.57     223.04     223.31     215.90     436.16     429.68
   611.30      11.28       1.37       3.58       3.41       3.11       1.19     574.73       2.22     223.35     233.18     228.26     215.90     436.15     432.92
   611.40      11.25       1.38       3.51       3.44       3.24       1.27     570.50       2.22     222.86     238.59     230.72     215.90     435.98     434.82
   611.50      11.33       1.41       3.46       3.46       3.33       1.21     567.45       2.24     221.74     232.95     227.35     215.90     435.42     435.68
   611.60      11.52       1.42       3.43       3.48       3.38       1.35     563.51       2.24     220.92     228.76     224.84     215.90     434.81     434.27
   611.70      11.74       1.39       3.41       3.50       3.35       1.22     556.74       2.23     220.40     226.01     223.20     215.90     433.82     433.86
   611.80      11.72       1.44       3.42       3.51       3.23       1.08     554.90       2.27     219.43     223.93     221.68     215.90     432.29     431.77
   611.90      11.57       1.43       3.43       3.52       3.09       1.11     553.72       2.30     218.16     222.31     220.24     215.90     429.51     426.77
   612.00      11.59       1.42       3.45       3.55       2.97       1.05     550.75       2.31     218.01     220.02     219.02     215.90     427.45     417.25
   612.10      11.46       1.41       3.47       3.59       2.89       1.12     547.65       2.31     217.30     219.68     218.49     215.90     425.57     406.62
   612.20      11.69       1.38       3.49       3.63       2.79       1.25     544.72       2.28     216.14     220.29     218.22     215.90     423.55     400.88
   612.30      11.57       1.35       3.52       3.70       2.66       1.06     542.18       2.27     216.34     220.45     218.40     215.90     421.69     404.62
   612.40      11.36       1.35       3.54       3.77       2.57       0.85     540.01       2.29     216.52     220.81     218.67     215.90     420.04     417.82
   612.50      10.60       1.36       3.59       3.85       2.63       0.73     537.66       2.31     216.54     222.97     219.75     215.90     418.61     435.21
   612.60      10.19       1.31       3.62       3.90       2.78       0.74     541.10       2.31     217.02     224.56     220.79     215.90     417.51     450.00
