~Version information
  VERS.                            1.20: CWLS LAS  -  VERSION 1.20
  WRAP.                              NO: One line per depth step
~Well information
# MNEM.UNIT
# ====.================================:===================
  STRT.M                           0.20: First depth in file
  STOP.M                         937.80: Last depth in file
  STEP.M                           0.10: Depth increment
  NULL.                           -9999: Null values
  COMP.                         COMPANY:
  WELL.                            WELL: 329
  FLD .                           FIELD: Karatobe
  CNTY.                          COUNTY: 
  STAT.                           STATE: 
  DATE.                        LOG DATE: 27.01.2007
  SRVC.                 SERVICE COMPANY: 
  UWI.           Unique Well Identifier: 
~Parametr information block
# MNEM.UNIT
# ====.================================:===================
~Other information
# ------------------------- REMARKS  AREA ------------------
~Curve information
# MNEM.UNIT
# ====.================================:===================
  DEPT.M                               : Depth curve
GR    .UR/H                            : 
NGL   .C.U.                            : 
GZ3   .OHMM                            : 
GZ3B  .OHMM                            : 
LL3   .OHMM                            : 
MLL   .OHMM                            : 
CILR  .MMHO                            : 
RHOB  .G/C3                            : 
C1    .MM                              : 
C2    .MM                              : 
CALI  .MM                              : 
BS    .MM                              :
SP    .MV                              : 
DT    .UR/H                            : 
~ASCII Log Data
# ...
   122.70       4.09       1.01      -9999      -9999      -9999      -9999      -9999      -9999     226.25     233.29     229.77     227.00      -9999     185.14
   122.80       3.96       0.99      -9999      -9999      -9999      -9999      -9999      -9999     225.56     233.09     229.32     227.00      -9999     185.11
   122.90       3.96       1.00      -9999      -9999      -9999      -9999      -9999      -9999     226.11     231.87     228.99     227.00      -9999     185.02
   123.00       3.89       1.02      -9999      -9999      -9999      -9999      -9999      -9999     225.54     231.52     228.53     227.00      -9999     184.93
   123.10       3.93       1.03      -9999      -9999      -9999      -9999      -9999      -9999     225.31     232.01     228.66     227.00      -9999     184.86
   123.20       3.94       1.03      -9999      -9999      -9999      -9999      -9999      -9999     225.91     232.24     229.08     227.00      -9999     184.81
   123.30       4.01       0.99      -9999      -9999      -9999      -9999      -9999      -9999     226.03     231.97     229.00     227.00      -9999     184.69
   123.40       4.04       0.94      -9999      -9999      -9999      -9999      -9999      -9999     225.30     233.33     229.32     227.00      -9999     184.47
   123.50       3.98       0.94      -9999      -9999      -9999      -9999      -9999      -9999     228.90     234.70     231.80     227.00      -9999     184.18
   123.60       3.91       0.98      -9999      -9999      -9999      -9999      -9999      -9999     229.65     233.17     231.41     227.00      -9999     183.93
   123.70       3.82       1.01      -9999      -9999      -9999      -9999      -9999      -9999     227.53     234.51     231.02     227.00      -9999     183.77
   123.80       3.65       1.02      -9999      -9999      -9999      -9999      -9999      -9999     228.33     233.89     231.11     227.00      -9999     183.73
   123.90       3.74       1.03      -9999      -9999      -9999      -9999      -9999      -9999     228.09     232.92     230.50     227.00      -9999     183.75
   124.00       3.65       1.04      -9999      -9999      -9999      -9999      -9999      -9999     226.18     233.02     229.60     227.00      -9999     183.77
   124.10       3.68       1.05      -9999      -9999      -9999      -9999      -9999      -9999     225.64     233.54     229.59     227.00      -9999     183.71
   124.20       3.77       1.06      -9999      -9999      -9999      -9999      -9999      -9999     226.40     233.06     229.73     227.00      -9999     183.64
   124.30       3.84       1.08      -9999      -9999      -9999      -9999      -9999      -9999     226.12     232.72     229.42     227.00      -9999     183.84
   124.40       3.80       1.09      -9999      -9999      -9999      -9999      -9999      -9999     226.14     232.73     229.43     227.00      -9999     184.85
   124.50       3.66       1.07      -9999      -9999      -9999      -9999      -9999      -9999     226.87     232.87     229.87     227.00      -9999     186.76
   124.60       3.62       1.05      -9999      -9999      -9999      -9999      -9999      -9999     225.65     233.16     229.40     227.00      -9999     188.96
   124.70       3.79       1.00      -9999      -9999      -9999      -9999      -9999      -9999     225.99     233.89     229.94     227.00      -9999     190.23
   124.80       3.63       1.03      -9999      -9999      -9999      -9999      -9999      -9999     226.92     234.00     230.46     227.00      -9999     190.02
   124.90       3.84       1.05      -9999      -9999      -9999      -9999      -9999      -9999     226.31     232.76     229.53     227.00      -9999     188.69
   125.00       3.90       1.08      -9999      -9999      -9999      -9999      -9999      -9999     225.48     232.17     228.83     227.00      -9999     187.31
   125.10       3.94       1.07      -9999      -9999      -9999      -9999      -9999      -9999     224.51     232.07     228.29     227.00      -9999     186.55
   125.20       3.97       1.03      -9999      -9999      -9999      -9999      -9999      -9999     223.60     232.05     227.82     227.00      -9999     186.45
   125.30       3.93       1.01      -9999      -9999      -9999      -9999      -9999      -9999     224.29     233.97     229.13     227.00      -9999     186.51
   125.40       3.85       1.01      -9999      -9999      -9999      -9999      -9999      -9999     224.50     232.61     228.55     227.00      -9999     186.16
   125.50       3.78       1.02      -9999      -9999      -9999      -9999      -9999      -9999     224.65     232.29     228.47     227.00      -9999     185.04
   125.60       3.76       1.05      -9999      -9999      -9999      -9999      -9999      -9999     224.86     232.50     228.68     227.00      -9999     183.84
   125.70       3.56       1.04      -9999      -9999      -9999      -9999      -9999      -9999     225.39     231.45     228.42     227.00      -9999     183.88
   125.80       3.26       1.00      -9999      -9999      -9999      -9999      -9999      -9999     226.48     231.72     229.10     227.00      -9999     186.69
   125.90       3.11       1.01      -9999      -9999      -9999      -9999      -9999      -9999     225.96     232.69     229.33     227.00      -9999     192.05
   126.00       2.86       0.99      -9999      -9999      -9999      -9999      -9999      -9999     226.14     234.61     230.38     227.00      -9999     198.20
   126.10       2.63       0.94      -9999      -9999      -9999      -9999      -9999      -9999     226.03     233.58     229.81     227.00      -9999     202.41
   126.20       2.57       0.90      -9999      -9999      -9999      -9999      -9999      -9999     226.14     232.04     229.09     227.00      -9999     203.11
   126.30       2.65       0.88      -9999      -9999      -9999      -9999      -9999      -9999     226.03     230.10     228.07     227.00      -9999     200.29
   126.40       2.76       0.88      -9999      -9999      -9999      -9999      -9999      -9999     220.63     226.81     223.72     227.00      -9999     195.54
   126.50       2.86       0.88      -9999      -9999      -9999      -9999      -9999      -9999     216.83     224.79     220.81     227.00      -9999     190.77
   126.60       2.88       0.90      -9999      -9999      -9999      -9999      -9999      -9999     216.76     225.50     221.13     227.00      -9999     187.34
   126.70       3.00       0.94      -9999      -9999      -9999      -9999      -9999      -9999     216.75     225.32     221.04     227.00      -9999     185.62
   126.80       2.97       0.97      -9999      -9999      -9999      -9999      -9999      -9999     216.87     225.73     221.30     227.00      -9999     185.14
   126.90       2.87       0.96      -9999      -9999      -9999      -9999      -9999      -9999     217.03     225.89     221.46     227.00      -9999     185.26
   127.00       2.90       0.94      -9999      -9999      -9999      -9999      -9999      -9999     217.03     225.92     221.48     227.00      -9999     185.56
   127.10       2.99       0.93      -9999      -9999      -9999      -9999      -9999      -9999     216.93     225.97     221.45     227.00      -9999     185.94
   127.20       2.98       0.94      -9999      -9999      -9999      -9999      -9999      -9999     216.79     225.99     221.39     227.00      -9999     186.40
   127.30       2.93       0.92      -9999      -9999      -9999      -9999      -9999      -9999     216.69     225.95     221.32     227.00      -9999     186.89
   127.40       2.98       0.90      -9999      -9999      -9999      -9999      -9999      -9999     216.82     226.03     221.42     227.00      -9999     187.29
   127.50       3.04       0.90      -9999      -9999      -9999      -9999      -9999      -9999     217.09     225.93     221.51     227.00      -9999     187.48
