~Version information
  VERS.                            1.20: CWLS LAS  -  VERSION 1.20
  WRAP.                              NO: One line per depth step
~Well information
# MNEM.UNIT
# ====.================================:===================
  STRT.M                           0.20: First depth in file
  STOP.M                         937.80: Last depth in file
  STEP.M                           0.10: Depth increment
  NULL.                           -9999: Null values
  COMP.                         COMPANY:
  WELL.                            WELL: 329
  FLD .                           FIELD: Karatobe
  CNTY.                          COUNTY: 
  STAT.                           STATE: 
  DATE.                        LOG DATE: 27.01.2007
  SRVC.                 SERVICE COMPANY: 
  UWI.           Unique Well Identifier: 
~Parametr information block
# MNEM.UNIT
# ====.================================:===================
~Other information
# ------------------------- REMARKS  AREA ------------------
~Curve information
# MNEM.UNIT
# ====.================================:===================
  DEPT.M                               : Depth curve
GR    .UR/H                            : 
NGL   .C.U.                            : 
GZ3   .OHMM                            : 
GZ3B  .OHMM                            : 
LL3   .OHMM                            : 
MLL   .OHMM                            : 
CILR  .MMHO                            : 
RHOB  .G/C3                            : 
C1    .MM                              : 
C2    .MM                              : 
CALI  .MM                              : 
BS    .MM                              :
SP    .MV                              : 
DT    .UR/H                            : 
~ASCII Log Data
# ...
   823.40       4.09       1.86       4.56       4.30       4.06       1.06     406.11       2.45     221.13     242.69     231.91     215.90     443.49     322.01
   823.50       4.13       1.88       4.55       4.25       4.03       1.02     406.99       2.41     221.77     247.26     234.51     215.90     444.02     317.29
   823.60       4.20       1.90       4.54       4.21       4.02       1.08     407.21       2.39     222.49     251.20     236.85     215.90     444.57     310.21
   823.70       4.21       1.83       4.54       4.19       4.02       1.16     406.97       2.39     222.80     248.74     235.77     215.90     444.73     304.22
   823.80       4.15       1.88       4.56       4.19       4.05       1.08     408.15       2.38     222.83     247.96     235.39     215.90     444.90     302.40
   823.90       4.10       1.88       4.58       4.20       4.11       0.82     409.73       2.35     222.20     251.08     236.64     215.90     445.13     304.67
   824.00       4.04       1.85       4.60       4.21       4.18       1.06     410.09       2.34     222.91     246.84     234.88     215.90     445.59     308.46
   824.10       4.09       1.83       4.63       4.20       4.21       0.92     410.66       2.36     224.52     237.69     231.11     215.90     446.19     310.93
   824.20       4.17       1.84       4.66       4.20       4.23       0.94     413.84       2.37     223.33     236.21     229.77     215.90     446.81     311.20
   824.30       4.19       1.82       4.70       4.18       4.22       1.41     415.30       2.37     221.95     235.88     228.92     215.90     447.32     310.27
   824.40       4.29       1.78       4.74       4.16       4.14       1.02     417.96       2.38     221.79     238.37     230.08     215.90     447.76     308.67
   824.50       4.30       1.77       4.78       4.14       4.09       1.02     419.92       2.38     222.25     240.10     231.18     215.90     448.11     305.09
   824.60       4.34       1.77       4.82       4.14       4.06       0.99     421.84       2.37     223.67     240.70     232.18     215.90     448.50     297.31
   824.70       4.37       1.75       4.87       4.14       4.09       0.98     423.41       2.37     224.09     239.06     231.57     215.90     449.31     285.65
   824.80       4.46       1.74       4.93       4.13       4.18       0.96     425.86       2.38     223.85     235.93     229.89     215.90     450.19     274.64
   824.90       4.38       1.75       4.97       4.12       4.28       0.90     428.72       2.38     223.77     234.43     229.10     215.90     451.29     268.94
   825.00       4.22       1.74       5.00       4.10       4.31       1.09     431.09       2.38     223.75     233.62     228.69     215.90     452.56     270.19
   825.10       4.28       1.76       5.03       4.07       4.26       1.31     434.60       2.39     223.77     234.48     229.13     215.90     453.65     274.65
   825.20       4.39       1.78       5.07       4.03       4.14       1.17     435.59       2.41     223.63     236.99     230.31     215.90     454.53     276.64
   825.30       4.41       1.77       5.11       3.99       3.93       1.14     438.45       2.44     223.11     243.34     233.23     215.90     455.26     273.74
   825.40       4.38       1.76       5.14       3.93       3.74       0.96     442.72       2.43     222.77     250.02     236.40     215.90     455.90     268.05
   825.50       4.44       1.75       5.16       3.89       3.59       0.89     447.61       2.43     222.69     257.18     239.93     215.90     455.61     264.29
   825.60       4.35       1.74       5.16       3.88       3.60       1.05     451.92       2.43     222.78     256.91     239.85     215.90     455.06     265.50
   825.70       4.27       1.73       5.14       3.88       3.72       1.08     454.57       2.44     222.93     254.77     238.85     215.90     454.17     271.90
   825.80       4.30       1.73       5.11       3.89       3.84       1.15     455.47       2.45     223.14     245.35     234.25     215.90     452.82     280.83
   825.90       4.29       1.72       5.08       3.89       3.83       1.64     454.25       2.45     223.13     236.69     229.91     215.90     450.53     288.50
   826.00       4.18       1.72       5.05       3.88       3.72       1.16     453.29       2.47     222.19     234.27     228.23     215.90     448.40     292.48
   826.10       4.01       1.73       5.00       3.87       3.58       0.97     454.53       2.48     221.42     232.03     226.72     215.90     446.06     293.44
   826.20       3.75       1.77       4.95       3.84       3.54       0.86     456.39       2.48     220.91     230.05     225.48     215.90     443.61     293.01
   826.30       3.56       1.76       4.89       3.82       3.50       0.89     457.20       2.48     221.39     234.77     228.08     215.90     441.24     291.93
   826.40       3.48       1.75       4.84       3.82       3.49       0.83     458.61       2.45     222.54     243.94     233.24     215.90     438.99     290.51
   826.50       3.65       1.72       4.80       3.82       3.49       0.79     460.08       2.44     221.50     246.21     233.86     215.90     437.25     289.36
   826.60       3.52       1.71       4.76       3.84       3.48       0.83     462.21       2.43     220.38     247.38     233.88     215.90     436.06     288.92
   826.70       3.74       1.73       4.71       3.85       3.43       0.82     462.25       2.46     219.89     247.19     233.54     215.90     435.03     289.13
   826.80       3.74       1.75       4.66       3.87       3.41       0.84     462.71       2.44     219.68     248.03     233.86     215.90     434.90     289.31
   826.90       3.78       1.73       4.61       3.87       3.42       0.96     462.57       2.42     219.88     250.42     235.15     215.90     435.38     288.92
   827.00       3.81       1.73       4.57       3.86       3.49       1.00     462.21       2.41     220.26     252.66     236.46     215.90     436.46     288.11
   827.10       3.75       1.75       4.52       3.85       3.59       1.03     462.47       2.40     220.80     254.76     237.78     215.90     438.45     287.25
   827.20       3.68       1.68       4.48       3.85       3.69       1.18     462.98       2.39     221.30     256.57     238.93     215.90     439.82     286.10
   827.30       3.68       1.68       4.46       3.86       3.78       1.29     462.48       2.38     220.15     270.13     245.14     215.90     441.13     284.26
   827.40       3.72       1.71       4.45       3.87       3.81       1.18     460.20       2.36     219.28     279.52     249.40     215.90     442.44     282.95
   827.50       3.73       1.78       4.46       3.89       3.83       1.08     458.01       2.34     219.67     275.23     247.45     215.90     443.58     284.11
   827.60       3.63       1.82       4.49       3.89       3.81       1.19     457.43       2.34     220.54     268.86     244.70     215.90     445.12     289.27
   827.70       3.55       1.81       4.52       3.89       3.75       0.93     458.12       2.35     220.08     267.78     243.93     215.90     446.87     297.61
   827.80       3.54       1.78       4.55       3.88       3.69       0.90     459.09       2.35     218.72     270.23     244.47     215.90     448.57     305.89
   827.90       3.43       1.75       4.57       3.88       3.64       0.90     460.29       2.33     220.82     261.10     240.96     215.90     449.34     310.25
   828.00       3.50       1.74       4.59       3.87       3.63       0.90     462.25       2.33     223.78     249.08     236.43     215.90     450.05     308.29
   828.10       3.79       1.77       4.59       3.87       3.65       0.95     464.43       2.34     223.07     247.53     235.30     215.90     450.75     301.38
   828.20       3.78       1.74       4.58       3.88       3.68       0.93     465.41       2.36     222.23     247.64     234.94     215.90     451.46     293.81
