~Version
 VERS              .         2.0                           : CWLS LOG ASCII STANDARD - VERSION 2.0
 WRAP              .         YES                            : ONE LINE PER DEPTH STEP
 DLM               .         SPACE                         : DELIMITING CHARACTER(SPACE TAB OR COMMA)
~Well Information
#_______________________________________________________________________________
#
#PARAMETER_NAME    .UNIT     VALUE                         : DESCRIPTION
#_______________________________________________________________________________
STRT               .M        130                           : First reference value
STOP               .M        830                           : Last reference value
STEP               .M        0.1                           : Step increment
NULL               .         -999.25                       : Missing value
COMP               .         ТОО КМГ-Б                     : Company
WELL               .         343                           : Well name
FLD                .         Каратюбе                      : Field
LOC                .                                       : Location
PROV               .                                       : Province
SRVC               .         Казпромгеофизика              : Service Company
DATE               .         25.06.24                      : Date
API                .                                       : API number
APDAT              .                                       : Elevation Above Permanent Datum
CNTY               .                                       : County
COUNT              .         Kazakhstan                    : Country
DF                 .                                       : DF Elevation
EPDAT              .                                       : Elevation of Permanent Datum
GL                 .                                       : GL Elevation
KB                 .                                       : KB Elevation
LGMEA              .                                       : Log Measured from
LATI               .         0                             : Latitude/Northing
LONG               .         0                             : Longitude/Easting
ORIGINALWELLNAME   .         343                           : 
PDAT               .                                       : Permanent Datum
RIGN               .                                       : Rig Name
RWS                .         -999                          : Def_Rw
STATE              .         1                             : State
WST                .         -999                          : Def_Rwt
~Parameter Information Block
#_______________________________________________________________________________
#
#PARAMETER_NAME    .UNIT     VALUE                         : DESCRIPTION
#_______________________________________________________________________________
SET                .         model_343                     : 
TLFamily_AHMF      .                                       : 
TLFamily_AT10      .         Resistivity - Medium          : 
TLFamily_AT20      .         Resistivity (Array)           : 
TLFamily_AT30      .         Resistivity (Array)           : 
TLFamily_AT60      .         Resistivity (Array)           : 
TLFamily_AT90      .         Resistivity - Deep            : 
TLFamily_BSC       .         Bit Size                      : 
TLFamily_C1        .         Caliper 1                     : 
TLFamily_C2        .         Caliper 2                     : 
TLFamily_CALI      .         Caliper                       : 
TLFamily_CFTC      .         Neutron Far                   : 
TLFamily_CNTC      .         Neutron Near                  : 
TLFamily_DEPTH     .         Measured Depth                : 
TLFamily_DTP       .         Compressional Slowness        : 
TLFamily_GR        .         Gamma Ray                     : 
TLFamily_HMIN      .                                       : 
TLFamily_HMNO      .                                       : 
TLFamily_HSGR      .         Gamma Ray                     : 
TLFamily_HTPR      .                                       : 
TLFamily_HTUR      .                                       : 
TLFamily_HUPR      .                                       : 
TLFamily_PEFZ      .         Photoelectric Factor          : 
TLFamily_PHIE      .         Effective Porosity            : 
TLFamily_PHIT      .         Total Porosity                : 
TLFamily_POTA      .         Potassium Concentration       : 
TLFamily_PURA      .         Uranium Concentration         : 
TLFamily_RHOZ      .         Bulk Density                  : 
TLFamily_RLA1      .         Resistivity (Array)           : 
TLFamily_RLA2      .         Resistivity (Array)           : 
TLFamily_RLA3      .         Resistivity (Array)           : 
TLFamily_RLA4      .         Resistivity (Array)           : 
TLFamily_RLA5      .         Resistivity (Array)           : 
TLFamily_RT        .         Resistivity - True Formation  : 
TLFamily_RXO       .         Flushed Zone Resistivity      : 
TLFamily_RXOZ      .         Resistivity - Flushed Zone    : 
TLFamily_SP        .         Spontaneous Potential         : 
TLFamily_SW        .         Water Saturation              : 
TLFamily_TEMP      .         Temperature                   : 
TLFamily_THOR      .         Thorium Concentration         : 
TLFamily_TNPH      .         Thermal Neutron Porosity      : 
TLFamily_URAN      .         Uranium Concentration         : 
TLFamily_VCLAV     .         Clay Volume Fraction          : 
~Curve Information
#_______________________________________________________________________________
#
#LOGNAME           .UNIT     LOG_ID                        : DESCRIPTION
#_______________________________________________________________________________
DEPTH              .M                                      : Depth 
AHMF               .ohm.m                                  : 21 Array Induction Mud Resistivity Fully Calibrated 
AT10               .ohm.m                                  : MedRes     22 Array Induction Two Foot Resistivity A10 
AT20               .ohm.m                                  : MedRes     23 Array Induction Two Foot Resistivity A20 
AT30               .ohm.m                                  : MedRes     24 Array Induction Two Foot Resistivity A30 
AT60               .ohm.m                                  : DeepRes    25 Array Induction Two Foot Resistivity A60 
AT90               .ohm.m                                  : XDeepRes   26 Array Induction Two Foot Resistivity A90 
BSC                .mm                                     : 40 Nominal Caliper 
C1                 .mm                                     : 37 CALIPER DIAMETER 1 
C2                 .mm                                     : 38 CALIPER DIAMETER 2 
CALI               .mm                                     : Caliper    39 Caliper 
CFTC               .                                       : 7 
CNTC               .dec                                    : Neutron    8 
DTP                .uSec/m                                 : 3 Sonic travel time 
GR                 .gAPI                                   : GammaRay   9 ï¿½ï¿½(ï¿½.ï¿½) 
HMIN               .Ohmm                                   : 2 HIP Micro Inverse Resistivity 
HMNO               .Ohmm                                   : 3 HIP Micro Normal Resistivity 
HSGR               .                                       : 29 
HTPR               .                                       : 31 
HTUR               .                                       : 32 
HUPR               .                                       : 33 
PEFZ               .B/E                                    : PEF        4 Formation Photoelectric Factor 
PHIE               .Dec                                    : Phi 
PHIT               .Dec                                    : PhiT 
POTA               .                                       : 28 
PURA               .PPM                                    : 36 Upper Limit of Formation Uranium Concentration (F13 
RHOZ               .g/cm3                                  : Density    5 Bulk Density 
RLA1               .ohm.m                                  : ShalRes    13 HRLT Borehole Corrected Resistivity 1 
RLA2               .ohm.m                                  : MedRes     14 HRLT Borehole Corrected Resistivity 2 
RLA3               .ohm.m                                  : DeepRes    15 HRLT Borehole Corrected Resistivity 3 
RLA4               .ohm.m                                  : XDeepRes   16 HRLT Borehole Corrected Resisitivity 4 
RLA5               .ohm.m                                  : UltraDeepR 17 HRLT Borehole Corrected Resistivity 5 
RT                 .Ohmm                                   : 18 
RXO                .Ohmm                                   : 19 
RXOZ               .ohm.m                                  : 2 (HDRS-H)                (2in)                   Invaded Formation Resistivity filtered at 18 inches 
SP                 .mV                                     : SP         20 Spontaneous Potential 
SW                 .Dec                                    : Sw 
TEMP               .DEGC                                   : Temp       41 Temp 
THOR               .                                       : 30 
TNPH               .V/V                                    : Neutron    10 Neutron porosity 
URAN               .                                       : 34 
VCLAV              .Dec                                    : Vcl 
~Ascii
# ...
462.4      
  0.1574     1.9243     2.2183     2.3296     2.5302     2.6118     
  215.9      212.332    211.0985   211.714    488.3003   1637.8491  
  418.7997   109.0999   1.4393     1.2964     98.823     4.5902     
  4.5425     1.0127     2.4471     0.0002     0.1258     2.498      
  2.949      2.1425     2.1289     2.2484     2.3863     2.476000070571899 
  2.49970006942749 2.786999940872192 1.4635     2.696994   3.7578     
  1          32.7084    11.4661    0.4173     2.5278     0.8378    
462.5      
  0.1574     1.8923     2.1696     2.2886     2.4947     2.5537     
  215.9      212.393    211.342    211.8665   483.0039   1613.4886  
  422.0573   111.5714   1.3992     1.251      97.6962    4.5855     
  4.0951     1.1252     2.4457     0.0001000  0.1295     2.4165     
  3.1286     2.1298     2.017      2.1344     2.2621     2.351999998092651 
  2.368499994277954 2.643899917602539 1.3845     2.562382   4.7185     
  1          32.7084    11.081     0.415      2.715      0.863     
462.6      
  0.1574     1.8532     2.1009     2.2381     2.4606     2.5037     
  215.9      211.944    211.088    211.5155   470.8917   1588.594   
  380.5061   110.7299   1.2708     1.1311     97.4518    4.6366     
  3.6384     1.2881     2.4423     0.0001000  0.1283     2.3342     
  3.4139     2.1091     1.9117     2.0268     2.1455     2.220400094985962 
  2.237600088119507 2.489000082015991 1.3164     2.377237   5.4348     
  1          32.7084    10.8189    0.4226     2.9978     0.8544    
462.7      
  0.1572     1.8171     2.0714     2.2247     2.4221     2.4822     
  215.9      211.356    210.721    211.0385   455.306    1565.5128  
  366.9852   108.3705   1.1701     1.0344     97.5244    4.7224     
  3.2194     1.4669     2.4362     0.0002     0.1247     2.2522     
  3.7271     2.0839     2.0165     2.1414     2.2566     2.334100008010864 
  2.358200073242188 2.615900039672852 1.4023     2.201449   5.3597     
  1          32.7084    10.6353    0.4365     3.3036     0.8303    
462.8      
  0.1571     1.8202     2.0532     2.2149     2.4265     2.4532     
  215.9      211.058    210.477    210.7675   439.9535   1555.2611  
  361.9706   107.1711   1.0943     0.9672     95.0987    4.7975     
  3.2408     1.4803     2.4204     0.0003     0.123      2.1788     
  3.6401     2.0612     2.2304     2.4084     2.5319     2.626699924468994 
  2.657099962234497 3.010699987411499 1.5877     2.113271   4.8498     
  1          32.7084    10.45      0.4576     3.2247     0.8181    
462.9      
  0.1569     1.8216     2.0508     2.2747     2.5196     2.5528     
  215.9      210.865    210.381    210.623    429.4332   1527.2543  
  355.4188   104.8685   0.9878     0.9146     93.0198    4.9258     
  3.2642     1.5089     2.4002     0.0005     0.1197     2.106      
  3.5862     2.0436     2.1509     2.2985     2.4028     2.477699995040894 
  2.514600038528442 2.791300058364868 1.4807     2.115956   4.0308     
  1          32.7084    10.3672    0.4623     3.1761     0.7946    
463        
  0.1567     1.808      2.0215     2.2311     2.4339     2.4999     
  215.9      211.2965   210.6365   210.966    421.5991   1490.7932  
  347.6883   102.1071   0.6637     0.7344     91.1255    5.083      
  3.2837     1.548      2.3887     0.001      0.116      2.0343     
  3.5556     2.0349     1.8947     2.0086     2.0938     2.156899929046631 
  2.187099933624268 2.395600080490112 1.2936     2.064502   2.8972     
  1          32.7084    10.341     0.4587     3.149      0.7664    
463.1      
  0.1564     1.736      1.8984     2.1298     2.3122     2.3601     
  215.9      212.6925   211.2865   211.988    409.6881   1483.6292  
  343.0179   101.8405   0.5434     0.6347     87.1244    4.9278     
  3.1715     1.5539     2.401      0.0011     0.1157     1.9758     
  3.4667     2.0412     1.7642     1.8586     1.9306     1.979300022125244 
  2.012599945068359 2.173099994659424 1.2051     1.934019   1.6497     
  1          32.7084    9.7409     0.4778     3.07       0.7637    
463.2      
  0.1561     1.6799     1.8048     1.9868     2.1589     2.2021     
  215.9      212.9805   211.4635   212.221    405.4232   1478.3685  
  348.457    98.912     0.5259     0.586      84.4535    4.7068     
  3.0558     1.5396     2.4406     0.0022     0.1123     1.9526     
  3.3981     2.0561     1.7544     1.858      1.9333     1.985100030899048 
  2.01830005645752 2.196899890899658 1.2076     1.786949   0.3416     
  1          32.7084    9.1891     0.483      3.006      0.7338    
463.3      
  0.1562     1.6501     1.7542     1.9022     2.1287     2.1644     
  215.9      213.2805   211.559    212.4185   406.6502   1475.3837  
  356.5535   93.9319    0.5136     0.5469     83.0106    4.4249     
  2.937      1.5066     2.4879     0.0179     0.1127     1.9621     
  3.3483     2.0691     1.7942     1.9074     1.9947     2.037100076675415 
  2.074199914932251 2.270299911499023 1.2426     1.645229   -0.2693    
  1          32.7084    8.6819     0.4787     2.956      0.6321    
463.4      
  0.1563     1.6713     1.7948     1.9277     2.1818     2.2216     
  215.9      216.297    212.6365   214.458    395.4942   1491.1265  
  356.2899   89.9086    0.5376     0.5676     80.0648    4.502      
  3.0649     1.4697     2.5221     0.0718     0.1536     1.8941     
  3.1687     2.0808     1.881      2.0117     2.1081     2.158299922943115 
  2.192899942398071 2.425299882888794 1.3109     1.570742   -0.767     
  1          32.7084    8.5243     0.507      2.7851     0.545     
463.5      
  0.1564     1.7909     1.9065     2.0642     2.2872     2.3582     
  215.9      221.105    214.162    217.6035   392.0611   1498.6708  
  348.9548   84.7906    0.5347     0.5719     76.5074    4.6056     
  3.133      1.47       2.5279     0.2295     0.2946     1.7956     
  3.0078     2.0861     1.907      2.0695     2.1772     2.226900100708008 
  2.266900062561035 2.557600021362305 1.353      1.571981   -1.1601    
  1          32.7084    8.2614     0.5149     2.6369     0.4342    
463.6      
  0.1566     1.8901     2.0703     2.233      2.3942     2.4918     
  215.9      224.057    214.8285   219.394    395.7567   1498.6472  
  346.9709   78.662     0.5471     0.5892     72.2773    4.7349     
  3.1308     1.5124     2.513      0.2897     0.3386     1.6637     
  2.8694     2.0815     1.8636     2.0151     2.0957     2.144799947738647 
  2.18179988861084 2.424799919128418 1.303      1.602522   -1.4119    
  1          32.7084    7.8759     0.5041     2.5156     0.3262    
463.7      
  0.1568     1.9727     2.1574     2.3078     2.4313     2.525      
  215.9      222.127    213.7495   217.8975   390.9805   1510.3134  
  357.1098   77.994     0.558      0.5991     67.2027    5.0466     
  3.5701     1.4207     2.4896     0.3033     0.3513     1.5302     
  2.5126     2.072      1.8429     1.9877     2.0623     2.112600088119507 
  2.140399932861328 2.365400075912476 1.2823     1.607161   -1.4493    
  1          32.7084    7.6986     0.5249     2.1812     0.3196    
463.8      
  0.157      2.0212     2.1923     2.2613     2.4034     2.4668     
  215.9      220.3145   212.631    216.439    395.8077   1525.9507  
  365.9969   77.7319    0.5572     0.5921     62.529     5.4684     
  4.0586     1.3492     2.4701     0.3067     0.3542     1.395      
  2.1937     2.0647     1.9881     2.1417     2.23       2.291699886322021 
  2.325000047683716 2.58080005645752 1.3941     1.600244   -1.2465    
  1          32.7084    7.5932     0.5252     1.8842     0.317     
463.9      
  0.157      2.0471     2.2764     2.2936     2.479      2.5403     
  215.9      220.5565   212.34     216.4095   411.5608   1545.9331  
  353.6765   77.8652    0.6196     0.6222     58.4835    6.0262     
  4.5759     1.3174     2.4565     0.2941     0.3418     1.2578     
  1.9463     2.0743     2.1696     2.3306     2.4536     2.5278000831604 
  2.569099903106689 2.883599996566772 1.5268     1.627485   -0.8465    
  1          32.7084    7.5686     0.5019     1.6576     0.3183    
