~Version
 VERS              .         2.0                           : CWLS LOG ASCII STANDARD - VERSION 2.0
 WRAP              .         YES                            : ONE LINE PER DEPTH STEP
 DLM               .         SPACE                         : DELIMITING CHARACTER(SPACE TAB OR COMMA)
~Well Information
#_______________________________________________________________________________
#
#PARAMETER_NAME    .UNIT     VALUE                         : DESCRIPTION
#_______________________________________________________________________________
STRT               .M        130                           : First reference value
STOP               .M        830                           : Last reference value
STEP               .M        0.1                           : Step increment
NULL               .         -999.25                       : Missing value
COMP               .         ТОО КМГ-Б                     : Company
WELL               .         343                           : Well name
FLD                .         Каратюбе                      : Field
LOC                .                                       : Location
PROV               .                                       : Province
SRVC               .         Казпромгеофизика              : Service Company
DATE               .         25.06.24                      : Date
API                .                                       : API number
APDAT              .                                       : Elevation Above Permanent Datum
CNTY               .                                       : County
COUNT              .         Kazakhstan                    : Country
DF                 .                                       : DF Elevation
EPDAT              .                                       : Elevation of Permanent Datum
GL                 .                                       : GL Elevation
KB                 .                                       : KB Elevation
LGMEA              .                                       : Log Measured from
LATI               .         0                             : Latitude/Northing
LONG               .         0                             : Longitude/Easting
ORIGINALWELLNAME   .         343                           : 
PDAT               .                                       : Permanent Datum
RIGN               .                                       : Rig Name
RWS                .         -999                          : Def_Rw
STATE              .         1                             : State
WST                .         -999                          : Def_Rwt
~Parameter Information Block
#_______________________________________________________________________________
#
#PARAMETER_NAME    .UNIT     VALUE                         : DESCRIPTION
#_______________________________________________________________________________
SET                .         model_343                     : 
TLFamily_AHMF      .                                       : 
TLFamily_AT10      .         Resistivity - Medium          : 
TLFamily_AT20      .         Resistivity (Array)           : 
TLFamily_AT30      .         Resistivity (Array)           : 
TLFamily_AT60      .         Resistivity (Array)           : 
TLFamily_AT90      .         Resistivity - Deep            : 
TLFamily_BSC       .         Bit Size                      : 
TLFamily_C1        .         Caliper 1                     : 
TLFamily_C2        .         Caliper 2                     : 
TLFamily_CALI      .         Caliper                       : 
TLFamily_CFTC      .         Neutron Far                   : 
TLFamily_CNTC      .         Neutron Near                  : 
TLFamily_DEPTH     .         Measured Depth                : 
TLFamily_DTP       .         Compressional Slowness        : 
TLFamily_GR        .         Gamma Ray                     : 
TLFamily_HMIN      .                                       : 
TLFamily_HMNO      .                                       : 
TLFamily_HSGR      .         Gamma Ray                     : 
TLFamily_HTPR      .                                       : 
TLFamily_HTUR      .                                       : 
TLFamily_HUPR      .                                       : 
TLFamily_PEFZ      .         Photoelectric Factor          : 
TLFamily_PHIE      .         Effective Porosity            : 
TLFamily_PHIT      .         Total Porosity                : 
TLFamily_POTA      .         Potassium Concentration       : 
TLFamily_PURA      .         Uranium Concentration         : 
TLFamily_RHOZ      .         Bulk Density                  : 
TLFamily_RLA1      .         Resistivity (Array)           : 
TLFamily_RLA2      .         Resistivity (Array)           : 
TLFamily_RLA3      .         Resistivity (Array)           : 
TLFamily_RLA4      .         Resistivity (Array)           : 
TLFamily_RLA5      .         Resistivity (Array)           : 
TLFamily_RT        .         Resistivity - True Formation  : 
TLFamily_RXO       .         Flushed Zone Resistivity      : 
TLFamily_RXOZ      .         Resistivity - Flushed Zone    : 
TLFamily_SP        .         Spontaneous Potential         : 
TLFamily_SW        .         Water Saturation              : 
TLFamily_TEMP      .         Temperature                   : 
TLFamily_THOR      .         Thorium Concentration         : 
TLFamily_TNPH      .         Thermal Neutron Porosity      : 
TLFamily_URAN      .         Uranium Concentration         : 
TLFamily_VCLAV     .         Clay Volume Fraction          : 
~Curve Information
#_______________________________________________________________________________
#
#LOGNAME           .UNIT     LOG_ID                        : DESCRIPTION
#_______________________________________________________________________________
DEPTH              .M                                      : Depth 
AHMF               .ohm.m                                  : 21 Array Induction Mud Resistivity Fully Calibrated 
AT10               .ohm.m                                  : MedRes     22 Array Induction Two Foot Resistivity A10 
AT20               .ohm.m                                  : MedRes     23 Array Induction Two Foot Resistivity A20 
AT30               .ohm.m                                  : MedRes     24 Array Induction Two Foot Resistivity A30 
AT60               .ohm.m                                  : DeepRes    25 Array Induction Two Foot Resistivity A60 
AT90               .ohm.m                                  : XDeepRes   26 Array Induction Two Foot Resistivity A90 
BSC                .mm                                     : 40 Nominal Caliper 
C1                 .mm                                     : 37 CALIPER DIAMETER 1 
C2                 .mm                                     : 38 CALIPER DIAMETER 2 
CALI               .mm                                     : Caliper    39 Caliper 
CFTC               .                                       : 7 
CNTC               .dec                                    : Neutron    8 
DTP                .uSec/m                                 : 3 Sonic travel time 
GR                 .gAPI                                   : GammaRay   9 ï¿½ï¿½(ï¿½.ï¿½) 
HMIN               .Ohmm                                   : 2 HIP Micro Inverse Resistivity 
HMNO               .Ohmm                                   : 3 HIP Micro Normal Resistivity 
HSGR               .                                       : 29 
HTPR               .                                       : 31 
HTUR               .                                       : 32 
HUPR               .                                       : 33 
PEFZ               .B/E                                    : PEF        4 Formation Photoelectric Factor 
PHIE               .Dec                                    : Phi 
PHIT               .Dec                                    : PhiT 
POTA               .                                       : 28 
PURA               .PPM                                    : 36 Upper Limit of Formation Uranium Concentration (F13 
RHOZ               .g/cm3                                  : Density    5 Bulk Density 
RLA1               .ohm.m                                  : ShalRes    13 HRLT Borehole Corrected Resistivity 1 
RLA2               .ohm.m                                  : MedRes     14 HRLT Borehole Corrected Resistivity 2 
RLA3               .ohm.m                                  : DeepRes    15 HRLT Borehole Corrected Resistivity 3 
RLA4               .ohm.m                                  : XDeepRes   16 HRLT Borehole Corrected Resisitivity 4 
RLA5               .ohm.m                                  : UltraDeepR 17 HRLT Borehole Corrected Resistivity 5 
RT                 .Ohmm                                   : 18 
RXO                .Ohmm                                   : 19 
RXOZ               .ohm.m                                  : 2 (HDRS-H)                (2in)                   Invaded Formation Resistivity filtered at 18 inches 
SP                 .mV                                     : SP         20 Spontaneous Potential 
SW                 .Dec                                    : Sw 
TEMP               .DEGC                                   : Temp       41 Temp 
THOR               .                                       : 30 
TNPH               .V/V                                    : Neutron    10 Neutron porosity 
URAN               .                                       : 34 
VCLAV              .Dec                                    : Vcl 
~Ascii
# ...
328        
  0.1612     7.163      9.4776     16.4425    25.8217    22.7985    
  215.9      232.157    247.8175   239.855    626.689    1982.5034  
  212.6178   145.2522   0.4472     0.5758     120.2052   2.5837     
  0.447      5.786      2.5396     0.2954     0.3126     1.7004     
  10.3017    2.139      10.676     12.6816    14.1491    14.87530040740967 
  15.33619976043701 19.10269927978516 6.2261     2.023046   14.8683    
  0.4542     31.3804    4.3946     0.3615     9.835      0.1151    
328.1      
  0.1615     7.2899     10.9905    21.6142    32.1971    27.335     
  215.9      220.087    230.407    225.1865   644.6181   1964.733   
  209.8707   151.3833   0.6501     0.8433     120.9067   2.6666     
  0.4794     5.5668     2.5086     0.2742     0.2924     1.7419     
  10.1647    2.1839     9.3986     11.6635    12.9623    13.60099983215332 
  14.0487003326416 17.74860000610352 5.1092     3.487513   15.0146    
  0.511      31.3804    4.646      0.3479     9.6942     0.1216    
328.2      
  0.1616     4.9126     11.6287    19.8373    26.9074    22.7037    
  215.9      212.79     218.547    215.645    681.5555000000001 1999.1011  
  207.9363   152.7574   0.878      1.1225     122.5723   2.8955     
  0.5477     5.3093     2.5782     0.2384     0.2593     1.8077     
  10.0661    2.2584     7.3892     9.413      10.4504    10.98680019378662 
  11.35830020904541 14.47169971466064 3.9046     5.507559   15.3688    
  0.6541     31.3804    5.2456     0.3279     9.5865     0.139     
328.3      
  0.1615     4.5394     8.3928     11.0182    16.9599    17.7634    
  215.9      210.175    212.796    211.481    714.3006   2035.6227  
  196.4323   152.836    1.2835     1.5793     124.1609   3.1243     
  0.6145     5.0862     2.6926     0          0          1.8672     
  9.9844     2.3023     6.4525     8.4014     9.4208     9.975099563598633 
  10.27369976043701 13.26089954376221 3.3164     6.082411   16.0252    
  1          31.3804    5.8346     0.3112     9.4965     0.1481    
328.4      
  0.1613     3.917      6.5979     9.9476     14.4929    12.3305    
  215.9      209.798    212.1145   210.9525   728.1795   2052.2517  
  177.4321   152.1654   0.9205     1.1882     124.7564   3.2355     
  0.6484     4.9917     2.7715     0          0          1.8893     
  9.9197     2.2903     6.0517     7.9399     8.9443     9.406700134277344 
  9.736000061035156 12.58810043334961 3.0928     5.514032   16.4795    
  1          31.3804    6.1139     0.3051     9.4303     0.1532    
328.5      
  0.1611     3.3973     6.6817     8.325      12.8603    10.2806    
  215.9      212.2425   214.6085   213.422    694.1421   2031.2374  
  166.0851   145.6814   0.7906     0.9949     122.9158   3.1991     
  0.6638     4.821      2.7964     0.2357     0.259      1.8942     
  9.6154     2.2453     6.0307     7.8074     8.7814     9.24899959564209 
  9.564999580383301 12.31900024414063 3.154      4.16127    16.8876    
  0.7256     31.3804    6.0599     0.3272     9.1322     0.1549    
328.6      
  0.1607     3.5745     6.734      7.2972     10.9922    8.6246     
  215.9      214.8075   220.861    217.8055   640.0876   1974.3459  
  162.9213   138.1495   0.6339     0.7725     120.3648   3.089      
  0.675      4.5796     2.7459     0.2705     0.294      1.9088     
  9.2072     2.1692     5.946      7.6167     8.5602     8.982999801635742 
  9.376500129699707 11.99050045013428 3.175      3.065252   17.3267    
  0.644      31.3804    5.8923     0.3586     8.733      0.1569    
328.7      
  0.1602     3.7599     5.8904     6.751      10.1224    7.8163     
  215.9      216.3855   229.0455   222.6215   567.5266   1845.5609  
  164.4028   132.3019   0.3632     0.4771     118.531    2.9067     
  0.6965     4.178      2.6427     0.3077     0.332      1.9836     
  8.7418     2.0892     5.7479     7.2287     8.107      8.557600021362305 
  8.908200263977051 11.3326997756958 3.1624     2.632473   17.6179    
  0.5861     31.3804    5.7607     0.3937     8.2761     0.1621    
328.8      
  0.1599     3.5398     5.038      6.6255     9.9408     7.4965     
  215.9      222.807    234.2315   228.438    499.3528   1729.4656  
  174.2386   132.8631   0.3016     0.4166     117.6008   2.8368     
  0.7063     4.0168     2.5411     0.3399     0.3643     2.0093     
  8.5358     2.0416     5.8241     7.1712     8.0378     8.48859977722168 
  8.859800338745117 11.16870021820068 3.2893     2.4356     17.8438    
  0.535      31.3804    5.6999     0.4381     8.0707     0.1626    
328.9      
  0.16       3.4928     4.7043     7.6936     12.695     8.7282     
  215.9      230.158    236.136    233.127    441.6319   1625.1022  
  190.105    135.4826   0.3728     0.5051     117.1452   2.8245     
  0.7181     3.9372     2.4898     0.3576     0.3828     2.0235     
  8.4305     2.0251     5.6644     6.8146     7.619      8.057600021362305 
  8.402799606323242 10.48770046234131 3.2709     2.390116   18.0298    
  0.5247     31.3804    5.7156     0.4777     7.963      0.1682    
329        
  0.16       3.1682     5.334      7.0733     11.5969    9.2768     
  215.9      233.056    237.778    235.4055   417.13     1547.2172  
  197.1093   136.929    0.5074     0.6287     116.9483   2.837      
  0.7696     3.693      2.474      0.3544     0.3836     2.0999     
  8.2125     2.0138     4.6775     5.4653     6.0565     6.41510009765625 
  6.679299831390381 8.202099800109863 2.8181     2.527146   18.4687    
  0.5991     31.3804    5.9578     0.4859     7.7469     0.195     
329.1      
  0.1601     2.9667     6.2227     9.3965     16.2341    13.4369    
  215.9      235.0285   241.3745   238.1795   414.2972   1499.8271  
  193.5643   135.284    0.5506     0.6587     115.7917   2.763      
  0.7808     3.5376     2.4817     0.3475     0.3786     2.1271     
  7.9854     2.003      4.262      5.017      5.5156     5.834199905395508 
  6.079999923706055 7.458799839019775 2.5744     2.526317   19.0362    
  0.6421     31.3804    5.8772     0.4677     7.5249     0.2073    
329.2      
  0.1603     2.896      4.7838     6.0123     10.3231    10.4667    
  215.9      244.6795   250.4095   247.525    421.4169   1469.5375  
  193.9011   131.9538   0.6116     0.7154     114.0431   2.6331     
  0.7716     3.4131     2.5037     0.3424     0.3721     2.1331     
  7.7316     1.9987     4.3867     5.3519     5.8686     6.223899841308594 
  6.496300220489502 8.080699920654297 2.535      2.28527    19.653     
  0.6284     31.3804    5.6152     0.4389     7.2782     0.1985    
329.3      
  0.1605     2.6929     3.6449     5.0221     6.7851     7.2995     
  215.9      264.25     264.895    264.5675   427.2515   1453.6842  
  200.0686   127.413    0.5954     0.684      111.8723   2.4461     
  0.7807     3.1346     2.5206     0.3403     0.3692     2.1903     
  7.3029     1.9933     4.5102     5.6248     6.1924     6.492700099945068 
  6.816199779510498 8.535300254821777 2.5323     1.903812   20.1626    
  0.6158     31.3804    5.353      0.4206     6.8585     0.1924    
329.4      
  0.1606     3.0786     3.4741     4.3664     5.8221     6.4437     
  215.9      278.7945   280.3665   279.5725   433.4028   1461.2915  
  200.4859   124.8403   0.3331     0.4131     110.1455   2.3086     
  0.7492     3.0863     2.5169     0.3377     0.3682     2.1904     
  7.198      1.9838     4.3092     5.2104     5.7195     6.014999866485596 
  6.282100200653076 7.781400203704834 2.5379     1.669103   20.6439    
  0.6481     31.3804    5.0591     0.4107     6.7578     0.2029    
329.5      
  0.1606     2.8867     3.8509     5.4235     7.2036     8.3733     
  215.9      271.192    281.0945   276.0885   438.8712   1480.9446  
  194.6972   123.3293   0.2171     0.2968     108.6604   2.2287     
  0.6997     3.1864     2.4965     0.3349     0.3658     2.1497     
  7.2885     1.9858     4.2692     5.0361     5.5619     5.806099891662598 
  6.150800228118896 7.511499881744385 2.5815     1.658362   21.384     
  0.6607     31.3804    4.7896     0.407      6.8502     0.2057    
