~Version
 VERS              .         2.0                           : CWLS LOG ASCII STANDARD - VERSION 2.0
 WRAP              .         YES                            : ONE LINE PER DEPTH STEP
 DLM               .         SPACE                         : DELIMITING CHARACTER(SPACE TAB OR COMMA)
~Well Information
#_______________________________________________________________________________
#
#PARAMETER_NAME    .UNIT     VALUE                         : DESCRIPTION
#_______________________________________________________________________________
STRT               .M        130                           : First reference value
STOP               .M        830                           : Last reference value
STEP               .M        0.1                           : Step increment
NULL               .         -999.25                       : Missing value
COMP               .         ТОО КМГ-Б                     : Company
WELL               .         343                           : Well name
FLD                .         Каратюбе                      : Field
LOC                .                                       : Location
PROV               .                                       : Province
SRVC               .         Казпромгеофизика              : Service Company
DATE               .         25.06.24                      : Date
API                .                                       : API number
APDAT              .                                       : Elevation Above Permanent Datum
CNTY               .                                       : County
COUNT              .         Kazakhstan                    : Country
DF                 .                                       : DF Elevation
EPDAT              .                                       : Elevation of Permanent Datum
GL                 .                                       : GL Elevation
KB                 .                                       : KB Elevation
LGMEA              .                                       : Log Measured from
LATI               .         0                             : Latitude/Northing
LONG               .         0                             : Longitude/Easting
ORIGINALWELLNAME   .         343                           : 
PDAT               .                                       : Permanent Datum
RIGN               .                                       : Rig Name
RWS                .         -999                          : Def_Rw
STATE              .         1                             : State
WST                .         -999                          : Def_Rwt
~Parameter Information Block
#_______________________________________________________________________________
#
#PARAMETER_NAME    .UNIT     VALUE                         : DESCRIPTION
#_______________________________________________________________________________
SET                .         model_343                     : 
TLFamily_AHMF      .                                       : 
TLFamily_AT10      .         Resistivity - Medium          : 
TLFamily_AT20      .         Resistivity (Array)           : 
TLFamily_AT30      .         Resistivity (Array)           : 
TLFamily_AT60      .         Resistivity (Array)           : 
TLFamily_AT90      .         Resistivity - Deep            : 
TLFamily_BSC       .         Bit Size                      : 
TLFamily_C1        .         Caliper 1                     : 
TLFamily_C2        .         Caliper 2                     : 
TLFamily_CALI      .         Caliper                       : 
TLFamily_CFTC      .         Neutron Far                   : 
TLFamily_CNTC      .         Neutron Near                  : 
TLFamily_DEPTH     .         Measured Depth                : 
TLFamily_DTP       .         Compressional Slowness        : 
TLFamily_GR        .         Gamma Ray                     : 
TLFamily_HMIN      .                                       : 
TLFamily_HMNO      .                                       : 
TLFamily_HSGR      .         Gamma Ray                     : 
TLFamily_HTPR      .                                       : 
TLFamily_HTUR      .                                       : 
TLFamily_HUPR      .                                       : 
TLFamily_PEFZ      .         Photoelectric Factor          : 
TLFamily_PHIE      .         Effective Porosity            : 
TLFamily_PHIT      .         Total Porosity                : 
TLFamily_POTA      .         Potassium Concentration       : 
TLFamily_PURA      .         Uranium Concentration         : 
TLFamily_RHOZ      .         Bulk Density                  : 
TLFamily_RLA1      .         Resistivity (Array)           : 
TLFamily_RLA2      .         Resistivity (Array)           : 
TLFamily_RLA3      .         Resistivity (Array)           : 
TLFamily_RLA4      .         Resistivity (Array)           : 
TLFamily_RLA5      .         Resistivity (Array)           : 
TLFamily_RT        .         Resistivity - True Formation  : 
TLFamily_RXO       .         Flushed Zone Resistivity      : 
TLFamily_RXOZ      .         Resistivity - Flushed Zone    : 
TLFamily_SP        .         Spontaneous Potential         : 
TLFamily_SW        .         Water Saturation              : 
TLFamily_TEMP      .         Temperature                   : 
TLFamily_THOR      .         Thorium Concentration         : 
TLFamily_TNPH      .         Thermal Neutron Porosity      : 
TLFamily_URAN      .         Uranium Concentration         : 
TLFamily_VCLAV     .         Clay Volume Fraction          : 
~Curve Information
#_______________________________________________________________________________
#
#LOGNAME           .UNIT     LOG_ID                        : DESCRIPTION
#_______________________________________________________________________________
DEPTH              .M                                      : Depth 
AHMF               .ohm.m                                  : 21 Array Induction Mud Resistivity Fully Calibrated 
AT10               .ohm.m                                  : MedRes     22 Array Induction Two Foot Resistivity A10 
AT20               .ohm.m                                  : MedRes     23 Array Induction Two Foot Resistivity A20 
AT30               .ohm.m                                  : MedRes     24 Array Induction Two Foot Resistivity A30 
AT60               .ohm.m                                  : DeepRes    25 Array Induction Two Foot Resistivity A60 
AT90               .ohm.m                                  : XDeepRes   26 Array Induction Two Foot Resistivity A90 
BSC                .mm                                     : 40 Nominal Caliper 
C1                 .mm                                     : 37 CALIPER DIAMETER 1 
C2                 .mm                                     : 38 CALIPER DIAMETER 2 
CALI               .mm                                     : Caliper    39 Caliper 
CFTC               .                                       : 7 
CNTC               .dec                                    : Neutron    8 
DTP                .uSec/m                                 : 3 Sonic travel time 
GR                 .gAPI                                   : GammaRay   9 ï¿½ï¿½(ï¿½.ï¿½) 
HMIN               .Ohmm                                   : 2 HIP Micro Inverse Resistivity 
HMNO               .Ohmm                                   : 3 HIP Micro Normal Resistivity 
HSGR               .                                       : 29 
HTPR               .                                       : 31 
HTUR               .                                       : 32 
HUPR               .                                       : 33 
PEFZ               .B/E                                    : PEF        4 Formation Photoelectric Factor 
PHIE               .Dec                                    : Phi 
PHIT               .Dec                                    : PhiT 
POTA               .                                       : 28 
PURA               .PPM                                    : 36 Upper Limit of Formation Uranium Concentration (F13 
RHOZ               .g/cm3                                  : Density    5 Bulk Density 
RLA1               .ohm.m                                  : ShalRes    13 HRLT Borehole Corrected Resistivity 1 
RLA2               .ohm.m                                  : MedRes     14 HRLT Borehole Corrected Resistivity 2 
RLA3               .ohm.m                                  : DeepRes    15 HRLT Borehole Corrected Resistivity 3 
RLA4               .ohm.m                                  : XDeepRes   16 HRLT Borehole Corrected Resisitivity 4 
RLA5               .ohm.m                                  : UltraDeepR 17 HRLT Borehole Corrected Resistivity 5 
RT                 .Ohmm                                   : 18 
RXO                .Ohmm                                   : 19 
RXOZ               .ohm.m                                  : 2 (HDRS-H)                (2in)                   Invaded Formation Resistivity filtered at 18 inches 
SP                 .mV                                     : SP         20 Spontaneous Potential 
SW                 .Dec                                    : Sw 
TEMP               .DEGC                                   : Temp       41 Temp 
THOR               .                                       : 30 
TNPH               .V/V                                    : Neutron    10 Neutron porosity 
URAN               .                                       : 34 
VCLAV              .Dec                                    : Vcl 
~Ascii
# ...
688        
  0.1476     0.9461000000000001 1.1666     1.2462     1.3866     1.4855     
  215.9      278.1885   298.237    287.999    339.2202   1232.542   
  242.3701   81.3       0.2275     0.2813     73.9476    5.68       
  6.1179     0.9289     3.2667     0.0026     0.1116     1.7309     
  1.9644     2.216      1.2326     1.2555     1.3204     1.329800009727478 
  1.284299969673157 1.305099964141846 1.1476     0.8825969  18.1085    
  1          35.0705    9.8284     0.4688     1.608      0.7267    
688.1      
  0.1475     0.9552     1.1637     1.2317     1.3706     1.4888     
  215.9      272.7945   303.4405   287.709    334.5585   1217.1252  
  236.9896   81.0345    0.2536     0.3099     74.3774    5.9464     
  6.3698     0.9414     3.2982     0.003      0.1111     1.7089     
  1.9693     2.2297     1.2724     1.2675     1.3271     1.335299968719482 
  1.288300037384033 1.301699995994568 1.2929     0.9801902  17.8228    
  1          35.0705    10.1634    0.4646     1.6068     0.7202    
688.2      
  0.1475     0.9512     1.1637     1.2736     1.4202     1.5585     
  215.9      277.218    306.456    291.467    345.0164   1212.6917  
  225.9942   85.7288    0.2739     0.3269     74.1093    5.7159     
  4.8898     1.2065     3.2984     0.0001000  0.1169     1.6493     
  2.345      2.241      1.2833     1.2561     1.3162     1.337100028991699 
  1.292899966239929 1.299900054931641 1.3017     1.042706   17.5958    
  1          35.0705    9.4338     0.4326     1.9826     0.7785    
688.3      
  0.1475     0.953      1.2005     1.2797     1.4249     1.5515     
  215.9      281.0455   311.0055   295.6425   338.3521   1212.0656  
  217.2114   86.3206    0.3277     0.3724     72.6748    5.6076     
  4.092      1.3739     3.279      0.0001000  0.1179     1.5781     
  2.5158     2.2459     1.3326     1.2787     1.3341     1.351400017738342 
  1.304900050163269 1.320999979972839 1.3119     1.070738   17.402     
  1          35.0705    8.8501     0.4482     2.1641     0.7853    
688.4      
  0.1475     0.9462     1.1926     1.2979     1.4478     1.5651     
  215.9      281.0135   317.269    298.5885   323.105    1211.5123  
  217.775    84.9659    0.3668     0.4009     70.4919    5.5963     
  3.8078     1.4705     3.2334     0.0001000  0.1156     1.5001     
  2.5393     2.2437     1.2896     1.2409     1.3012     1.328699946403503 
  1.285400032997131 1.291200041770935 1.2579     1.117003   17.181     
  1          35.0705    8.3951     0.4866     2.2057     0.7697    
688.5      
  0.1477     0.9377     1.167      1.2621     1.4053     1.5137     
  215.9      280.781    322.69     301.0045   327.1862   1188.1044  
  219.5503   89.3529    0.3357     0.3844     71.471     5.7029     
  3.501      1.6362     3.174      0.0001000  0.1231     1.4706     
  2.7389     2.2438     1.2253     1.1879     1.2442     1.275200009346008 
  1.239300012588501 1.23769998550415 1.2116     1.133237   17.2103    
  1          35.0705    8.3849     0.459      2.4036     0.8201    
688.6      
  0.148      0.9239000000000001 1.1422     1.21       1.3393     1.4529     
  215.9      279.1305   325.9935   301.651    327.8227   1178.0792  
  214.8432   94.3641    0.3527     0.3959     73.0501    5.824      
  3.2597     1.7908     3.1263     0.0001000  0.1318     1.4557     
  2.9475     2.2558     1.2222     1.1801     1.2262     1.263100028038025 
  1.231600046157837 1.225100040435791 1.2207     1.130017   17.4294    
  1          35.0705    8.4777     0.4495     2.6068     0.8777    
688.7      
  0.1482     0.9031     1.1235     1.1682     1.276      1.3642     
  215.9      273.217    327.3305   299.04     326.8965   1179.0325  
  207.2885   99.8918    0.2453     0.3121     75.1829    5.9582     
  3.0787     1.9353     3.0947     0.0001000  0.1413     1.4544     
  3.1642     2.2581     1.2565     1.2169     1.2519     1.293599963188171 
  1.268900036811829 1.258399963378906 1.2447     1.148458   17.6724    
  1          35.0705    8.6656     0.4521     2.8147     0.9413    
688.8      
  0.1484     0.9056     1.1097     1.1742     1.279      1.3451     
  215.9      261.9245   328.153    293.1475   350.8325   1201.1693  
  205.612    106.5208   0.1875     0.2545     81.0764    5.8071     
  3.0919     1.8783     3.0763     0.0001000  0.1501     1.6011     
  3.38       2.2623     1.2793     1.2363     1.2695     1.316200017929077 
  1.2882000207901 1.278200030326843 1.2628     1.160348   17.8857    
  1          35.0705    9.2858     0.4153     3.0029     1         
688.9      
  0.1486     0.9372     1.1606     1.2163     1.3281     1.3744     
  215.9      255.443    328.036    289.4725   365.7166   1225.8203  
  210.3283   111.9643   0.2299     0.3032     86.5262    5.6871     
  2.9573     1.932      3.0953     0.0001000  0.1501     1.703      
  3.6949     2.2764     1.2703     1.224      1.2536     1.297099947929382 
  1.276399970054626 1.264099955558777 1.2563     1.19251    18.0714    
  1          35.0705    9.6831     0.3996     3.2948     1         
689        
  0.1487     0.9604     1.1932     1.2833     1.4015     1.4389     
  215.9      255.9445   325.92     288.82     372.245    1252.792   
  212.4256   116.3134   0.3368     0.3973     91.4757    5.602      
  2.6562     2.1105     3.1474     0.0001000  0.1501     1.7546     
  4.1216     2.2828     1.2692     1.2108     1.2374     1.281599998474121 
  1.267300009727478 1.251999974250793 1.2561     1.230231   18.4128    
  1          35.0705    9.8289     0.4033     3.7038     1         
689.1      
  0.1487     0.9777     1.1927     1.2909     1.3931     1.4262     
  215.9      256.001    321.1955   286.7485   385.707    1269.5763  
  210.2001   115.628    0.3428     0.4023     96.3579    5.6009     
  2.6608     2.105      3.1931     0.0001000  0.1501     1.8597     
  4.3532     2.2938     1.2864     1.2084     1.2331     1.276700019836426 
  1.273800015449524 1.25409996509552 1.2019     1.234046   18.688     
  1          35.0705    10.4164    0.3887     3.9139     1         
689.2      
  0.1487     0.9778     1.1791     1.2799     1.3517     1.3628     
  215.9      256.91     309.946    282.152    393.1256   1295.9659  
  205.6852   114.6704   0.3089     0.3715     99.9756    5.5411     
  2.5942     2.1394     3.2362     0.0001000  0.1501     1.9315     
  4.589      2.3023     1.2644     1.2109     1.2447     1.289100050926208 
  1.300799965858459 1.276399970054626 1.0999     1.202111   18.8884    
  1          35.0705    10.7013    0.392      4.1333     1         
689.3      
  0.1487     0.9686     1.1997     1.2585     1.3326     1.3432     
  215.9      256.448    293.744    274.4475   393.7293   1333.1869  
  197.2008   113.406    0.2615     0.3252     101.8519   5.3943     
  2.407      2.2422     3.2662     0.0001000  0.1501     1.9533     
  4.8448     2.2863     1.2213     1.1677     1.2062     1.250100016593933 
  1.26830005645752 1.241099953651428 1.0685     1.162242   19.3773    
  1          35.0705    10.5363    0.4154     4.38       1         
689.4      
  0.1486     0.9615     1.1844     1.2259     1.3106     1.3252     
  215.9      250.5085   278.334    264.0525   405.2755   1369.3467  
  197.8779   108.9853   0.207      0.2745     97.6857    4.8799     
  2.0481     2.3994     3.2469     0.0001000  0.1501     1.8881     
  4.9734     2.2522     1.1935     1.1293     1.1664     1.208600044250488 
  1.227800011634827 1.196900010108948 1.037      1.091265   19.8667    
  1          35.0705    9.2369     0.4092     4.5235     1         
689.5      
  0.1486     0.9655     1.1945     1.2059     1.2794     1.2788     
  215.9      245.49     273.95     259.3245   412.4133   1410.5586  
  216.666    103.8464   0.178      0.2438     92.515     4.5239     
  1.8117     2.4971     3.2041     0.0001000  0.1481     1.8045     
  4.935      2.2233     1.2194     1.179      1.2253     1.271399974822998 
  1.297899961471558 1.294399976730347 0.9473     1.032748   20.3359    
  1          35.0705    8.1649     0.4144     4.5065     0.9867    
