~Version
 VERS              .         2.0                           : CWLS LOG ASCII STANDARD - VERSION 2.0
 WRAP              .         YES                            : ONE LINE PER DEPTH STEP
 DLM               .         SPACE                         : DELIMITING CHARACTER(SPACE TAB OR COMMA)
~Well Information
#_______________________________________________________________________________
#
#PARAMETER_NAME    .UNIT     VALUE                         : DESCRIPTION
#_______________________________________________________________________________
STRT               .M        130                           : First reference value
STOP               .M        830                           : Last reference value
STEP               .M        0.1                           : Step increment
NULL               .         -999.25                       : Missing value
COMP               .         ТОО КМГ-Б                     : Company
WELL               .         343                           : Well name
FLD                .         Каратюбе                      : Field
LOC                .                                       : Location
PROV               .                                       : Province
SRVC               .         Казпромгеофизика              : Service Company
DATE               .         25.06.24                      : Date
API                .                                       : API number
APDAT              .                                       : Elevation Above Permanent Datum
CNTY               .                                       : County
COUNT              .         Kazakhstan                    : Country
DF                 .                                       : DF Elevation
EPDAT              .                                       : Elevation of Permanent Datum
GL                 .                                       : GL Elevation
KB                 .                                       : KB Elevation
LGMEA              .                                       : Log Measured from
LATI               .         0                             : Latitude/Northing
LONG               .         0                             : Longitude/Easting
ORIGINALWELLNAME   .         343                           : 
PDAT               .                                       : Permanent Datum
RIGN               .                                       : Rig Name
RWS                .         -999                          : Def_Rw
STATE              .         1                             : State
WST                .         -999                          : Def_Rwt
~Parameter Information Block
#_______________________________________________________________________________
#
#PARAMETER_NAME    .UNIT     VALUE                         : DESCRIPTION
#_______________________________________________________________________________
SET                .         model_343                     : 
TLFamily_AHMF      .                                       : 
TLFamily_AT10      .         Resistivity - Medium          : 
TLFamily_AT20      .         Resistivity (Array)           : 
TLFamily_AT30      .         Resistivity (Array)           : 
TLFamily_AT60      .         Resistivity (Array)           : 
TLFamily_AT90      .         Resistivity - Deep            : 
TLFamily_BSC       .         Bit Size                      : 
TLFamily_C1        .         Caliper 1                     : 
TLFamily_C2        .         Caliper 2                     : 
TLFamily_CALI      .         Caliper                       : 
TLFamily_CFTC      .         Neutron Far                   : 
TLFamily_CNTC      .         Neutron Near                  : 
TLFamily_DEPTH     .         Measured Depth                : 
TLFamily_DTP       .         Compressional Slowness        : 
TLFamily_GR        .         Gamma Ray                     : 
TLFamily_HMIN      .                                       : 
TLFamily_HMNO      .                                       : 
TLFamily_HSGR      .         Gamma Ray                     : 
TLFamily_HTPR      .                                       : 
TLFamily_HTUR      .                                       : 
TLFamily_HUPR      .                                       : 
TLFamily_PEFZ      .         Photoelectric Factor          : 
TLFamily_PHIE      .         Effective Porosity            : 
TLFamily_PHIT      .         Total Porosity                : 
TLFamily_POTA      .         Potassium Concentration       : 
TLFamily_PURA      .         Uranium Concentration         : 
TLFamily_RHOZ      .         Bulk Density                  : 
TLFamily_RLA1      .         Resistivity (Array)           : 
TLFamily_RLA2      .         Resistivity (Array)           : 
TLFamily_RLA3      .         Resistivity (Array)           : 
TLFamily_RLA4      .         Resistivity (Array)           : 
TLFamily_RLA5      .         Resistivity (Array)           : 
TLFamily_RT        .         Resistivity - True Formation  : 
TLFamily_RXO       .         Flushed Zone Resistivity      : 
TLFamily_RXOZ      .         Resistivity - Flushed Zone    : 
TLFamily_SP        .         Spontaneous Potential         : 
TLFamily_SW        .         Water Saturation              : 
TLFamily_TEMP      .         Temperature                   : 
TLFamily_THOR      .         Thorium Concentration         : 
TLFamily_TNPH      .         Thermal Neutron Porosity      : 
TLFamily_URAN      .         Uranium Concentration         : 
TLFamily_VCLAV     .         Clay Volume Fraction          : 
~Curve Information
#_______________________________________________________________________________
#
#LOGNAME           .UNIT     LOG_ID                        : DESCRIPTION
#_______________________________________________________________________________
DEPTH              .M                                      : Depth 
AHMF               .ohm.m                                  : 21 Array Induction Mud Resistivity Fully Calibrated 
AT10               .ohm.m                                  : MedRes     22 Array Induction Two Foot Resistivity A10 
AT20               .ohm.m                                  : MedRes     23 Array Induction Two Foot Resistivity A20 
AT30               .ohm.m                                  : MedRes     24 Array Induction Two Foot Resistivity A30 
AT60               .ohm.m                                  : DeepRes    25 Array Induction Two Foot Resistivity A60 
AT90               .ohm.m                                  : XDeepRes   26 Array Induction Two Foot Resistivity A90 
BSC                .mm                                     : 40 Nominal Caliper 
C1                 .mm                                     : 37 CALIPER DIAMETER 1 
C2                 .mm                                     : 38 CALIPER DIAMETER 2 
CALI               .mm                                     : Caliper    39 Caliper 
CFTC               .                                       : 7 
CNTC               .dec                                    : Neutron    8 
DTP                .uSec/m                                 : 3 Sonic travel time 
GR                 .gAPI                                   : GammaRay   9 ï¿½ï¿½(ï¿½.ï¿½) 
HMIN               .Ohmm                                   : 2 HIP Micro Inverse Resistivity 
HMNO               .Ohmm                                   : 3 HIP Micro Normal Resistivity 
HSGR               .                                       : 29 
HTPR               .                                       : 31 
HTUR               .                                       : 32 
HUPR               .                                       : 33 
PEFZ               .B/E                                    : PEF        4 Formation Photoelectric Factor 
PHIE               .Dec                                    : Phi 
PHIT               .Dec                                    : PhiT 
POTA               .                                       : 28 
PURA               .PPM                                    : 36 Upper Limit of Formation Uranium Concentration (F13 
RHOZ               .g/cm3                                  : Density    5 Bulk Density 
RLA1               .ohm.m                                  : ShalRes    13 HRLT Borehole Corrected Resistivity 1 
RLA2               .ohm.m                                  : MedRes     14 HRLT Borehole Corrected Resistivity 2 
RLA3               .ohm.m                                  : DeepRes    15 HRLT Borehole Corrected Resistivity 3 
RLA4               .ohm.m                                  : XDeepRes   16 HRLT Borehole Corrected Resisitivity 4 
RLA5               .ohm.m                                  : UltraDeepR 17 HRLT Borehole Corrected Resistivity 5 
RT                 .Ohmm                                   : 18 
RXO                .Ohmm                                   : 19 
RXOZ               .ohm.m                                  : 2 (HDRS-H)                (2in)                   Invaded Formation Resistivity filtered at 18 inches 
SP                 .mV                                     : SP         20 Spontaneous Potential 
SW                 .Dec                                    : Sw 
TEMP               .DEGC                                   : Temp       41 Temp 
THOR               .                                       : 30 
TNPH               .V/V                                    : Neutron    10 Neutron porosity 
URAN               .                                       : 34 
VCLAV              .Dec                                    : Vcl 
~Ascii
# ...
417.6      
  0.1591     9.503500000000001 13.3638    22.0867    24.4959    25.6097    
  215.9      218.0035   217.8425   217.923    472.2403   1617.7079  
  297.9675   103.48     0.8731     1.0858     86.1053    3.4721     
  1.4232     2.4401     2.1553     0.3452     0.3691     1.8235     
  4.8336     2.0185     10.5231    11.2611    12.0419    12.38010025024414 
  12.39229965209961 14.15799999237061 7.0792     4.883791   10.1916    
  0.4398     32.2657    6.3334     0.432      4.4513     0.1593    
417.7      
  0.1589     7.5972     9.377      11.6519    13.2826    12.9397    
  215.9      215.9685   215.7725   215.8705   506.3621   1636.7244  
  303.8312   108.2505   0.9839     1.2129     91.463     3.6505     
  1.4057     2.5978     2.163      0.2999     0.3357     1.8674     
  5.2577     2.0282     6.4885     6.9685     7.3211     7.501299858093262 
  7.494999885559082 8.437199592590332 4.2449     5.092793   9.3196     
  0.6593     32.2657    6.8201     0.3927     4.8539     0.2391    
417.8      
  0.1587     4.7649     6.1638     7.1346     7.7811     7.7047     
  215.9      214.4065   213.7795   214.093    514.3988000000001 1647.3812  
  302.0816   111.6967   1.0211     1.2385     97.5113    4.074      
  1.5409     2.6445     2.2009     0.2301     0.2914     1.9352     
  5.5412     2.0353     3.7007     3.8192     3.9715     4.009399890899658 
  4.013199806213379 4.209199905395508 2.6677     5.054635   8.3818     
  1          32.2657    7.9089     0.3856     5.1172     0.4086    
417.9      
  0.1585     3.5217     4.3425     4.969      5.3334     5.2488     
  215.9      213.4455   212.7195   213.0825   511.6554   1656.2483  
  299.0802   116.0076   1.0638     1.2683     104.0118   4.5358     
  1.7202     2.6368     2.2705     0.0145     0.111      2.0254     
  5.7839     2.0496     2.5014     2.5123     2.5845     2.599499940872192 
  2.593199968338013 2.588099956512451 2.3116     4.10811    7.29       
  1          32.2657    9.1855     0.3925     5.3404     0.6435    
418        
  0.1584     2.7468     3.1451     3.5556     3.7549     3.7303     
  215.9      213.1005   212.6715   212.886    506.2007   1671.3444  
  299.6219   126.2005   1.0666     1.1844     111.2013   4.4904     
  1.7073     2.6301     2.3871     0.0001000  0.1501     2.1819     
  6.2011     2.0731     2.4996     2.5062     2.5546     2.553100109100342 
  2.550600051879883 2.535799980163574 2.5077     2.906483   6.201      
  1          32.2657    9.7947     0.4054     5.7383     1         
418.1      
  0.1582     2.2643     2.4745     2.6281     2.7726     2.6837     
  215.9      216.3985   213.1435   214.76     480.355    1674.976   
  303.0992   133.6198   0.5807     0.6561     118.3231   4.4624     
  1.7481     2.5554     2.529      0.0001000  0.1501     2.3617     
  6.5059     2.0969     2.7419     2.7746     2.8117     2.813800096511841 
  2.800400018692017 2.796299934387207 2.6855     2.225972   5.1976     
  1          32.2657    10.5368    0.4465     6.0224     1         
418.2      
  0.1583     2.1355     2.3574     2.4186     2.4869     2.4498     
  215.9      222.72     213.1665   217.884    450.7577   1670.5144  
  301.3203   139.8181   0.4285     0.4928     124.7556   4.469      
  1.8306     2.4423     2.6548     0.0001000  0.1501     2.5364     
  6.697      2.1201     2.7435     2.7786     2.8097     2.7985999584198 
  2.78600001335144 2.788899898529053 2.68       1.895407   4.7115     
  1          32.2657    11.3352    0.4904     6.1947     1         
418.3      
  0.1584     2.1448     2.2892     2.3774     2.445      2.4373     
  215.9      228.0615   212.3115   220.0415   459.8101   1651.0242  
  297.5941   146.9071   0.4899     0.5525     125.3585   4.6909     
  1.991      2.3592     2.7582     0.0001000  0.1501     2.5382     
  6.4843     2.1423     2.6785     2.7549     2.7865     2.770400047302246 
  2.74970006942749 2.76830005645752 2.507      1.727707   4.3278     
  1          32.2657    11.9064    0.4659     5.988      1         
418.4      
  0.1586     2.221      2.3226     2.4077     2.5214     2.5211     
  215.9      225.255    211.98     218.502    466.9674   1632.0419  
  299.4462   147.8547   0.5955     0.6518     125.4969   4.786      
  2.0986     2.2819     2.8211     0.0001000  0.1501     2.5453     
  6.2988     2.1552     2.6406     2.7966     2.8351     2.811300039291382 
  2.801399946212769 2.89709997177124 2.1229     1.720457   3.9548     
  1          32.2657    12.1819    0.4458     5.8077     1         
418.5      
  0.1586     2.2096     2.3147     2.4124     2.5501     2.5587     
  215.9      220.277    212.2225   216.212    473.1064   1613.8138  
  301.0421   145.0534   0.5247     0.5832     125.2065   4.7865     
  2.1649     2.211      2.852      0.0001000  0.1501     2.5548     
  6.1353     2.159      2.5338     2.7472     2.803      2.78029990196228 
  2.774399995803833 2.966599941253662 1.8145     1.797717   3.1123     
  1          32.2657    12.2284    0.4285     5.6487     1         
418.6      
  0.1587     2.1981     2.2956     2.3742     2.4795     2.506      
  215.9      223.334    212.1435   217.661    480.533    1599.5728  
  302.982    142.3882   0.4425     0.5245     123.4217   4.8071     
  2.2046     2.1808     2.8703     0.0001000  0.1501     2.5299     
  5.999      2.156      2.4122     2.6582     2.7398     2.713299989700317 
  2.717700004577637 2.985100030899048 1.6433     1.856608   2.3604     
  1          32.2657    12.1614    0.412      5.5176     1         
418.7      
  0.1588     2.1826     2.2626     2.3142     2.374      2.4101     
  215.9      225.5155   212.042    218.6745   481.2901   1580.5332  
  307.2645   138.7304   0.4368     0.5272     122.3061   4.8927     
  2.3028     2.1272     2.8907     0.0001000  0.1501     2.5184     
  5.835      2.1505     2.285      2.4834     2.605      2.583100080490112 
  2.584500074386597 2.8471999168396 1.5313     1.894627   1.6877     
  1          32.2657    12.3217    0.4023     5.3571     1         
418.8      
  0.1586     2.1224     2.2207     2.2745     2.351      2.3899     
  215.9      222.42     212.042    217.166    476.7535   1558.5493  
  308.7213   134.2043   0.5881     0.6632     121.8082   5.0381     
  2.455      2.0521     2.9115     0.0001000  0.1501     2.5191     
  5.6454     2.145      2.2431     2.3832     2.5627     2.561199903488159 
  2.564300060272217 2.836800098419189 1.4968     1.94094    1.223      
  1          32.2657    12.6916    0.3984     5.1696     1         
418.9      
  0.1584     2.0746     2.2252     2.3123     2.4232     2.4692     
  215.9      216.914    212.044    214.459    467.2361   1549.3944  
  308.5017   127.4091   0.7021     0.7378     120.087    5.0815     
  2.6133     1.9477     2.9272     0.0001000  0.1501     2.5185     
  5.3763     2.14       2.4653     2.5826     2.8081     2.822799921035767 
  2.840100049972534 3.151299953460693 1.6468     1.891649   1.0695     
  1          32.2657    12.7976    0.4099     4.9054     1         
419        
  0.1582     2.1448     2.3064     2.4125     2.5223     2.5804     
  215.9      213.8325   212.156    212.9925   459.3148   1557.5317  
  311.5324   120.9394   0.6556     0.6769     116.9349   5.08       
  2.7139     1.8722     2.9369     0.0001000  0.1439     2.48       
  5.1046     2.1389     2.7137     2.8493     3.1016     3.174799919128418 
  3.187999963760376 3.599100112915039 1.8366     1.800953   1.2031     
  1          32.2657    12.6005    0.4261     4.6448     0.9586    
419.1      
  0.158      2.2411     2.4416     2.5546     2.718      2.7995     
  215.9      214.4135   212.5395   213.474    452.8667   1581.631   
  314.4753   114.7703   0.5831     0.6129     112.2326   5.0299     
  2.7519     1.8279     2.9353     0.0001000  0.1344     2.4006     
  4.8302     2.1406     2.7835     2.9079     3.1461     3.258599996566772 
  3.294899940490723 3.718100070953369 1.9442     1.771638   1.9095     
  1          32.2657    12.075     0.4467     4.3882     0.8956    
