~Version
 VERS              .         2.0                           : CWLS LOG ASCII STANDARD - VERSION 2.0
 WRAP              .         YES                            : ONE LINE PER DEPTH STEP
 DLM               .         SPACE                         : DELIMITING CHARACTER(SPACE TAB OR COMMA)
~Well Information
#_______________________________________________________________________________
#
#PARAMETER_NAME    .UNIT     VALUE                         : DESCRIPTION
#_______________________________________________________________________________
STRT               .M        130                           : First reference value
STOP               .M        830                           : Last reference value
STEP               .M        0.1                           : Step increment
NULL               .         -999.25                       : Missing value
COMP               .         ТОО КМГ-Б                     : Company
WELL               .         343                           : Well name
FLD                .         Каратюбе                      : Field
LOC                .                                       : Location
PROV               .                                       : Province
SRVC               .         Казпромгеофизика              : Service Company
DATE               .         25.06.24                      : Date
API                .                                       : API number
APDAT              .                                       : Elevation Above Permanent Datum
CNTY               .                                       : County
COUNT              .         Kazakhstan                    : Country
DF                 .                                       : DF Elevation
EPDAT              .                                       : Elevation of Permanent Datum
GL                 .                                       : GL Elevation
KB                 .                                       : KB Elevation
LGMEA              .                                       : Log Measured from
LATI               .         0                             : Latitude/Northing
LONG               .         0                             : Longitude/Easting
ORIGINALWELLNAME   .         343                           : 
PDAT               .                                       : Permanent Datum
RIGN               .                                       : Rig Name
RWS                .         -999                          : Def_Rw
STATE              .         1                             : State
WST                .         -999                          : Def_Rwt
~Parameter Information Block
#_______________________________________________________________________________
#
#PARAMETER_NAME    .UNIT     VALUE                         : DESCRIPTION
#_______________________________________________________________________________
SET                .         model_343                     : 
TLFamily_AHMF      .                                       : 
TLFamily_AT10      .         Resistivity - Medium          : 
TLFamily_AT20      .         Resistivity (Array)           : 
TLFamily_AT30      .         Resistivity (Array)           : 
TLFamily_AT60      .         Resistivity (Array)           : 
TLFamily_AT90      .         Resistivity - Deep            : 
TLFamily_BSC       .         Bit Size                      : 
TLFamily_C1        .         Caliper 1                     : 
TLFamily_C2        .         Caliper 2                     : 
TLFamily_CALI      .         Caliper                       : 
TLFamily_CFTC      .         Neutron Far                   : 
TLFamily_CNTC      .         Neutron Near                  : 
TLFamily_DEPTH     .         Measured Depth                : 
TLFamily_DTP       .         Compressional Slowness        : 
TLFamily_GR        .         Gamma Ray                     : 
TLFamily_HMIN      .                                       : 
TLFamily_HMNO      .                                       : 
TLFamily_HSGR      .         Gamma Ray                     : 
TLFamily_HTPR      .                                       : 
TLFamily_HTUR      .                                       : 
TLFamily_HUPR      .                                       : 
TLFamily_PEFZ      .         Photoelectric Factor          : 
TLFamily_PHIE      .         Effective Porosity            : 
TLFamily_PHIT      .         Total Porosity                : 
TLFamily_POTA      .         Potassium Concentration       : 
TLFamily_PURA      .         Uranium Concentration         : 
TLFamily_RHOZ      .         Bulk Density                  : 
TLFamily_RLA1      .         Resistivity (Array)           : 
TLFamily_RLA2      .         Resistivity (Array)           : 
TLFamily_RLA3      .         Resistivity (Array)           : 
TLFamily_RLA4      .         Resistivity (Array)           : 
TLFamily_RLA5      .         Resistivity (Array)           : 
TLFamily_RT        .         Resistivity - True Formation  : 
TLFamily_RXO       .         Flushed Zone Resistivity      : 
TLFamily_RXOZ      .         Resistivity - Flushed Zone    : 
TLFamily_SP        .         Spontaneous Potential         : 
TLFamily_SW        .         Water Saturation              : 
TLFamily_TEMP      .         Temperature                   : 
TLFamily_THOR      .         Thorium Concentration         : 
TLFamily_TNPH      .         Thermal Neutron Porosity      : 
TLFamily_URAN      .         Uranium Concentration         : 
TLFamily_VCLAV     .         Clay Volume Fraction          : 
~Curve Information
#_______________________________________________________________________________
#
#LOGNAME           .UNIT     LOG_ID                        : DESCRIPTION
#_______________________________________________________________________________
DEPTH              .M                                      : Depth 
AHMF               .ohm.m                                  : 21 Array Induction Mud Resistivity Fully Calibrated 
AT10               .ohm.m                                  : MedRes     22 Array Induction Two Foot Resistivity A10 
AT20               .ohm.m                                  : MedRes     23 Array Induction Two Foot Resistivity A20 
AT30               .ohm.m                                  : MedRes     24 Array Induction Two Foot Resistivity A30 
AT60               .ohm.m                                  : DeepRes    25 Array Induction Two Foot Resistivity A60 
AT90               .ohm.m                                  : XDeepRes   26 Array Induction Two Foot Resistivity A90 
BSC                .mm                                     : 40 Nominal Caliper 
C1                 .mm                                     : 37 CALIPER DIAMETER 1 
C2                 .mm                                     : 38 CALIPER DIAMETER 2 
CALI               .mm                                     : Caliper    39 Caliper 
CFTC               .                                       : 7 
CNTC               .dec                                    : Neutron    8 
DTP                .uSec/m                                 : 3 Sonic travel time 
GR                 .gAPI                                   : GammaRay   9 ï¿½ï¿½(ï¿½.ï¿½) 
HMIN               .Ohmm                                   : 2 HIP Micro Inverse Resistivity 
HMNO               .Ohmm                                   : 3 HIP Micro Normal Resistivity 
HSGR               .                                       : 29 
HTPR               .                                       : 31 
HTUR               .                                       : 32 
HUPR               .                                       : 33 
PEFZ               .B/E                                    : PEF        4 Formation Photoelectric Factor 
PHIE               .Dec                                    : Phi 
PHIT               .Dec                                    : PhiT 
POTA               .                                       : 28 
PURA               .PPM                                    : 36 Upper Limit of Formation Uranium Concentration (F13 
RHOZ               .g/cm3                                  : Density    5 Bulk Density 
RLA1               .ohm.m                                  : ShalRes    13 HRLT Borehole Corrected Resistivity 1 
RLA2               .ohm.m                                  : MedRes     14 HRLT Borehole Corrected Resistivity 2 
RLA3               .ohm.m                                  : DeepRes    15 HRLT Borehole Corrected Resistivity 3 
RLA4               .ohm.m                                  : XDeepRes   16 HRLT Borehole Corrected Resisitivity 4 
RLA5               .ohm.m                                  : UltraDeepR 17 HRLT Borehole Corrected Resistivity 5 
RT                 .Ohmm                                   : 18 
RXO                .Ohmm                                   : 19 
RXOZ               .ohm.m                                  : 2 (HDRS-H)                (2in)                   Invaded Formation Resistivity filtered at 18 inches 
SP                 .mV                                     : SP         20 Spontaneous Potential 
SW                 .Dec                                    : Sw 
TEMP               .DEGC                                   : Temp       41 Temp 
THOR               .                                       : 30 
TNPH               .V/V                                    : Neutron    10 Neutron porosity 
URAN               .                                       : 34 
VCLAV              .Dec                                    : Vcl 
~Ascii
# ...
777.6      
  0.1467     3.8329     2.8215     2.8242     2.8793     3.0158     
  215.9      293.04     346.2665   318.5145   457.3025   1484.8792  
  166.85     92.733     0.2583     0.3548     67.9256    5.039      
  3.246      1.5564     3.4116     0.0001000  0.129      1.4399     
  2.6244     2.3854     2.5195     2.4807     2.5316     2.623399972915649 
  2.587500095367432 2.585799932479858 2.1281     1.791673   25.1275    
  1          35.3659    7.2506     0.3762     2.2384     0.859     
777.7      
  0.1467     4.0339     3.2297     3.4225     3.5548     3.7203     
  215.9      280.8865   328.3395   303.6765   496.0709   1538.7069  
  164.4782   93.8098    0.3153     0.4204     70.2542    5.3917     
  3.1049     1.7368     3.4355     0.0001000  0.1308     1.4105     
  2.8497     2.3578     2.3493     2.387      2.4688     2.567800045013428 
  2.539900064468384 2.636800050735474 1.728      1.722353   25.4696    
  1          35.3659    7.6045     0.346      2.4495     0.8714    
777.8      
  0.1467     3.9558     3.3303     3.4945     3.4732     3.7612     
  215.9      246.8925   312.9975   277.83     530.4726000000001 1604.2375  
  170.1808   95.0086    0.2845     0.3822     73.4211    5.4827     
  3.1903     1.7189     3.4334     0.0001000  0.1329     1.4741     
  2.9508     2.3387     2.173      2.1721     2.2738     2.372100114822388 
  2.353600025177002 2.447999954223633 1.52       1.678605   25.8499    
  1          35.3659    8.0853     0.3326     2.5331     0.8852    
777.9      
  0.1467     3.6993     2.9804     3.0568     2.9611     3.3091     
  215.9      225.621    303.3695   261.6175   564.4421   1656.3033  
  171.2716   96.9204    0.2667     0.3499     76.2289    5.5971     
  3.1976     1.7517     3.3991     0.0001000  0.1362     1.5172     
  3.0906     2.3473     2.1121     2.1724     2.2988     2.406300067901611 
  2.391400098800659 2.593800067901611 1.3817     1.668186   26.2684    
  1          35.3659    8.4931     0.3157     2.6585     0.9071    
778        
  0.1467     3.7016     2.608      2.7402     2.6173     2.9454     
  215.9      226.8355   299.372    260.5905   597.9796   1694.9041  
  176.5936   99.5452    0.2922     0.3759     78.5949    5.7453     
  3.1079     1.8489     3.337      0.0001000  0.1407     1.5338     
  3.2787     2.357      2.1755     2.2767     2.4208     2.530499935150146 
  2.508100032806396 2.776900053024292 1.4473     1.585991   26.6071    
  1          35.3659    8.8122     0.2952     2.8359     0.9373    
778.1      
  0.1469     3.481      2.391      2.3955     2.3047     2.5586     
  215.9      227.006    297.732    259.975    653.7097   1809.0265  
  173.9655   100.1234   0.242      0.3368     79.0505    6.1276     
  3.2295     1.8964     3.2682     0.0001000  0.1417     1.4949     
  3.2823     2.3686     2.3727     2.4996     2.6624     2.767499923706055 
  2.742300033569336 3.053900003433228 1.5831     1.620802   26.7478    
  1          35.3659    9.1507     0.282      2.8339     0.9439    
778.2      
  0.1473     3.5291     2.3784     2.3728     2.2631     2.395      
  215.9      226.443    298.4015   259.9435   715.0799   1918.7137  
  155.2397   98.6969    0.2065     0.2984     79.1484    6.281      
  3.234      1.9435     3.217      0.0001000  0.1392     1.4706     
  3.307      2.4184     2.6355     2.8164     3.0023     3.09060001373291 
  3.077800035476685 3.470900058746338 1.7806     1.821402   26.6581    
  1          35.3659    9.2367     0.2664     2.8583     0.9276    
778.3      
  0.1477     3.5176     2.5909     2.4775     2.3181     2.39       
  215.9      225.4755   301.605    260.7735   782.5393   2021.385   
  149.5151   94.9662    0.238      0.3396     78.9385    6.0797     
  3.0474     1.9956     3.2008     0.0001000  0.1328     1.4733     
  3.382      2.4784     2.8516     3.0466     3.2255     3.30430006980896 
  3.278599977493286 3.654200077056885 1.9019     2.18228    26.6689    
  1          35.3659    8.9573     0.2479     2.9402     0.8847    
778.4      
  0.1479     3.2788     2.703      2.5168     2.391      2.3937     
  215.9      224.022    308.1225   262.7185   836.4303   2099.3933  
  151.6893   92.3885    0.4146     0.5496     78.4493    6.221      
  3.202      1.9452     3.2        0.0001000  0.1284     1.4676     
  3.2933     2.4884     3.1333     3.3649     3.5294     3.585999965667725 
  3.563999891281128 3.933099985122681 2.1057     2.802602   26.598     
  1          35.3659    9.1291     0.2429     2.8549     0.855     
778.5      
  0.1479     3.2532     2.8407     2.5522     2.3073     2.2665     
  215.9      223.603    312.6875   264.42     871.3711   2140.8728  
  161.4548   89.4051    0.8246     1.0369     77.6169    6.3067     
  3.314      1.903      3.1986     0.0001000  0.1232     1.459      
  3.2095     2.4901     3.6302     3.9331     4.1045     4.173200130462646 
  4.138000011444092 4.591700077056885 2.4489     3.898157   26.3989    
  1          35.3659    9.2018     0.2391     2.7765     0.8207    
778.6      
  0.1479     2.9504     3.252      2.8268     2.5773     2.4012     
  215.9      223.5605   302.209    259.89     880.5118   2132.4578  
  188.4967   85.7126    2.5067     2.5335     76.2421    6.2104     
  3.2677     1.9005     3.1853     0.0001000  0.1168     1.4474     
  3.1741     2.498      3.7969     4.1683     4.3552     4.39680004119873 
  4.367700099945068 4.934000015258789 2.5069     3.389135   25.8684    
  1          35.3659    8.9891     0.2355     2.7508     0.7783    
778.7      
  0.1477     3.0349     3.4366     3.1059     2.8857     2.6145     
  215.9      220.8595   262.7995   240.6245   834.5408   2100.2764  
  206.2197   86.2138    1.9531     1.7304     75.905     5.958      
  3.1393     1.8978     3.1559     0.0001000  0.1177     1.4645     
  3.2001     2.4383     2.5231     2.6971     2.7746     2.783400058746338 
  2.757400035858154 2.948499917984009 1.815      1.912665   25.3604    
  1          35.3659    8.7216     0.2476     2.7792     0.7841    
778.8      
  0.1471     2.7553     2.7652     2.633      2.6589     2.3569     
  215.9      223.282    235.614    229.359    773.7947   2026.7941  
  226.1461   88.1076    0.3992     0.4132     75.7035    5.7407     
  3.0592     1.877      3.1187     0.0001000  0.121      1.4822     
  3.2012     2.3377     1.6642     1.7069     1.7344     1.730999946594238 
  1.720100045204163 1.72409999370575 1.6079     1.240304   24.9727    
  1          35.3659    8.5086     0.2607     2.7819     0.8058    
778.9      
  0.1465     2.4391     2.2006     2.116      2.0899     1.8893     
  215.9      233.1875   243.5755   238.3245   700.1421   1885.6501  
  234.8575   91.4604    0.2445     0.2745     75.364     5.6678     
  3.1212     1.8162     3.1015     0.0001000  0.1268     1.4892     
  3.1212     2.251      1.7528     1.777      1.793      1.794000029563904 
  1.787500023841858 1.783699989318848 1.7577     0.8662373  24.5265    
  1          35.3659    8.4402     0.2718     2.7046     0.8444    
779        
  0.1461     2.1419     1.9103     1.8227     1.8275     1.6446     
  215.9      242.7855   257.4305   249.9975   615.9683   1765.3459  
  213.1229   93.4197    0.2053     0.2392     75.4382    5.5733     
  3.2235     1.7309     3.0952     0.0001000  0.1301     1.5231     
  3.0503     2.166      1.7979     1.821      1.8327     1.832900047302246 
  1.83080005645752 1.826900005340576 1.7788     0.6984168  23.9713    
  1          35.3659    8.4863     0.3035     2.6341     0.8669    
779.1      
  0.1461     2.385      1.9006     1.8379     1.7817     1.6784     
  215.9      254.9815   280.0435   267.1995   538.9955   1659.6238  
  205.0027   95.2894    0.1712     0.2043     75.9822    5.4394     
  3.2673     1.6649     3.0892     0.0001000  0.1334     1.5688     
  3.0324     2.1068     1.7043     1.6892     1.6871     1.683599948883057 
  1.683300018310547 1.687399983406067 1.7234     0.6945312  23.1981    
  1          35.3659    8.5291     0.3401     2.6121     0.8884    
