~Version
 VERS              .         2.0                           : CWLS LOG ASCII STANDARD - VERSION 2.0
 WRAP              .         YES                            : ONE LINE PER DEPTH STEP
 DLM               .         SPACE                         : DELIMITING CHARACTER(SPACE TAB OR COMMA)
~Well Information
#_______________________________________________________________________________
#
#PARAMETER_NAME    .UNIT     VALUE                         : DESCRIPTION
#_______________________________________________________________________________
STRT               .M        130                           : First reference value
STOP               .M        830                           : Last reference value
STEP               .M        0.1                           : Step increment
NULL               .         -999.25                       : Missing value
COMP               .         ТОО КМГ-Б                     : Company
WELL               .         343                           : Well name
FLD                .         Каратюбе                      : Field
LOC                .                                       : Location
PROV               .                                       : Province
SRVC               .         Казпромгеофизика              : Service Company
DATE               .         25.06.24                      : Date
API                .                                       : API number
APDAT              .                                       : Elevation Above Permanent Datum
CNTY               .                                       : County
COUNT              .         Kazakhstan                    : Country
DF                 .                                       : DF Elevation
EPDAT              .                                       : Elevation of Permanent Datum
GL                 .                                       : GL Elevation
KB                 .                                       : KB Elevation
LGMEA              .                                       : Log Measured from
LATI               .         0                             : Latitude/Northing
LONG               .         0                             : Longitude/Easting
ORIGINALWELLNAME   .         343                           : 
PDAT               .                                       : Permanent Datum
RIGN               .                                       : Rig Name
RWS                .         -999                          : Def_Rw
STATE              .         1                             : State
WST                .         -999                          : Def_Rwt
~Parameter Information Block
#_______________________________________________________________________________
#
#PARAMETER_NAME    .UNIT     VALUE                         : DESCRIPTION
#_______________________________________________________________________________
SET                .         model_343                     : 
TLFamily_AHMF      .                                       : 
TLFamily_AT10      .         Resistivity - Medium          : 
TLFamily_AT20      .         Resistivity (Array)           : 
TLFamily_AT30      .         Resistivity (Array)           : 
TLFamily_AT60      .         Resistivity (Array)           : 
TLFamily_AT90      .         Resistivity - Deep            : 
TLFamily_BSC       .         Bit Size                      : 
TLFamily_C1        .         Caliper 1                     : 
TLFamily_C2        .         Caliper 2                     : 
TLFamily_CALI      .         Caliper                       : 
TLFamily_CFTC      .         Neutron Far                   : 
TLFamily_CNTC      .         Neutron Near                  : 
TLFamily_DEPTH     .         Measured Depth                : 
TLFamily_DTP       .         Compressional Slowness        : 
TLFamily_GR        .         Gamma Ray                     : 
TLFamily_HMIN      .                                       : 
TLFamily_HMNO      .                                       : 
TLFamily_HSGR      .         Gamma Ray                     : 
TLFamily_HTPR      .                                       : 
TLFamily_HTUR      .                                       : 
TLFamily_HUPR      .                                       : 
TLFamily_PEFZ      .         Photoelectric Factor          : 
TLFamily_PHIE      .         Effective Porosity            : 
TLFamily_PHIT      .         Total Porosity                : 
TLFamily_POTA      .         Potassium Concentration       : 
TLFamily_PURA      .         Uranium Concentration         : 
TLFamily_RHOZ      .         Bulk Density                  : 
TLFamily_RLA1      .         Resistivity (Array)           : 
TLFamily_RLA2      .         Resistivity (Array)           : 
TLFamily_RLA3      .         Resistivity (Array)           : 
TLFamily_RLA4      .         Resistivity (Array)           : 
TLFamily_RLA5      .         Resistivity (Array)           : 
TLFamily_RT        .         Resistivity - True Formation  : 
TLFamily_RXO       .         Flushed Zone Resistivity      : 
TLFamily_RXOZ      .         Resistivity - Flushed Zone    : 
TLFamily_SP        .         Spontaneous Potential         : 
TLFamily_SW        .         Water Saturation              : 
TLFamily_TEMP      .         Temperature                   : 
TLFamily_THOR      .         Thorium Concentration         : 
TLFamily_TNPH      .         Thermal Neutron Porosity      : 
TLFamily_URAN      .         Uranium Concentration         : 
TLFamily_VCLAV     .         Clay Volume Fraction          : 
~Curve Information
#_______________________________________________________________________________
#
#LOGNAME           .UNIT     LOG_ID                        : DESCRIPTION
#_______________________________________________________________________________
DEPTH              .M                                      : Depth 
AHMF               .ohm.m                                  : 21 Array Induction Mud Resistivity Fully Calibrated 
AT10               .ohm.m                                  : MedRes     22 Array Induction Two Foot Resistivity A10 
AT20               .ohm.m                                  : MedRes     23 Array Induction Two Foot Resistivity A20 
AT30               .ohm.m                                  : MedRes     24 Array Induction Two Foot Resistivity A30 
AT60               .ohm.m                                  : DeepRes    25 Array Induction Two Foot Resistivity A60 
AT90               .ohm.m                                  : XDeepRes   26 Array Induction Two Foot Resistivity A90 
BSC                .mm                                     : 40 Nominal Caliper 
C1                 .mm                                     : 37 CALIPER DIAMETER 1 
C2                 .mm                                     : 38 CALIPER DIAMETER 2 
CALI               .mm                                     : Caliper    39 Caliper 
CFTC               .                                       : 7 
CNTC               .dec                                    : Neutron    8 
DTP                .uSec/m                                 : 3 Sonic travel time 
GR                 .gAPI                                   : GammaRay   9 ï¿½ï¿½(ï¿½.ï¿½) 
HMIN               .Ohmm                                   : 2 HIP Micro Inverse Resistivity 
HMNO               .Ohmm                                   : 3 HIP Micro Normal Resistivity 
HSGR               .                                       : 29 
HTPR               .                                       : 31 
HTUR               .                                       : 32 
HUPR               .                                       : 33 
PEFZ               .B/E                                    : PEF        4 Formation Photoelectric Factor 
PHIE               .Dec                                    : Phi 
PHIT               .Dec                                    : PhiT 
POTA               .                                       : 28 
PURA               .PPM                                    : 36 Upper Limit of Formation Uranium Concentration (F13 
RHOZ               .g/cm3                                  : Density    5 Bulk Density 
RLA1               .ohm.m                                  : ShalRes    13 HRLT Borehole Corrected Resistivity 1 
RLA2               .ohm.m                                  : MedRes     14 HRLT Borehole Corrected Resistivity 2 
RLA3               .ohm.m                                  : DeepRes    15 HRLT Borehole Corrected Resistivity 3 
RLA4               .ohm.m                                  : XDeepRes   16 HRLT Borehole Corrected Resisitivity 4 
RLA5               .ohm.m                                  : UltraDeepR 17 HRLT Borehole Corrected Resistivity 5 
RT                 .Ohmm                                   : 18 
RXO                .Ohmm                                   : 19 
RXOZ               .ohm.m                                  : 2 (HDRS-H)                (2in)                   Invaded Formation Resistivity filtered at 18 inches 
SP                 .mV                                     : SP         20 Spontaneous Potential 
SW                 .Dec                                    : Sw 
TEMP               .DEGC                                   : Temp       41 Temp 
THOR               .                                       : 30 
TNPH               .V/V                                    : Neutron    10 Neutron porosity 
URAN               .                                       : 34 
VCLAV              .Dec                                    : Vcl 
~Ascii
# ...
238.4      
  0.1638     3.656899929046631 4.3032     4.7367     5.3958     5.7402     
  215.9      237.401    215.085    225.9665   418.7929   1501.9545  
  220.1213   92.1083    0.9139     0.9954     74.2919    4.7649     
  5.8099     0.8204     2.2028     0.0004     0.1206     1.9275     
  1.9416     2.0574     5.9396     6.3881     6.7304     6.937600135803223 
  8.142399787902832 9.039899826049805 4.1556     2.784817   14.6619    
  1          30.4948    9.1826     0.4573     1.5814     0.8014    
238.5      
  0.1638     3.62689995765686 4.3953     4.8787     5.4945     5.7174     
  215.9      237.814    213.295    225.221    444.5321   1507.0144  
  219.0013   93.0474    0.8313     0.9235     75.0272    4.5878     
  5.5232     0.8307     2.2247     0.0003     0.1224     1.9493     
  1.9839     2.0626     5.6735     6.189      6.5531     6.727799892425537 
  7.992300033569336 8.988300323486328 4.0145     2.733833   14.6864    
  1          30.4948    8.9426     0.4172     1.6194     0.814     
238.6      
  0.1637     3.667700052261353 4.5872     4.9787     5.566      5.6704     
  215.9      238.52     213.189    225.499    439.1554   1512.4261  
  218.3864   94.2742    0.712      0.8055     75.6133    4.346      
  5.9769     0.7328     2.2458     0.0002     0.1247     2.0502     
  1.8678     2.0674     6.3344     7.1065     7.6276     7.923900127410889 
  9.397100448608398 10.89659976959229 4.4182     2.651361   14.7489    
  1          30.4952    8.8949     0.4284     1.4956     0.8303    
238.7      
  0.1636     4.083399772644043 5.096      5.4313     6.0635     6.0809     
  215.9      238.669    213.862    225.925    429.8879   1514.1165  
  217.5152   94.9565    0.6776     0.7745     76.6555    4.2588     
  6.5889     0.6482     2.2597     0.0001000  0.1261     2.1377     
  1.7674     2.0738     8.1041     9.5292     10.4327    10.93389987945557 
  12.95870018005371 15.56229972839355 5.3704     2.51827    14.8766    
  1          30.4954    9.1081     0.4449     1.3849     0.8394    
238.8      
  0.1635     4.84089994430542 6.11       6.7741     7.6672     7.7916     
  215.9      238.156    214.784    226.1675   417.9899   1510.6368  
  219.2722   94.8614    0.6085     0.7095     78.5057    4.4486     
  7.3148     0.609      2.266      0.0002     0.1259     2.1857     
  1.7269     2.0721     11.415     15.1033    17.1165    18.15620040893555 
  21.49449920654297 27.15419960021973 6.5391     2.441037   15.3572    
  1          30.4954    9.7252     0.4641     1.3307     0.8382    
238.9      
  0.1634     6.086800098419189 7.9261     9.6564     11.015     11.162     
  215.9      237.588    216.8875   227        416.4719   1537.7889  
  222.4127   91.065     0.5093     0.6161     77.5606    4.3934     
  7.9406     0.5557     2.2751     0.0006     0.1187     2.2019     
  1.6171     2.0562     13.5389    19.2139    22.1846    23.83320045471191 
  27.81620025634766 35.86389923095703 6.9373     2.583831   15.8084    
  1          30.4954    9.6731     0.4811     1.2233     0.7875    
239        
  0.1634     8.149399757385254 10.6541    14.0965    15.5169    14.8144    
  215.9      235.783    221.394    228.4635   418.8297   1570.4045  
  221.7392   86.3499    0.5611     0.6808     75.7226    4.3056     
  8.0101     0.5413     2.2683     0.003      0.1111     2.1856     
  1.5681     2.0333     15.1729    22.9811    27.1062    29.14349937438965 
  33.84329986572266 44.15769958496094 7.0221     2.949218   16.1352    
  1          30.4954    9.4118     0.4932     1.181      0.7205    
239.1      
  0.1634     11.03750038146973 14.2764    17.4207    20.2511    18.1582    
  215.9      233.106    227.5665   230.3095   425.6022   1605.8765  
  219.1331   80.8491    0.7821     0.9498     73.1185    4.2474     
  6.9376     0.6152     2.2381     0.054      0.1388     2.1131     
  1.6766     2.0035     16.3112    25.8947    30.7823    33.53519821166992 
  38.35699844360352 50.56579971313477 7.0609     3.571243   16.1332    
  1          30.4954    8.9765     0.4975     1.2987     0.5649    
239.2      
  0.1634     14.6697998046875 14.2279    18.6088    23.416     21.4164    
  215.9      231.8555   233.236    232.5405   446.9425   1642.6757  
  218.5181   79.1482    1.1114     1.341      69.1563    4.2803     
  7.9417     0.5501     2.195      0.1036     0.1811     2.011      
  1.471      1.9724     17.2617    28.5492    34.2253    37.28229904174805 
  42.27610015869141 56.17290115356445 7.0739     4.695683   16.1215    
  0.7074     30.4954    8.6042     0.4767     1.1128     0.5168    
239.3      
  0.1636     19.1693000793457 16.8761    21.7584    28.4597    25.9295    
  215.9      232.137    236.376    234.247    466.3085   1669.9891  
  219.7626   77.227     1.2223     1.4815     64.7942    4.3254     
  9.1903     0.4711     2.1585     0.1842     0.2536     1.8972     
  1.2308     1.9512     17.7362    29.161     35.0624    38.31529998779297 
  42.87770080566406 57.29219818115234 7.2804     5.887335   16.2221    
  0.4072     30.4954    8.2052     0.4555     0.8947     0.4625    
239.4      
  0.1638     23.51020050048828 21.5327    26.9047    38.1857    32.1585    
  215.9      233.1015   236.9735   235.0295   475.5827   1676.6082  
  221.7538   73.2995    1.2957     1.5746     60.2689    4.342      
  9.6965     0.4482     2.1231     0.2919     0.3446     1.7715     
  1.1094     1.9402     17.9354    29.2585    35.2234    38.60480117797852 
  42.83280181884766 57.38130187988281 7.4061     6.524395   16.0689    
  0.2636     30.4954    7.6913     0.4434     0.7949     0.3514    
239.5      
  0.1639     27.31229972839355 22.4811    30.1649    42.7899    37.5634    
  215.9      234.5425   236.9095   235.7225   486.9893   1694.5161  
  225.0773   73.991     1.2864     1.5727     58.6533    4.1707     
  9.7528     0.4275     2.0819     0.2831     0.3387     1.7538     
  1.0585     1.9383     18.6851    30.7896    36.9679    40.47200012207031 
  44.78110122680664 60.04290008544922 7.6983     6.813093   15.7975    
  0.2649     30.4954    7.3123     0.4333     0.7496     0.3709    
239.6      
  0.164      31.31360054016113 23.2916    30.1942    46.8753    43.0362    
  215.9      236.029    236.861    236.4445   496.3647   1710.448   
  225.4067   74.987     1.2451     1.5326     58.3405    3.9979     
  9.8557     0.4063     2.0441     0.2704     0.3303     1.7737     
  1.0304     1.9438     19.4257    32.4663    38.6127    42.5703010559082 
  46.70479965209961 62.74990081787109 8.049      6.945329   15.3783    
  0.2704     30.4954    7.0915     0.4256     0.7204     0.3991    
239.7      
  0.164      36.44729995727539 24.1197    30.8643    51.9639    48.0311    
  215.9      237.163    237.1075   237.1355   498.8066   1713.4072  
  223.7888   73.6841    1.2334     1.5193     59.2077    4.0419     
  10.6556    0.38       2.0166     0.2856     0.3399     1.7991     
  0.9998     1.9523     20.1945    33.601     39.7629    43.68389892578125 
  48.01010131835938 64.31269836425781 8.6254     7.076319   15.4677    
  0.253      30.4954    7.2723     0.4229     0.6835     0.3623    
239.8      
  0.1641     41.61869812011719 24.7168    31.2719    55.6836    53.5017    
  215.9      237.946    237.722    237.834    495.0532   1699.5588  
  225.4214   75.2571    1.2594     1.551      61.0227    3.7937     
  11.9919    0.3218     2.0017     0.2649     0.3259     1.9264     
  0.9411     1.9577     20.9117    34.4592    40.7587    44.86080169677734 
  48.98929977416992 65.64890289306641 9.2084     7.215976   15.7118    
  0.2687     30.4954    7.2715     0.4223     0.6128     0.4068    
239.9      
  0.1641     45.97499847412109 25.2671    32.3085    59.8087    57.0319    
  215.9      238.7195   238.4995   238.6095   488.2412   1680.1765  
  228.5692   76.6459    1.2989     1.6026     62.9531    3.4767     
  13.43      0.2577     1.9977     0.2109     0.2778     2.0761     
  0.8771     1.961      21.242     35.2795    41.8246    45.53060150146484 
  49.83390045166016 66.6676025390625 9.5075     7.299004   15.9034    
  0.3303     30.4954    7.217      0.4241     0.5347     0.446     
