~Version
 VERS              .         2.0                           : CWLS LOG ASCII STANDARD - VERSION 2.0
 WRAP              .         YES                            : ONE LINE PER DEPTH STEP
 DLM               .         SPACE                         : DELIMITING CHARACTER(SPACE TAB OR COMMA)
~Well Information
#_______________________________________________________________________________
#
#PARAMETER_NAME    .UNIT     VALUE                         : DESCRIPTION
#_______________________________________________________________________________
STRT               .M        130                           : First reference value
STOP               .M        830                           : Last reference value
STEP               .M        0.1                           : Step increment
NULL               .         -999.25                       : Missing value
COMP               .         ТОО КМГ-Б                     : Company
WELL               .         343                           : Well name
FLD                .         Каратюбе                      : Field
LOC                .                                       : Location
PROV               .                                       : Province
SRVC               .         Казпромгеофизика              : Service Company
DATE               .         25.06.24                      : Date
API                .                                       : API number
APDAT              .                                       : Elevation Above Permanent Datum
CNTY               .                                       : County
COUNT              .         Kazakhstan                    : Country
DF                 .                                       : DF Elevation
EPDAT              .                                       : Elevation of Permanent Datum
GL                 .                                       : GL Elevation
KB                 .                                       : KB Elevation
LGMEA              .                                       : Log Measured from
LATI               .         0                             : Latitude/Northing
LONG               .         0                             : Longitude/Easting
ORIGINALWELLNAME   .         343                           : 
PDAT               .                                       : Permanent Datum
RIGN               .                                       : Rig Name
RWS                .         -999                          : Def_Rw
STATE              .         1                             : State
WST                .         -999                          : Def_Rwt
~Parameter Information Block
#_______________________________________________________________________________
#
#PARAMETER_NAME    .UNIT     VALUE                         : DESCRIPTION
#_______________________________________________________________________________
SET                .         model_343                     : 
TLFamily_AHMF      .                                       : 
TLFamily_AT10      .         Resistivity - Medium          : 
TLFamily_AT20      .         Resistivity (Array)           : 
TLFamily_AT30      .         Resistivity (Array)           : 
TLFamily_AT60      .         Resistivity (Array)           : 
TLFamily_AT90      .         Resistivity - Deep            : 
TLFamily_BSC       .         Bit Size                      : 
TLFamily_C1        .         Caliper 1                     : 
TLFamily_C2        .         Caliper 2                     : 
TLFamily_CALI      .         Caliper                       : 
TLFamily_CFTC      .         Neutron Far                   : 
TLFamily_CNTC      .         Neutron Near                  : 
TLFamily_DEPTH     .         Measured Depth                : 
TLFamily_DTP       .         Compressional Slowness        : 
TLFamily_GR        .         Gamma Ray                     : 
TLFamily_HMIN      .                                       : 
TLFamily_HMNO      .                                       : 
TLFamily_HSGR      .         Gamma Ray                     : 
TLFamily_HTPR      .                                       : 
TLFamily_HTUR      .                                       : 
TLFamily_HUPR      .                                       : 
TLFamily_PEFZ      .         Photoelectric Factor          : 
TLFamily_PHIE      .         Effective Porosity            : 
TLFamily_PHIT      .         Total Porosity                : 
TLFamily_POTA      .         Potassium Concentration       : 
TLFamily_PURA      .         Uranium Concentration         : 
TLFamily_RHOZ      .         Bulk Density                  : 
TLFamily_RLA1      .         Resistivity (Array)           : 
TLFamily_RLA2      .         Resistivity (Array)           : 
TLFamily_RLA3      .         Resistivity (Array)           : 
TLFamily_RLA4      .         Resistivity (Array)           : 
TLFamily_RLA5      .         Resistivity (Array)           : 
TLFamily_RT        .         Resistivity - True Formation  : 
TLFamily_RXO       .         Flushed Zone Resistivity      : 
TLFamily_RXOZ      .         Resistivity - Flushed Zone    : 
TLFamily_SP        .         Spontaneous Potential         : 
TLFamily_SW        .         Water Saturation              : 
TLFamily_TEMP      .         Temperature                   : 
TLFamily_THOR      .         Thorium Concentration         : 
TLFamily_TNPH      .         Thermal Neutron Porosity      : 
TLFamily_URAN      .         Uranium Concentration         : 
TLFamily_VCLAV     .         Clay Volume Fraction          : 
~Curve Information
#_______________________________________________________________________________
#
#LOGNAME           .UNIT     LOG_ID                        : DESCRIPTION
#_______________________________________________________________________________
DEPTH              .M                                      : Depth 
AHMF               .ohm.m                                  : 21 Array Induction Mud Resistivity Fully Calibrated 
AT10               .ohm.m                                  : MedRes     22 Array Induction Two Foot Resistivity A10 
AT20               .ohm.m                                  : MedRes     23 Array Induction Two Foot Resistivity A20 
AT30               .ohm.m                                  : MedRes     24 Array Induction Two Foot Resistivity A30 
AT60               .ohm.m                                  : DeepRes    25 Array Induction Two Foot Resistivity A60 
AT90               .ohm.m                                  : XDeepRes   26 Array Induction Two Foot Resistivity A90 
BSC                .mm                                     : 40 Nominal Caliper 
C1                 .mm                                     : 37 CALIPER DIAMETER 1 
C2                 .mm                                     : 38 CALIPER DIAMETER 2 
CALI               .mm                                     : Caliper    39 Caliper 
CFTC               .                                       : 7 
CNTC               .dec                                    : Neutron    8 
DTP                .uSec/m                                 : 3 Sonic travel time 
GR                 .gAPI                                   : GammaRay   9 ï¿½ï¿½(ï¿½.ï¿½) 
HMIN               .Ohmm                                   : 2 HIP Micro Inverse Resistivity 
HMNO               .Ohmm                                   : 3 HIP Micro Normal Resistivity 
HSGR               .                                       : 29 
HTPR               .                                       : 31 
HTUR               .                                       : 32 
HUPR               .                                       : 33 
PEFZ               .B/E                                    : PEF        4 Formation Photoelectric Factor 
PHIE               .Dec                                    : Phi 
PHIT               .Dec                                    : PhiT 
POTA               .                                       : 28 
PURA               .PPM                                    : 36 Upper Limit of Formation Uranium Concentration (F13 
RHOZ               .g/cm3                                  : Density    5 Bulk Density 
RLA1               .ohm.m                                  : ShalRes    13 HRLT Borehole Corrected Resistivity 1 
RLA2               .ohm.m                                  : MedRes     14 HRLT Borehole Corrected Resistivity 2 
RLA3               .ohm.m                                  : DeepRes    15 HRLT Borehole Corrected Resistivity 3 
RLA4               .ohm.m                                  : XDeepRes   16 HRLT Borehole Corrected Resisitivity 4 
RLA5               .ohm.m                                  : UltraDeepR 17 HRLT Borehole Corrected Resistivity 5 
RT                 .Ohmm                                   : 18 
RXO                .Ohmm                                   : 19 
RXOZ               .ohm.m                                  : 2 (HDRS-H)                (2in)                   Invaded Formation Resistivity filtered at 18 inches 
SP                 .mV                                     : SP         20 Spontaneous Potential 
SW                 .Dec                                    : Sw 
TEMP               .DEGC                                   : Temp       41 Temp 
THOR               .                                       : 30 
TNPH               .V/V                                    : Neutron    10 Neutron porosity 
URAN               .                                       : 34 
VCLAV              .Dec                                    : Vcl 
~Ascii
# ...
643.2      
  0.1501     1.4886     1.5189     1.5548     1.5966     1.5682     
  215.9      211.14     211.042    211.091    479.1643   1685.1108  
  260.6622   90.4669    1.3459     1.2301     81.4797    5.066      
  2.9173     1.7374     2.5311     0.2728     0.3064     1.7191     
  3.3641     2.208      1.8076     1.9148     2.0837     2.232000112533569 
  2.138700008392334 2.472500085830688 1.2171     2.754202   18.2855    
  0.5918     34.7751    8.6954     0.4531     2.981      0.2244    
643.3      
  0.1501     1.5222     1.5652     1.5999     1.6425     1.6101     
  215.9      211.012    211.195    211.1035   501.5003   1711.3608  
  260.1059   93.8725    1.4026     1.2669     82.2819    4.793      
  2.9561     1.6218     2.602      0.2428     0.2815     1.7985     
  3.303      2.2386     2.0688     2.1911     2.3904     2.552599906921387 
  2.457900047302246 2.848299980163574 1.3938     2.887116   17.6597    
  0.6127     34.7751    8.6174     0.4305     2.9154     0.2575    
643.4      
  0.1501     1.5651     1.6329     1.6699     1.7175     1.6772     
  215.9      211.0155   211.492    211.2535   530.0647   1740.8956  
  255.9918   94.8052    1.5697     1.4242     82.6101    4.5853     
  3.0082     1.525      2.7322     0.219      0.259      1.8603     
  3.2205     2.2755     2.2111     2.3655     2.583      2.769099950790405 
  2.685499906539917 3.148499965667725 1.4798     3.038562   17.2731    
  0.6441     34.7751    8.5247     0.4036     2.8344     0.2669    
643.5      
  0.1502     1.5988     1.6813     1.7261     1.7828     1.7362     
  215.9      211.2435   211.416    211.3295   542.5492   1777.2705  
  238.9057   96.756     1.686      1.5352     83.2944    4.4902     
  3.4148     1.3394     2.9348     0.1919     0.2349     1.9532     
  2.986      2.3158     2.0949     2.228      2.4227     2.595799922943115 
  2.545900106430054 2.961899995803833 1.4225     3.122254   17.0158    
  0.7511     34.7751    8.7687     0.4006     2.6011     0.2869    
643.6      
  0.1503     1.6012     1.6994     1.75       1.839      1.7815     
  215.9      211.381    211.119    211.25     547.3772   1810.0999  
  230.4432   98.5807    1.7261     1.5405     84.2434    4.4629     
  4.0077     1.1146     3.1678     0.1613     0.2072     2.0619     
  2.6819     2.36       1.9119     2.0413     2.2148     2.38129997253418 
  2.35509991645813 2.740200042724609 1.3123     3.214091   16.8232    
  0.9235     34.7751    9.2017     0.4067     2.2971     0.3061    
643.7      
  0.1504     1.6074     1.6929     1.7672     1.8832     1.8314     
  215.9      211.1665   211.042    211.1045   553.6971   1803.7456  
  238.2762   96.8485    1.6137     1.4377     85.6109    4.4251     
  4.3229     1.0266     3.4214     0.1485     0.1917     2.1426     
  2.5892     2.4013     2.0201     2.1485     2.3197     2.496000051498413 
  2.493799924850464 2.890000104904175 1.4117     3.374004   16.7391    
  0.9678     34.7751    9.4798     0.3967     2.1963     0.2879    
643.8      
  0.1504     1.7079     1.7786     1.8737     2.0411     1.9709     
  215.9      211.105    211.042    211.074    547.1713999999999 1797.9443  
  236.7755   95.2756    1.6192     1.4876     84.9385    4.3147     
  4.6909     0.9251     3.6218     0.1387     0.1795     2.1929     
  2.4177     2.4348     2.3779     2.5451     2.7602     2.986900091171265 
  3.01449990272522 3.530200004577637 1.6341     3.661913   16.7568    
  0.9318     34.7751    9.4592     0.4027     2.027      0.2717    
643.9      
  0.1504     1.9073     1.9907     2.1522     2.4121     2.3151     
  215.9      211.182    211.042    211.1125   536.2046   1794.9689  
  232.9688   93.7946    1.9456     1.8806     82.9167    4.1647     
  5.1376     0.8129     3.7006     0.1338     0.1724     2.2231     
  2.1883     2.4576     2.8474     3.0881     3.3992     3.697799921035767 
  3.790600061416626 4.510700225830078 1.8602     3.830227   17.0931    
  0.8517     34.7751    9.259      0.4152     1.8065     0.2568    
644        
  0.1506     2.1141     2.2317     2.4932     2.897      2.777      
  215.9      211.0745   211.0335   211.054    556.1276   1814.3781  
  226.2632   92.2617    1.8834     1.834      83.3237    4.2624     
  6.3555     0.683      3.6327     0.1544     0.1906     2.2878     
  1.9429     2.431      2.7006     2.9341     3.2362     3.534499883651733 
  3.660599946975708 4.361700057983398 1.7568     3.761787   17.3283    
  0.7582     34.7751    9.7547     0.3977     1.5583     0.2416    
644.1      
  0.1507     2.2885     2.3974     2.7381     3.2491     3.1805     
  215.9      210.986    210.917    210.951    572.8189   1813.8398  
  228.5545   91.3089    1.5055     1.4131     82.9027    4.1964     
  6.5479     0.6432     3.4569     0.1887     0.2235     2.3123     
  1.8707     2.3704     2.5625     2.794      3.0864     3.370599985122681 
  3.541199922561646 4.221399784088135 1.6762     3.574188   17.4979    
  0.6386     34.7751    9.7045     0.3783     1.4871     0.2324    
644.2      
  0.1509     2.318      2.432      2.8558     3.4852     3.4667     
  215.9      210.979    210.7405   210.8595   586.8796   1799.3845  
  237.8735   91.0174    1.2554     1.2079     81.7475    3.9853     
  5.8308     0.6835     3.2022     0.2049     0.2394     2.301      
  1.9521     2.3113     2.6737     2.9673     3.2752     3.593499898910522 
  3.813600063323975 4.599400043487549 1.7459     3.203401   17.8129    
  0.5674     34.7751    9.1702     0.3581     1.5727     0.2296    
644.3      
  0.1511     2.398      2.5267     3.0446     3.8688     3.9405     
  215.9      210.9595   210.6385   210.799    595.4225   1794.9535  
  242.1267   95.3088    1.3615     1.2794     81.7017    4.0163     
  5.2363     0.7723     2.9757     0.1973     0.2381     2.2514     
  2.1146     2.2535     2.9059     3.2722     3.6023     3.951499938964844 
  4.245299816131592 5.152400016784668 1.9003     2.98705    18.1233    
  0.5549     34.7751    9.0415     0.3481     1.7364     0.272     
644.4      
  0.1512     2.496      2.6688     3.2663     4.2652     4.4444     
  215.9      210.959    210.6405   210.7995   595.7927   1800.6128  
  238.3054   95.4697    1.4571     1.3529     80.6314    4.0972     
  5.1201     0.8016     2.8265     0.2059     0.247      2.1969     
  2.1346     2.2191     3.0982     3.5013     3.8542     4.249100208282471 
  4.598899841308594 5.601600170135498 2.0301     3.01463    18.4297    
  0.5104     34.7751    8.9972     0.3495     1.7621     0.2737    
644.5      
  0.1513     2.608      2.8413     3.5793     4.8517     5.2846     
  215.9      210.9285   210.694    210.811    588.9154   1815.22    
  232.7711   91.9677    1.4155     1.3286     78.4511    4.2322     
  5.5222     0.7666     2.7845     0.2246     0.2604     2.1371     
  2.0001     2.22       3.281      3.7278     4.113      4.498300075531006 
  4.921700000762939 5.993899822235107 2.1491     3.077834   18.6698    
  0.4532     34.7751    9.0442     0.3611     1.6383     0.2388    
644.6      
  0.1513     2.7229     3.0754     3.9482     5.6213     6.4562     
  215.9      210.79     210.712    210.751    573.6898   1828.7574  
  230.2748   91.9679    1.4599     1.3608     76.3389    4.1706     
  4.9576     0.8469     2.8143     0.233      0.2688     2.0567     
  2.0894     2.2243     3.5229     4.0954     4.5573     4.986700057983398 
  5.478799819946289 6.749899864196777 2.235      3.157651   19.0075    
  0.4131     34.7751    8.5807     0.3824     1.7381     0.2388    
644.7      
  0.1513     2.8317     3.3497     4.4263     6.6979     8.2122     
  215.9      210.5975   210.8185   210.708    564.4894   1826.2223  
  227.5735   91.453     1.5588     1.4365     75.5241    4.1431     
  4.7615     0.872      2.8697     0.2411     0.2761     2.0306     
  2.1185     2.2166     3.6425     4.2998     4.7822     5.206900119781494 
  5.74560022354126 7.075300216674805 2.2446     3.210487   19.451     
  0.3899     34.7751    8.4137     0.3917     1.7695     0.2338    
