~Version
 VERS              .         2.0                           : CWLS LOG ASCII STANDARD - VERSION 2.0
 WRAP              .         YES                            : ONE LINE PER DEPTH STEP
 DLM               .         SPACE                         : DELIMITING CHARACTER(SPACE TAB OR COMMA)
~Well Information
#_______________________________________________________________________________
#
#PARAMETER_NAME    .UNIT     VALUE                         : DESCRIPTION
#_______________________________________________________________________________
STRT               .M        130                           : First reference value
STOP               .M        830                           : Last reference value
STEP               .M        0.1                           : Step increment
NULL               .         -999.25                       : Missing value
COMP               .         ТОО КМГ-Б                     : Company
WELL               .         343                           : Well name
FLD                .         Каратюбе                      : Field
LOC                .                                       : Location
PROV               .                                       : Province
SRVC               .         Казпромгеофизика              : Service Company
DATE               .         25.06.24                      : Date
API                .                                       : API number
APDAT              .                                       : Elevation Above Permanent Datum
CNTY               .                                       : County
COUNT              .         Kazakhstan                    : Country
DF                 .                                       : DF Elevation
EPDAT              .                                       : Elevation of Permanent Datum
GL                 .                                       : GL Elevation
KB                 .                                       : KB Elevation
LGMEA              .                                       : Log Measured from
LATI               .         0                             : Latitude/Northing
LONG               .         0                             : Longitude/Easting
ORIGINALWELLNAME   .         343                           : 
PDAT               .                                       : Permanent Datum
RIGN               .                                       : Rig Name
RWS                .         -999                          : Def_Rw
STATE              .         1                             : State
WST                .         -999                          : Def_Rwt
~Parameter Information Block
#_______________________________________________________________________________
#
#PARAMETER_NAME    .UNIT     VALUE                         : DESCRIPTION
#_______________________________________________________________________________
SET                .         model_343                     : 
TLFamily_AHMF      .                                       : 
TLFamily_AT10      .         Resistivity - Medium          : 
TLFamily_AT20      .         Resistivity (Array)           : 
TLFamily_AT30      .         Resistivity (Array)           : 
TLFamily_AT60      .         Resistivity (Array)           : 
TLFamily_AT90      .         Resistivity - Deep            : 
TLFamily_BSC       .         Bit Size                      : 
TLFamily_C1        .         Caliper 1                     : 
TLFamily_C2        .         Caliper 2                     : 
TLFamily_CALI      .         Caliper                       : 
TLFamily_CFTC      .         Neutron Far                   : 
TLFamily_CNTC      .         Neutron Near                  : 
TLFamily_DEPTH     .         Measured Depth                : 
TLFamily_DTP       .         Compressional Slowness        : 
TLFamily_GR        .         Gamma Ray                     : 
TLFamily_HMIN      .                                       : 
TLFamily_HMNO      .                                       : 
TLFamily_HSGR      .         Gamma Ray                     : 
TLFamily_HTPR      .                                       : 
TLFamily_HTUR      .                                       : 
TLFamily_HUPR      .                                       : 
TLFamily_PEFZ      .         Photoelectric Factor          : 
TLFamily_PHIE      .         Effective Porosity            : 
TLFamily_PHIT      .         Total Porosity                : 
TLFamily_POTA      .         Potassium Concentration       : 
TLFamily_PURA      .         Uranium Concentration         : 
TLFamily_RHOZ      .         Bulk Density                  : 
TLFamily_RLA1      .         Resistivity (Array)           : 
TLFamily_RLA2      .         Resistivity (Array)           : 
TLFamily_RLA3      .         Resistivity (Array)           : 
TLFamily_RLA4      .         Resistivity (Array)           : 
TLFamily_RLA5      .         Resistivity (Array)           : 
TLFamily_RT        .         Resistivity - True Formation  : 
TLFamily_RXO       .         Flushed Zone Resistivity      : 
TLFamily_RXOZ      .         Resistivity - Flushed Zone    : 
TLFamily_SP        .         Spontaneous Potential         : 
TLFamily_SW        .         Water Saturation              : 
TLFamily_TEMP      .         Temperature                   : 
TLFamily_THOR      .         Thorium Concentration         : 
TLFamily_TNPH      .         Thermal Neutron Porosity      : 
TLFamily_URAN      .         Uranium Concentration         : 
TLFamily_VCLAV     .         Clay Volume Fraction          : 
~Curve Information
#_______________________________________________________________________________
#
#LOGNAME           .UNIT     LOG_ID                        : DESCRIPTION
#_______________________________________________________________________________
DEPTH              .M                                      : Depth 
AHMF               .ohm.m                                  : 21 Array Induction Mud Resistivity Fully Calibrated 
AT10               .ohm.m                                  : MedRes     22 Array Induction Two Foot Resistivity A10 
AT20               .ohm.m                                  : MedRes     23 Array Induction Two Foot Resistivity A20 
AT30               .ohm.m                                  : MedRes     24 Array Induction Two Foot Resistivity A30 
AT60               .ohm.m                                  : DeepRes    25 Array Induction Two Foot Resistivity A60 
AT90               .ohm.m                                  : XDeepRes   26 Array Induction Two Foot Resistivity A90 
BSC                .mm                                     : 40 Nominal Caliper 
C1                 .mm                                     : 37 CALIPER DIAMETER 1 
C2                 .mm                                     : 38 CALIPER DIAMETER 2 
CALI               .mm                                     : Caliper    39 Caliper 
CFTC               .                                       : 7 
CNTC               .dec                                    : Neutron    8 
DTP                .uSec/m                                 : 3 Sonic travel time 
GR                 .gAPI                                   : GammaRay   9 ï¿½ï¿½(ï¿½.ï¿½) 
HMIN               .Ohmm                                   : 2 HIP Micro Inverse Resistivity 
HMNO               .Ohmm                                   : 3 HIP Micro Normal Resistivity 
HSGR               .                                       : 29 
HTPR               .                                       : 31 
HTUR               .                                       : 32 
HUPR               .                                       : 33 
PEFZ               .B/E                                    : PEF        4 Formation Photoelectric Factor 
PHIE               .Dec                                    : Phi 
PHIT               .Dec                                    : PhiT 
POTA               .                                       : 28 
PURA               .PPM                                    : 36 Upper Limit of Formation Uranium Concentration (F13 
RHOZ               .g/cm3                                  : Density    5 Bulk Density 
RLA1               .ohm.m                                  : ShalRes    13 HRLT Borehole Corrected Resistivity 1 
RLA2               .ohm.m                                  : MedRes     14 HRLT Borehole Corrected Resistivity 2 
RLA3               .ohm.m                                  : DeepRes    15 HRLT Borehole Corrected Resistivity 3 
RLA4               .ohm.m                                  : XDeepRes   16 HRLT Borehole Corrected Resisitivity 4 
RLA5               .ohm.m                                  : UltraDeepR 17 HRLT Borehole Corrected Resistivity 5 
RT                 .Ohmm                                   : 18 
RXO                .Ohmm                                   : 19 
RXOZ               .ohm.m                                  : 2 (HDRS-H)                (2in)                   Invaded Formation Resistivity filtered at 18 inches 
SP                 .mV                                     : SP         20 Spontaneous Potential 
SW                 .Dec                                    : Sw 
TEMP               .DEGC                                   : Temp       41 Temp 
THOR               .                                       : 30 
TNPH               .V/V                                    : Neutron    10 Neutron porosity 
URAN               .                                       : 34 
VCLAV              .Dec                                    : Vcl 
~Ascii
# ...
372.8      
  0.1599     1.0865     1.4521     1.6341     1.9611     2.0412     
  215.9      214.6695   211.222    212.9385   508.8917   1820.6389  
  244.1032   113.5212   0.5436     0.4801     101.8446   2.1564     
  0.6449     3.3422     2.2428     0.0001000  0.1325     2.0615     
  7.3067     2.028      1.3504     1.5083     1.674      1.744600057601929 
  1.738800048828125 2.079499959945679 0.8671     0.9869667  23.7663    
  1          31.6762    4.4505     0.4604     6.891      0.8829    
372.9      
  0.16       1.0093     1.3156     1.4394     1.6589     1.7511     
  215.9      214.596    210.9575   212.769    511.0015   1801.6918  
  241.0946   121.7822   0.5122     0.4525     107.0491   2.4047     
  0.7082     3.3939     2.2784     0.0001000  0.1452     2.1241     
  7.6418     2.0359     1.5603     1.7881     1.9803     2.045000076293945 
  2.057300090789795 2.480999946594238 0.9604     0.9606455  23.7791    
  1          31.6766    5.1132     0.45       7.2101     0.9672    
373        
  0.1601     1.0317     1.3413     1.4869     1.7035     1.8256     
  215.9      213.614    211.2155   212.411    518.4336   1796.2773  
  237.0463   136.7234   0.5046     0.4458     115.3532   2.6606     
  0.7759     3.4275     2.3125     0.0001000  0.1501     2.2449     
  8.1583     2.052      1.8703     2.2375     2.4679     2.545200109481812 
  2.552799940109253 3.132299900054932 1.0431     0.9784257  23.8211    
  1          31.6767    5.9942     0.4374     7.6966     1         
373.1      
  0.16       1.1988     1.598      1.7913     2.111      2.2808     
  215.9      212.3595   211.544    211.9515   526.4635   1790.1565  
  233.8546   151.5815   0.5463     0.4826     125.1494   2.857      
  0.8309     3.4382     2.3745     0.0001000  0.1501     2.4058     
  8.7657     2.0717     1.9333     2.3607     2.5493     2.607800006866455 
  2.620399951934814 3.200500011444092 1.0393     1.037771   23.7839    
  1          31.6769    6.87       0.424      8.2683     1         
373.2      
  0.16       1.3204     1.8453     2.2195     2.7154     3.0147     
  215.9      211.578    211.437    211.508    531.5178   1769.7905  
  227.8224   160.2037   0.6362     0.5619     136.0926   2.8034     
  0.828      3.3859     2.4619     0.0001000  0.1501     2.6359     
  9.4548     2.0889     1.9503     2.434      2.5533     2.599200010299683 
  2.621299982070923 3.188699960708618 1.0466     1.130206   23.6439    
  1          31.6777    7.3848     0.4099     8.9202     1         
373.3      
  0.1599     1.4907     2.1653     2.5861     3.235      3.9413     
  215.9      211.278    211.22     211.2495   527.5651   1758.8462  
  220.3555   166.3838   0.7198     0.6358     142.962    2.6924     
  0.7896     3.4125     2.55       0.0001000  0.1501     2.7851     
  10.0672    2.1021     2.0798     2.5815     2.6891     2.741600036621094 
  2.774199962615967 3.355700016021729 1.1416     1.236219   23.388     
  1          31.6779    7.4895     0.4109     9.508      1         
373.4      
  0.1599     1.593      2.377      2.8454     3.595      4.3993     
  215.9      211.007    211.0775   211.0425   520.3275   1751.332   
  217.7348   169.8171   0.7262     0.6415     146.829    2.5965     
  0.7445     3.487      2.6361     0.0001000  0.1501     2.8616     
  10.5484    2.1048     2.1993     2.6216     2.7355     2.78600001335144 
  2.827800035476685 3.349100112915039 1.2856     1.319636   22.8277    
  1          31.6781    7.4267     0.4175     9.9752     1         
373.5      
  0.1599     1.6385     2.458      2.9428     3.6772     4.326      
  215.9      210.436    211.0625   210.749    513.9614   1742.882   
  218.3937   166.0616   0.7372     0.6511     144.5465   2.7401     
  0.7561     3.6234     2.7079     0.0001000  0.1501     2.7426     
  10.4908    2.0936     2.1926     2.4128     2.534      2.588200092315674 
  2.622499942779541 2.969099998474121 1.4367     1.346894   22.2908    
  1          31.679     7.5077     0.423      9.9304     1         
373.6      
  0.1599     1.6171     2.4053     2.827      3.5151     3.859      
  215.9      210.2315   211.189    210.7095   511.5521   1741.5491  
  225.8679   158.4533   0.7407     0.6543     138.6905   2.7473     
  0.7171     3.8459     2.7344     0.0001000  0.1501     2.546      
  10.287     2.0751     2.1033     2.1887     2.3208     2.369800090789795 
  2.41759991645813 2.631500005722046 1.4239     1.313582   21.7808    
  1          31.6795    7.0046     0.4258     9.7539     1         
373.7      
  0.16       1.552      2.2138     2.5293     3.1434     3.2854     
  215.9      210.361    211.4065   210.883    510.9277   1745.7218  
  235.4065   150.1633   0.7118     0.6287     130.9216   2.7033     
  0.6539     4.1352     2.7171     0.0001000  0.1501     2.3037     
  10.0092    2.057      2.0807     2.1258     2.2719     2.341300010681152 
  2.392100095748901 2.586499929428101 1.4073     1.247503   21.3608    
  1          31.6799    6.2202     0.4282     9.5113     1         
373.8      
  0.1602     1.4905     2.0511     2.3016     2.876      2.8776     
  215.9      210.3835   211.6115   210.997    509.866    1762.1139  
  231.9366   148.2855   0.6345     0.5604     124.8262   2.9189     
  0.6394     4.5698     2.6734     0.0001000  0.1501     2.0607     
  9.8388     2.0453     2.0832     2.1567     2.299      2.381999969482422 
  2.448899984359741 2.692100048065186 1.4543     1.176352   20.7573    
  1          31.6799    5.9909     0.4363     9.3683     1         
373.9      
  0.1604     1.4601     1.9436     2.1548     2.6361     2.5646     
  215.9      210.275    211.707    210.99     530.4848   1841.8824  
  227.7785   143.6576   0.58       0.5123     120.5927   2.9517     
  0.6147     4.8042     2.646      0.0001000  0.1501     1.9218     
  9.6851     2.0443     2.1691     2.2937     2.4031     2.531899929046631 
  2.596400022506714 2.916100025177002 1.614      1.126284   20.0243    
  1          31.6811    5.6762     0.4383     9.2298     1         
374        
  0.1606     1.5177     2.028      2.259      2.6889     2.5828     
  215.9      210.372    211.707    211.0385   567.3634   1962.7089  
  232.8589   138.4413   0.5901     0.5212     117.8446   2.8534     
  0.5855     4.8739     2.6359     0.0001000  0.1501     1.8653     
  9.5394     2.0672     2.7725     3.0407     3.1694     3.359400033950806 
  3.466300010681152 3.978699922561646 1.9946     1.120997   19.0955    
  1          31.683     5.322      0.4342     9.09       1         
374.1      
  0.1607     1.7861     2.4742     2.8239     3.3085     3.2031     
  215.9      210.93     211.681    211.305    635.9819   2118.0674  
  233.8911   142.4646   0.63       0.5565     117.2439   2.7751     
  0.5991     4.6347     2.6504     0.0001000  0.1501     1.9172     
  9.3297     2.1262     6.5908     7.7928     8.4416     9.13129997253418 
  9.467599868774414 11.6068000793457 4.0179     1.227834   17.8489    
  1          31.683     5.3183     0.4065     8.8793     1         
374.2      
  0.1608     2.3079     3.8547     4.8568     5.6483     5.3889     
  215.9      211.39     211.3275   211.3585   731.8027   2242.281   
  233.9058   148.5106   0.7129     0.6301     121.9742   2.8114     
  0.6235     4.51       2.736      0          0          2.0204     
  9.5803     2.2084     9.7117     11.5018    12.4758    13.14540004730225 
  13.79319953918457 16.61450004577637 5.0597     1.562404   16.335     
  1          31.6844    5.6909     0.3572     9.11       1         
374.3      
  0.1608     3.135      6.1355     8.4176     9.9503     9.5779     
  215.9      211.69     211.1605   211.425    844.0276   2340.2759  
  241.2629   156.9125   1.0806     1.0071     131.5055   2.9501     
  0.658      4.484      2.8667     0          0          2.171      
  10.2406    2.2972     4.4143     4.7385     4.9465     5.089200019836426 
  5.310900211334229 5.890900135040283 2.8187     2.28986    14.2364    
  1          31.687     6.4057     0.2945     9.7332     1         
