~Version
 VERS              .         2.0                           : CWLS LOG ASCII STANDARD - VERSION 2.0
 WRAP              .         YES                            : ONE LINE PER DEPTH STEP
 DLM               .         SPACE                         : DELIMITING CHARACTER(SPACE TAB OR COMMA)
~Well Information
#_______________________________________________________________________________
#
#PARAMETER_NAME    .UNIT     VALUE                         : DESCRIPTION
#_______________________________________________________________________________
STRT               .M        130                           : First reference value
STOP               .M        830                           : Last reference value
STEP               .M        0.1                           : Step increment
NULL               .         -999.25                       : Missing value
COMP               .         ТОО КМГ-Б                     : Company
WELL               .         343                           : Well name
FLD                .         Каратюбе                      : Field
LOC                .                                       : Location
PROV               .                                       : Province
SRVC               .         Казпромгеофизика              : Service Company
DATE               .         25.06.24                      : Date
API                .                                       : API number
APDAT              .                                       : Elevation Above Permanent Datum
CNTY               .                                       : County
COUNT              .         Kazakhstan                    : Country
DF                 .                                       : DF Elevation
EPDAT              .                                       : Elevation of Permanent Datum
GL                 .                                       : GL Elevation
KB                 .                                       : KB Elevation
LGMEA              .                                       : Log Measured from
LATI               .         0                             : Latitude/Northing
LONG               .         0                             : Longitude/Easting
ORIGINALWELLNAME   .         343                           : 
PDAT               .                                       : Permanent Datum
RIGN               .                                       : Rig Name
RWS                .         -999                          : Def_Rw
STATE              .         1                             : State
WST                .         -999                          : Def_Rwt
~Parameter Information Block
#_______________________________________________________________________________
#
#PARAMETER_NAME    .UNIT     VALUE                         : DESCRIPTION
#_______________________________________________________________________________
SET                .         model_343                     : 
TLFamily_AHMF      .                                       : 
TLFamily_AT10      .         Resistivity - Medium          : 
TLFamily_AT20      .         Resistivity (Array)           : 
TLFamily_AT30      .         Resistivity (Array)           : 
TLFamily_AT60      .         Resistivity (Array)           : 
TLFamily_AT90      .         Resistivity - Deep            : 
TLFamily_BSC       .         Bit Size                      : 
TLFamily_C1        .         Caliper 1                     : 
TLFamily_C2        .         Caliper 2                     : 
TLFamily_CALI      .         Caliper                       : 
TLFamily_CFTC      .         Neutron Far                   : 
TLFamily_CNTC      .         Neutron Near                  : 
TLFamily_DEPTH     .         Measured Depth                : 
TLFamily_DTP       .         Compressional Slowness        : 
TLFamily_GR        .         Gamma Ray                     : 
TLFamily_HMIN      .                                       : 
TLFamily_HMNO      .                                       : 
TLFamily_HSGR      .         Gamma Ray                     : 
TLFamily_HTPR      .                                       : 
TLFamily_HTUR      .                                       : 
TLFamily_HUPR      .                                       : 
TLFamily_PEFZ      .         Photoelectric Factor          : 
TLFamily_PHIE      .         Effective Porosity            : 
TLFamily_PHIT      .         Total Porosity                : 
TLFamily_POTA      .         Potassium Concentration       : 
TLFamily_PURA      .         Uranium Concentration         : 
TLFamily_RHOZ      .         Bulk Density                  : 
TLFamily_RLA1      .         Resistivity (Array)           : 
TLFamily_RLA2      .         Resistivity (Array)           : 
TLFamily_RLA3      .         Resistivity (Array)           : 
TLFamily_RLA4      .         Resistivity (Array)           : 
TLFamily_RLA5      .         Resistivity (Array)           : 
TLFamily_RT        .         Resistivity - True Formation  : 
TLFamily_RXO       .         Flushed Zone Resistivity      : 
TLFamily_RXOZ      .         Resistivity - Flushed Zone    : 
TLFamily_SP        .         Spontaneous Potential         : 
TLFamily_SW        .         Water Saturation              : 
TLFamily_TEMP      .         Temperature                   : 
TLFamily_THOR      .         Thorium Concentration         : 
TLFamily_TNPH      .         Thermal Neutron Porosity      : 
TLFamily_URAN      .         Uranium Concentration         : 
TLFamily_VCLAV     .         Clay Volume Fraction          : 
~Curve Information
#_______________________________________________________________________________
#
#LOGNAME           .UNIT     LOG_ID                        : DESCRIPTION
#_______________________________________________________________________________
DEPTH              .M                                      : Depth 
AHMF               .ohm.m                                  : 21 Array Induction Mud Resistivity Fully Calibrated 
AT10               .ohm.m                                  : MedRes     22 Array Induction Two Foot Resistivity A10 
AT20               .ohm.m                                  : MedRes     23 Array Induction Two Foot Resistivity A20 
AT30               .ohm.m                                  : MedRes     24 Array Induction Two Foot Resistivity A30 
AT60               .ohm.m                                  : DeepRes    25 Array Induction Two Foot Resistivity A60 
AT90               .ohm.m                                  : XDeepRes   26 Array Induction Two Foot Resistivity A90 
BSC                .mm                                     : 40 Nominal Caliper 
C1                 .mm                                     : 37 CALIPER DIAMETER 1 
C2                 .mm                                     : 38 CALIPER DIAMETER 2 
CALI               .mm                                     : Caliper    39 Caliper 
CFTC               .                                       : 7 
CNTC               .dec                                    : Neutron    8 
DTP                .uSec/m                                 : 3 Sonic travel time 
GR                 .gAPI                                   : GammaRay   9 ï¿½ï¿½(ï¿½.ï¿½) 
HMIN               .Ohmm                                   : 2 HIP Micro Inverse Resistivity 
HMNO               .Ohmm                                   : 3 HIP Micro Normal Resistivity 
HSGR               .                                       : 29 
HTPR               .                                       : 31 
HTUR               .                                       : 32 
HUPR               .                                       : 33 
PEFZ               .B/E                                    : PEF        4 Formation Photoelectric Factor 
PHIE               .Dec                                    : Phi 
PHIT               .Dec                                    : PhiT 
POTA               .                                       : 28 
PURA               .PPM                                    : 36 Upper Limit of Formation Uranium Concentration (F13 
RHOZ               .g/cm3                                  : Density    5 Bulk Density 
RLA1               .ohm.m                                  : ShalRes    13 HRLT Borehole Corrected Resistivity 1 
RLA2               .ohm.m                                  : MedRes     14 HRLT Borehole Corrected Resistivity 2 
RLA3               .ohm.m                                  : DeepRes    15 HRLT Borehole Corrected Resistivity 3 
RLA4               .ohm.m                                  : XDeepRes   16 HRLT Borehole Corrected Resisitivity 4 
RLA5               .ohm.m                                  : UltraDeepR 17 HRLT Borehole Corrected Resistivity 5 
RT                 .Ohmm                                   : 18 
RXO                .Ohmm                                   : 19 
RXOZ               .ohm.m                                  : 2 (HDRS-H)                (2in)                   Invaded Formation Resistivity filtered at 18 inches 
SP                 .mV                                     : SP         20 Spontaneous Potential 
SW                 .Dec                                    : Sw 
TEMP               .DEGC                                   : Temp       41 Temp 
THOR               .                                       : 30 
TNPH               .V/V                                    : Neutron    10 Neutron porosity 
URAN               .                                       : 34 
VCLAV              .Dec                                    : Vcl 
~Ascii
# ...
283.2      
  0.1595     2.0972     2.6222     2.5526     3.373      3.2095     
  215.9      235.863    217.0415   226.2475   437.292    1427.4185  
  224.6014   90.4196    0.4555     0.5315     75.7341    4.8149     
  22.6364    -0.067     2.5748     0.0008     0.1176     2.3517     
  0.2129     2.1077     2.3525     2.5861     2.9104     3.11299991607666 
  3.224800109863281 3.872600078582764 1.4937     1.556955   0.7791     
  1          30.9442    11.3182    0.3987     -0.1557    0.7789    
283.3      
  0.1594     1.9531     2.2652     2.4246     3.1254     2.8231     
  215.9      249.5035   224.1845   236.504    442.5502   1434.51    
  225.2383   88.4212    0.4021     0.4859     77.3675    4.6018     
  22.1413    0.015      2.6014     0.0015     0.1143     2.4063     
  0.4114     2.1047     2.5894     2.8381     3.1925     3.422199964523315 
  3.553499937057495 4.259900093078613 1.6469     1.461149   0.3839     
  1          30.9443    11.0707    0.3935     0.0372     0.7523    
283.4      
  0.1594     2.0245     2.3522     2.4181     3.0007     2.6576     
  215.9      256.828    231.118    243.632    435.8266   1432.2075  
  226.0143   89.8844    0.3033     0.3732     76.92      4.5059     
  21.4309    0.0735     2.6098     0.0009     0.1167     2.3777     
  0.5441     2.0793     2.6494     2.8204     3.1696     3.39330005645752 
  3.551000118255615 4.189000129699707 1.7162     1.214108   0.0344     
  1          30.9443    10.7154    0.3993     0.1735     0.7718    
283.5      
  0.1596     2.1397     2.3596     2.5791     3.0363     2.6889     
  215.9      258.0505   231.522    244.423    426.4581   1420.9216  
  236.0067   91.1712    0.2011     0.259      76.6126    4.5267     
  21.2526    0.0959     2.5878     0.0006     0.1189     2.3474     
  0.5927     2.0532     2.3912     2.5222     2.8001     3.009399890899658 
  3.16759991645813 3.688999891281128 1.578      1.152575   -0.2916    
  1          30.9443    10.6263    0.4079     0.2252     0.7889    
283.6      
  0.1598     2.2482     2.5221     2.7505     3.1237     2.8584     
  215.9      252.97     226.077    239.1445   415.2924   1395.9426  
  238.8179   91.3054    0.1767     0.2371     77.499     4.7574     
  22.3503    0.0479     2.5657     0.0006     0.1192     2.349      
  0.4818     2.0353     2.318      2.4543     2.6907     2.908099889755249 
  3.074399948120117 3.561500072479248 1.5388     1.194594   -0.1746    
  1          30.9443    11.1751    0.4191     0.1125     0.7907    
283.7      
  0.16       2.2002     2.4573     2.6603     3.0706     2.868      
  215.9      235.139    222.5025   228.6575   418.8192   1380.936   
  230.7653   91.7746    0.2222     0.3131     78.4864    4.7372     
  22.3305    0.0934     2.5608     0.0005     0.12       2.357      
  0.5924     2.0437     2.3197     2.4897     2.6617     2.885600090026855 
  3.10509991645813 3.556699991226196 1.5482     1.281265   -0.046     
  1          30.9443    11.1652    0.4077     0.2206     0.797     
283.8      
  0.1603     2.2276     2.3948     2.5398     2.7805     2.7371     
  215.9      222.123    223.5      222.8085   418.1076   1377.6527  
  226.2632   92.3028    0.3148     0.4195     79.159     4.6886     
  21.501     0.1644     2.5712     0.0004     0.121      2.354      
  0.7589     2.0784     2.3691     2.568      2.7077     2.944499969482422 
  3.19350004196167 3.644299983978271 1.583      1.432814   -0.079     
  1          30.9443    11.0362    0.4085     0.3861     0.804     
283.9      
  0.1605     2.2296     2.3649     2.4221     2.5295     2.5629     
  215.9      224.646    226.933    225.786    401.7331   1396.2356  
  227.493    92.8201    0.3185     0.3969     78.8595    4.7492     
  19.2124    0.2371     2.6049     0.0003     0.122      2.3144     
  0.9171     2.108      2.4283     2.5939     2.7417     2.961299896240234 
  3.255199909210205 3.668100118637085 1.6435     1.56007    -0.2629    
  1          30.9443    10.9905    0.4461     0.5477     0.8109    
284        
  0.1607     2.2447     2.4692     2.5535     2.6069     2.7304     
  215.9      228.298    227.8685   228.0815   399.0818   1407.2144  
  228.3129   96.0866    0.2617     0.3381     79.1193    4.6425     
  17.4233    0.2673     2.6497     0.0001000  0.1283     2.3325     
  0.9941     2.1267     2.4438     2.5205     2.6864     2.899600028991699 
  3.200999975204468 3.554199934005737 1.6806     1.566528   -0.4127    
  1          30.9446    10.825     0.455      0.6238     0.8545    
284.1      
  0.1608     2.2495     2.6082     2.693      2.8032     2.8273     
  215.9      227.09     226.74     226.9135   401.6147   1415.7133  
  226.6658   99.4282    0.2983     0.3965     79.4192    4.5319     
  16.6588    0.2731     2.6851     0.0001000  0.135      2.3595     
  1.0164     2.1422     2.4965     2.5198     2.7022     2.901900053024292 
  3.230600118637085 3.551800012588501 1.7228     1.592328   -0.3518    
  1          30.9449    10.6927    0.4541     0.6445     0.899     
284.2      
  0.1609     2.2639     2.7018     2.7701     2.8808     2.8995     
  215.9      222.464    225.3515   223.9025   408.5203   1422.9067  
  222.5663   100.9034   0.3775     0.479      79.1645    4.6164     
  18.9049    0.2454     2.7171     0.0001000  0.1379     2.3456     
  0.946      2.1509     2.4752     2.5289     2.6912     2.885499954223633 
  3.241400003433228 3.561399936676025 1.71       1.75487    -0.3473    
  1          30.9449    10.8277    0.4467     0.5758     0.9187    
284.3      
  0.1609     2.3247     2.6216     2.7003     2.8333     2.8898     
  215.9      221.6245   222.0475   221.828    421.1507   1427.9532  
  221.2487   101.4003   0.4767     0.5577     80.2067    4.8016     
  21.5514    0.207      2.7563     0.0001000  0.1389     2.3648     
  0.8669     2.1534     2.4957     2.6166     2.7766     2.976599931716919 
  3.36680006980896 3.733400106430054 1.7032     1.95119    -0.3077    
  1          30.9453    11.3594    0.4277     0.4886     0.9253    
284.4      
  0.161      2.4206     2.5466     2.657      2.8092     2.7934     
  215.9      222.4335   218.83     220.625    432.9329   1436.1919  
  221.4243   101.1974   0.4903     0.5781     81.5732    4.992      
  23.4747    0.1796     2.7897     0.0001000  0.1385     2.3888     
  0.8178     2.153      2.6202     2.7611     2.9246     3.134200096130371 
  3.571799993515015 3.959000110626221 1.7774     1.999611   -0.0728    
  1          30.9456    11.9249    0.4113     0.4287     0.9226    
284.5      
  0.1611     2.6017     2.509      2.6588     2.8354     2.7448     
  215.9      221.809    217.5575   219.673    434.5759   1458.4233  
  224.0598   99.7316    0.5775     0.6615     81.6781    4.986      
  20.9889    0.2299     2.8115     0.0001000  0.1356     2.3637     
  0.9341     2.1533     2.6822     2.7891     2.9427     3.161200046539307 
  3.597399950027466 3.957200050354004 1.8459     2.004724   0.0922     
  1          30.9456    11.7853    0.4185     0.5429     0.9031    
284.6      
  0.1612     2.7354     2.5681     2.7093     2.9773     2.7699     
  215.9      227.9365   215.577    221.6385   437.6081   1481.8882  
  229.4842   98.9996    0.6904     0.7456     80.1817    4.8914     
  17.0515    0.2995     2.8201     0.0001000  0.1341     2.2962     
  1.0681     2.1539     3.3658     3.5317     3.7116     3.972599983215332 
  4.529600143432617 4.998700141906738 2.3382     1.965288   0.1111     
  1          30.9453    11.2391    0.4241     0.6835     0.8933    
284.7      
  0.161      2.951      2.9499     3.051      3.5519     3.0059     
  215.9      234.682    214.997    224.6235   445.944    1513.2238  
  233.2616   97.9408    0.7019     0.717      77.7037    4.7758     
  12.7974    0.3734     2.8095     0.0001000  0.132      2.2033     
  1.1951     2.1642     5.8896     6.2573     6.67       7.194799900054932 
  8.180600166320801 9.194299697875977 3.9408     1.845729   -0.4301    
  1          30.9452    10.5208    0.425      0.8222     0.8792    
