~Version
 VERS              .         2.0                           : CWLS LOG ASCII STANDARD - VERSION 2.0
 WRAP              .         YES                            : ONE LINE PER DEPTH STEP
 DLM               .         SPACE                         : DELIMITING CHARACTER(SPACE TAB OR COMMA)
~Well Information
#_______________________________________________________________________________
#
#PARAMETER_NAME    .UNIT     VALUE                         : DESCRIPTION
#_______________________________________________________________________________
STRT               .M        130                           : First reference value
STOP               .M        830                           : Last reference value
STEP               .M        0.1                           : Step increment
NULL               .         -999.25                       : Missing value
COMP               .         ТОО КМГ-Б                     : Company
WELL               .         343                           : Well name
FLD                .         Каратюбе                      : Field
LOC                .                                       : Location
PROV               .                                       : Province
SRVC               .         Казпромгеофизика              : Service Company
DATE               .         25.06.24                      : Date
API                .                                       : API number
APDAT              .                                       : Elevation Above Permanent Datum
CNTY               .                                       : County
COUNT              .         Kazakhstan                    : Country
DF                 .                                       : DF Elevation
EPDAT              .                                       : Elevation of Permanent Datum
GL                 .                                       : GL Elevation
KB                 .                                       : KB Elevation
LGMEA              .                                       : Log Measured from
LATI               .         0                             : Latitude/Northing
LONG               .         0                             : Longitude/Easting
ORIGINALWELLNAME   .         343                           : 
PDAT               .                                       : Permanent Datum
RIGN               .                                       : Rig Name
RWS                .         -999                          : Def_Rw
STATE              .         1                             : State
WST                .         -999                          : Def_Rwt
~Parameter Information Block
#_______________________________________________________________________________
#
#PARAMETER_NAME    .UNIT     VALUE                         : DESCRIPTION
#_______________________________________________________________________________
SET                .         model_343                     : 
TLFamily_AHMF      .                                       : 
TLFamily_AT10      .         Resistivity - Medium          : 
TLFamily_AT20      .         Resistivity (Array)           : 
TLFamily_AT30      .         Resistivity (Array)           : 
TLFamily_AT60      .         Resistivity (Array)           : 
TLFamily_AT90      .         Resistivity - Deep            : 
TLFamily_BSC       .         Bit Size                      : 
TLFamily_C1        .         Caliper 1                     : 
TLFamily_C2        .         Caliper 2                     : 
TLFamily_CALI      .         Caliper                       : 
TLFamily_CFTC      .         Neutron Far                   : 
TLFamily_CNTC      .         Neutron Near                  : 
TLFamily_DEPTH     .         Measured Depth                : 
TLFamily_DTP       .         Compressional Slowness        : 
TLFamily_GR        .         Gamma Ray                     : 
TLFamily_HMIN      .                                       : 
TLFamily_HMNO      .                                       : 
TLFamily_HSGR      .         Gamma Ray                     : 
TLFamily_HTPR      .                                       : 
TLFamily_HTUR      .                                       : 
TLFamily_HUPR      .                                       : 
TLFamily_PEFZ      .         Photoelectric Factor          : 
TLFamily_PHIE      .         Effective Porosity            : 
TLFamily_PHIT      .         Total Porosity                : 
TLFamily_POTA      .         Potassium Concentration       : 
TLFamily_PURA      .         Uranium Concentration         : 
TLFamily_RHOZ      .         Bulk Density                  : 
TLFamily_RLA1      .         Resistivity (Array)           : 
TLFamily_RLA2      .         Resistivity (Array)           : 
TLFamily_RLA3      .         Resistivity (Array)           : 
TLFamily_RLA4      .         Resistivity (Array)           : 
TLFamily_RLA5      .         Resistivity (Array)           : 
TLFamily_RT        .         Resistivity - True Formation  : 
TLFamily_RXO       .         Flushed Zone Resistivity      : 
TLFamily_RXOZ      .         Resistivity - Flushed Zone    : 
TLFamily_SP        .         Spontaneous Potential         : 
TLFamily_SW        .         Water Saturation              : 
TLFamily_TEMP      .         Temperature                   : 
TLFamily_THOR      .         Thorium Concentration         : 
TLFamily_TNPH      .         Thermal Neutron Porosity      : 
TLFamily_URAN      .         Uranium Concentration         : 
TLFamily_VCLAV     .         Clay Volume Fraction          : 
~Curve Information
#_______________________________________________________________________________
#
#LOGNAME           .UNIT     LOG_ID                        : DESCRIPTION
#_______________________________________________________________________________
DEPTH              .M                                      : Depth 
AHMF               .ohm.m                                  : 21 Array Induction Mud Resistivity Fully Calibrated 
AT10               .ohm.m                                  : MedRes     22 Array Induction Two Foot Resistivity A10 
AT20               .ohm.m                                  : MedRes     23 Array Induction Two Foot Resistivity A20 
AT30               .ohm.m                                  : MedRes     24 Array Induction Two Foot Resistivity A30 
AT60               .ohm.m                                  : DeepRes    25 Array Induction Two Foot Resistivity A60 
AT90               .ohm.m                                  : XDeepRes   26 Array Induction Two Foot Resistivity A90 
BSC                .mm                                     : 40 Nominal Caliper 
C1                 .mm                                     : 37 CALIPER DIAMETER 1 
C2                 .mm                                     : 38 CALIPER DIAMETER 2 
CALI               .mm                                     : Caliper    39 Caliper 
CFTC               .                                       : 7 
CNTC               .dec                                    : Neutron    8 
DTP                .uSec/m                                 : 3 Sonic travel time 
GR                 .gAPI                                   : GammaRay   9 ï¿½ï¿½(ï¿½.ï¿½) 
HMIN               .Ohmm                                   : 2 HIP Micro Inverse Resistivity 
HMNO               .Ohmm                                   : 3 HIP Micro Normal Resistivity 
HSGR               .                                       : 29 
HTPR               .                                       : 31 
HTUR               .                                       : 32 
HUPR               .                                       : 33 
PEFZ               .B/E                                    : PEF        4 Formation Photoelectric Factor 
PHIE               .Dec                                    : Phi 
PHIT               .Dec                                    : PhiT 
POTA               .                                       : 28 
PURA               .PPM                                    : 36 Upper Limit of Formation Uranium Concentration (F13 
RHOZ               .g/cm3                                  : Density    5 Bulk Density 
RLA1               .ohm.m                                  : ShalRes    13 HRLT Borehole Corrected Resistivity 1 
RLA2               .ohm.m                                  : MedRes     14 HRLT Borehole Corrected Resistivity 2 
RLA3               .ohm.m                                  : DeepRes    15 HRLT Borehole Corrected Resistivity 3 
RLA4               .ohm.m                                  : XDeepRes   16 HRLT Borehole Corrected Resisitivity 4 
RLA5               .ohm.m                                  : UltraDeepR 17 HRLT Borehole Corrected Resistivity 5 
RT                 .Ohmm                                   : 18 
RXO                .Ohmm                                   : 19 
RXOZ               .ohm.m                                  : 2 (HDRS-H)                (2in)                   Invaded Formation Resistivity filtered at 18 inches 
SP                 .mV                                     : SP         20 Spontaneous Potential 
SW                 .Dec                                    : Sw 
TEMP               .DEGC                                   : Temp       41 Temp 
THOR               .                                       : 30 
TNPH               .V/V                                    : Neutron    10 Neutron porosity 
URAN               .                                       : 34 
VCLAV              .Dec                                    : Vcl 
~Ascii
# ...
508.8      
  0.1544     0.944      1.1579     1.263      1.4214     1.4106     
  215.9      215.316    214.75     215.033    633.9452   1741.5421  
  328.838    32.7148    0.6127     0.5412     26.1832    2.7108     
  4.973      0.2064     1.7986     0.3454     0.3468     0.9169     
  0.4456     2.0733     1.0282     1.1142     1.1804     1.22379994392395 
  1.267699956893921 1.425899982452393 0.6909     1.117024   23.05      
  0.9287     33.394     2.4865     0.2972     0.1868     0.0099    
508.9      
  0.1544     0.9399999999999999 1.1497     1.2514     1.3974     1.3986     
  215.9      215.7265   215.2795   215.503    611.4845   1733.3002  
  330.2948   33.6446    0.6115     0.541      27.4229    2.7695     
  5.338      0.1772     1.7949     0.353      0.3549     0.9638     
  0.4393     2.0621     1.0786     1.1723     1.2407     1.291000008583069 
  1.338899970054626 1.509999990463257 0.7209     1.141047   22.6682    
  0.8832     33.3963    2.669      0.3133     0.1708     0.0126    
509        
  0.1544     0.9552     1.1652     1.276      1.4355     1.4504     
  215.9      215.8485   215.808    215.8285   601.341    1748.9897  
  338.6182   35.043     0.5707     0.5262     27.8149    2.9001     
  5.5749     0.2131     1.7829     0.3556     0.3581     0.9612     
  0.4749     2.0603     1.0966     1.1902     1.2558     1.309299945831299 
  1.360700011253357 1.530200004577637 0.7319     1.160172   22.5695    
  0.8695     33.4028    2.7874     0.3271     0.2048     0.0171    
509.1      
  0.1544     0.965      1.1893     1.3026     1.4677     1.4958     
  215.9      215.654    216.024    215.8395   618.1058   1787.9471  
  341.5757   34.9288    0.5443     0.5208     27.7661    3.0646     
  5.6095     0.3443     1.7848     0.3527     0.3552     0.917      
  0.5748     2.0663     1.0687     1.1538     1.2156     1.269799947738647 
  1.32480001449585 1.482599973678589 0.7183     1.184044   22.4051    
  0.8891     33.4093    2.8048     0.3237     0.3108     0.0167    
509.2      
  0.1544     0.9754     1.2088     1.3206     1.4883     1.5105     
  215.9      216.054    217.7975   216.9235   646.6461   1830.7188  
  337.9594   34.5273    0.5444     0.5245     27.519     3.1737     
  5.5277     0.4706     1.7882     0.3455     0.3478     0.8707     
  0.6639     2.0768     1.0846     1.1593     1.2208     1.274999976158142 
  1.331300020217896 1.480299949645996 0.741      1.215401   21.9864    
  0.904      33.4137    2.7638     0.3121     0.4094     0.0154    
509.3      
  0.1545     0.9811     1.213      1.3253     1.4869     1.5103     
  215.9      217.8315   220.886    219.3535   689.3178   1872.1776  
  347.8713   34.1276    0.5304     0.52       27.0526    3.1088     
  5.2761     0.5153     1.7939     0.334      0.3361     0.8484     
  0.6773     2.0904     1.1092     1.18       1.2459     1.297099947929382 
  1.360499978065491 1.509500026702881 0.7663     1.229699   21.3572    
  0.9226     33.4137    2.638      0.2901     0.4369     0.0141    
509.4      
  0.1547     0.9918     1.231      1.3263     1.4836     1.5319     
  215.9      221.228    221.44     221.329    712.5635   1927.9211  
  347.1247   36.087     0.5646     0.5413     27.5926    3.4212     
  5.6633     0.5692     1.8161     0          0          0.8354     
  0.7135     2.1023     1.1147     1.1806     1.2521     1.304399967193604 
  1.370399951934814 1.522799968719482 0.7751     1.239202   20.7638    
  1          33.4185    2.8556     0.2872     0.4752     0.0208    
509.5      
  0.1549     0.9989     1.2422     1.3296     1.4764     1.5263     
  215.9      222.405    219.6715   221.034    722.8953   1976.6132  
  335.939    39.1623    0.641      0.5787     28.9558    3.7659     
  6.331      0.5911     1.8412     0          0          0.8518     
  0.7447     2.107      1.1085     1.1726     1.2519     1.299900054931641 
  1.372699975967407 1.528699994087219 0.7705     1.263775   20.418     
  1          33.4229    3.2076     0.2921     0.5003     0.0329    
509.6      
  0.1549     1.0135     1.2592     1.343      1.4895     1.5277     
  215.9      219.9155   217.6325   218.771    712.2731   1995.9725  
  329.5921   43.5591    0.6931     0.6122     31.9838    3.755      
  7.1969     0.4885     1.8723     0          0          0.961      
  0.7302     2.1057     1.1285     1.2051     1.2879     1.341400027275085 
  1.412299990653992 1.585999965667725 0.776      1.2767     20.2466    
  1          33.4229    3.6082     0.3044     0.4653     0.0537    
509.7      
  0.155      1.0415     1.303      1.3821     1.536      1.5585     
  215.9      218.7495   215.7275   217.2325   673.5712   2009.35    
  320.1706   49.2676    0.7271     0.6422     35.4293    3.8155     
  8.1469     0.4325     1.9154     0.3148     0.3277     1.0662     
  0.7478     2.1037     1.1685     1.2538     1.3387     1.390799999237061 
  1.468700051307678 1.649700045585632 0.796      1.2765     20.2313    
  0.9362     33.4264    4.0735     0.3408     0.4589     0.0859    
509.8      
  0.155      1.0721     1.3574     1.439      1.5977     1.6167     
  215.9      219.049    214.059    216.5395   628.6662   2010.6971  
  319.9949   54.3156    0.7007     0.619      39.0972    3.8727     
  8.8088     0.4127     1.9414     0.3137     0.3315     1.1716     
  0.7987     2.101      1.2106     1.303      1.3841     1.441200017929077 
  1.520699977874756 1.703400015830994 0.8141     1.281642   20.5522    
  0.9218     33.431     4.5344     0.3811     0.485      0.1188    
509.9      
  0.1548     1.1005     1.4061     1.4972     1.6556     1.6675     
  215.9      218.7145   212.631    215.6515   596.7474   1976.8431  
  314.08     55.3886    0.672      0.5946     42.9779    3.7654     
  7.888      0.472      1.9616     0.3235     0.3425     1.2863     
  0.945      2.0927     1.2583     1.3467     1.4222     1.480399966239929 
  1.559700012207031 1.730700016021729 0.8404     1.27091    21.0013    
  0.8831     33.435     4.8383     0.4051     0.6099     0.1263    
510        
  0.1544     1.122      1.4331     1.5316     1.6837     1.6823     
  215.9      217.029    211.8885   214.4425   575.4229   1956.7607  
  306.9717   57.2028    0.6736     0.6        44.865     3.5194     
  7.1135     0.4949     1.9826     0.3358     0.3567     1.3613     
  1.0166     2.0793     1.2387     1.3138     1.3846     1.441900014877319 
  1.517600059509277 1.669899940490723 0.8316     1.236551   21.4426    
  0.8652     33.4363    4.7811     0.4233     0.6739     0.1393    
510.1      
  0.154      1.1256     1.4332     1.5325     1.6765     1.6582     
  215.9      214.988    211.9635   213.47     561.2225   1940.1151  
  308.1942   58.904     0.6544     0.5852     45.4998    3.1918     
  6.3871     0.5002     1.9853     0.3393     0.3621     1.4119     
  1.0481     2.0668     1.2253     1.2868     1.3555     1.41100001335144 
  1.486199975013733 1.624899983406067 0.8391     1.206147   21.5777    
  0.8665     33.4367    4.5046     0.4349     0.7063     0.1519    
510.2      
  0.1537     1.1104     1.415      1.5151     1.6549     1.6208     
  215.9      213.9585   212.4595   213.2075   559.6366   1911.4336  
  307.5939   58.5018    0.6308     0.5588     44.8227    2.8138     
  5.4353     0.5192     1.9776     0.3414     0.3637     1.4396     
  1.0813     2.0551     1.2422     1.3043     1.3738     1.432700037956238 
  1.505399942398071 1.650599956512451 0.8559     1.171317   21.7805    
  0.8556     33.4391    4.0462     0.4264     0.7477     0.1489    
510.3      
  0.1536     1.0909     1.3895     1.4917     1.6343     1.5906     
  215.9      213.63     212.9885   213.309    568.0351000000001 1895.451   
  309.9219   58.5095    0.6107     0.5394     43.322     2.656      
  4.8294     0.5518     1.9744     0.333      0.3553     1.4093     
  1.0958     2.0457     1.1855     1.2524     1.3209     1.382599949836731 
  1.452100038528442 1.603000044822693 0.8061     1.113269   22.0245    
  0.8933     33.44      3.7437     0.4107     0.776      0.149     
