~Version
 VERS              .         2.0                           : CWLS LOG ASCII STANDARD - VERSION 2.0
 WRAP              .         YES                            : ONE LINE PER DEPTH STEP
 DLM               .         SPACE                         : DELIMITING CHARACTER(SPACE TAB OR COMMA)
~Well Information
#_______________________________________________________________________________
#
#PARAMETER_NAME    .UNIT     VALUE                         : DESCRIPTION
#_______________________________________________________________________________
STRT               .M        130                           : First reference value
STOP               .M        830                           : Last reference value
STEP               .M        0.1                           : Step increment
NULL               .         -999.25                       : Missing value
COMP               .         ТОО КМГ-Б                     : Company
WELL               .         343                           : Well name
FLD                .         Каратюбе                      : Field
LOC                .                                       : Location
PROV               .                                       : Province
SRVC               .         Казпромгеофизика              : Service Company
DATE               .         25.06.24                      : Date
API                .                                       : API number
APDAT              .                                       : Elevation Above Permanent Datum
CNTY               .                                       : County
COUNT              .         Kazakhstan                    : Country
DF                 .                                       : DF Elevation
EPDAT              .                                       : Elevation of Permanent Datum
GL                 .                                       : GL Elevation
KB                 .                                       : KB Elevation
LGMEA              .                                       : Log Measured from
LATI               .         0                             : Latitude/Northing
LONG               .         0                             : Longitude/Easting
ORIGINALWELLNAME   .         343                           : 
PDAT               .                                       : Permanent Datum
RIGN               .                                       : Rig Name
RWS                .         -999                          : Def_Rw
STATE              .         1                             : State
WST                .         -999                          : Def_Rwt
~Parameter Information Block
#_______________________________________________________________________________
#
#PARAMETER_NAME    .UNIT     VALUE                         : DESCRIPTION
#_______________________________________________________________________________
SET                .         model_343                     : 
TLFamily_AHMF      .                                       : 
TLFamily_AT10      .         Resistivity - Medium          : 
TLFamily_AT20      .         Resistivity (Array)           : 
TLFamily_AT30      .         Resistivity (Array)           : 
TLFamily_AT60      .         Resistivity (Array)           : 
TLFamily_AT90      .         Resistivity - Deep            : 
TLFamily_BSC       .         Bit Size                      : 
TLFamily_C1        .         Caliper 1                     : 
TLFamily_C2        .         Caliper 2                     : 
TLFamily_CALI      .         Caliper                       : 
TLFamily_CFTC      .         Neutron Far                   : 
TLFamily_CNTC      .         Neutron Near                  : 
TLFamily_DEPTH     .         Measured Depth                : 
TLFamily_DTP       .         Compressional Slowness        : 
TLFamily_GR        .         Gamma Ray                     : 
TLFamily_HMIN      .                                       : 
TLFamily_HMNO      .                                       : 
TLFamily_HSGR      .         Gamma Ray                     : 
TLFamily_HTPR      .                                       : 
TLFamily_HTUR      .                                       : 
TLFamily_HUPR      .                                       : 
TLFamily_PEFZ      .         Photoelectric Factor          : 
TLFamily_PHIE      .         Effective Porosity            : 
TLFamily_PHIT      .         Total Porosity                : 
TLFamily_POTA      .         Potassium Concentration       : 
TLFamily_PURA      .         Uranium Concentration         : 
TLFamily_RHOZ      .         Bulk Density                  : 
TLFamily_RLA1      .         Resistivity (Array)           : 
TLFamily_RLA2      .         Resistivity (Array)           : 
TLFamily_RLA3      .         Resistivity (Array)           : 
TLFamily_RLA4      .         Resistivity (Array)           : 
TLFamily_RLA5      .         Resistivity (Array)           : 
TLFamily_RT        .         Resistivity - True Formation  : 
TLFamily_RXO       .         Flushed Zone Resistivity      : 
TLFamily_RXOZ      .         Resistivity - Flushed Zone    : 
TLFamily_SP        .         Spontaneous Potential         : 
TLFamily_SW        .         Water Saturation              : 
TLFamily_TEMP      .         Temperature                   : 
TLFamily_THOR      .         Thorium Concentration         : 
TLFamily_TNPH      .         Thermal Neutron Porosity      : 
TLFamily_URAN      .         Uranium Concentration         : 
TLFamily_VCLAV     .         Clay Volume Fraction          : 
~Curve Information
#_______________________________________________________________________________
#
#LOGNAME           .UNIT     LOG_ID                        : DESCRIPTION
#_______________________________________________________________________________
DEPTH              .M                                      : Depth 
AHMF               .ohm.m                                  : 21 Array Induction Mud Resistivity Fully Calibrated 
AT10               .ohm.m                                  : MedRes     22 Array Induction Two Foot Resistivity A10 
AT20               .ohm.m                                  : MedRes     23 Array Induction Two Foot Resistivity A20 
AT30               .ohm.m                                  : MedRes     24 Array Induction Two Foot Resistivity A30 
AT60               .ohm.m                                  : DeepRes    25 Array Induction Two Foot Resistivity A60 
AT90               .ohm.m                                  : XDeepRes   26 Array Induction Two Foot Resistivity A90 
BSC                .mm                                     : 40 Nominal Caliper 
C1                 .mm                                     : 37 CALIPER DIAMETER 1 
C2                 .mm                                     : 38 CALIPER DIAMETER 2 
CALI               .mm                                     : Caliper    39 Caliper 
CFTC               .                                       : 7 
CNTC               .dec                                    : Neutron    8 
DTP                .uSec/m                                 : 3 Sonic travel time 
GR                 .gAPI                                   : GammaRay   9 ï¿½ï¿½(ï¿½.ï¿½) 
HMIN               .Ohmm                                   : 2 HIP Micro Inverse Resistivity 
HMNO               .Ohmm                                   : 3 HIP Micro Normal Resistivity 
HSGR               .                                       : 29 
HTPR               .                                       : 31 
HTUR               .                                       : 32 
HUPR               .                                       : 33 
PEFZ               .B/E                                    : PEF        4 Formation Photoelectric Factor 
PHIE               .Dec                                    : Phi 
PHIT               .Dec                                    : PhiT 
POTA               .                                       : 28 
PURA               .PPM                                    : 36 Upper Limit of Formation Uranium Concentration (F13 
RHOZ               .g/cm3                                  : Density    5 Bulk Density 
RLA1               .ohm.m                                  : ShalRes    13 HRLT Borehole Corrected Resistivity 1 
RLA2               .ohm.m                                  : MedRes     14 HRLT Borehole Corrected Resistivity 2 
RLA3               .ohm.m                                  : DeepRes    15 HRLT Borehole Corrected Resistivity 3 
RLA4               .ohm.m                                  : XDeepRes   16 HRLT Borehole Corrected Resisitivity 4 
RLA5               .ohm.m                                  : UltraDeepR 17 HRLT Borehole Corrected Resistivity 5 
RT                 .Ohmm                                   : 18 
RXO                .Ohmm                                   : 19 
RXOZ               .ohm.m                                  : 2 (HDRS-H)                (2in)                   Invaded Formation Resistivity filtered at 18 inches 
SP                 .mV                                     : SP         20 Spontaneous Potential 
SW                 .Dec                                    : Sw 
TEMP               .DEGC                                   : Temp       41 Temp 
THOR               .                                       : 30 
TNPH               .V/V                                    : Neutron    10 Neutron porosity 
URAN               .                                       : 34 
VCLAV              .Dec                                    : Vcl 
~Ascii
# ...
193.6      
  0.1671     1.998900055885315 3.1194     4.0214     4.561      3.7846     
  215.9      240.3405   226.5855   233.3605   380.7257   1431.3632  
  221.9514   90.0615    0.7897     0.8057     74.4405    4.7908     
  18.8998    0.2596     2.6283     0.0009     0.117      2.168      
  0.9203     2.0743     3.3603     3.8962     4.228      4.401500225067139 
  4.619999885559082 5.536699771881104 2.0338     2.119365   16.0804    
  1          30.0532    10.3865    0.5027     0.5628     0.7742    
193.7      
  0.1669     2.019000053405762 3.2435     4.3197     5.231      4.1963     
  215.9      241.6665   227.9205   234.692    362.1356   1444       
  219.4332   91.2687    0.731      0.8226     75.4758    4.7472     
  14.7122    0.324      2.6058     0.0006     0.1191     2.1666     
  1.0636     2.0661     2.6136     2.9517     3.1871     3.312000036239624 
  3.476599931716919 4.087999820709229 1.6556     2.345156   17.0542    
  1          30.0536    10.2854    0.554      0.7019     0.7902    
193.8      
  0.1667     1.884500026702881 2.9314     3.7263     4.6767     3.8625     
  215.9      241.478    233.2235   237.306    365.2961   1458.5046  
  215.9925   88.6422    0.7446     0.8486     74.9538    4.649      
  15.288     0.3048     2.5796     0.0014     0.1146     2.1749     
  1.021      2.0533     2.2865     2.5288     2.72       2.814300060272217 
  2.960599899291992 3.425600051879883 1.5173     2.799145   18.0583    
  1          30.0536    10.1103    0.5547     0.6628     0.7552    
193.9      
  0.1666     1.657400012016296 2.448      3.0542     3.8965     3.3259     
  215.9      240.808    236.7675   238.7795   374.3758   1467.9121  
  212.0029   87.4662    0.8661     0.9783     74.7349    4.5964     
  14.4507    0.3265     2.5535     0.002      0.1129     2.1704     
  1.0645     2.036      2.2926     2.5404     2.7457     2.845299959182739 
  3          3.487299919128418 1.5086     2.770311   19.0965    1          
  30.0536    9.9761     0.5373     0.7078     0.7395    
194        
  0.1664     1.519600033760071 2.2342     2.7115     3.443      3.0098     
  215.9      240.8465   236.886    238.8585   390.1302   1471.572   
  215.5167   87.9259    1.0491     1.1173     75.0477    4.611      
  11.3158    0.4108     2.5156     0.0017     0.1136     2.1478     
  1.2405     2.0208     2.2343     2.4832     2.6922     2.797399997711182 
  2.953399896621704 3.443399906158447 1.4508     2.255501   19.8934    
  1          30.0536    9.9037     0.4995     0.8821     0.7457    
194.1      
  0.1663     1.422199964523315 2.0692     2.517      3.2026     2.8341     
  215.9      241.8355   237.85     239.835    408.9629   1448.5582  
  224.2427   85.1643    0.8298     0.7927     73.9545    4.9137     
  17.0676    0.2992     2.4906     0.0062     0.1092     2.1034     
  0.9847     2.0145     2.1365     2.3966     2.5817     2.678900003433228 
  2.824100017547607 3.295500040054321 1.3821     1.819989   20.5391    
  1          30.0536    10.3266    0.4516     0.6327     0.687     
194.2      
  0.1662     1.381899952888489 2.0158     2.4474     3.1165     2.8144     
  215.9      242.9105   239.0505   240.973    422.44     1420.5122  
  225.1577   84.2528    0.6427     0.5863     73.5979    5.1108     
  19.6236    0.2484     2.4788     0.0104     0.1096     2.0741     
  0.866      2.014      2.1018     2.3998     2.5718     2.688899993896484 
  2.819499969482422 3.321799993515015 1.335      1.467892   20.9936    
  1          30.0536    10.6005    0.4131     0.5153     0.6612    
194.3      
  0.1661     1.358399987220764 2.0011     2.4296     3.1346     2.8858     
  215.9      243.3645   239.3335   241.3405   428.2976   1387.4557  
  222.3979   86.1303    0.6219     0.561      74.6982    5.0837     
  15.3545    0.3326     2.4746     0.0035     0.1106     2.0736     
  1.0492     2.0153     2.1247     2.5271     2.713      2.818000078201294 
  2.980799913406372 3.570199966430664 1.2802     1.244348   21.6398    
  1          30.0536    10.5416    0.3881     0.6897     0.7143    
194.4      
  0.166      1.357300043106079 2.0516     2.5393     3.2928     3.135      
  215.9      243.4045   238.09     240.732    416.8196   1374.0801  
  222.5151   86.0422    0.6238     0.5557     76.2049    5.1441     
  13.6822    0.3779     2.4657     0.0037     0.1104     2.0872     
  1.1569     2.0168     2.1612     2.6329     2.84       2.967299938201904 
  3.129800081253052 3.803999900817871 1.254      1.153356   22.2382    
  1          30.054     10.7375    0.4        0.7891     0.7118    
194.5      
  0.166      1.386899948120117 2.1438     2.6902     3.5148     3.443      
  215.9      244.7885   236.8895   240.805    403.1221   1358.9139  
  223.8474   87.3204    0.6004     0.5314     78.0186    5.0869     
  13.438     0.3819     2.4605     0.0021     0.1127     2.153      
  1.1954     2.0141     2.1341     2.6173     2.8516     2.978899955749512 
  3.147700071334839 3.850699901580811 1.22       1.131243   22.724     
  1          30.0542    10.9305    0.4153     0.8179     0.7376    
194.6      
  0.1659     1.425300002098083 2.255      2.9143     3.8202     3.9616     
  215.9      247.2975   236.911    242.048    388.9465   1337.2583  
  223.1886   91.1841    0.5979     0.5281     80.3104    4.7598     
  15.1626    0.3159     2.4573     0.0006     0.119      2.3196     
  1.1208     2.0092     2.0191     2.4581     2.7201     2.832499980926514 
  3.00189995765686 3.680700063705444 1.1612     1.124948   23.2207    
  1          30.0542    11.0265    0.4292     0.7299     0.7891    
194.7      
  0.1658     1.44379997253418 2.3328     2.9856     4.0199     4.309      
  215.9      248.141    237.491    242.7575   367.4058   1329.9261  
  221.6879   89.7117    0.6181     0.5474     81.0117    4.569      
  14.29      0.3211     2.435      0.001      0.1164     2.387      
  1.1627     2.0069     1.9467     2.3438     2.637      2.744800090789795 
  2.906599998474121 3.573299884796143 1.1243     1.128187   23.774     
  1          30.0542    10.9024    0.4696     0.7671     0.7695    
194.8      
  0.1656     1.39709997177124 2.2423     2.8048     3.8189     4.0448     
  215.9      248.6985   237.373    242.969    352.6181   1328.5701  
  222.7933   88.245     0.6189     0.5523     80.4171    4.3726     
  13.976     0.3178     2.415      0.0015     0.114      2.4152     
  1.16       2.0033     1.9213     2.3049     2.6125     2.719599962234497 
  2.886499881744385 3.552599906921387 1.1096     1.139336   24.4385    
  1          30.0542    10.5616    0.4997     0.7678     0.7499    
194.9      
  0.1654     1.339699983596802 2.1171     2.6459     3.563      3.7767     
  215.9      251.0305   235.817    243.301    354.1794   1334.2158  
  223.5839   88.7018    0.622      0.5524     77.5127    4.0741     
  16.7679    0.2466     2.4217     0.0013     0.1147     2.4066     
  0.9676     1.9952     1.889      2.2576     2.5689     2.694700002670288 
  2.851799964904785 3.516900062561035 1.092      1.142347   24.9574    
  1          30.0542    9.8054     0.4992     0.5937     0.756     
195        
  0.1652     1.313199996948242 2.0189     2.5125     3.3458     3.5408     
  215.9      255.7115   233.1925   244.181    353.5209   1338.7692  
  225.8679   83.5359    0.6178     0.546      75.2805    4.0269     
  16.2432    0.2494     2.4205     0.0152     0.1114     2.336      
  0.94       1.9903     1.8927     2.2696     2.5801     2.723000049591064 
  2.882999897003174 3.561100006103516 1.0895     1.133684   25.4213    
  1          30.0545    9.4052     0.5033     0.5812     0.6409    
195.1      
  0.1651     1.285099983215332 1.9115     2.385      3.1171     3.333      
  215.9      260.0715   232.06     245.6665   353.5396   1343.5297  
  230.7067   78.6541    0.5686     0.5161     73.4259    4.0834     
  15.4617    0.2648     2.4143     0.1222     0.1976     2.2566     
  0.9443     1.9887     1.892      2.2802     2.5927     2.761100053787231 
  2.912899971008301 3.614399909973145 1.0806     1.123944   25.8376    
  1          30.055     9.213      0.5061     0.5979     0.5028    
