~Version
 VERS              .         2.0                           : CWLS LOG ASCII STANDARD - VERSION 2.0
 WRAP              .         YES                            : ONE LINE PER DEPTH STEP
 DLM               .         SPACE                         : DELIMITING CHARACTER(SPACE TAB OR COMMA)
~Well Information
#_______________________________________________________________________________
#
#PARAMETER_NAME    .UNIT     VALUE                         : DESCRIPTION
#_______________________________________________________________________________
STRT               .M        130                           : First reference value
STOP               .M        830                           : Last reference value
STEP               .M        0.1                           : Step increment
NULL               .         -999.25                       : Missing value
COMP               .         ТОО КМГ-Б                     : Company
WELL               .         343                           : Well name
FLD                .         Каратюбе                      : Field
LOC                .                                       : Location
PROV               .                                       : Province
SRVC               .         Казпромгеофизика              : Service Company
DATE               .         25.06.24                      : Date
API                .                                       : API number
APDAT              .                                       : Elevation Above Permanent Datum
CNTY               .                                       : County
COUNT              .         Kazakhstan                    : Country
DF                 .                                       : DF Elevation
EPDAT              .                                       : Elevation of Permanent Datum
GL                 .                                       : GL Elevation
KB                 .                                       : KB Elevation
LGMEA              .                                       : Log Measured from
LATI               .         0                             : Latitude/Northing
LONG               .         0                             : Longitude/Easting
ORIGINALWELLNAME   .         343                           : 
PDAT               .                                       : Permanent Datum
RIGN               .                                       : Rig Name
RWS                .         -999                          : Def_Rw
STATE              .         1                             : State
WST                .         -999                          : Def_Rwt
~Parameter Information Block
#_______________________________________________________________________________
#
#PARAMETER_NAME    .UNIT     VALUE                         : DESCRIPTION
#_______________________________________________________________________________
SET                .         model_343                     : 
TLFamily_AHMF      .                                       : 
TLFamily_AT10      .         Resistivity - Medium          : 
TLFamily_AT20      .         Resistivity (Array)           : 
TLFamily_AT30      .         Resistivity (Array)           : 
TLFamily_AT60      .         Resistivity (Array)           : 
TLFamily_AT90      .         Resistivity - Deep            : 
TLFamily_BSC       .         Bit Size                      : 
TLFamily_C1        .         Caliper 1                     : 
TLFamily_C2        .         Caliper 2                     : 
TLFamily_CALI      .         Caliper                       : 
TLFamily_CFTC      .         Neutron Far                   : 
TLFamily_CNTC      .         Neutron Near                  : 
TLFamily_DEPTH     .         Measured Depth                : 
TLFamily_DTP       .         Compressional Slowness        : 
TLFamily_GR        .         Gamma Ray                     : 
TLFamily_HMIN      .                                       : 
TLFamily_HMNO      .                                       : 
TLFamily_HSGR      .         Gamma Ray                     : 
TLFamily_HTPR      .                                       : 
TLFamily_HTUR      .                                       : 
TLFamily_HUPR      .                                       : 
TLFamily_PEFZ      .         Photoelectric Factor          : 
TLFamily_PHIE      .         Effective Porosity            : 
TLFamily_PHIT      .         Total Porosity                : 
TLFamily_POTA      .         Potassium Concentration       : 
TLFamily_PURA      .         Uranium Concentration         : 
TLFamily_RHOZ      .         Bulk Density                  : 
TLFamily_RLA1      .         Resistivity (Array)           : 
TLFamily_RLA2      .         Resistivity (Array)           : 
TLFamily_RLA3      .         Resistivity (Array)           : 
TLFamily_RLA4      .         Resistivity (Array)           : 
TLFamily_RLA5      .         Resistivity (Array)           : 
TLFamily_RT        .         Resistivity - True Formation  : 
TLFamily_RXO       .         Flushed Zone Resistivity      : 
TLFamily_RXOZ      .         Resistivity - Flushed Zone    : 
TLFamily_SP        .         Spontaneous Potential         : 
TLFamily_SW        .         Water Saturation              : 
TLFamily_TEMP      .         Temperature                   : 
TLFamily_THOR      .         Thorium Concentration         : 
TLFamily_TNPH      .         Thermal Neutron Porosity      : 
TLFamily_URAN      .         Uranium Concentration         : 
TLFamily_VCLAV     .         Clay Volume Fraction          : 
~Curve Information
#_______________________________________________________________________________
#
#LOGNAME           .UNIT     LOG_ID                        : DESCRIPTION
#_______________________________________________________________________________
DEPTH              .M                                      : Depth 
AHMF               .ohm.m                                  : 21 Array Induction Mud Resistivity Fully Calibrated 
AT10               .ohm.m                                  : MedRes     22 Array Induction Two Foot Resistivity A10 
AT20               .ohm.m                                  : MedRes     23 Array Induction Two Foot Resistivity A20 
AT30               .ohm.m                                  : MedRes     24 Array Induction Two Foot Resistivity A30 
AT60               .ohm.m                                  : DeepRes    25 Array Induction Two Foot Resistivity A60 
AT90               .ohm.m                                  : XDeepRes   26 Array Induction Two Foot Resistivity A90 
BSC                .mm                                     : 40 Nominal Caliper 
C1                 .mm                                     : 37 CALIPER DIAMETER 1 
C2                 .mm                                     : 38 CALIPER DIAMETER 2 
CALI               .mm                                     : Caliper    39 Caliper 
CFTC               .                                       : 7 
CNTC               .dec                                    : Neutron    8 
DTP                .uSec/m                                 : 3 Sonic travel time 
GR                 .gAPI                                   : GammaRay   9 ï¿½ï¿½(ï¿½.ï¿½) 
HMIN               .Ohmm                                   : 2 HIP Micro Inverse Resistivity 
HMNO               .Ohmm                                   : 3 HIP Micro Normal Resistivity 
HSGR               .                                       : 29 
HTPR               .                                       : 31 
HTUR               .                                       : 32 
HUPR               .                                       : 33 
PEFZ               .B/E                                    : PEF        4 Formation Photoelectric Factor 
PHIE               .Dec                                    : Phi 
PHIT               .Dec                                    : PhiT 
POTA               .                                       : 28 
PURA               .PPM                                    : 36 Upper Limit of Formation Uranium Concentration (F13 
RHOZ               .g/cm3                                  : Density    5 Bulk Density 
RLA1               .ohm.m                                  : ShalRes    13 HRLT Borehole Corrected Resistivity 1 
RLA2               .ohm.m                                  : MedRes     14 HRLT Borehole Corrected Resistivity 2 
RLA3               .ohm.m                                  : DeepRes    15 HRLT Borehole Corrected Resistivity 3 
RLA4               .ohm.m                                  : XDeepRes   16 HRLT Borehole Corrected Resisitivity 4 
RLA5               .ohm.m                                  : UltraDeepR 17 HRLT Borehole Corrected Resistivity 5 
RT                 .Ohmm                                   : 18 
RXO                .Ohmm                                   : 19 
RXOZ               .ohm.m                                  : 2 (HDRS-H)                (2in)                   Invaded Formation Resistivity filtered at 18 inches 
SP                 .mV                                     : SP         20 Spontaneous Potential 
SW                 .Dec                                    : Sw 
TEMP               .DEGC                                   : Temp       41 Temp 
THOR               .                                       : 30 
TNPH               .V/V                                    : Neutron    10 Neutron porosity 
URAN               .                                       : 34 
VCLAV              .Dec                                    : Vcl 
~Ascii
# ...
148.7      
  0.1643     -999.25    -999.25    -999.25    -999.25    -999.25    
  228.7      228.827    228.1435   228.485    296.93359375 1145.9836  
  219.7992   57.1435    -999.25    -999.25    55.3823    4.094      
  2.5317     1.6193     -999.25    -999.25    -999.25    1.207      
  2.3665     -999.25    -999.25    -999.25    -999.25    -999.25    
  -999.25    -999.25    -999.25    -999.25    43.8754    -999.25    
  29.3957    4.9355     -999.25    1.9513     0.1592    
148.8      
  0.1643     -999.25    -999.25    -999.25    -999.25    -999.25    
  228.7      228.827    228.3575   228.5925   299.6906127929688 1144.7631  
  217.3395   55.2947    -999.25    -999.25    54.8179    4.4552     
  2.7009     1.6548     -999.25    -999.25    -999.25    1.1587     
  2.3366     -999.25    -999.25    -999.25    -999.25    -999.25    
  -999.25    -999.25    -999.25    -999.25    45.1891    -999.25    
  29.3971    5.1501     -999.25    1.9196     0.141     
148.9      
  0.1643     -999.25    -999.25    -999.25    -999.25    -999.25    
  228.7      228.827    228.513    228.67     301.3851928710938 1141.2542  
  221.1681   52.5631    -999.25    -999.25    53.3584    4.8843     
  3.0833     1.5841     -999.25    -999.25    -999.25    1.1042     
  2.1623     -999.25    -999.25    -999.25    -999.25    -999.25    
  -999.25    -999.25    -999.25    -999.25    47.5642    -999.25    
  29.3973    5.3934     -999.25    1.7492     0.1157    
149        
  0.1643     -999.25    -999.25    -999.25    -999.25    -999.25    
  228.7      228.8325   228.557    228.6945   295.4516906738281 1130.2976  
  225.414    51.9373    -999.25    -999.25    51.024     4.7486     
  2.886      1.6477     -999.25    -999.25    -999.25    1.0575     
  2.1387     -999.25    -999.25    -999.25    -999.25    -999.25    
  -999.25    -999.25    -999.25    -999.25    50.403     -999.25    
  29.4007    5.0249     -999.25    1.7409     0.1102    
149.1      
  0.1642     -999.25    -999.25    -999.25    -999.25    -999.25    
  228.7      229.027    228.337    228.6815   293.0539855957031 1123.804   
  228.2543   50.8193    -999.25    -999.25    48.3322    4.6568     
  2.8255     1.6492     -999.25    -999.25    -999.25    1.0151     
  2.0539     -999.25    -999.25    -999.25    -999.25    -999.25    
  -999.25    -999.25    -999.25    -999.25    53.6528    -999.25    
  29.4024    4.7282     -999.25    1.6754     0.1006    
149.2      
  0.1642     -999.25    -999.25    -999.25    -999.25    -999.25    
  228.7      229.263    228.122    228.6915   293.7916870117188 1121.2679  
  227.0465   49.2649    -999.25    -999.25    45.2531    4.6124     
  2.9132     1.5834     -999.25    -999.25    -999.25    0.9776     
  1.9028     -999.25    -999.25    -999.25    -999.25    -999.25    
  -999.25    -999.25    -999.25    -999.25    55.1833    -999.25    
  29.4024    4.509      -999.25    1.548      0.0877    
149.3      
  0.1643     -999.25    -999.25    -999.25    -999.25    -999.25    
  228.7      229.215    228.337    228.7755   284.1395874023438 1130.1219  
  224.3013   50.0516    -999.25    -999.25    41.943     4.8814     
  3.0644     1.5926     -999.25    -999.25    -999.25    0.8925     
  1.7473     -999.25    -999.25    -999.25    -999.25    -999.25    
  -999.25    -999.25    -999.25    -999.25    55.6256    -999.25    
  29.4047    4.3431     -999.25    1.4208     0.0941    
149.4      
  0.1645     -999.25    -999.25    -999.25    -999.25    -999.25    
  228.7      229.118    228.663    228.8905   275.6115112304688 1137.1506  
  218.2765   49.6669    -999.25    -999.25    38.2938    4.9171     
  3.158      1.5572     -999.25    -999.25    -999.25    0.8194     
  1.575      -999.25    -999.25    -999.25    -999.25    -999.25    
  -999.25    -999.25    -999.25    -999.25    54.8888    -999.25    
  29.4064    4.0363     -999.25    1.2785     0.091     
149.5      
  0.1648     -999.25    -999.25    -999.25    -999.25    -999.25    
  228.7      229.0725   228.8325   228.9525   268.3012084960938 1142.2019  
  217.4859   48.013     -999.25    -999.25    34.2077    4.6263     
  3.1717     1.4587     -999.25    -999.25    -999.25    0.7647     
  1.3807     -999.25    -999.25    -999.25    -999.25    -999.25    
  -999.25    -999.25    -999.25    -999.25    53.2047    -999.25    
  29.4074    3.5399     -999.25    1.1162     0.0778    
149.6      
  0.1651     -999.25    -999.25    -999.25    -999.25    -999.25    
  228.7      228.9345   228.891    228.913    261.5674133300781 1133.5946  
  225.5311   47.0514    -999.25    -999.25    33.3727    4.1232     
  3.4659     1.2038     -999.25    -999.25    -999.25    0.8165     
  1.2297     -999.25    -999.25    -999.25    -999.25    -999.25    
  -999.25    -999.25    -999.25    -999.25    49.9591    -999.25    
  29.4074    3.3481     -999.25    0.9734     0.0706    
149.7      
  0.1654     -999.25    -999.25    -999.25    -999.25    -999.25    
  228.7      232.9055   230.797    231.8465   263.206298828125 1132.3126  
  226.5048   46.0277    -999.25    -999.25    33.8484    3.7717     
  3.7234     1.014      -999.25    -999.25    -999.25    0.883      
  1.1506     -999.25    -999.25    -999.25    -999.25    -999.25    
  -999.25    -999.25    -999.25    -999.25    44.6959    -999.25    
  29.409     3.3282     -999.25    0.8935     0.0631    
149.8      
  0.1657     -999.25    -999.25    -999.25    -999.25    -999.25    
  228.7      237.9265   233.693    235.8      275.912109375 1141.4955  
  227.4565   44.8833    -999.25    -999.25    35.9382    3.7019     
  3.8757     0.9556     -999.25    -999.25    -999.25    0.9564     
  1.1816     -999.25    -999.25    -999.25    -999.25    -999.25    
  -999.25    -999.25    -999.25    -999.25    39.9927    -999.25    
  29.4126    3.5395     -999.25    0.9131     0.0551    
149.9      
  0.1658     -999.25    -999.25    -999.25    -999.25    -999.25    
  228.7      234.912    234.149    234.524    288.1781921386719 1156.2087  
  232.7053   47.3534    -999.25    -999.25    39.9732    3.5185     
  3.4467     1.029      -999.25    -999.25    -999.25    1.0774     
  1.4096     -999.25    -999.25    -999.25    -999.25    -999.25    
  -999.25    -999.25    -999.25    -999.25    36.1361    -999.25    
  29.4129    3.7762     -999.25    1.1156     0.0728    
150        
  0.1655     1.095399975776672 7.3842     2.0268     1.7153     1.8381     
  222.3      233.3985   233.36     233.3755   301.1213073730469 1166.7258  
  224.521    52.0624    0.0997     0.0889     43.9695    3.3518     
  3.1404     1.0683     6.2585     0.2118     0.2285     1.2003     
  1.5963     2.4445     1.9998     2.0484     2.0996     2.015399932861328 
  1.806900024414063 1.849599957466125 2.2699     -999.25    33.5702    
  1          29.414     4.0187     0.5503     1.2792     0.1113    
150.1      
  0.1652     1.516299962997437 4.9846     2.0347     1.7775     1.8773     
  215.9      238.1935   232.889    235.523    315.239501953125 1169.504   
  215.6265   59.8412    1.0467     0.947      47.2758    3.2533     
  3.2557     0.9999     4.9713     0.2615     0.2895     1.3117     
  1.6409     2.2803     1.7999     2.0467     2.2254     2.177099943161011 
  1.988899946212769 2.279400110244751 1.1753     0.3786677  31.406     
  1          29.4168    4.2646     0.4962     1.3096     0.1871    
150.2      
  0.1649     1.252599954605103 4.2762     2.1614     1.9656     1.8472     
  215.9      241.1035   232.459    236.7415   326.900390625 1190.2791  
  225.3188   64.9286    1.555      1.455      48.9442    3.1426     
  3.7018     0.8615     4.1255     0.3171     0.3538     1.4145     
  1.5423     2.0652     1.5726     1.7699     1.8621     1.783400058746338 
  1.586699962615967 1.720800042152405 1.5626     1.529411   29.5502    
  1          29.4202    4.4386     0.4766     1.2097     0.2441    
150.3      
  0.1648     2.249799966812134 7.8062     2.2941     2.2199     1.9139     
  215.9      246.1735   233.108    239.5455   338.8052978515625 1217.5991  
  239.4913   69.0843    1.4881     1.4561     50.2157    3.0042     
  4.1309     0.7286     3.6114     0.3174     0.3616     1.5212     
  1.4368     1.9364     1.5239     1.721      1.8032     1.709100008010864 
  1.527600049972534 1.652899980545044 1.5785     3.337245   28.1658    
  1          29.4225    4.5615     0.4642     1.1049     0.2947    
