~Version
 VERS              .         2.0                           : CWLS LOG ASCII STANDARD - VERSION 2.0
 WRAP              .         YES                            : ONE LINE PER DEPTH STEP
 DLM               .         SPACE                         : DELIMITING CHARACTER(SPACE TAB OR COMMA)
~Well Information
#_______________________________________________________________________________
#
#PARAMETER_NAME    .UNIT     VALUE                         : DESCRIPTION
#_______________________________________________________________________________
STRT               .M        130                           : First reference value
STOP               .M        830                           : Last reference value
STEP               .M        0.1                           : Step increment
NULL               .         -999.25                       : Missing value
COMP               .         ТОО КМГ-Б                     : Company
WELL               .         343                           : Well name
FLD                .         Каратюбе                      : Field
LOC                .                                       : Location
PROV               .                                       : Province
SRVC               .         Казпромгеофизика              : Service Company
DATE               .         25.06.24                      : Date
API                .                                       : API number
APDAT              .                                       : Elevation Above Permanent Datum
CNTY               .                                       : County
COUNT              .         Kazakhstan                    : Country
DF                 .                                       : DF Elevation
EPDAT              .                                       : Elevation of Permanent Datum
GL                 .                                       : GL Elevation
KB                 .                                       : KB Elevation
LGMEA              .                                       : Log Measured from
LATI               .         0                             : Latitude/Northing
LONG               .         0                             : Longitude/Easting
ORIGINALWELLNAME   .         343                           : 
PDAT               .                                       : Permanent Datum
RIGN               .                                       : Rig Name
RWS                .         -999                          : Def_Rw
STATE              .         1                             : State
WST                .         -999                          : Def_Rwt
~Parameter Information Block
#_______________________________________________________________________________
#
#PARAMETER_NAME    .UNIT     VALUE                         : DESCRIPTION
#_______________________________________________________________________________
SET                .         model_343                     : 
TLFamily_AHMF      .                                       : 
TLFamily_AT10      .         Resistivity - Medium          : 
TLFamily_AT20      .         Resistivity (Array)           : 
TLFamily_AT30      .         Resistivity (Array)           : 
TLFamily_AT60      .         Resistivity (Array)           : 
TLFamily_AT90      .         Resistivity - Deep            : 
TLFamily_BSC       .         Bit Size                      : 
TLFamily_C1        .         Caliper 1                     : 
TLFamily_C2        .         Caliper 2                     : 
TLFamily_CALI      .         Caliper                       : 
TLFamily_CFTC      .         Neutron Far                   : 
TLFamily_CNTC      .         Neutron Near                  : 
TLFamily_DEPTH     .         Measured Depth                : 
TLFamily_DTP       .         Compressional Slowness        : 
TLFamily_GR        .         Gamma Ray                     : 
TLFamily_HMIN      .                                       : 
TLFamily_HMNO      .                                       : 
TLFamily_HSGR      .         Gamma Ray                     : 
TLFamily_HTPR      .                                       : 
TLFamily_HTUR      .                                       : 
TLFamily_HUPR      .                                       : 
TLFamily_PEFZ      .         Photoelectric Factor          : 
TLFamily_PHIE      .         Effective Porosity            : 
TLFamily_PHIT      .         Total Porosity                : 
TLFamily_POTA      .         Potassium Concentration       : 
TLFamily_PURA      .         Uranium Concentration         : 
TLFamily_RHOZ      .         Bulk Density                  : 
TLFamily_RLA1      .         Resistivity (Array)           : 
TLFamily_RLA2      .         Resistivity (Array)           : 
TLFamily_RLA3      .         Resistivity (Array)           : 
TLFamily_RLA4      .         Resistivity (Array)           : 
TLFamily_RLA5      .         Resistivity (Array)           : 
TLFamily_RT        .         Resistivity - True Formation  : 
TLFamily_RXO       .         Flushed Zone Resistivity      : 
TLFamily_RXOZ      .         Resistivity - Flushed Zone    : 
TLFamily_SP        .         Spontaneous Potential         : 
TLFamily_SW        .         Water Saturation              : 
TLFamily_TEMP      .         Temperature                   : 
TLFamily_THOR      .         Thorium Concentration         : 
TLFamily_TNPH      .         Thermal Neutron Porosity      : 
TLFamily_URAN      .         Uranium Concentration         : 
TLFamily_VCLAV     .         Clay Volume Fraction          : 
~Curve Information
#_______________________________________________________________________________
#
#LOGNAME           .UNIT     LOG_ID                        : DESCRIPTION
#_______________________________________________________________________________
DEPTH              .M                                      : Depth 
AHMF               .ohm.m                                  : 21 Array Induction Mud Resistivity Fully Calibrated 
AT10               .ohm.m                                  : MedRes     22 Array Induction Two Foot Resistivity A10 
AT20               .ohm.m                                  : MedRes     23 Array Induction Two Foot Resistivity A20 
AT30               .ohm.m                                  : MedRes     24 Array Induction Two Foot Resistivity A30 
AT60               .ohm.m                                  : DeepRes    25 Array Induction Two Foot Resistivity A60 
AT90               .ohm.m                                  : XDeepRes   26 Array Induction Two Foot Resistivity A90 
BSC                .mm                                     : 40 Nominal Caliper 
C1                 .mm                                     : 37 CALIPER DIAMETER 1 
C2                 .mm                                     : 38 CALIPER DIAMETER 2 
CALI               .mm                                     : Caliper    39 Caliper 
CFTC               .                                       : 7 
CNTC               .dec                                    : Neutron    8 
DTP                .uSec/m                                 : 3 Sonic travel time 
GR                 .gAPI                                   : GammaRay   9 ï¿½ï¿½(ï¿½.ï¿½) 
HMIN               .Ohmm                                   : 2 HIP Micro Inverse Resistivity 
HMNO               .Ohmm                                   : 3 HIP Micro Normal Resistivity 
HSGR               .                                       : 29 
HTPR               .                                       : 31 
HTUR               .                                       : 32 
HUPR               .                                       : 33 
PEFZ               .B/E                                    : PEF        4 Formation Photoelectric Factor 
PHIE               .Dec                                    : Phi 
PHIT               .Dec                                    : PhiT 
POTA               .                                       : 28 
PURA               .PPM                                    : 36 Upper Limit of Formation Uranium Concentration (F13 
RHOZ               .g/cm3                                  : Density    5 Bulk Density 
RLA1               .ohm.m                                  : ShalRes    13 HRLT Borehole Corrected Resistivity 1 
RLA2               .ohm.m                                  : MedRes     14 HRLT Borehole Corrected Resistivity 2 
RLA3               .ohm.m                                  : DeepRes    15 HRLT Borehole Corrected Resistivity 3 
RLA4               .ohm.m                                  : XDeepRes   16 HRLT Borehole Corrected Resisitivity 4 
RLA5               .ohm.m                                  : UltraDeepR 17 HRLT Borehole Corrected Resistivity 5 
RT                 .Ohmm                                   : 18 
RXO                .Ohmm                                   : 19 
RXOZ               .ohm.m                                  : 2 (HDRS-H)                (2in)                   Invaded Formation Resistivity filtered at 18 inches 
SP                 .mV                                     : SP         20 Spontaneous Potential 
SW                 .Dec                                    : Sw 
TEMP               .DEGC                                   : Temp       41 Temp 
THOR               .                                       : 30 
TNPH               .V/V                                    : Neutron    10 Neutron porosity 
URAN               .                                       : 34 
VCLAV              .Dec                                    : Vcl 
~Ascii
# ...
553.6      
  0.1526     0.947      1.1048     1.1367     1.1961     1.1838     
  215.9      210.8515   209.532    210.191    513.3325   1678.0924  
  251.2261   92.5451    0.6021     0.5318     83.1107    5.0251     
  7.6204     0.6612     2.3307     0.3768     0.3846     2.2317     
  1.8534     2.0407     1.0007     1.0581     1.1214     1.178099989891052 
  1.210700035095215 1.350900053977966 0.6951     1.114496   17.2586    
  0.8767     33.8937    11.2108    0.4008     1.4742     0.0519    
553.7      
  0.1526     0.9455     1.1036     1.141      1.2005     1.1891     
  215.9      210.8115   209.49     210.1495   504.938    1685.3376  
  252.251    94.2304    0.6027     0.5323     83.1684    5.1057     
  7.2228     0.7071     2.3316     0.3787     0.388      2.2        
  1.9346     2.0387     1.0075     1.062      1.1261     1.176699995994568 
  1.20930004119873 1.3507000207901 0.7279     1.113548   16.7319    
  0.8731     33.8942    11.2324    0.4146     1.5557     0.0617    
553.8      
  0.1525     0.9567     1.1123     1.1385     1.2018     1.1937     
  215.9      210.5355   209.636    210.0855   504.405    1681.8264  
  253.4442   97.961     0.614      0.5423     83.0694    4.9808     
  6.8928     0.7228     2.332      0.3638     0.3767     2.2065     
  1.9725     2.0364     1.0079     1.0638     1.1269     1.169000029563904 
  1.202600002288818 1.342599987983704 0.7391     1.118546   16.2799    
  0.9095     33.8942    10.9896    0.414      1.595      0.0857    
553.9      
  0.1526     0.9634     1.1119     1.1476     1.206      1.1925     
  215.9      210.397    209.713    210.055    494.3083   1665.585   
  251.8557   100.5602   0.6185     0.5463     85.021     4.9403     
  6.8235     0.724      2.3371     0.3599     0.3755     2.264      
  2.0296     2.0336     1.0115     1.0655     1.1299     1.168400049209595 
  1.202200055122375 1.332499980926514 0.7172     1.119999   15.7813    
  0.9192     33.8949    11.1844    0.4217     1.639      0.104     
554        
  0.1526     0.9716     1.1171     1.1526     1.2149     1.2051     
  215.9      210.4705   209.629    210.049    486.5587   1646.1991  
  252.822    102.0482   0.6126     0.5411     86.7761    4.8837     
  6.6369     0.7394     2.3441     0.3581     0.3754     2.3145     
  2.1139     2.0293     1.0238     1.077      1.1385     1.169600009918213 
  1.202999949455261 1.320999979972839 0.713      1.113991   15.0904    
  0.9231     33.8956    11.3059    0.4248     1.7102     0.1151    
554.1      
  0.1526     0.974      1.1126     1.1497     1.2133     1.2086     
  215.9      210.617    209.463    210.039    493.1666   1628.0839  
  254.6887   101.282    0.6008     0.5307     85.0817    4.6545     
  5.6647     0.8273     2.3515     0.3586     0.375      2.2708     
  2.2748     2.024      1.0056     1.0641     1.1198     1.150599956512451 
  1.18369996547699 1.302000045776367 0.7023     1.105292   14.6138    
  0.93       33.896     10.5733    0.408      1.8773     0.1094    
554.2      
  0.1527     0.9678     1.095      1.1332     1.1962     1.1925     
  215.9      210.6915   209.38     210.0345   496.5165   1617.3199  
  258.0341   101.2799   0.5886     0.5221     84.0504    4.5686     
  5.4027     0.8457     2.3465     0.3583     0.3747     2.2436     
  2.2906     2.0202     0.9839     1.0466     1.0939     1.118499994277954 
  1.15149998664856 1.261800050735474 0.6856     1.097444   14.2176    
  0.9447     33.8961    10.2504    0.3991     1.8976     0.1093    
554.3      
  0.1527     0.9548     1.0718     1.1074     1.1749     1.1721     
  215.9      210.6925   209.38     210.035    499.7112   1610.3093  
  259.425    100.8145   0.534      0.4931     83.1644    4.5421     
  5.5553     0.82       2.3277     0.3596     0.3755     2.2262     
  2.2136     2.0169     0.9669     1.0256     1.0643     1.087000012397766 
  1.116500020027161 1.210500001907349 0.6671     1.108402   13.8402    
  0.9573     33.8963    10.1118    0.3921     1.8256     0.1059    
554.4      
  0.1528     0.9427     1.0477     1.0808     1.1501     1.146      
  215.9      210.673    209.38     210.0255   506.6281   1607.7014  
  258.6124   97.596     0.5429     0.5064     81.4773    4.4902     
  6.2102     0.7271     2.2924     0.3652     0.3777     2.2214     
  1.9916     2.0183     0.9676     1.0238     1.0582     1.082399964332581 
  1.111199975013733 1.197100043296814 0.6686     1.14273    13.5169    
  0.946      33.8971    9.9746     0.3822     1.6154     0.0832    
554.5      
  0.1528     0.9407     1.0382     1.0746     1.1402     1.1351     
  215.9      210.558    209.38     209.9685   514.9759   1618.1594  
  259.9814   95.7839    0.6357     0.5673     81.7496    4.4314     
  6.7569     0.6581     2.2471     0.3645     0.3752     2.2634     
  1.8603     2.0254     1.0303     1.0759     1.1108     1.136600017547607 
  1.16569995880127 1.237300038337708 0.7101     1.184298   13.2649    
  0.9235     33.8974    10.0274    0.3758     1.4873     0.0714    
554.6      
  0.1528     0.9659     1.062      1.101      1.1607     1.1603     
  215.9      210.174    209.2355   209.7045   522.5237   1636.4149  
  259.7618   94.7068    0.6828     0.6054     82.9311    4.3732     
  7.1969     0.6077     2.2195     0.3633     0.373      2.3227     
  1.7859     2.0318     1.0821     1.1199     1.1541     1.180500030517578 
  1.210700035095215 1.271499991416931 0.7525     1.221061   13.2605    
  0.9076     33.8977    10.1577    0.3733     1.4115     0.0646    
554.7      
  0.1528     0.9877     1.0933     1.1301     1.191      1.1901     
  215.9      209.607    208.8875   209.2465   522.4972   1664.7892  
  259.2787   94.1704    0.6552     0.5914     82.6975    4.3483     
  7.3014     0.5956     2.2266     0.3663     0.3755     2.3165     
  1.7529     2.0346     1.0692     1.0969     1.1284     1.154199957847595 
  1.182999968528748 1.228999972343445 0.7583     1.231241   13.1861    
  0.9118     33.8997    10.0727    0.3839     1.3798     0.0614    
554.8      
  0.1528     1.0105     1.1065     1.1396     1.196      1.1972     
  215.9      209.7155   208.575    209.144    510.9138   1682.1724  
  259.7545   94.3696    0.6647     0.5871     82.3152    4.4434     
  7.6796     0.5794     2.2508     0.3715     0.3809     2.2874     
  1.696      2.0356     1.0518     1.0737     1.1055     1.129899978637695 
  1.157099962234497 1.198099970817566 0.7475     1.209988   13.0519    
  0.9106     33.901     10.1593    0.4061     1.3257     0.0626    
554.9      
  0.1529     1.0162     1.1171     1.1482     1.1994     1.204      
  215.9      210.37     208.4915   209.4285   494.8103   1691.9167  
  260.0034   95.3885    0.6382     0.5637     81.9817    4.6193     
  8.1529     0.5674     2.2779     0.377      0.3873     2.2442     
  1.6402     2.0378     1.0261     1.0497     1.0833     1.110700011253357 
  1.133800029754639 1.17960000038147 0.72       1.180882   12.7681    
  0.908      33.9018    10.3661    0.4316     1.2732     0.0689    
555        
  0.1529     1.0305     1.123      1.1431     1.1941     1.1988     
  215.9      210.813    208.6355   209.721    493.2304   1690.9814  
  259.2567   99.3855    0.6304     0.5568     83.6711    4.761      
  7.3617     0.6512     2.3025     0.3654     0.3797     2.2239     
  1.8208     2.0432     1.0389     1.061      1.0974     1.123000025749207 
  1.144500017166138 1.186699986457825 0.743      1.163289   12.2775    
  0.9304     33.9018    10.5865    0.4334     1.4473     0.0956    
555.1      
  0.1529     1.0574     1.155      1.1811     1.2288     1.2232     
  215.9      210.989    208.973    209.978    494.3941   1683.0045  
  259.7692   101.6573   0.6219     0.5493     86.7699    4.7511     
  6.3416     0.763      2.3117     0.3517     0.3686     2.2591     
  2.1139     2.0557     1.1728     1.2008     1.2433     1.273699998855591 
  1.294800043106079 1.344099998474121 0.8476     1.222188   11.5703    
  0.9023     33.9032    10.7271    0.4284     1.7295     0.1122    
