~Version
 VERS              .         2.0                           : CWLS LOG ASCII STANDARD - VERSION 2.0
 WRAP              .         YES                            : ONE LINE PER DEPTH STEP
 DLM               .         SPACE                         : DELIMITING CHARACTER(SPACE TAB OR COMMA)
~Well Information
#_______________________________________________________________________________
#
#PARAMETER_NAME    .UNIT     VALUE                         : DESCRIPTION
#_______________________________________________________________________________
STRT               .M        130                           : First reference value
STOP               .M        830                           : Last reference value
STEP               .M        0.1                           : Step increment
NULL               .         -999.25                       : Missing value
COMP               .         ТОО КМГ-Б                     : Company
WELL               .         343                           : Well name
FLD                .         Каратюбе                      : Field
LOC                .                                       : Location
PROV               .                                       : Province
SRVC               .         Казпромгеофизика              : Service Company
DATE               .         25.06.24                      : Date
API                .                                       : API number
APDAT              .                                       : Elevation Above Permanent Datum
CNTY               .                                       : County
COUNT              .         Kazakhstan                    : Country
DF                 .                                       : DF Elevation
EPDAT              .                                       : Elevation of Permanent Datum
GL                 .                                       : GL Elevation
KB                 .                                       : KB Elevation
LGMEA              .                                       : Log Measured from
LATI               .         0                             : Latitude/Northing
LONG               .         0                             : Longitude/Easting
ORIGINALWELLNAME   .         343                           : 
PDAT               .                                       : Permanent Datum
RIGN               .                                       : Rig Name
RWS                .         -999                          : Def_Rw
STATE              .         1                             : State
WST                .         -999                          : Def_Rwt
~Parameter Information Block
#_______________________________________________________________________________
#
#PARAMETER_NAME    .UNIT     VALUE                         : DESCRIPTION
#_______________________________________________________________________________
SET                .         model_343                     : 
TLFamily_AHMF      .                                       : 
TLFamily_AT10      .         Resistivity - Medium          : 
TLFamily_AT20      .         Resistivity (Array)           : 
TLFamily_AT30      .         Resistivity (Array)           : 
TLFamily_AT60      .         Resistivity (Array)           : 
TLFamily_AT90      .         Resistivity - Deep            : 
TLFamily_BSC       .         Bit Size                      : 
TLFamily_C1        .         Caliper 1                     : 
TLFamily_C2        .         Caliper 2                     : 
TLFamily_CALI      .         Caliper                       : 
TLFamily_CFTC      .         Neutron Far                   : 
TLFamily_CNTC      .         Neutron Near                  : 
TLFamily_DEPTH     .         Measured Depth                : 
TLFamily_DTP       .         Compressional Slowness        : 
TLFamily_GR        .         Gamma Ray                     : 
TLFamily_HMIN      .                                       : 
TLFamily_HMNO      .                                       : 
TLFamily_HSGR      .         Gamma Ray                     : 
TLFamily_HTPR      .                                       : 
TLFamily_HTUR      .                                       : 
TLFamily_HUPR      .                                       : 
TLFamily_PEFZ      .         Photoelectric Factor          : 
TLFamily_PHIE      .         Effective Porosity            : 
TLFamily_PHIT      .         Total Porosity                : 
TLFamily_POTA      .         Potassium Concentration       : 
TLFamily_PURA      .         Uranium Concentration         : 
TLFamily_RHOZ      .         Bulk Density                  : 
TLFamily_RLA1      .         Resistivity (Array)           : 
TLFamily_RLA2      .         Resistivity (Array)           : 
TLFamily_RLA3      .         Resistivity (Array)           : 
TLFamily_RLA4      .         Resistivity (Array)           : 
TLFamily_RLA5      .         Resistivity (Array)           : 
TLFamily_RT        .         Resistivity - True Formation  : 
TLFamily_RXO       .         Flushed Zone Resistivity      : 
TLFamily_RXOZ      .         Resistivity - Flushed Zone    : 
TLFamily_SP        .         Spontaneous Potential         : 
TLFamily_SW        .         Water Saturation              : 
TLFamily_TEMP      .         Temperature                   : 
TLFamily_THOR      .         Thorium Concentration         : 
TLFamily_TNPH      .         Thermal Neutron Porosity      : 
TLFamily_URAN      .         Uranium Concentration         : 
TLFamily_VCLAV     .         Clay Volume Fraction          : 
~Curve Information
#_______________________________________________________________________________
#
#LOGNAME           .UNIT     LOG_ID                        : DESCRIPTION
#_______________________________________________________________________________
DEPTH              .M                                      : Depth 
AHMF               .ohm.m                                  : 21 Array Induction Mud Resistivity Fully Calibrated 
AT10               .ohm.m                                  : MedRes     22 Array Induction Two Foot Resistivity A10 
AT20               .ohm.m                                  : MedRes     23 Array Induction Two Foot Resistivity A20 
AT30               .ohm.m                                  : MedRes     24 Array Induction Two Foot Resistivity A30 
AT60               .ohm.m                                  : DeepRes    25 Array Induction Two Foot Resistivity A60 
AT90               .ohm.m                                  : XDeepRes   26 Array Induction Two Foot Resistivity A90 
BSC                .mm                                     : 40 Nominal Caliper 
C1                 .mm                                     : 37 CALIPER DIAMETER 1 
C2                 .mm                                     : 38 CALIPER DIAMETER 2 
CALI               .mm                                     : Caliper    39 Caliper 
CFTC               .                                       : 7 
CNTC               .dec                                    : Neutron    8 
DTP                .uSec/m                                 : 3 Sonic travel time 
GR                 .gAPI                                   : GammaRay   9 ï¿½ï¿½(ï¿½.ï¿½) 
HMIN               .Ohmm                                   : 2 HIP Micro Inverse Resistivity 
HMNO               .Ohmm                                   : 3 HIP Micro Normal Resistivity 
HSGR               .                                       : 29 
HTPR               .                                       : 31 
HTUR               .                                       : 32 
HUPR               .                                       : 33 
PEFZ               .B/E                                    : PEF        4 Formation Photoelectric Factor 
PHIE               .Dec                                    : Phi 
PHIT               .Dec                                    : PhiT 
POTA               .                                       : 28 
PURA               .PPM                                    : 36 Upper Limit of Formation Uranium Concentration (F13 
RHOZ               .g/cm3                                  : Density    5 Bulk Density 
RLA1               .ohm.m                                  : ShalRes    13 HRLT Borehole Corrected Resistivity 1 
RLA2               .ohm.m                                  : MedRes     14 HRLT Borehole Corrected Resistivity 2 
RLA3               .ohm.m                                  : DeepRes    15 HRLT Borehole Corrected Resistivity 3 
RLA4               .ohm.m                                  : XDeepRes   16 HRLT Borehole Corrected Resisitivity 4 
RLA5               .ohm.m                                  : UltraDeepR 17 HRLT Borehole Corrected Resistivity 5 
RT                 .Ohmm                                   : 18 
RXO                .Ohmm                                   : 19 
RXOZ               .ohm.m                                  : 2 (HDRS-H)                (2in)                   Invaded Formation Resistivity filtered at 18 inches 
SP                 .mV                                     : SP         20 Spontaneous Potential 
SW                 .Dec                                    : Sw 
TEMP               .DEGC                                   : Temp       41 Temp 
THOR               .                                       : 30 
TNPH               .V/V                                    : Neutron    10 Neutron porosity 
URAN               .                                       : 34 
VCLAV              .Dec                                    : Vcl 
~Ascii
# ...
598.4      
  0.1522     1.5115     1.5492     1.619      1.6621     1.6404     
  215.9      211.567    211.0505   211.3085   492.9173   1705.3549  
  251.5262   117.8969   1.0239     0.9092     93.3357    7.5535     
  5.9229     1.2786     2.7101     0.0001000  0.1392     1.8522     
  2.7854     2.2615     1.6538     1.6163     1.628      1.64520001411438 
  1.666399955749512 1.642199993133545 1.5651     2.074317   16.2081    
  1          34.1845    13.9868    0.4399     2.3708     0.9275    
598.5      
  0.1522     1.428      1.4677     1.5321     1.5585     1.5471     
  215.9      211.2545   211.1585   211.206    499.6994   1713.5696  
  254.9962   119.158    1.1668     1.0316     96.3454    7.5089     
  5.6471     1.3305     2.675      0.0001000  0.1412     1.9015     
  2.9579     2.2483     1.4519     1.4341     1.4418     1.463299989700317 
  1.486199975013733 1.46370005607605 1.3421     1.937389   16.1119    
  1          34.1845    14.2784    0.4333     2.5298     0.9404    
598.6      
  0.1521     1.3225     1.3802     1.4457     1.4769     1.4715     
  215.9      211.0375   210.8805   210.9585   504.5536   1724.24    
  257.2362   116.2072   1.069      0.9449     97.1329    7.6957     
  6.0021     1.2832     2.6315     0.0001000  0.1366     1.9093     
  2.8796     2.2362     1.2967     1.2919     1.3004     1.319100022315979 
  1.339400053024292 1.321699976921082 1.1931     1.857967   15.8362    
  1          34.1845    14.6938    0.4307     2.4499     0.9103    
598.7      
  0.152      1.2527     1.2927     1.3508     1.3752     1.3725     
  215.9      210.8445   210.712    210.778    518.9847   1732.5631  
  252.7487   110.2417   0.9193     0.8135     98.1245    7.7484     
  6.4734     1.2015     2.6325     0.0001000  0.1275     1.9477     
  2.7683     2.2283     1.2107     1.2047     1.2097     1.226099967956543 
  1.238800048828125 1.220600008964539 1.1917     1.750488   15.5049    
  1          34.1845    15.0913    0.4146     2.3372     0.8494    
598.8      
  0.152      1.2281     1.2684     1.3144     1.3461     1.3482     
  215.9      210.7865   210.712    210.749    531.0181   1736.9729  
  249.147    103.5925   0.8464     0.7478     98.3503    7.8068     
  6.8502     1.1414     2.6669     0.0001000  0.1173     1.9674     
  2.6708     2.2358     1.3574     1.3585     1.3732     1.388599991798401 
  1.40559995174408 1.383000016212463 1.3265     1.72311    15.2171    
  1          34.1845    15.3451    0.4002     2.241      0.7816    
598.9      
  0.1519     1.2967     1.355      1.4002     1.4276     1.4378     
  215.9      210.8865   210.692    210.789    519.2918   1729.2025  
  243.7885   98.6684    0.8828     0.7812     94.052     8.2271     
  6.4437     1.2805     2.7549     0.0024     0.1121     1.8131     
  2.7265     2.2554     1.8569     1.8662     1.9032     1.924700021743774 
  1.946200013160706 1.943199992179871 1.6164     1.856096   14.9083    
  1          34.1845    14.8883    0.4125     2.3124     0.7313    
599        
  0.1518     1.4204     1.5359     1.5986     1.6109     1.6315     
  215.9      210.8515   210.5635   210.7075   526.9405   1726.125   
  239.4401   94.1744    1.2443     1.1004     88.9457    8.5966     
  6.1113     1.41       2.8666     0.0163     0.1119     1.6582     
  2.7172     2.278      2.1063     2.1553     2.2208     2.251699924468994 
  2.279500007629395 2.359699964523315 1.5335     2.10843    14.6578    
  1          34.1845    14.2251    0.4017     2.3272     0.6373    
599.1      
  0.1517     1.5416     1.685      1.7688     1.7776     1.7965     
  215.9      210.7225   210.418    210.57     541.9533   1725.6215  
  235.4577   91.5503    1.6204     1.434      83.5414    8.9609     
  5.8869     1.522      2.9503     0.0426     0.1297     1.5071     
  2.6559     2.2905     1.6075     1.6247     1.6691     1.690400004386902 
  1.708500027656555 1.738899946212769 1.2378     2.207387   14.765     
  1          34.1845    13.4943    0.3826     2.2935     0.5805    
599.2      
  0.1517     1.4759     1.6222     1.6974     1.728      1.726      
  215.9      210.69     210.381    210.535    547.7605   1727.0364  
  228.84     97.6796    1.3081     1.1569     79.5669    9.5227     
  6.1844     1.5394     2.9698     0.0036     0.1105     1.3892     
  2.4819     2.2812     1.2304     1.2458     1.2825     1.296900033950806 
  1.305299997329712 1.325199961662292 0.9788     2.124518   15.1928    
  1          34.1845    13.1983    0.3762     2.1376     0.7132    
599.3      
  0.1517     1.322      1.4293     1.487      1.526      1.5107     
  215.9      210.69     210.381    210.535    550.0566   1721.7542  
  232.061    101.9752   0.9206     0.8135     78.6296    9.8203     
  6.6454     1.483      2.8943     0.0001000  0.1149     1.3578     
  2.3513     2.2602     1.2536     1.2781     1.323      1.345000028610229 
  1.350299954414368 1.386700034141541 0.9592     1.964143   15.767     
  1          34.1845    13.3354    0.3717     2.0117     0.7651    
599.4      
  0.1517     1.2268     1.314      1.368      1.4107     1.3876     
  215.9      210.69     210.381    210.535    547.5871   1713.6473  
  244.7035   105.1037   0.8642     0.7635     80.1958    9.8972     
  7.2399     1.3689     2.7586     0.0001000  0.1196     1.3979     
  2.2566     2.2402     1.3462     1.3671     1.4159     1.445099949836731 
  1.449599981307983 1.488600015640259 1.0207     1.76658    16.0026    
  1          34.1845    13.829     0.372      1.9106     0.797     
599.5      
  0.1517     1.2037     1.2888     1.3459     1.3858     1.3619     
  215.9      210.6975   210.3895   210.5435   523.2427   1714.5133  
  248.8981   107.5016   0.9918     0.8765     86.5292    9.5144     
  8.0708     1.1879     2.6345     0.0001000  0.1233     1.5792     
  2.2357     2.2199     1.3996     1.4234     1.4766     1.512500047683716 
  1.512599945068359 1.562800049781799 1.0322     1.764077   16.3933    
  1          34.1845    14.991     0.4025     1.86       0.8214    
599.6      
  0.1517     1.1867     1.2845     1.3433     1.3724     1.3451     
  215.9      210.8025   210.507    210.655    513.9492   1725.0507  
  241.3288   107.4973   1.0258     0.9066     91.0217    8.9869     
  8.2009     1.0953     2.5378     0.0001000  0.1233     1.7281     
  2.2897     2.2073     1.3342     1.3513     1.403      1.440700054168701 
  1.437100052833557 1.482100009918213 0.9845     1.773962   16.9074    
  1          34.1845    15.4882    0.4179     1.8917     0.8214    
599.7      
  0.1517     1.1657     1.263      1.3225     1.3607     1.3318     
  215.9      210.943    210.664    210.8035   515.0929   1742.0051  
  238.7081   106.0007   1.0117     0.8941     93.9295    8.3386     
  7.739      1.0775     2.4871     0.0004     0.1213     1.8493     
  2.4064     2.1997     1.1999     1.2104     1.2586     1.293599963188171 
  1.291800022125244 1.331099987030029 0.8801     1.683745   17.5969    
  1          34.1845    15.4204    0.4229     1.9925     0.8061    
599.8      
  0.1517     1.1123     1.2055     1.2581     1.2954     1.2709     
  215.9      210.982    210.7075   210.845    509.0015   1749.7728  
  248.3711   108.3769   0.8407     0.7427     95.2215    7.9503     
  7.7734     1.0229     2.4918     0.0002     0.1248     1.948      
  2.4146     2.1848     1.1165     1.148      1.1855     1.219900012016296 
  1.213799953460693 1.263000011444092 0.8132     1.59944    18.1303    
  1          34.1845    15.4678    0.4346     1.9898     0.8304    
599.9      
  0.1518     1.0643     1.1512     1.1983     1.2379     1.2146     
  215.9      210.8815   210.595    210.7385   519.1756   1759.3855  
  254.7253   110.2102   0.7539     0.6659     94.9819    7.5562     
  7.0097     1.1037     2.4936     0.0001000  0.1275     1.9715     
  2.5985     2.1675     1.132      1.164      1.199      1.230999946594238 
  1.220600008964539 1.266199946403503 0.8376     1.49634    18.5346    
  1          34.1845    14.9084    0.425      2.1697     0.8491    
