~Version
 VERS              .         2.0                           : CWLS LOG ASCII STANDARD - VERSION 2.0
 WRAP              .         YES                            : ONE LINE PER DEPTH STEP
 DLM               .         SPACE                         : DELIMITING CHARACTER(SPACE TAB OR COMMA)
~Well Information
#_______________________________________________________________________________
#
#PARAMETER_NAME    .UNIT     VALUE                         : DESCRIPTION
#_______________________________________________________________________________
STRT               .M        130                           : First reference value
STOP               .M        830                           : Last reference value
STEP               .M        0.1                           : Step increment
NULL               .         -999.25                       : Missing value
COMP               .         ТОО КМГ-Б                     : Company
WELL               .         343                           : Well name
FLD                .         Каратюбе                      : Field
LOC                .                                       : Location
PROV               .                                       : Province
SRVC               .         Казпромгеофизика              : Service Company
DATE               .         25.06.24                      : Date
API                .                                       : API number
APDAT              .                                       : Elevation Above Permanent Datum
CNTY               .                                       : County
COUNT              .         Kazakhstan                    : Country
DF                 .                                       : DF Elevation
EPDAT              .                                       : Elevation of Permanent Datum
GL                 .                                       : GL Elevation
KB                 .                                       : KB Elevation
LGMEA              .                                       : Log Measured from
LATI               .         0                             : Latitude/Northing
LONG               .         0                             : Longitude/Easting
ORIGINALWELLNAME   .         343                           : 
PDAT               .                                       : Permanent Datum
RIGN               .                                       : Rig Name
RWS                .         -999                          : Def_Rw
STATE              .         1                             : State
WST                .         -999                          : Def_Rwt
~Parameter Information Block
#_______________________________________________________________________________
#
#PARAMETER_NAME    .UNIT     VALUE                         : DESCRIPTION
#_______________________________________________________________________________
SET                .         model_343                     : 
TLFamily_AHMF      .                                       : 
TLFamily_AT10      .         Resistivity - Medium          : 
TLFamily_AT20      .         Resistivity (Array)           : 
TLFamily_AT30      .         Resistivity (Array)           : 
TLFamily_AT60      .         Resistivity (Array)           : 
TLFamily_AT90      .         Resistivity - Deep            : 
TLFamily_BSC       .         Bit Size                      : 
TLFamily_C1        .         Caliper 1                     : 
TLFamily_C2        .         Caliper 2                     : 
TLFamily_CALI      .         Caliper                       : 
TLFamily_CFTC      .         Neutron Far                   : 
TLFamily_CNTC      .         Neutron Near                  : 
TLFamily_DEPTH     .         Measured Depth                : 
TLFamily_DTP       .         Compressional Slowness        : 
TLFamily_GR        .         Gamma Ray                     : 
TLFamily_HMIN      .                                       : 
TLFamily_HMNO      .                                       : 
TLFamily_HSGR      .         Gamma Ray                     : 
TLFamily_HTPR      .                                       : 
TLFamily_HTUR      .                                       : 
TLFamily_HUPR      .                                       : 
TLFamily_PEFZ      .         Photoelectric Factor          : 
TLFamily_PHIE      .         Effective Porosity            : 
TLFamily_PHIT      .         Total Porosity                : 
TLFamily_POTA      .         Potassium Concentration       : 
TLFamily_PURA      .         Uranium Concentration         : 
TLFamily_RHOZ      .         Bulk Density                  : 
TLFamily_RLA1      .         Resistivity (Array)           : 
TLFamily_RLA2      .         Resistivity (Array)           : 
TLFamily_RLA3      .         Resistivity (Array)           : 
TLFamily_RLA4      .         Resistivity (Array)           : 
TLFamily_RLA5      .         Resistivity (Array)           : 
TLFamily_RT        .         Resistivity - True Formation  : 
TLFamily_RXO       .         Flushed Zone Resistivity      : 
TLFamily_RXOZ      .         Resistivity - Flushed Zone    : 
TLFamily_SP        .         Spontaneous Potential         : 
TLFamily_SW        .         Water Saturation              : 
TLFamily_TEMP      .         Temperature                   : 
TLFamily_THOR      .         Thorium Concentration         : 
TLFamily_TNPH      .         Thermal Neutron Porosity      : 
TLFamily_URAN      .         Uranium Concentration         : 
TLFamily_VCLAV     .         Clay Volume Fraction          : 
~Curve Information
#_______________________________________________________________________________
#
#LOGNAME           .UNIT     LOG_ID                        : DESCRIPTION
#_______________________________________________________________________________
DEPTH              .M                                      : Depth 
AHMF               .ohm.m                                  : 21 Array Induction Mud Resistivity Fully Calibrated 
AT10               .ohm.m                                  : MedRes     22 Array Induction Two Foot Resistivity A10 
AT20               .ohm.m                                  : MedRes     23 Array Induction Two Foot Resistivity A20 
AT30               .ohm.m                                  : MedRes     24 Array Induction Two Foot Resistivity A30 
AT60               .ohm.m                                  : DeepRes    25 Array Induction Two Foot Resistivity A60 
AT90               .ohm.m                                  : XDeepRes   26 Array Induction Two Foot Resistivity A90 
BSC                .mm                                     : 40 Nominal Caliper 
C1                 .mm                                     : 37 CALIPER DIAMETER 1 
C2                 .mm                                     : 38 CALIPER DIAMETER 2 
CALI               .mm                                     : Caliper    39 Caliper 
CFTC               .                                       : 7 
CNTC               .dec                                    : Neutron    8 
DTP                .uSec/m                                 : 3 Sonic travel time 
GR                 .gAPI                                   : GammaRay   9 ï¿½ï¿½(ï¿½.ï¿½) 
HMIN               .Ohmm                                   : 2 HIP Micro Inverse Resistivity 
HMNO               .Ohmm                                   : 3 HIP Micro Normal Resistivity 
HSGR               .                                       : 29 
HTPR               .                                       : 31 
HTUR               .                                       : 32 
HUPR               .                                       : 33 
PEFZ               .B/E                                    : PEF        4 Formation Photoelectric Factor 
PHIE               .Dec                                    : Phi 
PHIT               .Dec                                    : PhiT 
POTA               .                                       : 28 
PURA               .PPM                                    : 36 Upper Limit of Formation Uranium Concentration (F13 
RHOZ               .g/cm3                                  : Density    5 Bulk Density 
RLA1               .ohm.m                                  : ShalRes    13 HRLT Borehole Corrected Resistivity 1 
RLA2               .ohm.m                                  : MedRes     14 HRLT Borehole Corrected Resistivity 2 
RLA3               .ohm.m                                  : DeepRes    15 HRLT Borehole Corrected Resistivity 3 
RLA4               .ohm.m                                  : XDeepRes   16 HRLT Borehole Corrected Resisitivity 4 
RLA5               .ohm.m                                  : UltraDeepR 17 HRLT Borehole Corrected Resistivity 5 
RT                 .Ohmm                                   : 18 
RXO                .Ohmm                                   : 19 
RXOZ               .ohm.m                                  : 2 (HDRS-H)                (2in)                   Invaded Formation Resistivity filtered at 18 inches 
SP                 .mV                                     : SP         20 Spontaneous Potential 
SW                 .Dec                                    : Sw 
TEMP               .DEGC                                   : Temp       41 Temp 
THOR               .                                       : 30 
TNPH               .V/V                                    : Neutron    10 Neutron porosity 
URAN               .                                       : 34 
VCLAV              .Dec                                    : Vcl 
~Ascii
# ...
822.6      
  -999.25    -999.25    -999.25    -999.25    -999.25    -999.25    
  215.9      202.9095   196.2605   199.556    8778.9434  6719.6191  
  125.4306   141.4073   0.4649     0.6715     19.2522    5.7063     
  5.9423     0.1876     4.7797     -999.25    -999.25    0.5207     
  0.7218     2.8577     -999.25    -999.25    -999.25    -999.25    
  -999.25    -999.25    -999.25    7.742105   -999.25    -999.25    
  -999.25    2.9711     -0.0093    0.0977     1         
822.7      
  -999.25    -999.25    -999.25    -999.25    -999.25    -999.25    
  215.9      194.4785   186.5955   190.4965   8778.9434  6719.6191  
  125.3812   141.4073   0.4552     0.6581     19.2522    5.7063     
  5.9423     0.1876     4.7715     -999.25    -999.25    0.5207     
  0.7218     2.8605     -999.25    -999.25    -999.25    -999.25    
  -999.25    -999.25    -999.25    7.73106    -999.25    -999.25    
  -999.25    2.9711     -0.0093    0.0977     1         
822.8      
  -999.25    -999.25    -999.25    -999.25    -999.25    -999.25    
  215.9      184.694    176.4615   180.5305   8778.9434  6719.6191  
  125.2806   141.4073   0.4156     0.6085     19.2522    5.7063     
  5.9423     0.1876     4.7628     -999.25    -999.25    0.5207     
  0.7218     2.8561     -999.25    -999.25    -999.25    -999.25    
  -999.25    -999.25    -999.25    7.390548   -999.25    -999.25    
  -999.25    2.9711     -0.0093    0.0977     1         
822.9      
  -999.25    -999.25    -999.25    -999.25    -999.25    -999.25    
  215.9      180.043    169.593    174.7375   8778.9434  6719.6191  
  125.1781   141.4073   0.3647     0.5451     19.2522    5.7063     
  5.9423     0.1876     4.741      -999.25    -999.25    0.5207     
  0.7218     2.8381     -999.25    -999.25    -999.25    -999.25    
  -999.25    -999.25    -999.25    6.891095   -999.25    -999.25    
  -999.25    2.9711     -0.0093    0.0977     1         
823        
  -999.25    -999.25    -999.25    -999.25    -999.25    -999.25    
  215.9      182.1745   166.182    173.984    8778.9434  6719.6191  
  125.1031   141.4073   0.3617     0.5378     19.2522    5.7063     
  5.9423     0.1876     4.6957     -999.25    -999.25    0.5207     
  0.7218     2.813      -999.25    -999.25    -999.25    -999.25    
  -999.25    -999.25    -999.25    6.202309   -999.25    -999.25    
  -999.25    2.9711     -0.0093    0.0977     1         
823.1      
  -999.25    -999.25    -999.25    -999.25    -999.25    -999.25    
  215.9      187.375    163.726    175.1415   8778.9434  6719.6191  
  125.0975   141.4073   0.368      0.5404     19.2522    5.7063     
  5.9423     0.1876     4.6264     -999.25    -999.25    0.5207     
  0.7218     2.7778     -999.25    -999.25    -999.25    -999.25    
  -999.25    -999.25    -999.25    5.297865   -999.25    -999.25    
  -999.25    2.9711     -0.0093    0.0977     1         
823.2      
  -999.25    -999.25    -999.25    -999.25    -999.25    -999.25    
  215.9      190.24     159.538    174.2055   8778.9434  6719.6191  
  125.1268   141.4073   0.3756     0.5379     19.2522    5.7063     
  5.9423     0.1876     4.5403     -999.25    -999.25    0.5207     
  0.7218     2.7366     -999.25    -999.25    -999.25    -999.25    
  -999.25    -999.25    -999.25    4.424261   -999.25    -999.25    
  -999.25    2.9711     -0.0093    0.0977     1         
823.3      
  -999.25    -999.25    -999.25    -999.25    -999.25    -999.25    
  215.9      190.9925   156.741    173.0215   8778.9434  6719.6191  
  124.9676   141.4073   0.406      0.5595     19.2522    5.7063     
  5.9423     0.1876     4.4474     -999.25    -999.25    0.5207     
  0.7218     2.6969     -999.25    -999.25    -999.25    -999.25    
  -999.25    -999.25    -999.25    3.608563   -999.25    -999.25    
  -999.25    2.9711     -0.0093    0.0977     1         
823.4      
  -999.25    -999.25    -999.25    -999.25    -999.25    -999.25    
  215.9      190.3995   156.5215   172.6315   8778.9434  6719.6191  
  124.5705   141.4073   0.401      0.5415     19.2522    5.7063     
  5.9423     0.1876     4.3559     -999.25    -999.25    0.5207     
  0.7218     2.6522     -999.25    -999.25    -999.25    -999.25    
  -999.25    -999.25    -999.25    2.937976   -999.25    -999.25    
  -999.25    2.9711     -0.0093    0.0977     1         
823.5      
  -999.25    -999.25    -999.25    -999.25    -999.25    -999.25    
  215.9      187.118    155.408    170.5265   8778.9434  6719.6191  
  124.144    141.4073   0.3477     0.4648     19.2522    5.7063     
  5.9423     0.1876     4.2618     -999.25    -999.25    0.5207     
  0.7218     2.6059     -999.25    -999.25    -999.25    -999.25    
  -999.25    -999.25    -999.25    2.515543   -999.25    -999.25    
  -999.25    2.9711     -0.0093    0.0977     1         
823.6      
  -999.25    -999.25    -999.25    -999.25    -999.25    -999.25    
  215.9      184.7495   153.947    168.646    8778.9434  6719.6191  
  123.7414   141.4073   0.3489     0.4594     19.2522    5.7063     
  5.9423     0.1876     4.1573     -999.25    -999.25    0.5207     
  0.7218     2.5624     -999.25    -999.25    -999.25    -999.25    
  -999.25    -999.25    -999.25    2.190279   -999.25    -999.25    
  -999.25    2.9711     -0.0093    0.0977     1         
823.7      
  -999.25    -999.25    -999.25    -999.25    -999.25    -999.25    
  215.9      180.893    150.037    164.7445   8778.9434  6719.6191  
  123.5529   141.4073   0.3708     0.4723     19.2522    5.7063     
  5.9423     0.1876     4.0446     -999.25    -999.25    0.5207     
  0.7218     2.5209     -999.25    -999.25    -999.25    -999.25    
  -999.25    -999.25    -999.25    1.904321   -999.25    -999.25    
  -999.25    2.9711     -0.0093    0.0977     1         
823.8      
  -999.25    -999.25    -999.25    -999.25    -999.25    -999.25    
  215.9      160.4895   135.0415   147.2115   8778.9434  6719.6191  
  123.7816   141.4073   0.388      0.4728     19.2522    5.7063     
  5.9423     0.1876     3.9285     -999.25    -999.25    0.5207     
  0.7218     2.4894     -999.25    -999.25    -999.25    -999.25    
  -999.25    -999.25    -999.25    1.74475    -999.25    -999.25    
  -999.25    2.9711     -0.0093    0.0977     1         
823.9      
  -999.25    -999.25    -999.25    -999.25    -999.25    -999.25    
  215.9      138.084    120.734    129.1105   8778.9434  6719.6191  
  124.2063   141.4073   0.4114     0.4768     -999.25    -999.25    
  -999.25    -999.25    -999.25    -999.25    -999.25    -999.25    
  -999.25    -999.25    -999.25    -999.25    -999.25    -999.25    
  -999.25    -999.25    -999.25    1.639124   -999.25    -999.25    
  -999.25    -999.25    -0.0093    -999.25    1         
824        
  -999.25    -999.25    -999.25    -999.25    -999.25    -999.25    
  215.9      129.513    117.536    123.375    8778.9434  6719.6191  
  124.7242   141.4073   0.4434     0.5009     -999.25    -999.25    
  -999.25    -999.25    -999.25    -999.25    -999.25    -999.25    
  -999.25    -999.25    -999.25    -999.25    -999.25    -999.25    
  -999.25    -999.25    -999.25    1.571825   -999.25    -999.25    
  -999.25    -999.25    -0.0093    -999.25    1         
824.1      
  -999.25    -999.25    -999.25    -999.25    -999.25    -999.25    
  215.9      124.9275   115.242    119.987    8778.9434  6719.6191  
  125.2019   141.4073   0.4491     0.511      -999.25    -999.25    
  -999.25    -999.25    -999.25    -999.25    -999.25    -999.25    
  -999.25    -999.25    -999.25    -999.25    -999.25    -999.25    
  -999.25    -999.25    -999.25    1.458621   -999.25    -999.25    
  -999.25    -999.25    -0.0093    -999.25    1         
824.2      
  -999.25    -999.25    -999.25    -999.25    -999.25    -999.25    
  215.9      112.9495   106.109    109.4705   8778.9434  6719.6191  
  125.3044   141.4073   0.4579     0.502      -999.25    -999.25    
  -999.25    -999.25    -999.25    -999.25    -999.25    -999.25    
  -999.25    -999.25    -999.25    -999.25    -999.25    -999.25    
  -999.25    -999.25    -999.25    1.270363   -999.25    -999.25    
  -999.25    -999.25    -0.0093    -999.25    1         
