~Version
 VERS              .         2.0                           : CWLS LOG ASCII STANDARD - VERSION 2.0
 WRAP              .         YES                            : ONE LINE PER DEPTH STEP
 DLM               .         SPACE                         : DELIMITING CHARACTER(SPACE TAB OR COMMA)
~Well Information
#_______________________________________________________________________________
#
#PARAMETER_NAME    .UNIT     VALUE                         : DESCRIPTION
#_______________________________________________________________________________
STRT               .M        130                           : First reference value
STOP               .M        830                           : Last reference value
STEP               .M        0.1                           : Step increment
NULL               .         -999.25                       : Missing value
COMP               .         ТОО КМГ-Б                     : Company
WELL               .         343                           : Well name
FLD                .         Каратюбе                      : Field
LOC                .                                       : Location
PROV               .                                       : Province
SRVC               .         Казпромгеофизика              : Service Company
DATE               .         25.06.24                      : Date
API                .                                       : API number
APDAT              .                                       : Elevation Above Permanent Datum
CNTY               .                                       : County
COUNT              .         Kazakhstan                    : Country
DF                 .                                       : DF Elevation
EPDAT              .                                       : Elevation of Permanent Datum
GL                 .                                       : GL Elevation
KB                 .                                       : KB Elevation
LGMEA              .                                       : Log Measured from
LATI               .         0                             : Latitude/Northing
LONG               .         0                             : Longitude/Easting
ORIGINALWELLNAME   .         343                           : 
PDAT               .                                       : Permanent Datum
RIGN               .                                       : Rig Name
RWS                .         -999                          : Def_Rw
STATE              .         1                             : State
WST                .         -999                          : Def_Rwt
~Parameter Information Block
#_______________________________________________________________________________
#
#PARAMETER_NAME    .UNIT     VALUE                         : DESCRIPTION
#_______________________________________________________________________________
SET                .         model_343                     : 
TLFamily_AHMF      .                                       : 
TLFamily_AT10      .         Resistivity - Medium          : 
TLFamily_AT20      .         Resistivity (Array)           : 
TLFamily_AT30      .         Resistivity (Array)           : 
TLFamily_AT60      .         Resistivity (Array)           : 
TLFamily_AT90      .         Resistivity - Deep            : 
TLFamily_BSC       .         Bit Size                      : 
TLFamily_C1        .         Caliper 1                     : 
TLFamily_C2        .         Caliper 2                     : 
TLFamily_CALI      .         Caliper                       : 
TLFamily_CFTC      .         Neutron Far                   : 
TLFamily_CNTC      .         Neutron Near                  : 
TLFamily_DEPTH     .         Measured Depth                : 
TLFamily_DTP       .         Compressional Slowness        : 
TLFamily_GR        .         Gamma Ray                     : 
TLFamily_HMIN      .                                       : 
TLFamily_HMNO      .                                       : 
TLFamily_HSGR      .         Gamma Ray                     : 
TLFamily_HTPR      .                                       : 
TLFamily_HTUR      .                                       : 
TLFamily_HUPR      .                                       : 
TLFamily_PEFZ      .         Photoelectric Factor          : 
TLFamily_PHIE      .         Effective Porosity            : 
TLFamily_PHIT      .         Total Porosity                : 
TLFamily_POTA      .         Potassium Concentration       : 
TLFamily_PURA      .         Uranium Concentration         : 
TLFamily_RHOZ      .         Bulk Density                  : 
TLFamily_RLA1      .         Resistivity (Array)           : 
TLFamily_RLA2      .         Resistivity (Array)           : 
TLFamily_RLA3      .         Resistivity (Array)           : 
TLFamily_RLA4      .         Resistivity (Array)           : 
TLFamily_RLA5      .         Resistivity (Array)           : 
TLFamily_RT        .         Resistivity - True Formation  : 
TLFamily_RXO       .         Flushed Zone Resistivity      : 
TLFamily_RXOZ      .         Resistivity - Flushed Zone    : 
TLFamily_SP        .         Spontaneous Potential         : 
TLFamily_SW        .         Water Saturation              : 
TLFamily_TEMP      .         Temperature                   : 
TLFamily_THOR      .         Thorium Concentration         : 
TLFamily_TNPH      .         Thermal Neutron Porosity      : 
TLFamily_URAN      .         Uranium Concentration         : 
TLFamily_VCLAV     .         Clay Volume Fraction          : 
~Curve Information
#_______________________________________________________________________________
#
#LOGNAME           .UNIT     LOG_ID                        : DESCRIPTION
#_______________________________________________________________________________
DEPTH              .M                                      : Depth 
AHMF               .ohm.m                                  : 21 Array Induction Mud Resistivity Fully Calibrated 
AT10               .ohm.m                                  : MedRes     22 Array Induction Two Foot Resistivity A10 
AT20               .ohm.m                                  : MedRes     23 Array Induction Two Foot Resistivity A20 
AT30               .ohm.m                                  : MedRes     24 Array Induction Two Foot Resistivity A30 
AT60               .ohm.m                                  : DeepRes    25 Array Induction Two Foot Resistivity A60 
AT90               .ohm.m                                  : XDeepRes   26 Array Induction Two Foot Resistivity A90 
BSC                .mm                                     : 40 Nominal Caliper 
C1                 .mm                                     : 37 CALIPER DIAMETER 1 
C2                 .mm                                     : 38 CALIPER DIAMETER 2 
CALI               .mm                                     : Caliper    39 Caliper 
CFTC               .                                       : 7 
CNTC               .dec                                    : Neutron    8 
DTP                .uSec/m                                 : 3 Sonic travel time 
GR                 .gAPI                                   : GammaRay   9 ï¿½ï¿½(ï¿½.ï¿½) 
HMIN               .Ohmm                                   : 2 HIP Micro Inverse Resistivity 
HMNO               .Ohmm                                   : 3 HIP Micro Normal Resistivity 
HSGR               .                                       : 29 
HTPR               .                                       : 31 
HTUR               .                                       : 32 
HUPR               .                                       : 33 
PEFZ               .B/E                                    : PEF        4 Formation Photoelectric Factor 
PHIE               .Dec                                    : Phi 
PHIT               .Dec                                    : PhiT 
POTA               .                                       : 28 
PURA               .PPM                                    : 36 Upper Limit of Formation Uranium Concentration (F13 
RHOZ               .g/cm3                                  : Density    5 Bulk Density 
RLA1               .ohm.m                                  : ShalRes    13 HRLT Borehole Corrected Resistivity 1 
RLA2               .ohm.m                                  : MedRes     14 HRLT Borehole Corrected Resistivity 2 
RLA3               .ohm.m                                  : DeepRes    15 HRLT Borehole Corrected Resistivity 3 
RLA4               .ohm.m                                  : XDeepRes   16 HRLT Borehole Corrected Resisitivity 4 
RLA5               .ohm.m                                  : UltraDeepR 17 HRLT Borehole Corrected Resistivity 5 
RT                 .Ohmm                                   : 18 
RXO                .Ohmm                                   : 19 
RXOZ               .ohm.m                                  : 2 (HDRS-H)                (2in)                   Invaded Formation Resistivity filtered at 18 inches 
SP                 .mV                                     : SP         20 Spontaneous Potential 
SW                 .Dec                                    : Sw 
TEMP               .DEGC                                   : Temp       41 Temp 
THOR               .                                       : 30 
TNPH               .V/V                                    : Neutron    10 Neutron porosity 
URAN               .                                       : 34 
VCLAV              .Dec                                    : Vcl 
~Ascii
# ...
732.8      
  0.1476     1.512      1.5827     1.6588     1.753      1.7721     
  215.9      247.699    255.949    251.6625   399.7212   1379.5396  
  227.5223   81.0899    0.3283     0.4003     66.3794    8.2379     
  4.2379     1.9433     2.9835     0.0001000  0.1153     1.1713     
  2.633      2.3035     1.447      1.5475     1.6242     1.661800026893616 
  1.645799994468689 1.810700058937073 0.9602     1.492413   24.2637    
  1          35.2191    9.6376     0.4295     2.2748     0.7679    
732.9      
  0.1476     1.5445     1.5223     1.6045     1.7097     1.7205     
  215.9      261.496    249.5005   255.419    383.0895   1353.3912  
  216.5709   79.864     0.3127     0.3993     64.9082    8.5958     
  4.334      1.9834     2.954      0.0001000  0.1135     1.1173     
  2.5651     2.2766     1.4431     1.5312     1.6123     1.650500059127808 
  1.632400035858154 1.782099962234497 0.9654     1.4318     24.5472    
  1          35.2194    9.6044     0.4454     2.2162     0.756     
733        
  0.1476     1.5234     1.4686     1.5493     1.6421     1.6385     
  215.9      263.1035   251.126    257.036    368.5855   1350.0931  
  209.0161   75.2656    0.2984     0.38       63.0402    8.5293     
  4.4176     1.9313     2.9266     0.0056     0.1094     1.0973     
  2.4612     2.2303     1.4443     1.5113     1.5843     1.624699950218201 
  1.60699999332428 1.716500043869019 1.0074     1.4324     24.8487    
  1          35.2194    9.36       0.4743     2.1197     0.6922    
733.1      
  0.1475     1.4794     1.5013     1.5967     1.6687     1.7102     
  215.9      262.144    260.706    261.4055   369.34     1351.049   
  206.8785   75.5704    0.307      0.3766     61.1226    8.8307     
  5.0905     1.7685     2.887      0.0049     0.1096     1.0688     
  2.2263     2.2013     1.4714     1.5064     1.5748     1.610100030899048 
  1.591699957847595 1.650300025939941 1.1257     1.369654   25.1654    
  1          35.2194    9.4254     0.4755     1.8952     0.6985    
733.2      
  0.1475     1.4562     1.5161     1.6655     1.7532     1.8209     
  215.9      264.6395   266.439    265.534    382.5655   1355.516   
  206.6296   79.3856    0.3136     0.3817     59.1573    9.4855     
  6.3299     1.4993     2.8445     0.0015     0.1142     1.032      
  1.8656     2.1851     1.5115     1.5377     1.5995     1.635200023651123 
  1.615200042724609 1.662999987602234 1.173      1.29381    25.5053    
  1          35.2194    9.7886     0.4541     1.5474     0.7513    
733.3      
  0.1475     1.4331     1.5476     1.6922     1.8161     1.8825     
  215.9      268.92     256.9155   262.7925   407.3672   1364.0408  
  218.0642   74.9887    0.2401     0.3107     60.0108    9.5624     
  5.7951     1.6584     2.803      0.0063     0.1092     1.0183     
  2.0135     2.1728     1.4623     1.5048     1.5635     1.595600008964539 
  1.580000042915344 1.64740002155304 1.0799     1.262245   26.0246    
  1          35.2198    9.7371     0.4158     1.6876     0.6865    
733.4      
  0.1475     1.4517     1.5283     1.6553     1.7943     1.8392     
  215.9      268.562    241.8875   254.8665   430.705    1384.4541  
  232.0903   72.8147    0.2435     0.3197     60.3687    9.3663     
  5.7373     1.6426     2.7649     0.015      0.1113     1.0355     
  2.0251     2.1793     1.4045     1.4705     1.5389     1.573300004005432 
  1.562600016593933 1.672600030899048 0.9631     1.276772   26.7163    
  1          35.22      9.6858     0.3871     1.6951     0.6417    
733.5      
  0.1475     1.4401     1.5352     1.6143     1.7079     1.7411     
  215.9      260.529    234.7125   247.274    452.6361   1416.2896  
  236.5558   72.7764    0.2231     0.3        60.1112    8.8565     
  6.2605     1.4163     2.7502     0.0152     0.1114     1.0887     
  1.8707     2.1809     1.417      1.4843     1.5556     1.587800025939941 
  1.577499985694885 1.689100027084351 0.9723     1.3729     27.15      
  1          35.22      9.6396     0.3678     1.5409     0.6409    
733.6      
  0.1477     1.4555     1.5272     1.6289     1.6886     1.732      
  215.9      247.9145   240.4915   244.079    430.4839   1428.5922  
  243.1369   72.1919    0.2421     0.3268     60.0027    9.1934     
  6.3692     1.4431     2.7709     0.019      0.1133     1.0673     
  1.872      2.176      1.4304     1.5048     1.5758     1.611199975013733 
  1.600399971008301 1.722900032997131 0.9723     1.477483   27.6507    
  1          35.22      9.8062     0.4103     1.5396     0.6289    
733.7      
  0.148      1.4641     1.5542     1.6675     1.7104     1.742      
  215.9      240.867    252.731    246.7125   413.1504   1432.2968  
  242.8808   72.1817    0.3747     0.4674     59.4174    9.4392     
  6.4012     1.4747     2.8081     0.019      0.1133     1.043      
  1.87       2.1836     1.4858     1.5739     1.6526     1.687000036239624 
  1.678300023078918 1.826799988746643 0.9952     1.562314   28.2329    
  1          35.22      9.8447     0.4413     1.5379     0.6287    
733.8      
  0.1483     1.4585     1.553      1.689      1.7353     1.7415     
  215.9      240.0425   256.761    248.261    401.9963   1426.1394  
  241.402    72.8524    0.5324     0.5852     58.1603    9.4845     
  6.3637     1.4904     2.8513     0.0148     0.1112     1.0214     
  1.8497     2.1918     1.4757     1.5665     1.6481     1.68369996547699 
  1.675699949264526 1.834800004959106 0.9828     1.59052    28.7689    
  1          35.22      9.6875     0.458      1.5223     0.6425    
733.9      
  0.1485     1.4643     1.595      1.6771     1.7423     1.7591     
  215.9      234.9775   242.4725   238.6605   396.3168   1403.743   
  243.0052   74.0272    0.4423     0.4992     58.4328    9.8737     
  6.1116     1.6192     2.8797     0.0093     0.1093     0.9939     
  1.9374     2.2006     1.3919     1.4867     1.5694     1.605800032615662 
  1.600200057029724 1.774399995803833 0.9289     1.450479   29.2307    
  1          35.22      9.8066     0.4534     1.6071     0.6667    
734        
  0.1486     1.4709     1.6079     1.6327     1.6897     1.7306     
  215.9      237.8855   234.9155   236.394    396.2943   1399.8644  
  246.907    72.6807    0.3513     0.4041     58.8162    10.2348    
  6.064      1.6891     2.8911     0.0158     0.1116     0.9757     
  1.9802     2.2137     1.2861     1.3931     1.4764     1.510599970817566 
  1.506600022315979 1.700899958610535 0.8787     1.325423   29.594     
  1          35.22      9.9855     0.4494     1.648      0.6389    
734.1      
  0.1487     1.4784     1.5773     1.6237     1.669      1.6724     
  215.9      248.4165   248.2915   248.342    403.6013   1422.9893  
  242.9759   67.8082    0.3574     0.3978     59.0665    10.4758    
  6.4101     1.6349     2.8928     0.0783     0.1591     0.9745     
  1.924      2.2207     1.2646     1.379      1.4621     1.495200037956238 
  1.493800044059753 1.695600032806396 0.877      1.309198   30.2051    
  1          35.22      10.2082    0.4481     1.5932     0.5386    
734.2      
  0.1486     1.5053     1.5983     1.6268     1.6621     1.6674     
  215.9      250.053    269.479    259.4855   393.1259   1409.2618  
  235.6335   70.8532    0.4198     0.4629     58.2772    11.6479    
  7.4506     1.5694     2.8939     0.0305     0.1207     0.9202     
  1.7734     2.224      1.3578     1.4633     1.5491     1.585000038146973 
  1.580000042915344 1.769999980926514 0.9224     1.313535   30.7643    
  1          35.22      10.6691    0.4605     1.4467     0.6013    
734.3      
  0.1483     1.514      1.6087     1.653      1.7045     1.7044     
  215.9      252.2195   276.1105   263.8455   376.5608   1400.4213  
  225.7069   73.7823    0.469      0.518      57.2328    12.7943    
  8.4827     1.5097     2.909      0.0103     0.1095     0.865      
  1.6279     2.2255     1.4057     1.49       1.5763     1.6110999584198 
  1.607399940490723 1.766700029373169 0.9381     1.386995   31.183     
  1          35.2202    11.0574    0.4934     1.3065     0.6616    
