~Version
 VERS              .         3.0                           : CWLS LOG ASCII STANDARD - VERSION 3.0
 WRAP              .         NO                            : ONE LINE PER DEPTH STEP
 DLM               .         SPACE                         : DELIMITING CHARACTER(SPACE TAB OR COMMA)
~Well Information
#_______________________________________________________________________________
#
#PARAMETER_NAME    .UNIT     VALUE                         : DESCRIPTION
#_______________________________________________________________________________
STRT               .M        0                             : First reference value
STOP               .M        911                           : Last reference value
STEP               .M        0.1                           : Step increment
NULL               .         -9999                         : Missing value
COMP               .         ICPetroleum                   : Company
WELL               .         311                           : Well name
FLD                .         Karatobe                      : Field
LOC                .                                       : Location
SRVC               .         ?                             : Service Company
CTRY               .         KZ                            : Country
DATE               .         10.05.05                      : Service Date
LATI               .         0                             : Latitude
LONG               .         0                             : Longitude
GDAT               .         WGS 84                        : Geodetic Datum
COORDIN            .                                       : Grid System
COUNTRY            .         Kazakhstan                    : 
COUNTRY            .         Kazakhstan                    : 
EREF               .m        143.5                         : 
KB                 .         142.8                         : KB Elevation
ORIGINALWELLNAME   .         311                           : 
PROV               .                                       : Province
RWS                .         -999                          : Def_Rw
UWI                .         1_311                         : Unique Well Identifier (UWI)
WST                .         -999                          : Def_Rwt
X                  .km       465871.99                     : 
XCOORD             .                                       : X or East-West Coordinate
Y                  .km       5307606.2                     : 
YCOORD             .                                       : Y or North-South Coordinate
~Parameter Information Block
#_______________________________________________________________________________
#
#PARAMETER_NAME    .UNIT     VALUE                         : DESCRIPTION
#_______________________________________________________________________________
SET                .         Las                           : 
BLI                .M        911.00                        : Bottom Logged Interval
BS                 .MM       215.90                        : Bit Size
DFD                .G/C3     1.14                          : Drilling Fluid Density
TDD                .M        908.00                        : Total Depth Driller
TLFamily_DEPT      .         Measured Depth                : 
TLFamily_PHI_FINAL .         Porosity                      : 
TLFamily_SW_AR     .         Water Saturation              : 
TLFamily_VSH_FINAL .         Shale Volume                  : 
~Curve Information
#_______________________________________________________________________________
#
#LOGNAME           .UNIT     LOG_ID                        : DESCRIPTION
#_______________________________________________________________________________
DEPT               .M                                      : Depth Curve {F}
PHI_FINAL          .m3/m3                                  : Porosity {F}
SW_AR              .m3/m3                                  :  {F}
VSH_FINAL          .unitless                               : Vshale {F}
~Ascii
# ...
543.5      0.08912171 1          0.5386437 
543.6      0.07018874 1          0.6348344 
543.7      0.08858064 1          0.7029523 
543.8      0.09833603 1          0.7319496 
543.9      0.1167393  1          0.708989  
544        0.1045499  1          0.7544277 
544.1      0.06449365 1          0.8448577 
544.2      0.08963519 1          0.7993573 
544.3      0.05827019 1          0.8715944 
544.4      0.07791716 1          0.7988132 
544.5      0.08362266 1          0.7898304 
544.6      0.1036895  1          0.7257633 
544.7      0.1076575  1          0.7070822 
544.8      0.1171938  1          0.6640125 
544.9      0.1106527  1          0.6668766 
545        0.1380557  1          0.5817508 
545.1      0.1488994  1          0.5451435 
545.2      0.1424306  1          0.5510345 
545.3      0.1280231  1          0.5772298 
545.4      0.1375881  1          0.5422137 
545.5      0.1423793  1          0.5457681 
545.6      0.1367489  1          0.5412847 
545.7      0.1248849  1          0.5611435 
545.8      0.1121606  1          0.5830532 
545.9      0.09189679 1          0.6218709 
546        0.08996826 1          0.6256549 
546.1      0.08281402 1          0.6612454 
546.2      0.07347396 1          0.672812  
546.3      0.03256741 1          0.8141017 
546.4      0.002211654 1          0.9335155 
546.5      0.001256479 1          0.9613293 
546.6      0.003674182 1          0.9488034 
546.7      0.01441466 1          0.9127576 
546.8      0.01577345 1          0.906538  
546.9      0.03415112 1          0.8345627 
547        0.03860187 1          0.817229  
547.1      0.03986914 1          0.8121594 
547.2      0.02099029 1          0.8694801 
547.3      0.01766343 1          0.8880991 
547.4      0.02771242 1          0.8470747 
547.5      0.0541921  1          0.7671804 
547.6      0.02740827 1          0.8501878 
547.7      0.05766188 1          0.7879077 
547.8      0.1224563  1          0.6242902 
547.9      0.110316   1          0.6505424 
548        0.09529904 1          0.6946489 
548.1      0.1000174  1          0.6872214 
548.2      0.1113821  1          0.6535876 
548.3      0.1085887  1          0.6604738 
548.4      0.1161782  1          0.62585   
548.5      0.1205526  1          0.6195139 
548.6      0.1258524  1          0.5943995 
548.7      0.1367335  1          0.5614866 
548.8      0.114408   1          0.614952  
548.9      0.1143868  1          0.6003367 
549        0.1049258  1          0.6126343 
549.1      0.1397871  1          0.5197513 
549.2      0.1382973  1          0.5371792 
549.3      0.147862   1          0.5177616 
549.4      0.1606653  1          0.4814966 
549.5      0.1610186  1          0.4824579 
549.6      0.1473101  1          0.5091736 
549.7      0.1542916  1          0.4693826 
549.8      0.1429891  1          0.4748916 
549.9      0.1384844  1          0.4695814 
550        0.1202219  1          0.4898974 
550.1      0.1188941  1          0.4689396 
550.2      0.09834339 1          0.4775057 
550.3      0.09446825 1          0.472172  
550.4      0.1217035  1          0.4096688 
550.5      0.1140617  1          0.4338791 
550.6      0.1096695  1          0.4723023 
550.7      0.1079348  1          0.5227229 
550.8      0.1000821  1          0.5669463 
550.9      0.1251341  1          0.5320356 
551        0.1174792  1          0.551918  
551.1      0.08640182 1          0.6379242 
551.2      0.08686369 1          0.665533  
551.3      0.08011114 1          0.6819981 
551.4      0.08910159 1          0.6747081 
551.5      0.09974492 1          0.6741376 
551.6      0.1111625  1          0.657856  
551.7      0.1287492  1          0.6384075 
551.8      0.1184221  1          0.6907969 
551.9      0.1404826  1          0.6755419 
552        0.1477794  1          0.6952889 
552.1      0.1689804  1          0.6629731 
552.2      0.2361709  1          0.5375551 
552.3      0.2579754  0.9514812  0.4998085 
552.4      0.2729283  0.88152    0.4802285 
552.5      0.2786169  0.8421483  0.4730141 
552.6      0.2868685  0.8247784  0.4492992 
552.7      0.2782706  0.8932996  0.4544359 
552.8      0.24802    1          0.5063808 
552.9      0.2005514  1          0.5943045 
553        0.1603439  1          0.6695161 
553.1      0.09141313 1          0.8474442 
553.2      0.06897144 1          0.9052779 
553.3      0.04311654 1          0.9977631 
553.4      0.04109429 1          0.9985666 
553.5      0.04193558 1          0.9853247 
553.6      0.05021977 1          0.9487932 
553.7      0.05890917 1          0.9208058 
553.8      0.09669936 1          0.8069144 
553.9      0.1106008  1          0.7533264 
554        0.1238331  1          0.6991624 
554.1      0.1885374  1          0.5316966 
554.2      0.2142598  1          0.4603358 
554.3      0.2269279  1          0.4150869 
554.4      0.2425815  1          0.3637393 
554.5      0.2223229  1          0.387347  
554.6      0.2036316  1          0.4228333 
554.7      0.1843881  1          0.4500408 
554.8      0.1592504  1          0.4970725 
554.9      0.1362366  1          0.5351661 
555        0.1528542  1          0.4758473 
555.1      0.1356685  1          0.4881201 
555.2      0.1253139  1          0.4686331 
555.3      0.1226952  1          0.4473942 
555.4      0.1086317  1          0.4686638 
555.5      0.1047537  1          0.4883517 
555.6      0.1125348  1          0.5208892 
555.7      0.1035997  1          0.5880324 
555.8      0.07423805 1          0.7056646 
555.9      0.03754935 1          0.8380139 
556        0.001042346 1          0.9815183 
556.1      0.0001935858 1          1         
556.2      0          1          1         
556.3      0          1          1         
556.4      0          1          1         
556.5      0          1          1         
556.6      0          1          1         
556.7      0          1          1         
556.8      0          1          1         
556.9      0          1          1         
557        0          1          1         
557.1      0.0001633161 1          1         
557.2      0.002350508 1          0.9803576 
557.3      0.004280908 1          0.9811472 
557.4      0.006146774 1          0.9897096 
557.5      0.008538511 1          1         
557.6      0.009888075 1          1         
557.7      0.01097685 1          1         
557.8      0.02016249 1          0.9573232 
557.9      0.04507063 1          0.8670917 
558        0.01850759 1          0.9623482 
558.1      0.01169778 1          1         
558.2      0.01482348 1          0.9744178 
558.3      0.01115409 1          0.9764856 
558.4      0.003255306 1          1         
558.5      0.001744717 1          1         
558.6      0.0005325929 1          1         
558.7      0          1          1         
558.8      0          1          1         
558.9      0          1          1         
559        0          1          1         
559.1      0          1          1         
559.2      0          1          1         
559.3      0.0000983  1          1         
559.4      0.001307208 1          1         
559.5      0.001341973 1          1         
559.6      0.0008605298 1          1         
559.7      0.0005878464 1          1         
559.8      0.0004119233 1          1         
559.9      0.0002378219 1          1         
560        0.0001264693 1          1         
560.1      0.0001125627 1          1         
560.2      0.001612267 1          1         
560.3      0.004050331 1          1         
560.4      0.004265437 1          1         
560.5      0.003220277 1          1         
560.6      0.001325684 1          1         
560.7      0.0008613237 1          1         
560.8      0.001037353 1          1         
560.9      0.001351386 1          1         
561        0.001416683 1          1         
561.1      0.0009188161 1          1         
561.2      0.001321745 1          1         
561.3      0.001092789 1          1         
561.4      0.0007599134 1          1         
561.5      0.0005564902 1          1         
