~Version
 VERS              .         3.0                           : CWLS LOG ASCII STANDARD - VERSION 3.0
 WRAP              .         NO                            : ONE LINE PER DEPTH STEP
 DLM               .         SPACE                         : DELIMITING CHARACTER(SPACE TAB OR COMMA)
~Well Information
#_______________________________________________________________________________
#
#PARAMETER_NAME    .UNIT     VALUE                         : DESCRIPTION
#_______________________________________________________________________________
STRT               .M        0                             : First reference value
STOP               .M        911                           : Last reference value
STEP               .M        0.1                           : Step increment
NULL               .         -9999                         : Missing value
COMP               .         ICPetroleum                   : Company
WELL               .         311                           : Well name
FLD                .         Karatobe                      : Field
LOC                .                                       : Location
SRVC               .         ?                             : Service Company
CTRY               .         KZ                            : Country
DATE               .         10.05.05                      : Service Date
LATI               .         0                             : Latitude
LONG               .         0                             : Longitude
GDAT               .         WGS 84                        : Geodetic Datum
COORDIN            .                                       : Grid System
COUNTRY            .         Kazakhstan                    : 
COUNTRY            .         Kazakhstan                    : 
EREF               .m        143.5                         : 
KB                 .         142.8                         : KB Elevation
ORIGINALWELLNAME   .         311                           : 
PROV               .                                       : Province
RWS                .         -999                          : Def_Rw
UWI                .         1_311                         : Unique Well Identifier (UWI)
WST                .         -999                          : Def_Rwt
X                  .km       465871.99                     : 
XCOORD             .                                       : X or East-West Coordinate
Y                  .km       5307606.2                     : 
YCOORD             .                                       : Y or North-South Coordinate
~Parameter Information Block
#_______________________________________________________________________________
#
#PARAMETER_NAME    .UNIT     VALUE                         : DESCRIPTION
#_______________________________________________________________________________
SET                .         Las                           : 
BLI                .M        911.00                        : Bottom Logged Interval
BS                 .MM       215.90                        : Bit Size
DFD                .G/C3     1.14                          : Drilling Fluid Density
TDD                .M        908.00                        : Total Depth Driller
TLFamily_DEPT      .         Measured Depth                : 
TLFamily_PHI_FINAL .         Porosity                      : 
TLFamily_SW_AR     .         Water Saturation              : 
TLFamily_VSH_FINAL .         Shale Volume                  : 
~Curve Information
#_______________________________________________________________________________
#
#LOGNAME           .UNIT     LOG_ID                        : DESCRIPTION
#_______________________________________________________________________________
DEPT               .M                                      : Depth Curve {F}
PHI_FINAL          .m3/m3                                  : Porosity {F}
SW_AR              .m3/m3                                  :  {F}
VSH_FINAL          .unitless                               : Vshale {F}
~Ascii
# ...
488.9      0.002803024 1          1         
489        0.004047408 1          1         
489.1      0.004870825 1          1         
489.2      0.006150485 1          1         
489.3      0.01338705 1          0.9397857 
489.4      0.03369563 1          0.874648  
489.5      0.05320157 1          0.8384522 
489.6      0.0545347  1          0.8195098 
489.7      0.08288991 1          0.7810121 
489.8      0.06733423 1          0.8400434 
489.9      0.05523532 1          0.8638922 
490        0.03356408 1          0.9450543 
490.1      0.01907557 1          1         
490.2      0.01866296 1          1         
490.3      0.01804413 1          1         
490.4      0.02116646 1          1         
490.5      0.0190284  1          1         
490.6      0.02110809 1          0.993636  
490.7      0.0840314  1          0.8213244 
490.8      0.1063952  1          0.7512779 
490.9      0.125486   1          0.7001911 
491        0.1602014  1          0.6250436 
491.1      0.2029608  1          0.5654812 
491.2      0.2391644  1          0.5284951 
491.3      0.1850064  1          0.6643487 
491.4      0.1751045  1          0.7181451 
491.5      0.1890602  1          0.6650713 
491.6      0.1865544  1          0.6300435 
491.7      0.162216   1          0.6631914 
491.8      0.116808   1          0.7431377 
491.9      0.07295479 1          0.7981043 
492        0.04661115 1          0.8522697 
492.1      0.06853294 1          0.764191  
492.2      0.05059124 1          0.7694352 
492.3      0.09094001 1          0.6811512 
492.4      0.09203209 1          0.6738171 
492.5      0.1142456  1          0.5986794 
492.6      0.08188281 1          0.6308029 
492.7      0.05849987 1          0.6585473 
492.8      0.06609184 1          0.5639374 
492.9      0.07694314 1          0.459185  
493        0.07288155 1          0.4126991 
493.1      0.06822012 1          0.3380081 
493.2      0.05051118 1          0.3042428 
493.3      0.05685995 1          0.2536941 
493.4      0.06035492 1          0.2127267 
493.5      0.06403745 1          0.1945808 
493.6      0.06819467 0.8589161  0.1783759 
493.7      0.06760576 0.6627645  0.1739315 
493.8      0.06849234 0.6156161  0.1715673 
493.9      0.05927257 0.6971281  0.1984649 
494        0.06935892 0.582874   0.1740346 
494.1      0.06873114 0.5523171  0.198596  
494.2      0.07467304 0.5131969  0.2003579 
494.3      0.06898247 0.6311731  0.2323726 
494.4      0.05897637 0.8733643  0.2841075 
494.5      0.05121687 1          0.3045712 
494.6      0.05182027 0.9391086  0.3012388 
494.7      0.04901774 0.8878637  0.3018061 
494.8      0.0646817  0.6723018  0.2668653 
494.9      0.07748245 0.6030141  0.2832269 
495        0.1135743  0.4989337  0.2679034 
495.1      0.1388373  0.4762492  0.2758259 
495.2      0.1650448  0.5692503  0.2922468 
495.3      0.180353   0.6343618  0.3348687 
495.4      0.1998476  0.9117613  0.387051  
495.5      0.2345053  0.9836994  0.3610279 
495.6      0.2591853  0.9707614  0.370326  
495.7      0.2794269  0.9816231  0.3595273 
495.8      0.271114   1          0.3886124 
495.9      0.2658473  1          0.4123591 
496        0.2177167  1          0.559427  
496.1      0.147428   1          0.7298683 
496.2      0.1375459  1          0.7552724 
496.3      0.1005248  1          0.8610318 
496.4      0.1278367  1          0.8152528 
496.5      0.126916   1          0.8055236 
496.6      0.1102972  1          0.8443305 
496.7      0.1166494  1          0.8224971 
496.8      0.1352758  1          0.7726417 
496.9      0.1528633  1          0.731425  
497        0.1366166  1          0.7737204 
497.1      0.1241432  1          0.8074691 
497.2      0.09329692 1          0.8993896 
497.3      0.07358113 1          0.9412986 
497.4      0.05031203 1          0.977272  
497.5      0.04590603 1          0.9303491 
497.6      0.05898485 1          0.8498429 
497.7      0.04789941 1          0.8505722 
497.8      0.08892509 1          0.7284955 
497.9      0.1013456  1          0.6807178 
498        0.1209328  1          0.6249655 
498.1      0.09761745 1          0.6785646 
498.2      0.1014908  1          0.6803725 
498.3      0.1116252  1          0.6358955 
498.4      0.1157222  1          0.6236619 
498.5      0.118297   1          0.5964839 
498.6      0.1163129  1          0.6139494 
498.7      0.1027839  1          0.6501086 
498.8      0.09189652 1          0.6602316 
498.9      0.08410898 1          0.7012503 
499        0.0990679  1          0.6604788 
499.1      0.1021244  1          0.7000239 
499.2      0.107674   1          0.6991652 
499.3      0.1441735  1          0.6283163 
499.4      0.1316156  1          0.6518913 
499.5      0.1226752  1          0.6568906 
499.6      0.1056978  1          0.6891482 
499.7      0.09117096 1          0.7475359 
499.8      0.1165571  1          0.6694787 
499.9      0.130582   1          0.6387423 
500        0.1333631  1          0.6275908 
500.1      0.1172247  1          0.6746062 
500.2      0.1072175  1          0.6992056 
500.3      0.1372955  1          0.62661   
500.4      0.1482938  1          0.5872217 
500.5      0.09940045 1          0.7032896 
500.6      0.104472   1          0.6899243 
500.7      0.1052671  1          0.6791822 
500.8      0.1005633  1          0.6785881 
500.9      0.1084267  1          0.650955  
501        0.1396169  1          0.5671405 
501.1      0.1501354  1          0.5514945 
501.2      0.1805822  1          0.4656039 
501.3      0.1756121  1          0.4766868 
501.4      0.1606104  1          0.4992346 
501.5      0.1302024  1          0.5826108 
501.6      0.1209664  1          0.5981843 
501.7      0.09553043 1          0.6785161 
501.8      0.07742888 1          0.6985326 
501.9      0.09186535 1          0.6732781 
502        0.1259456  1          0.5748633 
502.1      0.08681905 1          0.6631355 
502.2      0.1071317  1          0.5995298 
502.3      0.09634801 1          0.626108  
502.4      0.1002363  1          0.6385933 
502.5      0.135283   1          0.5534636 
502.6      0.1066256  1          0.5974275 
502.7      0.128948   1          0.5220902 
502.8      0.1385025  1          0.4871278 
502.9      0.1403981  1          0.4960788 
503        0.121069   1          0.5568325 
503.1      0.1087867  1          0.6005837 
503.2      0.08470373 1          0.6713344 
503.3      0.07682593 1          0.6738319 
503.4      0.08272368 1          0.6642718 
503.5      0.07819141 1          0.7001988 
503.6      0.0696271  1          0.7513618 
503.7      0.0773951  1          0.7348906 
503.8      0.05558287 1          0.792698  
503.9      0.0406153  1          0.832763  
504        0.05122238 1          0.793794  
504.1      0.006484151 1          0.9880452 
504.2      0.004292894 1          1         
504.3      0.00388561 1          1         
504.4      0.004839245 1          0.958982  
504.5      0.03982913 1          0.755436  
504.6      0.0005022506 1          0.8946463 
504.7      0          1          0.9024907 
504.8      0          1          1         
504.9      0          1          1         
505        0          1          1         
505.1      0          1          1         
505.2      0          1          1         
505.3      0          1          1         
505.4      0          1          1         
505.5      0          1          1         
505.6      0.001921694 1          0.976264  
505.7      0.07255204 1          0.673254  
505.8      0.2619678  1          0.2370451 
505.9      0.3084192  1          0.1554032 
506        0.3426149  1          0.08558858
506.1      0.3566884  1          0.07713238
506.2      0.3656397  0.9907945  0.07330657
506.3      0.3729051  0.9668852  0.07964735
506.4      0.3719072  0.958307   0.07236522
506.5      0.3666764  0.9726114  0.07274865
506.6      0.3633005  1          0.06774792
506.7      0.3692167  1          0.05378713
506.8      0.3648418  1          0.04865231
506.9      0.367242   1          0.0474983 
507        0.37933    0.9756269  0.03313833
