~Version
 VERS              .         3.0                           : CWLS LOG ASCII STANDARD - VERSION 3.0
 WRAP              .         NO                            : ONE LINE PER DEPTH STEP
 DLM               .         SPACE                         : DELIMITING CHARACTER(SPACE TAB OR COMMA)
~Well Information
#_______________________________________________________________________________
#
#PARAMETER_NAME    .UNIT     VALUE                         : DESCRIPTION
#_______________________________________________________________________________
STRT               .M        0                             : First reference value
STOP               .M        911                           : Last reference value
STEP               .M        0.1                           : Step increment
NULL               .         -9999                         : Missing value
COMP               .         ICPetroleum                   : Company
WELL               .         311                           : Well name
FLD                .         Karatobe                      : Field
LOC                .                                       : Location
SRVC               .         ?                             : Service Company
CTRY               .         KZ                            : Country
DATE               .         10.05.05                      : Service Date
LATI               .         0                             : Latitude
LONG               .         0                             : Longitude
GDAT               .         WGS 84                        : Geodetic Datum
COORDIN            .                                       : Grid System
COUNTRY            .         Kazakhstan                    : 
COUNTRY            .         Kazakhstan                    : 
EREF               .m        143.5                         : 
KB                 .         142.8                         : KB Elevation
ORIGINALWELLNAME   .         311                           : 
PROV               .                                       : Province
RWS                .         -999                          : Def_Rw
UWI                .         1_311                         : Unique Well Identifier (UWI)
WST                .         -999                          : Def_Rwt
X                  .km       465871.99                     : 
XCOORD             .                                       : X or East-West Coordinate
Y                  .km       5307606.2                     : 
YCOORD             .                                       : Y or North-South Coordinate
~Parameter Information Block
#_______________________________________________________________________________
#
#PARAMETER_NAME    .UNIT     VALUE                         : DESCRIPTION
#_______________________________________________________________________________
SET                .         Las                           : 
BLI                .M        911.00                        : Bottom Logged Interval
BS                 .MM       215.90                        : Bit Size
DFD                .G/C3     1.14                          : Drilling Fluid Density
TDD                .M        908.00                        : Total Depth Driller
TLFamily_DEPT      .         Measured Depth                : 
TLFamily_PHI_FINAL .         Porosity                      : 
TLFamily_SW_AR     .         Water Saturation              : 
TLFamily_VSH_FINAL .         Shale Volume                  : 
~Curve Information
#_______________________________________________________________________________
#
#LOGNAME           .UNIT     LOG_ID                        : DESCRIPTION
#_______________________________________________________________________________
DEPT               .M                                      : Depth Curve {F}
PHI_FINAL          .m3/m3                                  : Porosity {F}
SW_AR              .m3/m3                                  :  {F}
VSH_FINAL          .unitless                               : Vshale {F}
~Ascii
# ...
288.8      0.3349129  0.6253275  0.2463279 
288.9      0.3310484  0.6273792  0.2487502 
289        0.3240918  0.6399419  0.2659215 
289.1      0.3026439  0.694754   0.3214597 
289.2      0.2865424  0.7374704  0.351921  
289.3      0.2904757  0.7280206  0.351921  
289.4      0.2816873  0.7507339  0.3661792 
289.5      0.2728755  0.7710859  0.3824025 
289.6      0.2614759  0.7997704  0.4000078 
289.7      0.2620589  0.7965634  0.4049384 
289.8      0.2629104  0.7941231  0.4049384 
289.9      0.2588509  0.8056794  0.4070132 
290        0.2505541  0.831347   0.4095831 
290.1      0.2464304  0.8361022  0.3889716 
290.2      0.2400537  0.8554948  0.3754287 
290.3      0.2363457  0.8681859  0.3754287 
290.4      0.2397365  0.8600124  0.3671001 
290.5      0.2490705  0.8310584  0.3562419 
290.6      0.2772062  0.7104517  0.2840712 
290.7      0.3052423  0.6202869  0.2269996 
290.8      0.3048106  0.6211179  0.2269996 
290.9      0.3300051  0.5540709  0.1791217 
291        0.3340679  0.5505696  0.1783425 
291.1      0.3207964  0.6109445  0.2412404 
291.2      0.3171605  0.6268625  0.2567769 
291.3      0.3195553  0.6224176  0.2567769 
291.4      0.3113214  0.6485078  0.2772734 
291.5      0.3079069  0.6616659  0.2863533 
291.6      0.3027027  0.6765954  0.2870664 
291.7      0.3018646  0.6743605  0.2740278 
291.8      0.2968791  0.6850682  0.2740278 
291.9      0.2982735  0.6751419  0.2532762 
292        0.3045951  0.6554723  0.228223  
292.1      0.3131547  0.6272774  0.1909351 
292.2      0.320185   0.6149769  0.1738073 
292.3      0.3212368  0.6130719  0.1738073 
292.4      0.3134196  0.6359603  0.1830992 
292.5      0.3138788  0.6390163  0.1835228 
292.6      0.3159085  0.635448   0.1912609 
292.7      0.3169681  0.6299979  0.1909322 
292.8      0.320671   0.6231142  0.1909322 
292.9      0.3232189  0.6129026  0.182722  
293        0.3218867  0.6154512  0.1992301 
293.1      0.3307163  0.582875   0.1835694 
293.2      0.3336884  0.5729786  0.1860172 
293.3      0.3392051  0.5641598  0.1860172 
293.4      0.3404544  0.5633487  0.1969865 
293.5      0.3367358  0.5720944  0.2153648 
293.6      0.3360059  0.570531   0.2215599 
293.7      0.3302547  0.5784817  0.2204441 
293.8      0.3219841  0.5925278  0.2204441 
293.9      0.3249637  0.5856686  0.2143462 
294        0.3287449  0.5794248  0.2096405 
294.1      0.3230469  0.5960936  0.2142801 
294.2      0.3213674  0.6034932  0.2176288 
294.3      0.3260815  0.5952368  0.2176288 
294.4      0.326898   0.5980236  0.2172106 
294.5      0.3262221  0.6013284  0.2089529 
294.6      0.3295535  0.6011704  0.2032519 
294.7      0.3348122  0.5948284  0.1957578 
294.8      0.3321961  0.5992587  0.1957578 
294.9      0.3398029  0.5892956  0.1954062 
295        0.3383198  0.5970434  0.2059898 
295.1      0.3334243  0.6017318  0.2028705 
295.2      0.3385152  0.5899668  0.196144  
295.3      0.3329986  0.5992082  0.196144  
295.4      0.339112   0.5842817  0.1886347 
295.5      0.3428226  0.5762168  0.1856955 
295.6      0.3550986  0.5497621  0.1762645 
295.7      0.3581966  0.5418558  0.1743058 
295.8      0.3540959  0.5477897  0.1743058 
295.9      0.3676022  0.5258255  0.1731999 
296        0.3652449  0.5300047  0.1789189 
296.1      0.3566679  0.554637   0.2089588 
296.2      0.3516523  0.5717608  0.2312837 
296.3      0.3468454  0.5792537  0.2312837 
296.4      0.3432746  0.592751   0.251776  
296.5      0.3325374  0.616318   0.2794374 
296.6      0.3139284  0.6617942  0.3388014 
296.7      0.3108251  0.6687528  0.3585889 
296.8      0.3135611  0.6632316  0.3585889 
296.9      0.3011513  0.6933059  0.3913784 
297        0.2857427  0.7412676  0.4385136 
297.1      0.2150695  1          0.6139988 
297.2      0.1865398  1          0.6870666 
297.3      0.1852503  1          0.6870666 
297.4      0.1610691  1          0.7493245 
297.5      0.1477944  1          0.7789868 
297.6      0.1190395  1          0.8625977 
297.7      0.1098877  1          0.8896899 
297.8      0.1105459  1          0.8896899 
297.9      0.07264875 1          1         
298        0.07096142 1          1         
298.1      0.08047239 1          1         
298.2      0.07444535 1          1         
298.3      0.07309733 1          1         
298.4      0.07148467 1          1         
298.5      0.06304432 1          1         
298.6      0.05572917 1          1         
298.7      0.044628   1          1         
298.8      0.0426803  1          1         
298.9      0.04850774 1          1         
299        0.05584848 1          1         
299.1      0.05566817 1          1         
299.2      0.05986384 1          1         
299.3      0.05899038 1          1         
299.4      0.06531088 1          1         
299.5      0.05844027 1          1         
299.6      0.05384639 1          1         
299.7      0.05056468 1          1         
299.8      0.03839006 1          1         
299.9      0.03181215 1          1         
300        0.02661502 1          1         
300.1      0.02467213 1          1         
300.2      0.02637179 1          1         
300.3      0.0239541  1          1         
300.4      0.02390976 1          1         
300.5      0.02535906 1          1         
300.6      0.02808935 1          1         
300.7      0.02702734 1          1         
300.8      0.02881079 1          1         
300.9      0.03050321 1          1         
301        0.02889122 1          1         
301.1      0.02775781 1          1         
301.2      0.03336554 1          1         
301.3      0.03218767 1          1         
301.4      0.03256061 1          1         
301.5      0.03546726 1          1         
301.6      0.04144839 1          1         
301.7      0.03305406 1          1         
301.8      0.02911965 1          1         
301.9      0.03020352 1          1         
302        0.02899309 1          1         
302.1      0.0238283  1          1         
302.2      0.03314244 1          0.9699721 
302.3      0.03518509 1          0.9697623 
302.4      0.04053083 1          0.9517214 
302.5      0.08654357 1          0.8200136 
302.6      0.1769127  1          0.5893423 
302.7      0.195573   1          0.5535646 
302.8      0.2061358  1          0.553463  
302.9      0.2282932  0.9387234  0.525323  
303        0.238106   0.9026104  0.5110306 
303.1      0.2464026  0.8802447  0.5148363 
303.2      0.2597896  0.8348224  0.4886203 
303.3      0.2574254  0.8420731  0.488534  
303.4      0.2592477  0.8333071  0.4857554 
303.5      0.2587868  0.8303759  0.4935733 
303.6      0.2562278  0.8270909  0.4964245 
303.7      0.2548576  0.8338764  0.508454  
303.8      0.2498182  0.8497797  0.5083629 
303.9      0.2563593  0.8354097  0.469256  
304        0.2639941  0.8172293  0.4319921 
304.1      0.2520379  0.8886427  0.4515381 
304.2      0.2132673  1          0.5282931 
304.3      0.1979621  1          0.5281977 
304.4      0.1450763  1          0.6566566 
304.5      0.08322856 1          0.8127371 
304.6      0.02194537 1          0.9822156 
304.7      0.03246195 1          0.9197428 
304.8      0.03378336 1          0.9195474 
304.9      0.06844147 1          0.8251558 
305        0.09733222 1          0.7577679 
305.1      0.0874012  1          0.7975696 
305.2      0.1255489  1          0.6876685 
305.3      0.1148815  1          0.6875341 
305.4      0.1377415  1          0.6125011 
305.5      0.1163746  1          0.6443704 
305.6      0.1596215  1          0.5054495 
305.7      0.1592456  0.9988229  0.4728008 
305.8      0.1497566  1          0.4727182 
305.9      0.160666   0.9380856  0.4581233 
306        0.1818965  0.8635463  0.4180208 
306.1      0.128443   1          0.6106861 
306.2      0.07405481 1          0.759296  
306.3      0.09194285 1          0.7591435 
306.4      0.09108683 1          0.7507922 
306.5      0.08288364 1          0.7643474 
306.6      0.1246542  1          0.6266295 
306.7      0.09959681 1          0.6895677 
306.8      0.1027984  1          0.689433  
306.9      0.08776821 1          0.7440278 
