~Version
 VERS              .         3.0                           : CWLS LOG ASCII STANDARD - VERSION 3.0
 WRAP              .         NO                            : ONE LINE PER DEPTH STEP
 DLM               .         SPACE                         : DELIMITING CHARACTER(SPACE TAB OR COMMA)
~Well Information
#_______________________________________________________________________________
#
#PARAMETER_NAME    .UNIT     VALUE                         : DESCRIPTION
#_______________________________________________________________________________
STRT               .M        0                             : First reference value
STOP               .M        911                           : Last reference value
STEP               .M        0.1                           : Step increment
NULL               .         -9999                         : Missing value
COMP               .         ICPetroleum                   : Company
WELL               .         311                           : Well name
FLD                .         Karatobe                      : Field
LOC                .                                       : Location
SRVC               .         ?                             : Service Company
CTRY               .         KZ                            : Country
DATE               .         10.05.05                      : Service Date
LATI               .         0                             : Latitude
LONG               .         0                             : Longitude
GDAT               .         WGS 84                        : Geodetic Datum
COORDIN            .                                       : Grid System
COUNTRY            .         Kazakhstan                    : 
COUNTRY            .         Kazakhstan                    : 
EREF               .m        143.5                         : 
KB                 .         142.8                         : KB Elevation
ORIGINALWELLNAME   .         311                           : 
PROV               .                                       : Province
RWS                .         -999                          : Def_Rw
UWI                .         1_311                         : Unique Well Identifier (UWI)
WST                .         -999                          : Def_Rwt
X                  .km       465871.99                     : 
XCOORD             .                                       : X or East-West Coordinate
Y                  .km       5307606.2                     : 
YCOORD             .                                       : Y or North-South Coordinate
~Parameter Information Block
#_______________________________________________________________________________
#
#PARAMETER_NAME    .UNIT     VALUE                         : DESCRIPTION
#_______________________________________________________________________________
SET                .         Las                           : 
BLI                .M        911.00                        : Bottom Logged Interval
BS                 .MM       215.90                        : Bit Size
DFD                .G/C3     1.14                          : Drilling Fluid Density
TDD                .M        908.00                        : Total Depth Driller
TLFamily_DEPT      .         Measured Depth                : 
TLFamily_PHI_FINAL .         Porosity                      : 
TLFamily_SW_AR     .         Water Saturation              : 
TLFamily_VSH_FINAL .         Shale Volume                  : 
~Curve Information
#_______________________________________________________________________________
#
#LOGNAME           .UNIT     LOG_ID                        : DESCRIPTION
#_______________________________________________________________________________
DEPT               .M                                      : Depth Curve {F}
PHI_FINAL          .m3/m3                                  : Porosity {F}
SW_AR              .m3/m3                                  :  {F}
VSH_FINAL          .unitless                               : Vshale {F}
~Ascii
# ...
343.3      0.159521   1          0.5382113 
343.4      0.1739847  1          0.5098998 
343.5      0.1758235  1          0.5098113 
343.6      0.1637775  1          0.5403365 
343.7      0.1704807  1          0.5138229 
343.8      0.1995938  1          0.4527802 
343.9      0.2092     1          0.4405837 
344        0.208446   1          0.4379366 
344.1      0.2037572  1          0.4504829 
344.2      0.2197059  1          0.4132722 
344.3      0.2180283  1          0.4112875 
344.4      0.1840685  1          0.484733  
344.5      0.2031654  1          0.4359275 
344.6      0.2094426  1          0.4218074 
344.7      0.1975615  1          0.4612131 
344.8      0.1690919  1          0.5391935 
344.9      0.1650944  1          0.5419503 
345        0.1373891  1          0.6175402 
345.1      0.1175131  1          0.669537  
345.2      0.09861358 1          0.7216961 
345.3      0.09144451 1          0.7442261 
345.4      0.1129125  1          0.7076757 
345.5      0.1576595  1          0.6468876 
345.6      0.1999672  1          0.5412812 
345.7      0.2075925  1          0.5520328 
345.8      0.1910504  1          0.6223152 
345.9      0.1565484  1          0.7181883 
346        0.1614404  1          0.7172062 
346.1      0.130932   1          0.8063574 
346.2      0.1387752  1          0.7950175 
346.3      0.1694158  1          0.7232855 
346.4      0.1447689  1          0.7956296 
346.5      0.08024517 1          0.9649422 
346.6      0.06768394 1          1         
346.7      0.06514494 1          1         
346.8      0.06470221 1          1         
346.9      0.0611253  1          1         
347        0.05210182 1          1         
347.1      0.04859028 1          1         
347.2      0.04219607 1          1         
347.3      0.03571891 1          1         
347.4      0.03676876 1          1         
347.5      0.03387337 1          1         
347.6      0.03187134 1          1         
347.7      0.02824493 1          1         
347.8      0.02305341 1          1         
347.9      0.01967871 1          1         
348        0.0186495  1          1         
348.1      0.01648435 1          1         
348.2      0.01511168 1          1         
348.3      0.04195748 1          0.8817067 
348.4      0.0673985  1          0.8092458 
348.5      0.09756816 1          0.7129467 
348.6      0.1409701  1          0.5824313 
348.7      0.1519051  1          0.5774431 
348.8      0.2048056  1          0.4557766 
348.9      0.2205601  1          0.4215002 
349        0.2174065  1          0.4390709 
349.1      0.1962097  1          0.4820549 
349.2      0.2053352  1          0.4611667 
349.3      0.1792231  1          0.5280496 
349.4      0.1710402  1          0.5348508 
349.5      0.1412725  1          0.6039945 
349.6      0.1306972  1          0.6571386 
349.7      0.1152641  1          0.6858387 
349.8      0.05750398 1          0.8123261 
349.9      0.03897082 1          0.8286296 
350        0.05346036 1          0.7802728 
350.1      0.08004524 1          0.7205702 
350.2      0.0985819  1          0.6660541 
350.3      0.1279753  1          0.5760205 
350.4      0.1151211  1          0.5960732 
350.5      0.1271895  1          0.5462623 
350.6      0.0765662  1          0.6694999 
350.7      0.05030006 1          0.7539121 
350.8      0.06162528 1          0.7464712 
350.9      0.05094476 1          0.7895303 
351        0.05518401 1          0.7896807 
351.1      0.04872967 1          0.8237905 
351.2      0.0672892  1          0.7688451 
351.3      0.08061306 1          0.7460412 
351.4      0.08675773 1          0.7289516 
351.5      0.07240474 1          0.7463338 
351.6      0.07528099 1          0.7555296 
351.7      0.06607497 1          0.8049168 
351.8      0.06436129 1          0.8182192 
351.9      0.05508487 1          0.8429918 
352        0.06947774 1          0.7957877 
352.1      0.03264029 1          0.8867512 
352.2      0.02472636 1          0.9277928 
352.3      0.0210967  1          0.9454356 
352.4      0.01687147 1          0.9488439 
352.5      0.01786461 1          0.9131842 
352.6      0.005376428 1          0.9919145 
352.7      0.0008624938 1          1         
352.8      0          1          0.990748  
352.9      0.001944993 1          0.9460633 
353        0.006103283 1          0.9181854 
353.1      0          1          0.9711604 
353.2      0.0005312005 1          0.9709586 
353.3      0          1          1         
353.4      0          1          1         
353.5      0          1          1         
353.6      0          1          1         
353.7      0.0008356192 1          1         
353.8      0.007157303 1          0.9296941 
353.9      0.04141761 1          0.8135713 
354        0.08098432 1          0.6934964 
354.1      0.09604034 1          0.6635728 
354.2      0.09297651 1          0.6699972 
354.3      0.1067256  1          0.6440264 
354.4      0.1051891  1          0.6479814 
354.5      0.08712517 1          0.6887891 
354.6      0.03107445 1          0.8702139 
354.7      0.02677764 1          0.8707046 
354.8      0.002732364 1          1         
354.9      0.005987618 1          1         
355        0.008843809 1          1         
355.1      0.01038111 1          1         
355.2      0.0132161  1          1         
355.3      0.01833673 1          1         
355.4      0.02135583 1          1         
355.5      0.0218496  1          1         
355.6      0.02343971 1          1         
355.7      0.02612814 1          1         
355.8      0.03431328 1          1         
355.9      0.03843343 1          1         
356        0.03373739 1          1         
356.1      0.03598113 1          1         
356.2      0.03133789 1          1         
356.3      0.02894701 1          1         
356.4      0.02502931 1          1         
356.5      0.02229412 1          1         
356.6      0.01806637 1          1         
356.7      0.01547626 1          1         
356.8      0.01309416 1          1         
356.9      0.007572128 1          1         
357        0.005449451 1          1         
357.1      0.004513327 1          1         
357.2      0.003205562 1          1         
357.3      0.003024252 1          1         
357.4      0.00121039 1          1         
357.5      0          1          1         
357.6      0.00105341 1          0.9668868 
357.7      0.02025139 1          0.8355495 
357.8      0.007529406 1          0.9099292 
357.9      0.02929939 1          0.8282073 
358        0.04512579 1          0.7837713 
358.1      0.05162261 1          0.7821106 
358.2      0.08163534 1          0.7103797 
358.3      0.03188626 1          0.8539312 
358.4      0.04788446 1          0.8226448 
358.5      0.01969536 1          0.9138284 
358.6      0.04653579 1          0.8375785 
358.7      0.01000754 1          0.959232  
358.8      0.004571503 1          1         
358.9      0.003589869 1          1         
359        0.002434187 1          1         
359.1      0.001227641 1          1         
359.2      0.0000228  1          1         
359.3      0          1          1         
359.4      0          1          1         
359.5      0.01054969 1          0.9095507 
359.6      0.0220952  1          0.8595575 
359.7      0.04952613 1          0.8252648 
359.8      0.0737659  1          0.7855513 
359.9      0.07487421 1          0.8145759 
360        0.04859122 1          0.9014107 
360.1      0.04522466 1          0.9198881 
360.2      0.02178369 1          1         
360.3      0.01970953 1          1         
360.4      0.01968127 1          1         
360.5      0.0178349  1          1         
360.6      0.016964   1          1         
360.7      0.01288038 1          1         
360.8      0.0155911  1          1         
360.9      0.00915468 1          1         
361        0.007195858 1          1         
361.1      0.008379221 1          1         
361.2      0.01038201 1          1         
361.3      0.01283117 1          1         
361.4      0.01181518 1          1         
