~Version
 VERS              .         3.0                           : CWLS LOG ASCII STANDARD - VERSION 3.0
 WRAP              .         NO                            : ONE LINE PER DEPTH STEP
 DLM               .         SPACE                         : DELIMITING CHARACTER(SPACE TAB OR COMMA)
~Well Information
#_______________________________________________________________________________
#
#PARAMETER_NAME    .UNIT     VALUE                         : DESCRIPTION
#_______________________________________________________________________________
STRT               .M        0                             : First reference value
STOP               .M        911                           : Last reference value
STEP               .M        0.1                           : Step increment
NULL               .         -9999                         : Missing value
COMP               .         ICPetroleum                   : Company
WELL               .         311                           : Well name
FLD                .         Karatobe                      : Field
LOC                .                                       : Location
SRVC               .         ?                             : Service Company
CTRY               .         KZ                            : Country
DATE               .         10.05.05                      : Service Date
LATI               .         0                             : Latitude
LONG               .         0                             : Longitude
GDAT               .         WGS 84                        : Geodetic Datum
COORDIN            .                                       : Grid System
COUNTRY            .         Kazakhstan                    : 
COUNTRY            .         Kazakhstan                    : 
EREF               .m        143.5                         : 
KB                 .         142.8                         : KB Elevation
ORIGINALWELLNAME   .         311                           : 
PROV               .                                       : Province
RWS                .         -999                          : Def_Rw
UWI                .         1_311                         : Unique Well Identifier (UWI)
WST                .         -999                          : Def_Rwt
X                  .km       465871.99                     : 
XCOORD             .                                       : X or East-West Coordinate
Y                  .km       5307606.2                     : 
YCOORD             .                                       : Y or North-South Coordinate
~Parameter Information Block
#_______________________________________________________________________________
#
#PARAMETER_NAME    .UNIT     VALUE                         : DESCRIPTION
#_______________________________________________________________________________
SET                .         Las                           : 
BLI                .M        911.00                        : Bottom Logged Interval
BS                 .MM       215.90                        : Bit Size
DFD                .G/C3     1.14                          : Drilling Fluid Density
TDD                .M        908.00                        : Total Depth Driller
TLFamily_DEPT      .         Measured Depth                : 
TLFamily_PHI_FINAL .         Porosity                      : 
TLFamily_SW_AR     .         Water Saturation              : 
TLFamily_VSH_FINAL .         Shale Volume                  : 
~Curve Information
#_______________________________________________________________________________
#
#LOGNAME           .UNIT     LOG_ID                        : DESCRIPTION
#_______________________________________________________________________________
DEPT               .M                                      : Depth Curve {F}
PHI_FINAL          .m3/m3                                  : Porosity {F}
SW_AR              .m3/m3                                  :  {F}
VSH_FINAL          .unitless                               : Vshale {F}
~Ascii
# ...
634.4      0.2919734  1          0.1264223 
634.5      0.2949778  1          0.1104403 
634.6      0.2997307  1          0.1062359 
634.7      0.3061011  1          0.1124951 
634.8      0.3285634  1          0.1059439 
634.9      0.3381822  1          0.1138319 
635        0.3439641  1          0.1138781 
635.1      0.3371854  1          0.1013941 
635.2      0.3280724  1          0.1057964 
635.3      0.3238143  1          0.1084727 
635.4      0.3239788  1          0.1264829 
635.5      0.3216377  1          0.1356645 
635.6      0.320402   1          0.1282781 
635.7      0.3298122  1          0.1210244 
635.8      0.3202675  1          0.1276455 
635.9      0.3169428  1          0.1236051 
636        0.3182115  1          0.1259284 
636.1      0.3241127  1          0.1312821 
636.2      0.3213523  1          0.128509  
636.3      0.3229637  1          0.1157922 
636.4      0.3204387  1          0.1189565 
636.5      0.323832   1          0.1141169 
636.6      0.3195485  1          0.1333276 
636.7      0.3299029  1          0.1238091 
636.8      0.3257753  1          0.1372629 
636.9      0.3154586  1          0.1519282 
637        0.3168717  1          0.1525906 
637.1      0.306417   1          0.1611401 
637.2      0.3138623  1          0.1560452 
637.3      0.31781    1          0.1568569 
637.4      0.3234513  1          0.1550522 
637.5      0.3129838  1          0.1716267 
637.6      0.3168752  1          0.175375  
637.7      0.3132639  1          0.1964811 
637.8      0.3086844  1          0.2183526 
637.9      0.3088479  1          0.2358177 
638        0.3088802  1          0.2794584 
638.1      0.3172138  1          0.2994659 
638.2      0.2925912  1          0.385321  
638.3      0.2557602  1          0.5004216 
638.4      0.2031929  1          0.6165004 
638.5      0.1486361  1          0.7237027 
638.6      0.08810344 1          0.8013794 
638.7      0.04143117 1          0.8938043 
638.8      0.004163833 1          1         
638.9      0.0006977015 1          1         
639        0.0005325929 1          1         
639.1      0.008202822 1          0.96358   
639.2      0.01027398 1          0.9410846 
639.3      0.01710908 1          0.9179232 
639.4      0.02147678 1          0.9026306 
639.5      0.03035793 1          0.8872947 
639.6      0.05605904 1          0.8237565 
639.7      0.08339158 1          0.7532518 
639.8      0.09556617 1          0.7130182 
639.9      0.0862177  1          0.7403705 
640        0.05856574 1          0.8250446 
640.1      0.0339197  1          0.875601  
640.2      0.04622484 1          0.8416295 
640.3      0.02601759 1          0.8775165 
640.4      0.02473749 1          0.8876377 
640.5      0.03540485 1          0.8527073 
640.6      0.009275345 1          0.9309573 
640.7      0.005486074 1          0.9481344 
640.8      0.02191506 1          0.8856539 
640.9      0.02328244 1          0.902064  
641        0.03599877 1          0.8781526 
641.1      0.02091099 1          0.9460118 
641.2      0.03751475 1          0.9013286 
641.3      0.05191968 1          0.8610284 
641.4      0.06379883 1          0.8159047 
641.5      0.05176527 1          0.8462205 
641.6      0.04549788 1          0.8706825 
641.7      0.06504409 1          0.8108747 
641.8      0.06748853 1          0.8125416 
641.9      0.07400779 1          0.789817  
642        0.06347638 1          0.8223591 
642.1      0.0843341  1          0.7695053 
642.2      0.07954013 1          0.7947113 
642.3      0.09786003 1          0.7646239 
642.4      0.07837874 1          0.8084182 
642.5      0.07857282 1          0.7996315 
642.6      0.06931389 1          0.8158627 
642.7      0.06086127 1          0.8342313 
642.8      0.04826174 1          0.8749846 
642.9      0.03998597 1          0.9163953 
643        0.05201171 1          0.9051217 
643.1      0.06600128 1          0.8795078 
643.2      0.07214519 1          0.8604978 
643.3      0.04439297 1          0.9229695 
643.4      0.04746131 1          0.903101  
643.5      0.06641492 1          0.838677  
643.6      0.05717402 1          0.8393333 
643.7      0.06285083 1          0.821903  
643.8      0.07576668 1          0.7926659 
643.9      0.07830948 1          0.8062029 
644        0.0531677  1          0.8705096 
644.1      0.06666617 1          0.8503489 
644.2      0.08788482 1          0.7921559 
644.3      0.06668208 1          0.8524807 
644.4      0.06348002 1          0.860961  
644.5      0.02223616 1          1         
644.6      0.01979905 1          0.9927651 
644.7      0.01337097 1          1         
644.8      0.02336657 1          0.9298938 
644.9      0.01539819 1          0.925682  
645        0.004757709 1          0.9418425 
645.1      0.001249318 1          0.9523093 
645.2      0          1          0.9240603 
645.3      0.01232709 1          0.8346345 
645.4      0.02251793 1          0.8090942 
645.5      0.01630837 1          0.8414857 
645.6      0.03186707 1          0.8129301 
645.7      0.02867773 1          0.8288506 
645.8      0.02366209 1          0.8402795 
645.9      0.03185095 1          0.8353948 
646        0.05724406 1          0.8075446 
646.1      0.07708676 1          0.7952572 
646.2      0.07142618 1          0.8123971 
646.3      0.09885911 1          0.767289  
646.4      0.08065985 1          0.8154727 
646.5      0.1312622  1          0.6794114 
646.6      0.162595   1          0.6050436 
646.7      0.1957743  1          0.529288  
646.8      0.2297804  1          0.4799565 
646.9      0.2332304  1          0.4937539 
647        0.2508398  1          0.4608198 
647.1      0.2525753  1          0.4673327 
647.2      0.2271881  1          0.5142044 
647.3      0.1967986  1          0.5812091 
647.4      0.1797434  1          0.6289492 
647.5      0.1231172  1          0.7547261 
647.6      0.07680586 1          0.8492123 
647.7      0.03083673 1          0.9552327 
647.8      0.02108605 1          0.9562595 
647.9      0.03002433 1          0.9030985 
648        0.04409247 1          0.8409594 
648.1      0.01215943 1          0.9331447 
648.2      0.02637773 1          0.8748545 
648.3      0.01335989 1          0.9030606 
648.4      0.002983231 1          0.9663331 
648.5      0.01821667 1          0.9072801 
648.6      0.0272187  1          0.8944697 
648.7      0.05903849 1          0.8137248 
648.8      0.05318749 1          0.8189929 
648.9      0.05013387 1          0.834464  
649        0.03509749 1          0.8601223 
649.1      0.01300273 1          0.8878812 
649.2      0.001805625 1          0.9498542 
649.3      0.00317545 1          0.926925  
649.4      0          1          0.9661925 
649.5      0.01156444 1          0.891183  
649.6      0.02784989 1          0.8573922 
649.7      0.01030975 1          0.9573432 
649.8      0.007032447 1          0.9873323 
649.9      0.01065933 1          1         
650        0.02462574 1          0.9574515 
650.1      0.02279575 1          0.9692458 
650.2      0.01900703 1          0.9829976 
650.3      0.02510716 1          0.9662157 
650.4      0.01681604 1          1         
650.5      0.01378249 1          1         
650.6      0.007805317 1          1         
650.7      0.006517443 1          1         
650.8      0.001517444 1          1         
650.9      0.003561485 1          0.9812179 
651        0.007829668 1          0.9585063 
651.1      0.02868112 1          0.8810852 
651.2      0.0431449  1          0.84635   
651.3      0.08184536 1          0.7494957 
651.4      0.1173278  1          0.6623197 
651.5      0.14973    1          0.580862  
651.6      0.143895   1          0.5832447 
651.7      0.1260007  1          0.5999074 
651.8      0.09133878 1          0.6704695 
651.9      0.05914658 1          0.7279277 
652        0.09941988 1          0.6284794 
652.1      0.1069591  1          0.5902687 
652.2      0.1095222  1          0.6033703 
652.3      0.1391037  1          0.5617138 
652.4      0.144938   1          0.5694029 
652.5      0.1364271  1          0.6048666 
