~Version
 VERS              .         3.0                           : CWLS LOG ASCII STANDARD - VERSION 3.0
 WRAP              .         NO                            : ONE LINE PER DEPTH STEP
 DLM               .         SPACE                         : DELIMITING CHARACTER(SPACE TAB OR COMMA)
~Well Information
#_______________________________________________________________________________
#
#PARAMETER_NAME    .UNIT     VALUE                         : DESCRIPTION
#_______________________________________________________________________________
STRT               .M        0                             : First reference value
STOP               .M        911                           : Last reference value
STEP               .M        0.1                           : Step increment
NULL               .         -9999                         : Missing value
COMP               .         ICPetroleum                   : Company
WELL               .         311                           : Well name
FLD                .         Karatobe                      : Field
LOC                .                                       : Location
SRVC               .         ?                             : Service Company
CTRY               .         KZ                            : Country
DATE               .         10.05.05                      : Service Date
LATI               .         0                             : Latitude
LONG               .         0                             : Longitude
GDAT               .         WGS 84                        : Geodetic Datum
COORDIN            .                                       : Grid System
COUNTRY            .         Kazakhstan                    : 
COUNTRY            .         Kazakhstan                    : 
EREF               .m        143.5                         : 
KB                 .         142.8                         : KB Elevation
ORIGINALWELLNAME   .         311                           : 
PROV               .                                       : Province
RWS                .         -999                          : Def_Rw
UWI                .         1_311                         : Unique Well Identifier (UWI)
WST                .         -999                          : Def_Rwt
X                  .km       465871.99                     : 
XCOORD             .                                       : X or East-West Coordinate
Y                  .km       5307606.2                     : 
YCOORD             .                                       : Y or North-South Coordinate
~Parameter Information Block
#_______________________________________________________________________________
#
#PARAMETER_NAME    .UNIT     VALUE                         : DESCRIPTION
#_______________________________________________________________________________
SET                .         Las                           : 
BLI                .M        911.00                        : Bottom Logged Interval
BS                 .MM       215.90                        : Bit Size
DFD                .G/C3     1.14                          : Drilling Fluid Density
TDD                .M        908.00                        : Total Depth Driller
TLFamily_DEPT      .         Measured Depth                : 
TLFamily_PHI_FINAL .         Porosity                      : 
TLFamily_SW_AR     .         Water Saturation              : 
TLFamily_VSH_FINAL .         Shale Volume                  : 
~Curve Information
#_______________________________________________________________________________
#
#LOGNAME           .UNIT     LOG_ID                        : DESCRIPTION
#_______________________________________________________________________________
DEPT               .M                                      : Depth Curve {F}
PHI_FINAL          .m3/m3                                  : Porosity {F}
SW_AR              .m3/m3                                  :  {F}
VSH_FINAL          .unitless                               : Vshale {F}
~Ascii
# ...
197.8      0.2041644  1          0.7719067 
197.9      0.2102997  0.9841014  0.7519997 
198        0.2152011  0.9872304  0.7261267 
198.1      0.2182962  0.9739845  0.7259693 
198.2      0.1699766  1          0.8445399 
198.3      0.1701999  1          0.844349  
198.4      0.207562   1          0.7604736 
198.5      0.2207464  0.9775919  0.7340251 
198.6      0.215952   0.9981104  0.7338657 
198.7      0.1479264  1          0.9171211 
198.8      0.1477623  1          0.9169088 
198.9      0.1327524  1          0.9234422 
199        0.09775285 1          1         
199.1      0.1004992  1          1         
199.2      0.1263127  1          0.9445136 
199.3      0.1271503  1          0.9442933 
199.4      0.1470772  1          0.9065942 
199.5      0.1197551  1          0.9772748 
199.6      0.1212824  1          0.9770444 
199.7      0.1102044  1          1         
199.8      0.1100463  1          1         
199.9      0.1417452  1          0.9032081 
200        0.1417857  1          0.8879169 
200.1      0.1419366  1          0.8877136 
200.2      0.1761612  1          0.8045893 
200.3      0.1760301  1          0.8044099 
200.4      0.1566364  1          0.8730246 
200.5      0.1430419  1          0.9031296 
200.6      0.1418307  1          0.9029219 
200.7      0.1845895  1          0.7643149 
200.8      0.1825519  1          0.7641474 
200.9      0.1355864  1          0.8822694 
201        0.1291606  1          0.887035  
201.1      0.1257611  1          0.8868318 
201.2      0.15587    1          0.8348454 
201.3      0.1557965  1          0.8346577 
201.4      0.1256331  1          0.9252527 
201.5      0.1748221  1          0.7949569 
201.6      0.1743023  1          0.7947807 
201.7      0.1602336  1          0.8353559 
201.8      0.1616661  1          0.8351679 
201.9      0.156418   1          0.8659197 
202        0.1500185  1          0.8884521 
202.1      0.1497513  1          0.8882489 
202.2      0.1052341  1          0.9590989 
202.3      0.1026534  1          0.9588748 
202.4      0.1142412  1          0.9163896 
202.5      0.1334844  1          0.8429411 
202.6      0.1288821  1          0.8427511 
202.7      0.173866   1          0.7431923 
202.8      0.1730521  1          0.7430309 
202.9      0.1536666  1          0.7856197 
203        0.1657631  1          0.7614739 
203.1      0.1584814  1          0.7613074 
203.2      0.1243306  1          0.8697323 
203.3      0.1259184  1          0.8695345 
203.4      0.1187199  1          0.9048902 
203.5      0.1183764  1          0.9027382 
203.6      0.1190369  1          0.902531  
203.7      0.1268153  1          0.8823411 
203.8      0.1266614  1          0.88214   
203.9      0.1416982  1          0.843934  
204        0.13407    1          0.8536533 
204.1      0.1341014  1          0.8534604 
204.2      0.1261651  1          0.8832371 
204.3      0.1274683  1          0.8830358 
204.4      0.1226117  1          0.8977822 
204.5      0.143795   1          0.8453507 
204.6      0.1416951  1          0.8451605 
204.7      0.08374344 1          1         
204.8      0.08564816 1          1         
204.9      0.1293419  1          0.8913707 
205        0.1151172  1          0.9251019 
205.1      0.1148539  1          0.9248884 
205.2      0.1639812  1          0.7694861 
205.3      0.1603404  1          0.7693177 
205.4      0.1316089  1          0.8680189 
205.5      0.1688529  1          0.7406375 
205.6      0.1640442  1          0.7404771 
205.7      0.2157497  0.8643777  0.5911962 
205.8      0.2133479  0.8735797  0.5910765 
205.9      0.2051671  0.8318437  0.5333968 
206        0.2202207  0.7227306  0.4941192 
206.1      0.2143008  0.7416024  0.4940243 
206.2      0.1771306  0.8946635  0.5940498 
206.3      0.1793391  0.8842382  0.5939292 
206.4      0.1850708  0.8627264  0.5687427 
206.5      0.1977053  0.8424096  0.5650527 
206.6      0.2001941  0.8324993  0.56494   
206.7      0.2615312  0.6741322  0.4425998 
206.8      0.296469   0.6281283  0.3472459 
206.9      0.3039505  0.6374936  0.376543  
207        0.3333375  0.6012858  0.3451027 
207.1      0.3389248  0.5919049  0.3450432 
207.2      0.3451111  0.5941395  0.3563981 
207.3      0.3458545  0.5991047  0.3661075 
207.4      0.390104   0.5397162  0.2755455 
207.5      0.3970724  0.5357613  0.2610177 
207.6      0.3984934  0.5339538  0.2609763 
207.7      0.3968826  0.5392236  0.2424095 
207.8      0.3773535  0.5728375  0.2820428 
207.9      0.3689473  0.5904925  0.2860318 
208        0.3924561  0.5525829  0.2222525 
208.1      0.3887477  0.557568   0.2222189 
208.2      0.3843362  0.5609471  0.2163716 
208.3      0.3786867  0.5677546  0.2342418 
208.4      0.3756132  0.5732623  0.2156027 
208.5      0.3534773  0.602484   0.2475114 
208.6      0.3492415  0.6093941  0.2474728 
208.7      0.3301705  0.6276341  0.2878354 
208.8      0.329402   0.618848   0.2668725 
208.9      0.3203127  0.6289031  0.2635518 
209        0.2798125  0.6730334  0.3412455 
209.1      0.2792639  0.6742839  0.341187  
209.2      0.2540839  0.6489052  0.3624386 
209.3      0.2599398  0.554871   0.3615029 
209.4      0.2140223  0.6556742  0.447831  
209.5      0.08172391 1          0.7458894 
209.6      0.08395414 1          0.7457282 
209.7      0.06696798 1          0.8047521 
209.8      0.08957444 1          0.7667841 
209.9      0.0939786  1          0.7981583 
210        0.04350748 1          0.9613296 
210.1      0.045621   1          0.961106  
210.2      0.04724904 1          0.9503014 
210.3      0.06577874 1          0.9057264 
210.4      0.03700042 1          1         
210.5      0.04770341 1          0.9671839 
210.6      0.0525743  1          0.9669589 
210.7      0.03154779 1          1         
210.8      0.09443874 1          0.8385425 
210.9      0.1042332  1          0.8074925 
211        0.07277928 1          0.8847585 
211.1      0.0728611  1          0.8845579 
211.2      0.07106545 1          0.8900549 
211.3      0.0772994  1          0.8687568 
211.4      0.05642456 1          0.9100412 
211.5      0.1426132  1          0.703558  
211.6      0.1451358  1          0.7034088 
211.7      0.1096949  1          0.790889  
211.8      0.1141729  1          0.7691053 
211.9      0.1553821  1          0.6787395 
212        0.1452845  1          0.7092957 
212.1      0.1437925  1          0.7091449 
212.2      0.1517266  1          0.6921361 
212.3      0.1346988  1          0.7200729 
212.4      0.1467138  1          0.7009892 
212.5      0.1536411  1          0.6859629 
212.6      0.1553891  1          0.6858186 
212.7      0.1768789  1          0.6413185 
212.8      0.1791174  0.9872386  0.6302271 
212.9      0.169476   1          0.6637661 
213        0.1768634  0.9423061  0.6319222 
213.1      0.1752882  0.9503142  0.6317925 
213.2      0.1997401  0.8200161  0.5857194 
213.3      0.2185242  0.7458753  0.5396957 
213.4      0.2208843  0.7307969  0.536435  
213.5      0.2602068  0.6293548  0.4356514 
213.6      0.2682     0.6115977  0.4355714 
213.7      0.2758538  0.6086853  0.4258586 
213.8      0.2983763  0.5699002  0.3651156 
213.9      0.3106038  0.5532537  0.3499117 
214        0.2890452  0.6147416  0.4084397 
214.1      0.2882999  0.6162449  0.4083661 
214.2      0.3057424  0.5911552  0.3532946 
214.3      0.3045581  0.5982661  0.3484899 
214.4      0.3216176  0.571794   0.3161761 
214.5      0.333353   0.559504   0.29504   
214.6      0.3327561  0.5604534  0.2949917 
214.7      0.3230247  0.5815819  0.3163294 
214.8      0.3289404  0.5743368  0.3005423 
214.9      0.312488   0.6057239  0.3414524 
215        0.264354   0.7187728  0.4688709 
215.1      0.2647404  0.7177803  0.468783  
215.2      0.2455228  0.7783262  0.5190865 
215.3      0.2540683  0.7611966  0.4914504 
215.4      0.2555513  0.7676468  0.4895672 
215.5      0.3216793  0.631927   0.3298396 
215.6      0.3243638  0.6269786  0.3297839 
215.7      0.3220118  0.6381537  0.3192391 
215.8      0.3271764  0.6333988  0.3115728 
215.9      0.3380247  0.6182286  0.2834886 
