~Version
 VERS              .         3.0                           : CWLS LOG ASCII STANDARD - VERSION 3.0
 WRAP              .         NO                            : ONE LINE PER DEPTH STEP
 DLM               .         SPACE                         : DELIMITING CHARACTER(SPACE TAB OR COMMA)
~Well Information
#_______________________________________________________________________________
#
#PARAMETER_NAME    .UNIT     VALUE                         : DESCRIPTION
#_______________________________________________________________________________
STRT               .M        0                             : First reference value
STOP               .M        911                           : Last reference value
STEP               .M        0.1                           : Step increment
NULL               .         -9999                         : Missing value
COMP               .         ICPetroleum                   : Company
WELL               .         311                           : Well name
FLD                .         Karatobe                      : Field
LOC                .                                       : Location
SRVC               .         ?                             : Service Company
CTRY               .         KZ                            : Country
DATE               .         10.05.05                      : Service Date
LATI               .         0                             : Latitude
LONG               .         0                             : Longitude
GDAT               .         WGS 84                        : Geodetic Datum
COORDIN            .                                       : Grid System
COUNTRY            .         Kazakhstan                    : 
COUNTRY            .         Kazakhstan                    : 
EREF               .m        143.5                         : 
KB                 .         142.8                         : KB Elevation
ORIGINALWELLNAME   .         311                           : 
PROV               .                                       : Province
RWS                .         -999                          : Def_Rw
UWI                .         1_311                         : Unique Well Identifier (UWI)
WST                .         -999                          : Def_Rwt
X                  .km       465871.99                     : 
XCOORD             .                                       : X or East-West Coordinate
Y                  .km       5307606.2                     : 
YCOORD             .                                       : Y or North-South Coordinate
~Parameter Information Block
#_______________________________________________________________________________
#
#PARAMETER_NAME    .UNIT     VALUE                         : DESCRIPTION
#_______________________________________________________________________________
SET                .         Las                           : 
BLI                .M        911.00                        : Bottom Logged Interval
BS                 .MM       215.90                        : Bit Size
DFD                .G/C3     1.14                          : Drilling Fluid Density
TDD                .M        908.00                        : Total Depth Driller
TLFamily_DEPT      .         Measured Depth                : 
TLFamily_PHI_FINAL .         Porosity                      : 
TLFamily_SW_AR     .         Water Saturation              : 
TLFamily_VSH_FINAL .         Shale Volume                  : 
~Curve Information
#_______________________________________________________________________________
#
#LOGNAME           .UNIT     LOG_ID                        : DESCRIPTION
#_______________________________________________________________________________
DEPT               .M                                      : Depth Curve {F}
PHI_FINAL          .m3/m3                                  : Porosity {F}
SW_AR              .m3/m3                                  :  {F}
VSH_FINAL          .unitless                               : Vshale {F}
~Ascii
# ...
798.2      0.1641705  1          0.2978809 
798.3      0.180997   1          0.3106705 
798.4      0.1740918  1          0.3161485 
798.5      0.1823433  1          0.292093  
798.6      0.1685805  1          0.2948869 
798.7      0.1776494  1          0.290052  
798.8      0.1877211  1          0.3058086 
798.9      0.1853128  1          0.3079966 
799        0.1690522  1          0.3312829 
799.1      0.1548953  1          0.3422379 
799.2      0.156465   1          0.3226475 
799.3      0.1570603  1          0.3075203 
799.4      0.162628   1          0.2845199 
799.5      0.1692684  1          0.2605823 
799.6      0.1681073  1          0.2526961 
799.7      0.1682759  1          0.2535671 
799.8      0.1728554  1          0.2543521 
799.9      0.1650681  1          0.2268286 
800        0.1714695  1          0.2030641 
800.1      0.1794199  1          0.1920325 
800.2      0.1726819  1          0.190942  
800.3      0.150449   1          0.1945337 
800.4      0.1433999  1          0.1925005 
800.5      0.1303569  1          0.1948472 
800.6      0.1209684  1          0.1887678 
800.7      0.1136868  1          0.1835253 
800.8      0.1191874  1          0.172823  
800.9      0.1122427  1          0.1604353 
801        0.08830777 1          0.1538141 
801.1      0.09361984 1          0.169753  
801.2      0.1089569  1          0.1876068 
801.3      0.1174191  1          0.1828354 
801.4      0.1053446  1          0.1998886 
801.5      0.07668558 1          0.2293294 
801.6      0.08056889 1          0.2401263 
801.7      0.09452358 1          0.2386803 
801.8      0.09083369 1          0.2552256 
801.9      0.08251755 1          0.2635006 
802        0.09673956 1          0.2631461 
802.1      0.1041913  1          0.26581   
802.2      0.09343947 1          0.2703661 
802.3      0.09187718 1          0.2636779 
802.4      0.1197801  1          0.2408079 
802.5      0.1415513  1          0.2127861 
802.6      0.1204224  1          0.212624  
802.7      0.1339629  1          0.2025865 
802.8      0.1545934  1          0.2004429 
802.9      0.1694568  1          0.1939073 
803        0.1566621  1          0.2114095 
803.1      0.1321625  1          0.2207077 
803.2      0.1282021  1          0.2241734 
803.3      0.1347733  1          0.2258314 
803.4      0.1266077  1          0.2235943 
803.5      0.1247604  1          0.2098752 
803.6      0.1228753  1          0.2002845 
803.7      0.1331873  1          0.2032233 
803.8      0.1291654  1          0.2148981 
803.9      0.1266429  1          0.1954747 
804        0.1247159  1          0.1740261 
804.1      0.1133713  1          0.1725977 
804.2      0.1048877  1          0.1654421 
804.3      0.1078015  1          0.1615354 
804.4      0.1244284  1          0.1510039 
804.5      0.1337856  1          0.1551892 
804.6      0.1573929  1          0.1489249 
804.7      0.1758334  1          0.1442266 
804.8      0.1920826  1          0.1409794 
804.9      0.2196524  1          0.1232421 
805        0.2199983  1          0.1168559 
805.1      0.2236883  1          0.101507  
805.2      0.2127799  1          0.1078046 
805.3      0.1910622  1          0.1100337 
805.4      0.1478625  1          0.1288962 
805.5      0.099055   1          0.1479958 
805.6      0.06141528 1          0.152443  
805.7      0.0407032  1          0.1511476 
805.8      0.0323789  1          0.1612418 
805.9      0.04587834 1          0.1661086 
806        0.05623718 1          0.1866798 
806.1      0.05831804 1          0.2044194 
806.2      0.06138907 1          0.2019504 
806.3      0.07499895 1          0.1899314 
806.4      0.09737897 1          0.1940638 
806.5      0.1197961  1          0.2100365 
806.6      0.1400391  1          0.2202965 
806.7      0.146411   1          0.2401263 
806.8      0.1531301  1          0.2486197 
806.9      0.1623111  1          0.2417466 
807        0.1498404  1          0.264743  
807.1      0.1353274  1          0.2808592 
807.2      0.1404745  1          0.2515657 
807.3      0.1389907  1          0.234449  
807.4      0.1427419  1          0.2055381 
807.5      0.1404463  1          0.184754  
807.6      0.1417798  1          0.1488533 
807.7      0.1353266  1          0.1153899 
807.8      0.1109545  1          0.1003484 
807.9      0.08093698 1          0.08309103
808        0.05479072 1          0.07454228
808.1      0.04787657 1          0.06694048
808.2      0.06083714 1          0.06872318
808.3      0.08067953 1          0.075147  
808.4      0.09796282 1          0.08426505
808.5      0.1159504  1          0.08730822
808.6      0.1325376  1          0.1006056 
808.7      0.1609011  1          0.1063031 
808.8      0.1834792  1          0.1102309 
808.9      0.1738298  1          0.123039  
809        0.1633313  1          0.1247339 
809.1      0.1607496  1          0.1335118 
809.2      0.1408146  1          0.1452903 
809.3      0.1010148  1          0.1546097 
809.4      0.07176267 1          0.1480672 
809.5      0.05866481 1          0.1426002 
809.6      0.04296025 1          0.1399955 
809.7      0.05272892 1          0.1487818 
809.8      0.09306159 1          0.1296508 
809.9      0.1192735  1          0.1245302 
810        0.1417605  1          0.1280744 
810.1      0.1643185  1          0.1433774 
810.2      0.1968403  1          0.1528035 
810.3      0.1961716  1          0.1570771 
810.4      0.1918771  1          0.1696784 
810.5      0.1860319  1          0.1555517 
810.6      0.1720964  1          0.1629324 
810.7      0.1387004  1          0.1664793 
810.8      0.08198585 1          0.1756851 
810.9      0.05926349 1          0.1765923 
811        0.05331646 1          0.1741014 
811.1      0.06476168 1          0.1590455 
811.2      0.05822358 1          0.1455034 
811.3      0.04014163 1          0.1455034 
811.4      0.02899866 1          0.1369865 
811.5      0.02178018 1          0.1458586 
811.6      0.02805895 1          0.1487818 
811.7      0.04164478 1          0.1644071 
811.8      0.07386622 1          0.1780321 
811.9      0.1255596  1          0.1998886 
812        0.1902978  1          0.2009979 
812.1      0.2346626  1          0.2003637 
812.2      0.2421018  1          0.2127861 
812.3      0.2417057  1          0.2124618 
812.4      0.2256623  1          0.2161204 
812.5      0.1722955  1          0.2262467 
812.6      0.1151145  1          0.2162835 
812.7      0.07626411 1          0.1940638 
812.8      0.0497563  1          0.1877614 
812.9      0.03776561 1          0.1820699 
813        0.02732771 1          0.1793998 
813.1      0.02832399 1          0.1591185 
813.2      0.04045799 1          0.1290333 
813.3      0.04068268 1          0.1215527 
813.4      0.03254661 1          0.1170562 
813.5      0.04262987 1          0.1007343 
813.6      0.07420827 1          0.1055868 
813.7      0.143449   1          0.1018939 
813.8      0.2074135  1          0.08811934
813.9      0.2256388  0.9969904  0.08612558
814        0.2256922  1          0.08874435
814.1      0.2224368  1          0.09226171
814.2      0.2156056  1          0.1085245 
814.3      0.2120474  1          0.1213504 
814.4      0.2165929  1          0.1389437 
814.5      0.2287169  1          0.1598496 
814.6      0.2411317  1          0.1757606 
814.7      0.2556002  0.9825013  0.2010772 
814.8      0.2704594  1          0.2133539 
814.9      0.2708569  1          0.2528702 
815        0.2710065  1          0.265899  
815.1      0.2766027  1          0.2561004 
815.2      0.2739671  1          0.248879  
815.3      0.2688876  1          0.2565383 
815.4      0.2544926  1          0.2779463 
815.5      0.241155   1          0.3010777 
815.6      0.2329373  1          0.3053339 
815.7      0.2191715  1          0.3419367 
815.8      0.2226335  1          0.3195354 
815.9      0.2319259  1          0.2622608 
816        0.2332836  1          0.2547887 
816.1      0.2255674  1          0.2516525 
816.2      0.2162535  1          0.2610236 
816.3      0.2053426  1          0.2683071 
