~Version
 VERS              .         3.0                           : CWLS LOG ASCII STANDARD - VERSION 3.0
 WRAP              .         NO                            : ONE LINE PER DEPTH STEP
 DLM               .         SPACE                         : DELIMITING CHARACTER(SPACE TAB OR COMMA)
~Well Information
#_______________________________________________________________________________
#
#PARAMETER_NAME    .UNIT     VALUE                         : DESCRIPTION
#_______________________________________________________________________________
STRT               .M        0                             : First reference value
STOP               .M        911                           : Last reference value
STEP               .M        0.1                           : Step increment
NULL               .         -9999                         : Missing value
COMP               .         ICPetroleum                   : Company
WELL               .         311                           : Well name
FLD                .         Karatobe                      : Field
LOC                .                                       : Location
SRVC               .         ?                             : Service Company
CTRY               .         KZ                            : Country
DATE               .         10.05.05                      : Service Date
LATI               .         0                             : Latitude
LONG               .         0                             : Longitude
GDAT               .         WGS 84                        : Geodetic Datum
COORDIN            .                                       : Grid System
COUNTRY            .         Kazakhstan                    : 
COUNTRY            .         Kazakhstan                    : 
EREF               .m        143.5                         : 
KB                 .         142.8                         : KB Elevation
ORIGINALWELLNAME   .         311                           : 
PROV               .                                       : Province
RWS                .         -999                          : Def_Rw
UWI                .         1_311                         : Unique Well Identifier (UWI)
WST                .         -999                          : Def_Rwt
X                  .km       465871.99                     : 
XCOORD             .                                       : X or East-West Coordinate
Y                  .km       5307606.2                     : 
YCOORD             .                                       : Y or North-South Coordinate
~Parameter Information Block
#_______________________________________________________________________________
#
#PARAMETER_NAME    .UNIT     VALUE                         : DESCRIPTION
#_______________________________________________________________________________
SET                .         Las                           : 
BLI                .M        911.00                        : Bottom Logged Interval
BS                 .MM       215.90                        : Bit Size
DFD                .G/C3     1.14                          : Drilling Fluid Density
TDD                .M        908.00                        : Total Depth Driller
TLFamily_DEPT      .         Measured Depth                : 
TLFamily_PHI_FINAL .         Porosity                      : 
TLFamily_SW_AR     .         Water Saturation              : 
TLFamily_VSH_FINAL .         Shale Volume                  : 
~Curve Information
#_______________________________________________________________________________
#
#LOGNAME           .UNIT     LOG_ID                        : DESCRIPTION
#_______________________________________________________________________________
DEPT               .M                                      : Depth Curve {F}
PHI_FINAL          .m3/m3                                  : Porosity {F}
SW_AR              .m3/m3                                  :  {F}
VSH_FINAL          .unitless                               : Vshale {F}
~Ascii
# ...
397.9      0.02370793 1          1         
398        0.02233139 1          1         
398.1      0.02055003 1          1         
398.2      0.01793112 1          1         
398.3      0.01851756 1          1         
398.4      0.02259311 1          1         
398.5      0.02354754 1          1         
398.6      0.02736611 1          1         
398.7      0.032393   1          1         
398.8      0.03873704 1          1         
398.9      0.03266773 1          1         
399        0.02864127 1          1         
399.1      0.03253837 1          1         
399.2      0.02706074 1          1         
399.3      0.02919567 1          1         
399.4      0.03028944 1          1         
399.5      0.02725235 1          1         
399.6      0.02781331 1          1         
399.7      0.03381887 1          1         
399.8      0.03393282 1          1         
399.9      0.03408036 1          1         
400        0.0351166  1          1         
400.1      0.03274253 1          1         
400.2      0.07743147 1          0.856486  
400.3      0.06199036 1          0.8833417 
400.4      0.04439909 1          0.9173571 
400.5      0.03247163 1          0.9407466 
400.6      0.03369275 1          0.9513265 
400.7      0.0194941  1          1         
400.8      0.02249241 1          1         
400.9      0.02605374 1          1         
401        0.04795094 1          0.9384319 
401.1      0.03113644 1          0.9679611 
401.2      0.04603257 1          0.9243708 
401.3      0.07691144 1          0.8458478 
401.4      0.1108932  1          0.7734552 
401.5      0.09960286 1          0.810793  
401.6      0.03622112 1          0.9669913 
401.7      0.0327532  1          0.9692792 
401.8      0.0198465  1          1         
401.9      0.0181062  1          1         
402        0.02113615 1          1         
402.1      0.01904104 1          1         
402.2      0.01927433 1          1         
402.3      0.02336933 1          0.9638702 
402.4      0.02437787 1          0.9420276 
402.5      0.05454869 1          0.8759942 
402.6      0.09281147 1          0.7894697 
402.7      0.0882166  1          0.8274706 
402.8      0.1257214  1          0.7241196 
402.9      0.1234365  1          0.7155996 
403        0.1527552  1          0.6438213 
403.1      0.1647639  1          0.6135001 
403.2      0.180594   1          0.5781808 
403.3      0.1719283  1          0.6055869 
403.4      0.1686724  1          0.6295491 
403.5      0.1552588  1          0.6755026 
403.6      0.1905489  1          0.5901379 
403.7      0.1867054  1          0.5828208 
403.8      0.1900572  1          0.5422986 
403.9      0.1508476  1          0.5886992 
404        0.1460752  1          0.5602657 
404.1      0.09914663 1          0.646237  
404.2      0.08853918 1          0.6419606 
404.3      0.08161196 1          0.647727  
404.4      0.09914658 1          0.6123377 
404.5      0.1198173  1          0.5917118 
404.6      0.153312   1          0.5481169 
404.7      0.163526   1          0.5352013 
404.8      0.1613914  1          0.5496322 
404.9      0.1337003  1          0.6122696 
405        0.1313695  1          0.6107603 
405.1      0.154739   1          0.5529798 
405.2      0.1429287  1          0.5828806 
405.3      0.135986   1          0.6004811 
405.4      0.1401982  1          0.6098669 
405.5      0.1449745  1          0.6016527 
405.6      0.1360505  1          0.6202168 
405.7      0.1453318  1          0.6139867 
405.8      0.11603    1          0.6982923 
405.9      0.1105673  1          0.7227092 
406        0.0933671  1          0.7812237 
406.1      0.1031664  1          0.7822396 
406.2      0.1137162  1          0.777452  
406.3      0.1142357  1          0.7755728 
406.4      0.1206876  1          0.7760046 
406.5      0.1052814  1          0.8124113 
406.6      0.0928757  1          0.8434798 
406.7      0.1006382  1          0.8004476 
406.8      0.1093352  1          0.797629  
406.9      0.120171   1          0.7683841 
407        0.1130844  1          0.7979196 
407.1      0.1170126  1          0.7871801 
407.2      0.1184322  1          0.7823679 
407.3      0.09506169 1          0.8226657 
407.4      0.09089033 1          0.8203824 
407.5      0.1092408  1          0.7732562 
407.6      0.08974348 1          0.8077204 
407.7      0.07640044 1          0.837055  
407.8      0.08465039 1          0.8359689 
407.9      0.0830614  1          0.8488581 
408        0.06957585 1          0.8818026 
408.1      0.107533   1          0.7824992 
408.2      0.1380842  1          0.7052473 
408.3      0.1044897  1          0.7761281 
408.4      0.08305268 1          0.8258122 
408.5      0.08586295 1          0.8250452 
408.6      0.0958331  1          0.8279402 
408.7      0.09123528 1          0.8373064 
408.8      0.08190084 1          0.8644045 
408.9      0.0815264  1          0.8607481 
409        0.06244243 1          0.9033098 
409.1      0.06090649 1          0.8985123 
409.2      0.0562345  1          0.8791053 
409.3      0.05808137 1          0.8680265 
409.4      0.04020667 1          0.9314476 
409.5      0.01385866 1          1         
409.6      0.02878887 1          0.9348288 
409.7      0.06627675 1          0.8204318 
409.8      0.109547   1          0.7092842 
409.9      0.15211    1          0.5929812 
410        0.125936   1          0.6747392 
410.1      0.1243217  1          0.696256  
410.2      0.145744   1          0.6581702 
410.3      0.1318187  1          0.7075783 
410.4      0.1153061  1          0.7396136 
410.5      0.1278557  1          0.7038848 
410.6      0.1554942  1          0.6417416 
410.7      0.1660512  1          0.6086501 
410.8      0.1476386  1          0.6520292 
410.9      0.1205963  1          0.706277  
411        0.09122066 1          0.7645203 
411.1      0.05560009 1          0.8486447 
411.2      0.06610076 1          0.8278098 
411.3      0.1339315  1          0.6618556 
411.4      0.1387104  1          0.6410775 
411.5      0.1610827  1          0.5559483 
411.6      0.1270121  1          0.6160752 
411.7      0.09802283 1          0.6958061 
411.8      0.1028435  1          0.6692832 
411.9      0.0780104  1          0.755627  
412        0.1164704  1          0.6733362 
412.1      0.1315546  1          0.6449006 
412.2      0.1260662  1          0.6578132 
412.3      0.1001927  1          0.7331975 
412.4      0.08230357 1          0.7676427 
412.5      0.08272448 1          0.7567526 
412.6      0.04005045 1          0.8746212 
412.7      0.02933292 1          0.9060387 
412.8      0.01862234 1          0.9449962 
412.9      0.04214367 1          0.8655075 
413        0.06271098 1          0.8126125 
413.1      0.03655957 1          0.8535112 
413.2      0.07607348 1          0.7552109 
413.3      0.09947504 1          0.6883603 
413.4      0.08433253 1          0.7358167 
413.5      0.04495204 1          0.8516058 
413.6      0.02835968 1          0.8874277 
413.7      0.01442908 1          0.9515883 
413.8      0.04303565 1          0.8439612 
413.9      0.04138474 1          0.8425609 
414        0.06204744 1          0.7944965 
414.1      0.1070949  1          0.6665398 
414.2      0.1152235  1          0.6649197 
414.3      0.09531988 1          0.7135628 
414.4      0.08919629 1          0.7432564 
414.5      0.03969776 1          0.8762172 
414.6      0.07140739 1          0.7933096 
414.7      0.05132632 1          0.881019  
414.8      0.03568725 1          0.9162627 
414.9      0.04493807 1          0.8894103 
415        0.05378879 1          0.8601274 
415.1      0.04849809 1          0.852433  
415.2      0.04284086 1          0.8712024 
415.3      0.01868959 1          0.9537669 
415.4      0.05418881 1          0.8457198 
415.5      0.03747829 1          0.8812672 
415.6      0.01599852 1          0.9549332 
415.7      0.03438412 1          0.8508313 
415.8      0.07070859 1          0.7306814 
415.9      0.08287605 1          0.7165467 
416        0.06570388 1          0.7571838 
