~Version
 VERS              .         3.0                           : CWLS LOG ASCII STANDARD - VERSION 3.0
 WRAP              .         NO                            : ONE LINE PER DEPTH STEP
 DLM               .         SPACE                         : DELIMITING CHARACTER(SPACE TAB OR COMMA)
~Well Information
#_______________________________________________________________________________
#
#PARAMETER_NAME    .UNIT     VALUE                         : DESCRIPTION
#_______________________________________________________________________________
STRT               .M        0                             : First reference value
STOP               .M        911                           : Last reference value
STEP               .M        0.1                           : Step increment
NULL               .         -9999                         : Missing value
COMP               .         ICPetroleum                   : Company
WELL               .         311                           : Well name
FLD                .         Karatobe                      : Field
LOC                .                                       : Location
SRVC               .         ?                             : Service Company
CTRY               .         KZ                            : Country
DATE               .         10.05.05                      : Service Date
LATI               .         0                             : Latitude
LONG               .         0                             : Longitude
GDAT               .         WGS 84                        : Geodetic Datum
COORDIN            .                                       : Grid System
COUNTRY            .         Kazakhstan                    : 
COUNTRY            .         Kazakhstan                    : 
EREF               .m        143.5                         : 
KB                 .         142.8                         : KB Elevation
ORIGINALWELLNAME   .         311                           : 
PROV               .                                       : Province
RWS                .         -999                          : Def_Rw
UWI                .         1_311                         : Unique Well Identifier (UWI)
WST                .         -999                          : Def_Rwt
X                  .km       465871.99                     : 
XCOORD             .                                       : X or East-West Coordinate
Y                  .km       5307606.2                     : 
YCOORD             .                                       : Y or North-South Coordinate
~Parameter Information Block
#_______________________________________________________________________________
#
#PARAMETER_NAME    .UNIT     VALUE                         : DESCRIPTION
#_______________________________________________________________________________
SET                .         Las                           : 
BLI                .M        911.00                        : Bottom Logged Interval
BS                 .MM       215.90                        : Bit Size
DFD                .G/C3     1.14                          : Drilling Fluid Density
TDD                .M        908.00                        : Total Depth Driller
TLFamily_DEPT      .         Measured Depth                : 
TLFamily_PHI_FINAL .         Porosity                      : 
TLFamily_SW_AR     .         Water Saturation              : 
TLFamily_VSH_FINAL .         Shale Volume                  : 
~Curve Information
#_______________________________________________________________________________
#
#LOGNAME           .UNIT     LOG_ID                        : DESCRIPTION
#_______________________________________________________________________________
DEPT               .M                                      : Depth Curve {F}
PHI_FINAL          .m3/m3                                  : Porosity {F}
SW_AR              .m3/m3                                  :  {F}
VSH_FINAL          .unitless                               : Vshale {F}
~Ascii
# ...
234.2      0.09554388 1          0.9016888 
234.3      0.1035339  1          0.8842483 
234.4      0.1051151  1          0.8941301 
234.5      0.101964   1          0.9033537 
234.6      0.09968134 1          0.9031518 
234.7      0.09003238 1          0.9155198 
234.8      0.05981083 1          0.9708389 
234.9      0.05507206 1          0.9710217 
235        0.05105449 1          0.9691836 
235.1      0.04898671 1          0.9689624 
235.2      0.1016483  1          0.8256816 
235.3      0.1560658  1          0.6908697 
235.4      0.1775471  1          0.638817  
235.5      0.1907109  0.8927461  0.5920842 
235.6      0.1821982  0.9321537  0.5919672 
235.7      0.1843709  0.9711739  0.6761905 
235.8      0.1555817  1          0.7324947 
235.9      0.1181504  1          0.8523381 
236        0.112812   1          0.8753869 
236.1      0.1077836  1          0.8751932 
236.2      0.1516335  1          0.7419386 
236.3      0.1528132  1          0.7248818 
236.4      0.1268282  1          0.7353273 
236.5      0.2151953  0.9739108  0.480239  
236.6      0.1876514  1          0.4801498 
236.7      0.1749666  1          0.5443287 
236.8      0.1772552  1          0.5187929 
236.9      0.1577697  1          0.5812228 
237        0.1344439  1          0.6554741 
237.1      0.1328899  1          0.6553408 
237.2      0.1305355  1          0.6532305 
237.3      0.1445016  1          0.6176055 
237.4      0.1275964  1          0.6923211 
237.5      0.1350866  1          0.7044476 
237.6      0.1562415  1          0.7043014 
237.7      0.1443611  1          0.7577493 
237.8      0.1255865  1          0.8304212 
237.9      0.1349252  1          0.8229267 
238        0.1490751  1          0.8004859 
238.1      0.1470267  1          0.8003134 
238.2      0.1345697  1          0.8391808 
238.3      0.1026838  1          0.9081689 
238.4      0.1525594  1          0.7880495 
238.5      0.1713057  1          0.7268033 
238.6      0.1745212  1          0.7266512 
238.7      0.1955154  1          0.6958115 
238.8      0.1959859  1          0.7082815 
238.9      0.2077854  1          0.6796052 
239        0.1739053  1          0.7813973 
239.1      0.1800961  1          0.7812304 
239.2      0.1965128  1          0.7540634 
239.3      0.2247941  1          0.6729519 
239.4      0.2412211  0.9992499  0.6268677 
239.5      0.2024259  1          0.732424  
239.6      0.2010845  1          0.7322704 
239.7      0.1906493  1          0.7664784 
239.8      0.1914393  1          0.7300967 
239.9      0.2046473  1          0.692605  
240        0.163249   1          0.7940265 
240.1      0.1605137  1          0.7938562 
240.2      0.212615   1          0.6691231 
240.3      0.2003857  1          0.6858395 
240.4      0.2146606  1          0.6651246 
240.5      0.179419   1          0.7078997 
240.6      0.1739613  1          0.7077529 
240.7      0.157765   1          0.710026  
240.8      0.1613792  1          0.702643  
240.9      0.1787448  1          0.6263419 
241        0.1894433  1          0.5887785 
241.1      0.2042877  1          0.5886629 
241.2      0.2239126  0.9908031  0.5678459 
241.3      0.2072401  1          0.6060932 
241.4      0.1842287  1          0.69165   
241.5      0.1278465  1          0.8518951 
241.6      0.134605   1          0.8517089 
241.7      0.113495   1          0.9225821 
241.8      0.1240081  1          0.9048783 
241.9      0.1275021  1          0.8986646 
242        0.1263439  1          0.8835979 
242.1      0.1264791  1          0.8834028 
242.2      0.1046838  1          0.9381676 
242.3      0.1317635  1          0.8841189 
242.4      0.0986069  1          0.9762242 
242.5      0.118612   1          0.9379246 
242.6      0.1152854  1          0.937714  
242.7      0.1397752  1          0.8418716 
242.8      0.1668817  1          0.7663027 
242.9      0.1942792  1          0.6877543 
243        0.2044143  1          0.6545531 
243.1      0.2060828  1          0.6544207 
243.2      0.2351634  0.939806   0.5831891 
243.3      0.2182536  1          0.6317431 
243.4      0.2090526  1          0.6639223 
243.5      0.1843218  1          0.7463078 
243.6      0.1849359  1          0.746151  
243.7      0.2063738  1          0.7029266 
243.8      0.2140859  1          0.6986011 
243.9      0.2189683  1          0.6805045 
244        0.1906455  1          0.7563261 
244.1      0.190238   1          0.7561667 
244.2      0.1694433  1          0.8006167 
244.3      0.1663126  1          0.7980929 
244.4      0.1382961  1          0.8680054 
244.5      0.1531724  1          0.8044846 
244.6      0.1488649  1          0.804312  
244.7      0.1221422  1          0.8677962 
244.8      0.1482871  1          0.7908944 
244.9      0.1282516  1          0.8312179 
245        0.1371906  1          0.8275652 
245.1      0.1369123  1          0.8273861 
245.2      0.1700033  1          0.7237568 
245.3      0.1492298  1          0.7700169 
245.4      0.2094675  1          0.6122281 
245.5      0.2736429  0.8609734  0.4639443 
245.6      0.2749161  0.8572009  0.4638597 
245.7      0.2933066  0.7979128  0.3965197 
245.8      0.2960408  0.7461256  0.3669391 
245.9      0.3346013  0.5812965  0.2379213 
246        0.3506683  0.4940996  0.1653227 
246.1      0.3727258  0.3540517  0.08565504
246.2      0.3892937  0.2942663  0.05831111
246.3      0.3962396  0.2495973  0.04475985
246.4      0.3947318  0.2041165  0.05427409
246.5      0.4007551  0.1817791  0.05240244
246.6      0.4003232  0.1623847  0.056472  
246.7      0.3911308  0.1570267  0.06403338
246.8      0.3945829  0.1468531  0.05367877
246.9      0.3861846  0.1454322  0.07170115
247        0.3825075  0.1473683  0.07799094
247.1      0.394645   0.148742   0.07322127
247.2      0.3957917  0.1542259  0.08891072
247.3      0.3883839  0.1694587  0.1066768 
247.4      0.3855457  0.1873928  0.1206285 
247.5      0.3832892  0.2015093  0.1349407 
247.6      0.3736702  0.2282951  0.158919  
247.7      0.3576038  0.2704856  0.200627  
247.8      0.3478247  0.3334717  0.218595  
247.9      0.3124577  0.4259238  0.3199187 
248        0.2715512  0.5685096  0.4447336 
248.1      0.2441346  0.7940507  0.5240114 
248.2      0.1785431  1          0.6838247 
248.3      0.1445152  1          0.7571393 
248.4      0.0583577  1          0.9798746 
248.5      0.04284887 1          1         
248.6      0.06143103 1          0.9414169 
248.7      0.0666347  1          0.9330761 
248.8      0.09929407 1          0.8280416 
248.9      0.0927932  1          0.825102  
249        0.06717455 1          0.8828474 
249.1      0.07077479 1          0.8786324 
249.2      0.06856655 1          0.8861294 
249.3      0.06661668 1          0.9014949 
249.4      0.03449834 1          1         
249.5      0.03804509 1          0.998971  
249.6      0.05603724 1          0.9502273 
249.7      0.041381   1          1         
249.8      0.03254046 1          1         
249.9      0.037274   1          0.9511564 
250        0.02884861 1          0.9513347 
250.1      0.04947862 1          0.8309076 
250.2      0.01606828 1          0.8989612 
250.3      0.02255819 1          0.797907  
250.4      0.04890659 1          0.7033825 
250.5      0.03963631 1          0.7077202 
250.6      0.02068925 1          0.7430989 
250.7      0.01511199 1          0.7473368 
250.8      0.01975244 1          0.6962825 
250.9      0.03877958 1          0.6794963 
251        0.03934237 1          0.7576255 
251.1      0.04987495 1          0.824295  
251.2      0.1186024  1          0.7073005 
251.3      0.1094431  1          0.8035656 
251.4      0.08792281 1          0.8749445 
251.5      0.0815707  1          0.9098315 
251.6      0.09842426 1          0.8954516 
251.7      0.1077664  1          0.8707533 
251.8      0.1216805  1          0.8094402 
251.9      0.1234104  1          0.7797091 
252        0.1334306  1          0.7620944 
252.1      0.1316279  1          0.759699  
252.2      0.1289651  1          0.7659407 
252.3      0.1066324  1          0.7938548 
