~Version
 VERS              .         3.0                           : CWLS LOG ASCII STANDARD - VERSION 3.0
 WRAP              .         NO                            : ONE LINE PER DEPTH STEP
 DLM               .         SPACE                         : DELIMITING CHARACTER(SPACE TAB OR COMMA)
~Well Information
#_______________________________________________________________________________
#
#PARAMETER_NAME    .UNIT     VALUE                         : DESCRIPTION
#_______________________________________________________________________________
STRT               .M        0                             : First reference value
STOP               .M        911                           : Last reference value
STEP               .M        0.1                           : Step increment
NULL               .         -9999                         : Missing value
COMP               .         ICPetroleum                   : Company
WELL               .         311                           : Well name
FLD                .         Karatobe                      : Field
LOC                .                                       : Location
SRVC               .         ?                             : Service Company
CTRY               .         KZ                            : Country
DATE               .         10.05.05                      : Service Date
LATI               .         0                             : Latitude
LONG               .         0                             : Longitude
GDAT               .         WGS 84                        : Geodetic Datum
COORDIN            .                                       : Grid System
COUNTRY            .         Kazakhstan                    : 
COUNTRY            .         Kazakhstan                    : 
EREF               .m        143.5                         : 
KB                 .         142.8                         : KB Elevation
ORIGINALWELLNAME   .         311                           : 
PROV               .                                       : Province
RWS                .         -999                          : Def_Rw
UWI                .         1_311                         : Unique Well Identifier (UWI)
WST                .         -999                          : Def_Rwt
X                  .km       465871.99                     : 
XCOORD             .                                       : X or East-West Coordinate
Y                  .km       5307606.2                     : 
YCOORD             .                                       : Y or North-South Coordinate
~Parameter Information Block
#_______________________________________________________________________________
#
#PARAMETER_NAME    .UNIT     VALUE                         : DESCRIPTION
#_______________________________________________________________________________
SET                .         Las                           : 
BLI                .M        911.00                        : Bottom Logged Interval
BS                 .MM       215.90                        : Bit Size
DFD                .G/C3     1.14                          : Drilling Fluid Density
TDD                .M        908.00                        : Total Depth Driller
TLFamily_DEPT      .         Measured Depth                : 
TLFamily_PHI_FINAL .         Porosity                      : 
TLFamily_SW_AR     .         Water Saturation              : 
TLFamily_VSH_FINAL .         Shale Volume                  : 
~Curve Information
#_______________________________________________________________________________
#
#LOGNAME           .UNIT     LOG_ID                        : DESCRIPTION
#_______________________________________________________________________________
DEPT               .M                                      : Depth Curve {F}
PHI_FINAL          .m3/m3                                  : Porosity {F}
SW_AR              .m3/m3                                  :  {F}
VSH_FINAL          .unitless                               : Vshale {F}
~Ascii
# ...
143.2      -9999      -9999      0.1028151 
143.3      -9999      -9999      0.09465175
143.4      -9999      -9999      0.09463965
143.5      -9999      -9999      0.08376254
143.6      -9999      -9999      0.08866986
143.7      -9999      -9999      0.09276945
143.8      -9999      -9999      0.09839129
143.9      -9999      -9999      0.09837861
144        -9999      -9999      0.07613795
144.1      -9999      -9999      0.06808384
144.2      -9999      -9999      0.07085966
144.3      -9999      -9999      0.08873421
144.4      -9999      -9999      0.08872305
144.5      -9999      -9999      0.08428195
144.6      -9999      -9999      0.077009  
144.7      -9999      -9999      0.07913755
144.8      -9999      -9999      0.07659255
144.9      -9999      -9999      0.07658322
145        -9999      -9999      0.08100174
145.1      -9999      -9999      0.08533216
145.2      -9999      -9999      0.0909983 
145.3      -9999      -9999      0.08608022
145.4      -9999      -9999      0.08606948
145.5      -9999      -9999      0.0696065 
145.6      -9999      -9999      0.0725355 
145.7      -9999      -9999      0.07743686
145.8      -9999      -9999      0.08004121
145.9      -9999      -9999      0.08003138
146        -9999      -9999      0.09213553
146.1      -9999      -9999      0.0998341 
146.2      -9999      -9999      0.09914084
146.3      -9999      -9999      0.1037112 
146.4      -9999      -9999      0.1036977 
146.5      -9999      -9999      0.0940458 
146.6      -9999      -9999      0.09315629
146.7      -9999      -9999      0.09061015
146.8      -9999      -9999      0.08612917
146.9      -9999      -9999      0.08611842
147        -9999      -9999      0.06866379
147.1      -9999      -9999      0.07743756
147.2      -9999      -9999      0.08139382
147.3      -9999      -9999      0.07264484
147.4      -9999      -9999      0.07263611
147.5      -9999      -9999      0.08068511
147.6      -9999      -9999      0.08695492
147.7      -9999      -9999      0.1019854 
147.8      -9999      -9999      0.1081167 
147.9      -9999      -9999      0.1081025 
148        -9999      -9999      0.1018692 
148.1      -9999      -9999      0.1030063 
148.2      -9999      -9999      0.0967177 
148.3      -9999      -9999      0.1014479 
148.4      0.1157482  -9999      0.1014348 
148.5      0.1212227  -9999      0.1075441 
148.6      0.1248069  -9999      0.09936188
148.7      0.1271523  -9999      0.09539795
148.8      0.1309678  -9999      0.08816354
148.9      0.1310579  -9999      0.08815251
149        0.1318467  -9999      0.08209828
149.1      0.1282056  -9999      0.08905211
149.2      0.1304729  -9999      0.08615132
149.3      0.1360335  -9999      0.07676785
149.4      0.1366416  -9999      0.07675853
149.5      0.1371645  -9999      0.06984296
149.6      0.1351045  -9999      0.07392816
149.7      0.1352948  -9999      0.07385448
149.8      0.1276674  -9999      0.08263181
149.9      0.1260975  -9999      0.08262162
150        0.1187381  -9999      0.09428601
150.1      0.1194139  -9999      0.09603908
150.2      0.1202891  -9999      0.1055843 
150.3      0.1375675  -9999      0.10325   
150.4      0.1748341  -9999      0.1032367 
150.5      0.2361687  -9999      0.1094737 
150.6      0.3089557  -9999      0.1329415 
150.7      0.40299    -9999      0.1323004 
150.8      0.5017323  -9999      0.1375866 
150.9      0.6065487  -9999      0.1375674 
151        0.6915042  -9999      0.1597967 
151.1      0.7580887  -9999      0.1852556 
151.2      0.7646552  -9999      0.2603902 
151.3      0.7631476  -9999      0.2840674 
151.4      0.7566381  -9999      0.2840188 
151.5      0.7375157  1          0.2571608 
151.6      0.6822715  0.7061028  0.299838  
151.7      0.6597067  0.6338997  0.2787673 
151.8      0.6363278  0.5418595  0.2856438 
151.9      0.6251669  0.5510058  0.285595  
152        0.6150697  0.4820692  0.3027968 
152.1      0.6169682  0.4557087  0.3171539 
152.2      0.6404454  0.4288453  0.2946711 
152.3      0.6520759  0.4068425  0.3027978 
152.4      0.6662852  0.3986303  0.3027452 
152.5      0.6833928  0.3916193  0.2752765 
152.6      0.6615587  0.4025738  0.291063  
152.7      0.6226713  0.4254886  0.2947282 
152.8      0.5848398  0.4646327  0.2985859 
152.9      0.5458955  0.495929   0.2985342 
153        0.5082791  0.5310149  0.3048175 
153.1      0.473979   0.5562088  0.3431025 
153.2      0.4676748  0.5599846  0.3385049 
153.3      0.4641547  0.5673389  0.3393124 
153.4      0.4639248  0.5676049  0.3392515 
153.5      0.4903179  0.5438438  0.3015336 
153.6      0.5095151  0.5084807  0.2722713 
153.7      0.5059316  0.5009409  0.2946868 
153.8      0.5021307  0.4976586  0.3216632 
153.9      0.5119649  0.4886112  0.3216063 
154        0.4415828  0.5775874  0.4778267 
154.1      0.4427556  0.5876873  0.4945874 
154.2      0.4279252  0.6143773  0.5471043 
154.3      0.3904414  0.6694993  0.622719  
154.4      0.391367   0.6680014  0.6225851 
154.5      0.3827752  0.6592237  0.6379942 
154.6      0.3903811  0.6404152  0.6234784 
154.7      0.308943   0.7958652  0.7714474 
154.8      0.3069581  0.7893451  0.7628838 
154.9      0.3040632  0.7964521  0.7627099 
155        0.297876   0.8005636  0.7695152 
155.1      0.2425931  0.953597   0.8678021 
155.2      0.2019766  1          0.9414199 
155.3      0.1839742  1          0.9521928 
155.4      0.1768009  1          0.9519615 
155.5      0.1335382  1          1         
155.6      0.1308815  1          1         
155.7      0.1264136  1          1         
155.8      0.125432   1          1         
155.9      0.1246995  1          1         
156        0.126353   1          1         
156.1      0.1253796  1          1         
156.2      0.1173499  1          1         
156.3      0.1124602  1          1         
156.4      0.1121082  1          1         
156.5      0.1137216  1          1         
156.6      0.1143687  1          1         
156.7      0.1136961  1          1         
156.8      0.1088786  1          1         
156.9      0.1010782  1          1         
157        0.09945178 1          1         
157.1      0.09057799 1          1         
157.2      0.08219552 1          1         
157.3      0.07965274 1          1         
157.4      0.07961037 1          1         
157.5      0.0719692  1          1         
157.6      0.07615241 1          1         
157.7      0.08110204 1          1         
157.8      0.08575266 1          1         
157.9      0.08975246 1          1         
158        0.09400722 1          1         
158.1      0.0966007  1          1         
158.2      0.09586324 1          1         
158.3      0.09503901 1          1         
158.4      0.09312915 1          1         
158.5      0.09307179 1          1         
158.6      0.0890324  1          1         
158.7      0.08386738 1          1         
158.8      0.08073524 1          1         
158.9      0.07988183 1          1         
159        0.08683603 1          1         
159.1      0.08388896 1          1         
159.2      0.08425196 1          1         
159.3      0.08651854 1          1         
159.4      0.08810681 1          1         
159.5      0.09471151 1          1         
159.6      0.1035277  1          1         
159.7      0.1084362  1          1         
159.8      0.150374   1          0.9331016 
159.9      0.155851   1          0.9328772 
160        0.1516695  1          0.9519514 
160.1      0.2321916  0.9322221  0.8059895 
160.2      0.216249   1          0.8562761 
160.3      0.1983685  1          0.9045376 
160.4      0.2044711  1          0.9043217 
160.5      0.177796   1          0.9773529 
160.6      0.2086623  1          0.9205794 
160.7      0.1920689  1          0.958828  
160.8      0.2011595  1          0.941278  
160.9      0.1993953  1          0.9410512 
161        0.2181971  1          0.9010162 
161.1      0.1598324  1          1         
161.2      0.1490395  1          1         
161.3      0.1388474  1          1         
