~Version
 VERS              .         3.0                           : CWLS LOG ASCII STANDARD - VERSION 3.0
 WRAP              .         NO                            : ONE LINE PER DEPTH STEP
 DLM               .         SPACE                         : DELIMITING CHARACTER(SPACE TAB OR COMMA)
~Well Information
#_______________________________________________________________________________
#
#PARAMETER_NAME    .UNIT     VALUE                         : DESCRIPTION
#_______________________________________________________________________________
STRT               .M        0                             : First reference value
STOP               .M        911                           : Last reference value
STEP               .M        0.1                           : Step increment
NULL               .         -9999                         : Missing value
COMP               .         ICPetroleum                   : Company
WELL               .         311                           : Well name
FLD                .         Karatobe                      : Field
LOC                .                                       : Location
SRVC               .         ?                             : Service Company
CTRY               .         KZ                            : Country
DATE               .         10.05.05                      : Service Date
LATI               .         0                             : Latitude
LONG               .         0                             : Longitude
GDAT               .         WGS 84                        : Geodetic Datum
COORDIN            .                                       : Grid System
COUNTRY            .         Kazakhstan                    : 
COUNTRY            .         Kazakhstan                    : 
EREF               .m        143.5                         : 
KB                 .         142.8                         : KB Elevation
ORIGINALWELLNAME   .         311                           : 
PROV               .                                       : Province
RWS                .         -999                          : Def_Rw
UWI                .         1_311                         : Unique Well Identifier (UWI)
WST                .         -999                          : Def_Rwt
X                  .km       465871.99                     : 
XCOORD             .                                       : X or East-West Coordinate
Y                  .km       5307606.2                     : 
YCOORD             .                                       : Y or North-South Coordinate
~Parameter Information Block
#_______________________________________________________________________________
#
#PARAMETER_NAME    .UNIT     VALUE                         : DESCRIPTION
#_______________________________________________________________________________
SET                .         Las                           : 
BLI                .M        911.00                        : Bottom Logged Interval
BS                 .MM       215.90                        : Bit Size
DFD                .G/C3     1.14                          : Drilling Fluid Density
TDD                .M        908.00                        : Total Depth Driller
TLFamily_DEPT      .         Measured Depth                : 
TLFamily_PHI_FINAL .         Porosity                      : 
TLFamily_SW_AR     .         Water Saturation              : 
TLFamily_VSH_FINAL .         Shale Volume                  : 
~Curve Information
#_______________________________________________________________________________
#
#LOGNAME           .UNIT     LOG_ID                        : DESCRIPTION
#_______________________________________________________________________________
DEPT               .M                                      : Depth Curve {F}
PHI_FINAL          .m3/m3                                  : Porosity {F}
SW_AR              .m3/m3                                  :  {F}
VSH_FINAL          .unitless                               : Vshale {F}
~Ascii
# ...
743.6      0.05315654 1          0.4713283 
743.7      0.03828407 1          0.4178946 
743.8      0.0314401  1          0.3791638 
743.9      0.05284394 1          0.348391  
744        0.06981247 1          0.3246979 
744.1      0.09186399 1          0.3037227 
744.2      0.08898137 1          0.3055237 
744.3      0.08713794 1          0.3177914 
744.4      0.08771418 1          0.3398323 
744.5      0.09045306 1          0.3625198 
744.6      0.1058959  1          0.3500142 
744.7      0.1108317  1          0.3392323 
744.8      0.1193415  1          0.3122995 
744.9      0.1126491  1          0.3110534 
745        0.1076124  1          0.3181785 
745.1      0.100457   1          0.3205063 
745.2      0.1138196  1          0.2950736 
745.3      0.1109694  1          0.2787642 
745.4      0.09272994 1          0.2827783 
745.5      0.1030728  1          0.2596127 
745.6      0.0829951  1          0.259877  
745.7      0.08729321 1          0.2712635 
745.8      0.0688983  1          0.2858063 
745.9      0.04406661 1          0.2942339 
746        0.04473943 1          0.2779463 
746.1      0.06714529 1          0.2577662 
746.2      0.06500282 1          0.2550508 
746.3      0.06184138 1          0.2437999 
746.4      0.08288219 1          0.252261  
746.5      0.08620939 1          0.2769483 
746.6      0.09858855 1          0.2808592 
746.7      0.1157417  1          0.2565383 
746.8      0.1426055  1          0.2692015 
746.9      0.141424   1          0.2532185 
747        0.1375362  1          0.2504375 
747.1      0.1225363  1          0.2594366 
747.2      0.1149007  1          0.249398  
747.3      0.1138472  1          0.2469798 
747.4      0.1013323  1          0.2855304 
747.5      0.1005547  1          0.2861743 
747.6      0.09541953 1          0.295634  
747.7      0.09353327 1          0.2940474 
747.8      0.1167375  1          0.2731525 
747.9      0.117599   1          0.2762235 
748        0.112948   1          0.2780372 
748.1      0.09932601 1          0.2543521 
748.2      0.09102295 1          0.2785823 
748.3      0.09260008 1          0.2772203 
748.4      0.1015008  1          0.2529573 
748.5      0.1065473  1          0.2437999 
748.6      0.1212604  1          0.2337749 
748.7      0.1102712  1          0.2551382 
748.8      0.1187141  1          0.2724322 
748.9      0.1280994  1          0.2665224 
749        0.1099011  1          0.2683964 
749.1      0.1144046  1          0.2590846 
749.2      0.1253595  1          0.2558379 
749.3      0.1206074  1          0.2619954 
749.4      0.1386538  1          0.2406375 
749.5      0.1289165  1          0.2497443 
749.6      0.1224969  1          0.2495712 
749.7      0.1087389  1          0.252348  
749.8      0.09328576 1          0.2568888 
749.9      0.08335377 1          0.2446576 
750        0.07856038 1          0.2349551 
750.1      0.0535397  1          0.2220254 
750.2      0.02513931 1          0.2025865 
750.3      0.01579772 1          0.2023479 
750.4      0.01436374 1          0.2152238 
750.5      0.04223924 1          0.2164468 
750.6      0.06361778 1          0.2237597 
750.7      0.07161212 1          0.2265791 
750.8      0.09180536 1          0.2139223 
750.9      0.1083183  1          0.2217781 
751        0.1158998  1          0.2380012 
751.1      0.1241598  1          0.2419174 
751.2      0.1276096  1          0.2481877 
751.3      0.1204576  1          0.2245046 
751.4      0.1369614  1          0.2363915 
751.5      0.1390145  1          0.2274111 
751.6      0.1367373  1          0.2371535 
751.7      0.1374335  1          0.2347864 
751.8      0.1193516  1          0.2542649 
751.9      0.11696    1          0.2683964 
752        0.09927797 1          0.2905153 
752.1      0.1143201  1          0.287372  
752.2      0.1375308  1          0.2704558 
752.3      0.1337821  1          0.2692015 
752.4      0.1366716  1          0.2613768 
752.5      0.1320597  1          0.2670572 
752.6      0.1217578  1          0.2620838 
752.7      0.1213928  1          0.2673248 
752.8      0.1243966  1          0.2691119 
752.9      0.1162969  1          0.2926508 
753        0.1366114  1          0.2935815 
753.1      0.1554462  1          0.265543  
753.2      0.1388917  1          0.2538287 
753.3      0.1272851  1          0.269291  
753.4      0.1229744  1          0.2799474 
753.5      0.1141754  1          0.2818637 
753.6      0.1192841  1          0.2804944 
753.7      0.1043789  1          0.301172  
753.8      0.1099189  1          0.2843363 
753.9      0.0981575  1          0.2743248 
754        0.1032375  1          0.283053  
754.1      0.0946006  1          0.3004182 
754.2      0.08655103 1          0.2977871 
754.3      0.09513903 1          0.3025878 
754.4      0.08648436 1          0.3240137 
754.5      0.07339042 1          0.3385329 
754.6      0.0715875  1          0.3186628 
754.7      0.08020102 1          0.3153769 
754.8      0.08470827 1          0.290052  
754.9      0.08986957 1          0.2825038 
755        0.08767382 1          0.2839693 
755.1      0.09202863 1          0.2851627 
755.2      0.09558511 1          0.2850708 
755.3      0.09491482 1          0.29135   
755.4      0.09777594 1          0.2856224 
755.5      0.1029466  1          0.3000417 
755.6      0.08665668 1          0.3234278 
755.7      0.07209639 1          0.3389325 
755.8      0.05452947 1          0.3606603 
755.9      0.04757018 1          0.3703215 
756        0.0355516  1          0.3971848 
756.1      0.02864522 1          0.4166667 
756.2      0.02981869 1          0.418677  
756.3      0.06311394 1          0.3714731 
756.4      0.06513526 1          0.3546004 
756.5      0.05849125 1          0.3671903 
756.6      0.04810617 1          0.3990337 
756.7      0.05130396 1          0.3836267 
756.8      0.06115957 1          0.3801178 
756.9      0.06748137 1          0.3746235 
757        0.06931351 1          0.3583945 
757.1      0.06735445 1          0.3450553 
757.2      0.05980201 1          0.3407334 
757.3      0.06093013 1          0.3488979 
757.4      0.07360062 1          0.3238183 
757.5      0.08706675 1          0.3560336 
757.6      0.09501427 1          0.3590117 
757.7      0.08019019 1          0.3834136 
757.8      0.08339149 1          0.3925291 
757.9      0.0793315  1          0.3383332 
758        0.08268934 1          0.3289165 
758.1      0.09259279 1          0.311245  
758.2      0.1067334  1          0.295167  
758.3      0.1229165  1          0.2741443 
758.4      0.1354327  1          0.2635892 
758.5      0.1211551  1          0.2761329 
758.6      0.1000332  1          0.2799474 
758.7      0.09558436 1          0.2950736 
758.8      0.08191898 1          0.2915357 
758.9      0.08632109 1          0.3065688 
759        0.1039909  1          0.3124914 
759.1      0.10321    1          0.3351463 
759.2      0.1029437  1          0.316052  
759.3      0.0963529  1          0.3264605 
759.4      0.1004387  1          0.3065688 
759.5      0.09293881 1          0.2980684 
759.6      0.1022987  1          0.316245  
759.7      0.09258164 1          0.3312829 
759.8      0.09594869 1          0.3278348 
759.9      0.1118318  1          0.3018323 
760        0.1107191  1          0.3076155 
760.1      0.1106146  1          0.3259704 
760.2      0.1199598  1          0.3301972 
760.3      0.1262562  1          0.3307891 
760.4      0.08235976 1          0.3420371 
760.5      0.08510509 1          0.358703  
760.6      0.121476   1          0.3430417 
760.7      0.09441093 1          0.3330632 
760.8      0.08488698 1          0.3354444 
760.9      0.09285001 1          0.3323703 
761        0.09740158 1          0.3208951 
761.1      0.09940213 1          0.292093  
761.2      0.08189176 1          0.3116282 
761.3      0.09544845 1          0.3195354 
761.4      0.08359641 1          0.3398323 
761.5      0.07507485 1          0.3588059 
761.6      0.0719782  1          0.3853343 
761.7      0.07568492 1          0.3767317 
