~Version
 VERS              .         3.0                           : CWLS LOG ASCII STANDARD - VERSION 3.0
 WRAP              .         NO                            : ONE LINE PER DEPTH STEP
 DLM               .         SPACE                         : DELIMITING CHARACTER(SPACE TAB OR COMMA)
~Well Information
#_______________________________________________________________________________
#
#PARAMETER_NAME    .UNIT     VALUE                         : DESCRIPTION
#_______________________________________________________________________________
STRT               .M        0                             : First reference value
STOP               .M        911                           : Last reference value
STEP               .M        0.1                           : Step increment
NULL               .         -9999                         : Missing value
COMP               .         ICPetroleum                   : Company
WELL               .         311                           : Well name
FLD                .         Karatobe                      : Field
LOC                .                                       : Location
SRVC               .         ?                             : Service Company
CTRY               .         KZ                            : Country
DATE               .         10.05.05                      : Service Date
LATI               .         0                             : Latitude
LONG               .         0                             : Longitude
GDAT               .         WGS 84                        : Geodetic Datum
COORDIN            .                                       : Grid System
COUNTRY            .         Kazakhstan                    : 
COUNTRY            .         Kazakhstan                    : 
EREF               .m        143.5                         : 
KB                 .         142.8                         : KB Elevation
ORIGINALWELLNAME   .         311                           : 
PROV               .                                       : Province
RWS                .         -999                          : Def_Rw
UWI                .         1_311                         : Unique Well Identifier (UWI)
WST                .         -999                          : Def_Rwt
X                  .km       465871.99                     : 
XCOORD             .                                       : X or East-West Coordinate
Y                  .km       5307606.2                     : 
YCOORD             .                                       : Y or North-South Coordinate
~Parameter Information Block
#_______________________________________________________________________________
#
#PARAMETER_NAME    .UNIT     VALUE                         : DESCRIPTION
#_______________________________________________________________________________
SET                .         Las                           : 
BLI                .M        911.00                        : Bottom Logged Interval
BS                 .MM       215.90                        : Bit Size
DFD                .G/C3     1.14                          : Drilling Fluid Density
TDD                .M        908.00                        : Total Depth Driller
TLFamily_DEPT      .         Measured Depth                : 
TLFamily_PHI_FINAL .         Porosity                      : 
TLFamily_SW_AR     .         Water Saturation              : 
TLFamily_VSH_FINAL .         Shale Volume                  : 
~Curve Information
#_______________________________________________________________________________
#
#LOGNAME           .UNIT     LOG_ID                        : DESCRIPTION
#_______________________________________________________________________________
DEPT               .M                                      : Depth Curve {F}
PHI_FINAL          .m3/m3                                  : Porosity {F}
SW_AR              .m3/m3                                  :  {F}
VSH_FINAL          .unitless                               : Vshale {F}
~Ascii
# ...
598        0.1106364  1          0.6932329 
598.1      0.09616624 1          0.7359524 
598.2      0.1056065  1          0.6980669 
598.3      0.1108605  1          0.6788346 
598.4      0.1140545  1          0.6664646 
598.5      0.1156014  1          0.6768242 
598.6      0.1088649  1          0.7031689 
598.7      0.1219538  1          0.672587  
598.8      0.1166345  1          0.6886994 
598.9      0.08634389 1          0.764724  
599        0.07736024 1          0.8013769 
599.1      0.07074703 1          0.8117378 
599.2      0.0725786  1          0.793581  
599.3      0.0737231  1          0.7999355 
599.4      0.09230842 1          0.7460572 
599.5      0.1294678  1          0.647866  
599.6      0.1038027  1          0.6907852 
599.7      0.1218456  1          0.6272725 
599.8      0.1183944  1          0.6439103 
599.9      0.1067491  1          0.6884064 
600        0.1401423  1          0.6199016 
600.1      0.138009   1          0.6298206 
600.2      0.1210396  1          0.6534268 
600.3      0.1289612  1          0.621897  
600.4      0.126451   1          0.6197271 
600.5      0.1114163  1          0.6640474 
600.6      0.1348476  1          0.6117138 
600.7      0.1465096  1          0.5950379 
600.8      0.1586967  1          0.5772066 
600.9      0.1605382  1          0.5705404 
601        0.1454944  1          0.5995757 
601.1      0.1494634  1          0.5897039 
601.2      0.1567795  1          0.5674033 
601.3      0.1555815  1          0.5673183 
601.4      0.1529677  1          0.5637953 
601.5      0.1489115  1          0.5771814 
601.6      0.1246456  1          0.6404039 
601.7      0.1512335  1          0.5775909 
601.8      0.1396473  1          0.6071271 
601.9      0.1493971  1          0.5881988 
602        0.1592462  1          0.5669152 
602.1      0.158663   1          0.5632055 
602.2      0.1589191  1          0.5759913 
602.3      0.1520051  1          0.5949891 
602.4      0.1840277  1          0.5185429 
602.5      0.1820241  1          0.5257693 
602.6      0.1705948  1          0.5539141 
602.7      0.183441   1          0.5195563 
602.8      0.1821667  1          0.5044252 
602.9      0.1882535  1          0.4809803 
603        0.1917903  1          0.4739862 
603.1      0.1946212  1          0.4841708 
603.2      0.1962816  1          0.4799462 
603.3      0.2095617  1          0.4513201 
603.4      0.2093447  1          0.4451631 
603.5      0.2138555  1          0.4433954 
603.6      0.2157234  1          0.4320021 
603.7      0.2029124  1          0.4586604 
603.8      0.1959072  1          0.4741038 
603.9      0.1976907  1          0.4601263 
604        0.1910568  1          0.4690777 
604.1      0.176918   1          0.4913628 
604.2      0.1899099  1          0.4531118 
604.3      0.1902319  1          0.4288695 
604.4      0.1768802  1          0.4402197 
604.5      0.1591818  1          0.4183293 
604.6      0.1492351  1          0.3760989 
604.7      0.1256849  1          0.3371836 
604.8      0.1085944  1          0.3037246 
604.9      0.1165434  1          0.2768249 
605        0.1239714  1          0.2640195 
605.1      0.1428324  1          0.2693305 
605.2      0.15388    1          0.2804429 
605.3      0.1540099  1          0.2782798 
605.4      0.1358764  1          0.3365116 
605.5      0.1355571  1          0.3302312 
605.6      0.1213094  1          0.3338463 
605.7      0.120894   1          0.3181887 
605.8      0.1039651  1          0.3186202 
605.9      0.1304389  1          0.2741756 
606        0.1420795  1          0.2966377 
606.1      0.1750467  1          0.2812051 
606.2      0.2112413  1          0.3016132 
606.3      0.2331027  1          0.3192457 
606.4      0.2273304  1          0.3573996 
606.5      0.2298817  1          0.3845309 
606.6      0.2171732  1          0.4169857 
606.7      0.2328701  1          0.3851151 
606.8      0.2327021  1          0.3878196 
606.9      0.2342057  1          0.3934671 
607        0.22913    1          0.4071715 
607.1      0.2430138  1          0.3620091 
607.2      0.2470117  1          0.3413045 
607.3      0.242889   1          0.3251424 
607.4      0.2406882  1          0.3121403 
607.5      0.2478011  1          0.3121013 
607.6      0.2482965  1          0.3239433 
607.7      0.2581911  1          0.3105199 
607.8      0.2671174  1          0.2820158 
607.9      0.2571802  1          0.3056253 
608        0.255498   1          0.3027486 
608.1      0.2663131  1          0.2716787 
608.2      0.2794127  1          0.2552909 
608.3      0.2813385  1          0.2669649 
608.4      0.2919538  1          0.2484564 
608.5      0.2970934  1          0.2494981 
608.6      0.2973132  1          0.2516203 
608.7      0.3034365  1          0.2201151 
608.8      0.307101   1          0.2106448 
608.9      0.2997733  1          0.2186474 
609        0.297443   1          0.2259601 
609.1      0.3000837  1          0.2205492 
609.2      0.2961104  1          0.2401701 
609.3      0.2979094  1          0.2405213 
609.4      0.2961127  1          0.2525625 
609.5      0.3076279  1          0.24151   
609.6      0.3032292  1          0.2537837 
609.7      0.298929   1          0.2654974 
609.8      0.296344   1          0.26343   
609.9      0.2834232  1          0.2846228 
610        0.2764811  1          0.2981854 
610.1      0.2909168  1          0.26711   
610.2      0.289946   1          0.253014  
610.3      0.2979245  1          0.2267135 
610.4      0.3072382  1          0.1958642 
610.5      0.3233827  1          0.1722424 
610.6      0.315099   1          0.1908054 
610.7      0.3174541  1          0.1854662 
610.8      0.3212715  1          0.1841918 
610.9      0.3222245  1          0.1915461 
611        0.3218001  1          0.1844653 
611.1      0.3250697  1          0.1792515 
611.2      0.3237703  1          0.1833322 
611.3      0.3210828  1          0.1861335 
611.4      0.3111378  1          0.2100368 
611.5      0.3034114  1          0.2193338 
611.6      0.3060158  1          0.2124007 
611.7      0.299584   1          0.2341442 
611.8      0.2947836  1          0.2537203 
611.9      0.2642512  1          0.3343443 
612        0.243082   1          0.3837798 
612.1      0.2283596  1          0.4058076 
612.2      0.1901996  1          0.4727239 
612.3      0.1172675  1          0.645299  
612.4      0.05596084 1          0.8077757 
612.5      0.0280734  1          0.8907391 
612.6      0.001339108 1          1         
612.7      0.0002389444 1          1         
612.8      0.0002295518 1          1         
612.9      0.001896221 1          1         
613        0.001668948 1          1         
613.1      0.001177964 1          1         
613.2      0.001932947 1          1         
613.3      0.00272675 1          1         
613.4      0.003685161 1          1         
613.5      0.004568043 1          1         
613.6      0.006336712 1          1         
613.7      0.008773062 1          1         
613.8      0.007215533 1          1         
613.9      0.003179718 1          1         
614        0.001581   1          1         
614.1      0.001062896 1          1         
614.2      0.0006083467 1          1         
614.3      0.0002089584 1          1         
614.4      0.001645105 1          1         
614.5      0.004540285 1          1         
614.6      0.005938573 1          1         
614.7      0.00628504 1          1         
614.8      0.02057351 1          0.914278  
614.9      0.04605383 1          0.8358362 
615        0.04869752 1          0.8152715 
615.1      0.08609675 1          0.7217546 
615.2      0.07627707 1          0.7476583 
615.3      0.1002675  1          0.6725782 
615.4      0.1108965  1          0.6460405 
615.5      0.1494949  1          0.5962237 
615.6      0.2287331  1          0.4479963 
615.7      0.2372547  1          0.4476245 
615.8      0.2382616  1          0.5273469 
615.9      0.2229247  1          0.608865  
616        0.2178417  1          0.6017432 
616.1      0.2456013  1          0.5038926 
