~Version
 VERS              .         3.0                           : CWLS LOG ASCII STANDARD - VERSION 3.0
 WRAP              .         NO                            : ONE LINE PER DEPTH STEP
 DLM               .         SPACE                         : DELIMITING CHARACTER(SPACE TAB OR COMMA)
~Well Information
#_______________________________________________________________________________
#
#PARAMETER_NAME    .UNIT     VALUE                         : DESCRIPTION
#_______________________________________________________________________________
STRT               .M        0                             : First reference value
STOP               .M        911                           : Last reference value
STEP               .M        0.1                           : Step increment
NULL               .         -9999                         : Missing value
COMP               .         ICPetroleum                   : Company
WELL               .         311                           : Well name
FLD                .         Karatobe                      : Field
LOC                .                                       : Location
SRVC               .         ?                             : Service Company
CTRY               .         KZ                            : Country
DATE               .         10.05.05                      : Service Date
LATI               .         0                             : Latitude
LONG               .         0                             : Longitude
GDAT               .         WGS 84                        : Geodetic Datum
COORDIN            .                                       : Grid System
COUNTRY            .         Kazakhstan                    : 
COUNTRY            .         Kazakhstan                    : 
EREF               .m        143.5                         : 
KB                 .         142.8                         : KB Elevation
ORIGINALWELLNAME   .         311                           : 
PROV               .                                       : Province
RWS                .         -999                          : Def_Rw
UWI                .         1_311                         : Unique Well Identifier (UWI)
WST                .         -999                          : Def_Rwt
X                  .km       465871.99                     : 
XCOORD             .                                       : X or East-West Coordinate
Y                  .km       5307606.2                     : 
YCOORD             .                                       : Y or North-South Coordinate
~Parameter Information Block
#_______________________________________________________________________________
#
#PARAMETER_NAME    .UNIT     VALUE                         : DESCRIPTION
#_______________________________________________________________________________
SET                .         Las                           : 
BLI                .M        911.00                        : Bottom Logged Interval
BS                 .MM       215.90                        : Bit Size
DFD                .G/C3     1.14                          : Drilling Fluid Density
TDD                .M        908.00                        : Total Depth Driller
TLFamily_DEPT      .         Measured Depth                : 
TLFamily_PHI_FINAL .         Porosity                      : 
TLFamily_SW_AR     .         Water Saturation              : 
TLFamily_VSH_FINAL .         Shale Volume                  : 
~Curve Information
#_______________________________________________________________________________
#
#LOGNAME           .UNIT     LOG_ID                        : DESCRIPTION
#_______________________________________________________________________________
DEPT               .M                                      : Depth Curve {F}
PHI_FINAL          .m3/m3                                  : Porosity {F}
SW_AR              .m3/m3                                  :  {F}
VSH_FINAL          .unitless                               : Vshale {F}
~Ascii
# ...
834.6      0.04883932 1          0.05600652
834.7      0.0561884  1          0.05301993
834.8      0.06622107 1          0.05090895
834.9      0.06899193 1          0.05548794
835        0.06615411 1          0.0511366 
835.1      0.05515494 1          0.04453364
835.2      0.07917684 1          0.04285908
835.3      0.08520681 1          0.0483572 
835.4      0.07626558 1          0.04475748
835.5      0.08166613 1          0.05439548
835.6      0.08744331 0.9654487  0.04875303
835.7      0.0718512  1          0.04576642
835.8      0.05017356 1          0.03547031
835.9      0.05122142 1          0.03590728
836        0.04885747 1          0.03394497
836.1      0.05224463 1          0.03042853
836.2      0.0581903  1          0.03021324
836.3      0.04483674 1          0.02561562
836.4      0.04022374 1          0.02929972
836.5      0.03688772 1          0.03421689
836.6      0.03581589 1          0.04158032
836.7      0.03712288 1          0.036509  
836.8      0.03701277 1          0.03438013
836.9      0.03175966 1          0.03953237
837        0.03306992 1          0.03574336
837.1      0.03357377 1          0.03859522
837.2      0.03966252 1          0.03547031
837.3      0.04998113 1          0.03476132
837.4      0.06218719 1          0.04002949
837.5      0.07812111 1          0.04694697
837.6      0.09073012 1          0.05577596
837.7      0.07958699 1          0.06146456
837.8      0.08074316 1          0.06753382
837.9      0.1020963  1          0.0709329 
838        0.1078602  1          0.07502598
838.1      0.1153804  1          0.07466314
838.2      0.0929355  1          0.08407946
838.3      0.07973948 1          0.08494626
838.4      0.08668495 1          0.07733146
838.5      0.07274617 1          0.07672349
838.6      0.07028404 1          0.07309464
838.7      0.08491317 1          0.06735573
838.8      0.1119652  0.880863   0.06937884
838.9      0.1295008  0.7696131  0.07775759
839        0.1168895  1          0.09663624
839.1      0.1093887  1          0.1201385 
839.2      0.1170749  1          0.128006  
839.3      0.1184585  1          0.1313016 
839.4      0.1136399  1          0.1376845 
839.5      0.08785208 1          0.1513633 
839.6      0.06146365 1          0.1390837 
839.7      0.06042582 1          0.1326126 
839.8      0.07516524 1          0.1364985 
839.9      0.07055814 1          0.1261626 
840        0.06684799 1          0.1367772 
840.1      0.06268137 1          0.1389437 
840.2      0.07761275 1          0.1421768 
840.3      0.066819   1          0.1528756 
840.4      0.08470277 1          0.1500708 
840.5      0.07463609 1          0.1722975 
840.6      0.0638344  1          0.1710236 
840.7      0.07280516 1          0.1725226 
840.8      0.07143743 1          0.1711733 
840.9      0.08246861 1          0.1676672 
841        0.07017699 1          0.1814584 
841.1      0.08037676 1          0.1747795 
841.2      0.09875601 1          0.1762897 
841.3      0.0998772  1          0.174478  
841.4      0.09500995 1          0.1726728 
841.5      0.09550415 1          0.1669986 
841.6      0.09751949 1          0.183602  
841.7      0.1120451  1          0.1874521 
841.8      0.1287447  1          0.1873749 
841.9      0.1425753  0.9574259  0.1887678 
842        0.1558762  0.8595157  0.1902421 
842.1      0.1680651  0.7897921  0.1939855 
842.2      0.1747019  0.8121635  0.203542  
842.3      0.1724308  0.9266838  0.22005   
842.4      0.1593377  1          0.2336907 
842.5      0.1246305  1          0.2737835 
842.6      0.08586611 1          0.3095232 
842.7      0.07342415 1          0.3062836 
842.8      0.06831899 1          0.2986316 
842.9      0.06797953 1          0.2929298 
843        0.05165881 1          0.2944204 
843.1      0.04671802 1          0.279219  
843.2      0.0570976  1          0.2479287 
843.3      0.06575847 1          0.2106014 
843.4      0.06641279 1          0.1986237 
843.5      0.08814793 1          0.1814584 
843.6      0.1111171  1          0.1682623 
843.7      0.1115781  1          0.180695  
843.8      0.08382703 1          0.1730483 
843.9      0.07089313 1          0.1710236 
844        0.0416759  1          0.1603621 
844.1      0.05421419 1          0.1577323 
844.2      0.07281312 1          0.1484958 
844.3      0.05749797 1          0.1485673 
844.4      0.05451385 1          0.1567135 
844.5      0.05190966 1          0.1475676 
844.6      0.04860498 1          0.1528035 
844.7      0.0598916  1          0.1364288 
844.8      0.07948489 1          0.1118119 
844.9      0.09440521 0.9670772  0.09708257
845        0.09953874 0.8757356  0.08562862
845.1      0.1039154  0.8700958  0.0867476 
845.2      0.02659998 1          0.0888069 
845.3      0          1          0.1018939 
845.4      0          1          0.1037041 
845.5      0.03161321 1          0.1032508 
845.6      0.07255429 1          0.1065639 
845.7      0.1071066  1          0.1063683 
845.8      0.1302039  0.9430914  0.1147916 
845.9      0.1278674  0.9453733  0.1093112 
846        0.1280993  0.9007562  0.1165224 
846.1      0.1195111  0.9427594  0.1157227 
846.2      0.1247857  0.7528821  0.1157893 
846.3      0.128483   0.6872909  0.1112184 
846.4      0.129745   0.6743794  0.1029274 
846.5      0.1158727  0.7932435  0.1040929 
846.6      0.1073716  0.8767339  0.118997  
846.7      0.1067267  0.8651181  0.1171898 
846.8      0.1027396  0.8871402  0.1038336 
846.9      0.09485173 0.9644359  0.1035745 
847        0.09477991 0.9621827  0.0958086 
847.1      0.08249219 1          0.1055868 
847.2      0.07400791 1          0.1064335 
847.3      0.06837344 1          0.1175908 
847.4      0.1009184  0.9837446  0.1249378 
847.5      0.06642374 1          0.1362198 
847.6      0.05953242 1          0.1336503 
847.7      0.03498064 1          0.137126  
847.8      0.02721804 1          0.1435188 
847.9      0.02207734 1          0.1469972 
848        0.02346221 1          0.1602888 
848.1      0.03766455 1          0.1460008 
848.2      0.04799161 1          0.1328891 
848.3      0.05407861 1          0.1181929 
848.4      0.05144896 1          0.1131337 
848.5      0.05301529 1          0.0958086 
848.6      0.0627288  1          0.08278263
848.7      0.0727106  1          0.07484452
848.8      0.08128452 0.9734682  0.06369283
848.9      0.07960805 0.933302   0.05739277
849        0.06150889 1          0.05693014
849.1      0.05615528 1          0.05913262
849.2      0.0539833  1          0.06451698
849.3      0.0553717  1          0.06979667
849.4      0.05057171 1          0.07611641
849.5      0.06766623 1          0.07599511
849.6      0.06561253 1          0.07897753
849.7      0.07025812 1          0.08118264
849.8      0.08284892 0.7913054  0.08637427
849.9      0.09466942 0.6713812  0.07818414
850        0.1147598  0.5395567  0.08587701
850.1      0.1494215  0.3969566  0.1000271 
850.2      0.1642471  0.3774178  0.1099022 
850.3      0.163039   0.4134052  0.144085  
850.4      0.1683916  0.4637312  0.1686346 
850.5      0.1736897  0.5009353  0.2044992 
850.6      0.1918478  0.4864446  0.2256654 
850.7      0.2086     0.576169   0.2663442 
850.8      0.2056721  0.7473662  0.3067589 
850.9      0.2028247  1          0.3349476 
851        0.1389244  1          0.3829875 
851.1      0.1069539  1          0.3724167 
851.2      0.02937396 1          0.3581888 
851.3      0.03299547 1          0.3318757 
851.4      0.03459089 1          0.3344512 
851.5      0.01914884 1          0.3049544 
851.6      0.03628233 1          0.2907007 
851.7      0.04531698 1          0.2719825 
851.8      0.06428867 1          0.2514789 
851.9      0.04550366 1          0.2342804 
852        0.001163153 1          0.2305003 
852.1      0          1          0.2015534 
852.2      0.02728637 1          0.1691562 
852.3      0.07388188 1          0.1627115 
852.4      0.09766564 1          0.1612418 
852.5      0.08324646 1          0.1606551 
852.6      0.0482558  1          0.1321291 
852.7      0.002595901 1          0.1181929 
