~Version
 VERS              .         3.0                           : CWLS LOG ASCII STANDARD - VERSION 3.0
 WRAP              .         NO                            : ONE LINE PER DEPTH STEP
 DLM               .         SPACE                         : DELIMITING CHARACTER(SPACE TAB OR COMMA)
~Well Information
#_______________________________________________________________________________
#
#PARAMETER_NAME    .UNIT     VALUE                         : DESCRIPTION
#_______________________________________________________________________________
STRT               .M        0                             : First reference value
STOP               .M        911                           : Last reference value
STEP               .M        0.1                           : Step increment
NULL               .         -9999                         : Missing value
COMP               .         ICPetroleum                   : Company
WELL               .         311                           : Well name
FLD                .         Karatobe                      : Field
LOC                .                                       : Location
SRVC               .         ?                             : Service Company
CTRY               .         KZ                            : Country
DATE               .         10.05.05                      : Service Date
LATI               .         0                             : Latitude
LONG               .         0                             : Longitude
GDAT               .         WGS 84                        : Geodetic Datum
COORDIN            .                                       : Grid System
COUNTRY            .         Kazakhstan                    : 
COUNTRY            .         Kazakhstan                    : 
EREF               .m        143.5                         : 
KB                 .         142.8                         : KB Elevation
ORIGINALWELLNAME   .         311                           : 
PROV               .                                       : Province
RWS                .         -999                          : Def_Rw
UWI                .         1_311                         : Unique Well Identifier (UWI)
WST                .         -999                          : Def_Rwt
X                  .km       465871.99                     : 
XCOORD             .                                       : X or East-West Coordinate
Y                  .km       5307606.2                     : 
YCOORD             .                                       : Y or North-South Coordinate
~Parameter Information Block
#_______________________________________________________________________________
#
#PARAMETER_NAME    .UNIT     VALUE                         : DESCRIPTION
#_______________________________________________________________________________
SET                .         Las                           : 
BLI                .M        911.00                        : Bottom Logged Interval
BS                 .MM       215.90                        : Bit Size
DFD                .G/C3     1.14                          : Drilling Fluid Density
TDD                .M        908.00                        : Total Depth Driller
TLFamily_DEPT      .         Measured Depth                : 
TLFamily_PHI_FINAL .         Porosity                      : 
TLFamily_SW_AR     .         Water Saturation              : 
TLFamily_VSH_FINAL .         Shale Volume                  : 
~Curve Information
#_______________________________________________________________________________
#
#LOGNAME           .UNIT     LOG_ID                        : DESCRIPTION
#_______________________________________________________________________________
DEPT               .M                                      : Depth Curve {F}
PHI_FINAL          .m3/m3                                  : Porosity {F}
SW_AR              .m3/m3                                  :  {F}
VSH_FINAL          .unitless                               : Vshale {F}
~Ascii
# ...
689        0.380554   0.3396181  0.05654951
689.1      0.3819444  0.3348795  0.05075133
689.2      0.3786786  0.3372177  0.05487692
689.3      0.3775535  0.3496497  0.05770907
689.4      0.3796563  0.3530152  0.05341487
689.5      0.3804269  0.3604213  0.05341079
689.6      0.3728184  0.3741531  0.06179603
689.7      0.3702742  0.3846735  0.06460442
689.8      0.3791913  0.3815418  0.05690426
689.9      0.3827485  0.3777337  0.05823257
690        0.3825059  0.3811138  0.06013096
690.1      0.3862484  0.3886159  0.05183611
690.2      0.386279   0.4036576  0.05011402
690.3      0.3874706  0.4159523  0.05475383
690.4      0.3939055  0.4123423  0.05386926
690.5      0.3980891  0.4159652  0.05069765
690.6      0.4014429  0.4121861  0.05264572
690.7      0.4067045  0.4047394  0.05181253
690.8      0.4066892  0.3944606  0.05511727
690.9      0.4075988  0.3826055  0.05154196
691        0.4021764  0.3625281  0.05654018
691.1      0.3996636  0.352764   0.0558764 
691.2      0.396681   0.3497398  0.05959717
691.3      0.4002945  0.3557602  0.05836626
691.4      0.4027345  0.3637183  0.05088682
691.5      0.4036803  0.3944062  0.05435871
691.6      0.4053075  0.4125499  0.05624227
691.7      0.403883   0.4374814  0.05854515
691.8      0.4081956  0.4501225  0.0533552 
691.9      0.4067989  0.4427272  0.0471181 
692        0.4007695  0.4146765  0.0454583 
692.1      0.3959147  0.3984555  0.04531194
692.2      0.3848278  0.3912     0.04279667
692.3      0.3827771  0.3867999  0.0396461 
692.4      0.3840149  0.3901428  0.03577841
692.5      0.3828883  0.4100552  0.0310128 
692.6      0.3862923  0.4238037  0.02459609
692.7      0.3870926  0.4523842  0.0181181 
692.8      0.3863985  0.4983043  0.01808875
692.9      0.3832133  0.532394   0.01783464
693        0.3684292  0.6279888  0.02088162
693.1      0.3622253  0.701638   0.01870601
693.2      0.3612953  0.8446543  0.01918708
693.3      0.3607189  1          0.01915738
693.4      0.3629142  1          0.01768856
693.5      0.3661109  1          0.01255572
693.6      0.3659962  1          0.01244862
693.7      0.3655955  1          0.01500421
693.8      0.3666578  1          0.01454083
693.9      0.359606   1          0.01519328
694        0.3554198  1          0.0184688 
694.1      0.3511253  1          0.02418271
694.2      0.3478258  1          0.02987177
694.3      0.3377926  1          0.03972514
694.4      0.3270391  1          0.04580675
694.5      0.3181022  1          0.05623319
694.6      0.3067026  1          0.0557265 
694.7      0.3027135  1          0.04640681
694.8      0.2996043  1          0.04618768
694.9      0.296649   1          0.03831711
695        0.2989782  1          0.03281094
695.1      0.2971902  0.9633932  0.03261564
695.2      0.299171   0.9341508  0.03827512
695.3      0.3027466  0.9323482  0.03739912
695.4      0.303327   0.9608297  0.04165272
695.5      0.3063198  1          0.04438128
695.6      0.3162424  1          0.03921135
695.7      0.3157482  1          0.0487304 
695.8      0.3076151  1          0.06544469
695.9      0.2940374  1          0.09457466
696        0.2740723  1          0.1226224 
696.1      0.2632402  1          0.1516161 
696.2      0.261445   1          0.1554784 
696.3      0.2608895  1          0.1685967 
696.4      0.2654784  1          0.1583803 
696.5      0.2883164  1          0.1088302 
696.6      0.3091514  1          0.06614712
696.7      0.3207168  1          0.04935394
696.8      0.3302343  1          0.02906837
696.9      0.3343247  1          0.01993727
697        0.3378319  1          0.01260713
697.1      0.3361877  1          0.01364721
697.2      0.3335168  1          0.01375371
697.3      0.3326492  1          0.01642127
697.4      0.3381178  1          0.008857549
697.5      0.3410825  1          0.003944611
697.6      0.3370526  1          0.005183906
697.7      0.327761   1          0.008068938
697.8      0.3189811  1          0.006763587
697.9      0.312893   1          0.003558445
698        0.3062449  1          0.00234184
698.1      0.29855    1          0.0019165 
698.2      0.3005279  1          0.002507471
698.3      0.3064089  1          0.005549422
698.4      0.3128882  1          0.007662061
698.5      0.3084074  1          0.01339392
698.6      0.3028996  1          0.01943056
698.7      0.3047578  1          0.02114828
698.8      0.2944417  1          0.03087653
698.9      0.2819758  1          0.03372027
699        0.2694443  1          0.04554417
699.1      0.2583551  1          0.07182992
699.2      0.2478265  1          0.09279075
699.3      0.2376182  1          0.1210631 
699.4      0.2274309  1          0.147209  
699.5      0.2068942  1          0.1867552 
699.6      0.2022743  1          0.206897  
699.7      0.2074435  1          0.2140339 
699.8      0.2166828  1          0.2301605 
699.9      0.1267181  1          0.4612186 
700        0.1266333  1          0.5255072 
700.1      0.1340412  1          0.5663203 
700.2      0.1259167  1          0.6199435 
700.3      0.1173227  1          0.6911629 
700.4      0.1244406  1          0.676474  
700.5      0.1273793  1          0.6655592 
700.6      0.1218172  1          0.6323686 
700.7      0.1233635  1          0.5806248 
700.8      0.1350625  1          0.5608479 
700.9      0.1435462  1          0.5500031 
701        0.1462425  1          0.5288361 
701.1      0.1455353  1          0.5412402 
701.2      0.1303003  1          0.5730395 
701.3      0.1030126  1          0.6178175 
701.4      0.1018451  1          0.5977869 
701.5      0.109802   1          0.5687335 
701.6      0.112981   1          0.5579252 
701.7      0.1131127  1          0.5494774 
701.8      0.1094534  1          0.5659187 
701.9      0.1124151  1          0.5738491 
702        0.1086027  1          0.5928113 
702.1      0.09119682 1          0.6379913 
702.2      0.09801267 1          0.5968173 
702.3      0.103102   1          0.5615134 
702.4      0.1028494  1          0.5523723 
702.5      0.1039294  1          0.5007001 
702.6      0.09231703 1          0.4921824 
702.7      0.08880024 1          0.4881397 
702.8      0.07021252 1          0.5233376 
702.9      0.06307729 1          0.5155978 
703        0.06007152 1          0.511817  
703.1      0.06481432 1          0.4616915 
703.2      0.07228741 1          0.462283  
703.3      0.08078039 1          0.4874068 
703.4      0.08787421 1          0.4752879 
703.5      0.07239195 1          0.5059278 
703.6      0.05026722 1          0.5269141 
703.7      0.05636735 1          0.5278105 
703.8      0.05502215 1          0.546985  
703.9      0.05167917 1          0.5543514 
704        0.06120716 1          0.4999559 
704.1      0.05483251 1          0.4796299 
704.2      0.04221737 1          0.4525212 
704.3      0.02275406 1          0.3906967 
704.4      0          1          0.392961  
704.5      0          1          0.3897285 
704.6      0          1          0.394258  
704.7      0.0006849939 1          0.4037312 
704.8      0.02167771 1          0.4203563 
704.9      0.02581638 1          0.4302845 
705        0.03831952 1          0.391774  
705.1      0.04798105 1          0.3989248 
705.2      0.04628849 1          0.4086797 
705.3      0.0394574  1          0.3999053 
705.4      0.03550706 1          0.4173362 
705.5      0.04531491 1          0.4319898 
705.6      0.04163814 1          0.4704909 
705.7      0.05627044 1          0.4587407 
705.8      0.06894388 1          0.487651  
705.9      0.07417937 1          0.5158504 
706        0.0678883  1          0.5412402 
706.1      0.052653   1          0.5870401 
706.2      0.05285336 1          0.6223587 
706.3      0.06057794 1          0.6340952 
706.4      0.0635227  1          0.6440831 
706.5      0.06347886 1          0.6022323 
706.6      0.05864725 1          0.5746596 
706.7      0.06435684 1          0.5612471 
706.8      0.05657387 1          0.5917093 
706.9      0.05289054 1          0.6022323 
707        0.04292353 1          0.6161202 
707.1      0.04451726 1          0.6007017 
