~Version
 VERS              .         3.0                           : CWLS LOG ASCII STANDARD - VERSION 3.0
 WRAP              .         NO                            : ONE LINE PER DEPTH STEP
 DLM               .         SPACE                         : DELIMITING CHARACTER(SPACE TAB OR COMMA)
~Well Information
#_______________________________________________________________________________
#
#PARAMETER_NAME    .UNIT     VALUE                         : DESCRIPTION
#_______________________________________________________________________________
STRT               .M        0                             : First reference value
STOP               .M        911                           : Last reference value
STEP               .M        0.1                           : Step increment
NULL               .         -9999                         : Missing value
COMP               .         ICPetroleum                   : Company
WELL               .         311                           : Well name
FLD                .         Karatobe                      : Field
LOC                .                                       : Location
SRVC               .         ?                             : Service Company
CTRY               .         KZ                            : Country
DATE               .         10.05.05                      : Service Date
LATI               .         0                             : Latitude
LONG               .         0                             : Longitude
GDAT               .         WGS 84                        : Geodetic Datum
COORDIN            .                                       : Grid System
COUNTRY            .         Kazakhstan                    : 
COUNTRY            .         Kazakhstan                    : 
EREF               .m        143.5                         : 
KB                 .         142.8                         : KB Elevation
ORIGINALWELLNAME   .         311                           : 
PROV               .                                       : Province
RWS                .         -999                          : Def_Rw
UWI                .         1_311                         : Unique Well Identifier (UWI)
WST                .         -999                          : Def_Rwt
X                  .km       465871.99                     : 
XCOORD             .                                       : X or East-West Coordinate
Y                  .km       5307606.2                     : 
YCOORD             .                                       : Y or North-South Coordinate
~Parameter Information Block
#_______________________________________________________________________________
#
#PARAMETER_NAME    .UNIT     VALUE                         : DESCRIPTION
#_______________________________________________________________________________
SET                .         Las                           : 
BLI                .M        911.00                        : Bottom Logged Interval
BS                 .MM       215.90                        : Bit Size
DFD                .G/C3     1.14                          : Drilling Fluid Density
TDD                .M        908.00                        : Total Depth Driller
TLFamily_DEPT      .         Measured Depth                : 
TLFamily_PHI_FINAL .         Porosity                      : 
TLFamily_SW_AR     .         Water Saturation              : 
TLFamily_VSH_FINAL .         Shale Volume                  : 
~Curve Information
#_______________________________________________________________________________
#
#LOGNAME           .UNIT     LOG_ID                        : DESCRIPTION
#_______________________________________________________________________________
DEPT               .M                                      : Depth Curve {F}
PHI_FINAL          .m3/m3                                  : Porosity {F}
SW_AR              .m3/m3                                  :  {F}
VSH_FINAL          .unitless                               : Vshale {F}
~Ascii
# ...
889.2      0          1          0         
889.3      0          1          0         
889.4      0          1          0         
889.5      0          1          0         
889.6      0          1          0         
889.7      0          1          0         
889.8      0          1          0         
889.9      0          1          0         
890        0          1          0         
890.1      0          1          0         
890.2      0          1          0         
890.3      0          1          0         
890.4      0          1          0         
890.5      0          1          0         
890.6      0          1          0         
890.7      0          1          0         
890.8      0          1          0         
890.9      0          1          0         
891        0          1          0         
891.1      0          1          0         
891.2      0          1          0         
891.3      0          1          0         
891.4      0          1          0         
891.5      0          1          0         
891.6      0          1          0         
891.7      0          1          0         
891.8      0          1          0         
891.9      0          1          0         
892        0          1          0         
892.1      0          1          0         
892.2      0          1          0         
892.3      0          1          0         
892.4      0          1          0         
892.5      0          1          0         
892.6      0          1          0         
892.7      0          1          0         
892.8      0          1          0         
892.9      0          1          0         
893        0          1          0         
893.1      0          1          0         
893.2      0          1          0         
893.3      0          1          0         
893.4      0          1          0         
893.5      0          1          0         
893.6      0          1          0         
893.7      0          1          0         
893.8      0          1          0         
893.9      0          1          0         
894        0          1          0         
894.1      0          1          0         
894.2      0          1          0         
894.3      0          1          0.001902666
894.4      0          1          0.008511655
894.5      0          1          0.01365727
894.6      0          1          0         
894.7      0          1          0         
894.8      0          1          0         
894.9      0.003547107 1          0         
895        0.03884133 1          0         
895.1      0.1026846  1          0         
895.2      0.08720775 1          0         
895.3      0.1143925  1          0         
895.4      0.1236937  1          0         
895.5      0.1168884  1          0         
895.6      0.1074647  1          0         
895.7      0.09135745 1          0         
895.8      0.08236882 1          0         
895.9      0.07160629 1          0         
896        0.0647866  1          0         
896.1      0.05952628 1          0         
896.2      0.05427518 1          0         
896.3      0.05288218 1          0         
896.4      0.04990701 1          0         
896.5      0.04720751 1          0         
896.6      0.0462703  1          0         
896.7      0.04498688 1          0         
896.8      0.04603483 1          0         
896.9      0.04804941 1          0         
897        0.04919621 1          0         
897.1      0.05261445 0.9757521  0         
897.2      0.05386335 0.9612836  0         
897.3      0.05660798 0.9324059  0         
897.4      0.06130584 0.8693316  0         
897.5      0.06181245 0.878408   0         
897.6      0.06288052 0.8687859  0         
897.7      0.06586259 0.8368104  0         
897.8      0.06675935 0.8269142  0         
897.9      0.06555121 0.8417645  0         
898        0.06498258 0.8594232  0         
898.1      0.06600016 0.8556964  0         
898.2      0.07226087 0.786626   0         
898.3      0.07901569 0.7230728  0         
898.4      0.08045173 0.7132394  0         
898.5      0.08232024 0.7053965  0         
898.6      0.08257285 0.7065045  0         
898.7      0.08693433 0.6775691  0         
898.8      0.09145981 0.6427191  0         
898.9      0.09558655 0.6144811  0         
899        0.09824753 0.6050345  0         
899.1      0.09863568 0.6031466  0         
899.2      0.09996238 0.5906106  0         
899.3      0.09794303 0.6028228  0         
899.4      0.10021    0.591911   0         
899.5      0.1036697  0.5684202  0         
899.6      0.1036623  0.5618753  0         
899.7      0.1017069  0.5684339  0         
899.8      0.1029632  0.5657687  0         
899.9      0.100559   0.5849698  0         
900        0.09961575 0.5916609  0         
900.1      0.09878616 0.6063479  0         
900.2      0.09845402 0.6116204  0         
900.3      0.09830035 0.6098562  0         
900.4      0.09658146 0.6204102  0         
900.5      0.09683417 0.6142793  0         
900.6      0.09435368 0.6228753  0         
900.7      0.09489029 0.615419   0         
900.8      0.09461319 0.6253793  0         
900.9      0.09414766 0.6373095  0         
901        0.0921525  0.6554034  0         
901.1      0.09113844 0.6647146  0         
901.2      0.09202    0.6600305  0         
901.3      0.09256201 0.6627394  0         
901.4      0.09199947 0.6720243  0         
901.5      0.09138786 0.6880785  0         
901.6      0.09157178 0.6952022  0         
901.7      0.09122692 0.7075415  0         
901.8      0.09152851 0.7064023  0         
901.9      0.08935789 0.7222432  0         
902        0.08923999 0.72629    0         
902.1      0.09067983 0.7173502  0         
902.2      0.09042222 0.7229778  0         
902.3      0.08924748 0.7326723  0         
902.4      0.09025788 0.7243057  0         
902.5      0.09267043 0.7131212  0         
902.6      0.09361501 0.7084061  0         
902.7      0.09168821 0.718628   0         
902.8      0.09198735 0.6991941  0         
902.9      0.08817028 0.7199461  0         
903        0.0888705  0.7137873  0         
903.1      0.08650488 0.7396013  0         
903.2      0.08208454 0.7863913  0         
903.3      0.07555148 0.8589822  0         
903.4      0.06842818 0.9490353  0         
903.5      0.06083495 1          0         
903.6      0.05227676 1          0         
903.7      0.04645171 1          0         
903.8      0.03996728 1          0         
903.9      0.02566112 1          0         
904        0.02465701 1          0         
904.1      0.01317482 1          0         
904.2      0.003756809 1          0         
904.3      0.003606068 1          0         
904.4      0.002944813 1          0         
904.5      0.001494372 1          0         
904.6      0          1          0         
904.7      0          1          0         
904.8      0          1          0         
904.9      0          1          0         
905        0          1          0         
905.1      0          1          0         
905.2      0          1          0         
905.3      0          1          0         
905.4      0          1          0         
905.5      0          1          0         
905.6      0          1          0         
905.7      0          1          0         
905.8      0          1          0         
905.9      0          1          0         
906        0          1          0         
906.1      0          1          0         
906.2      0          1          0         
906.3      0          1          0         
906.4      0          1          0         
906.5      0          1          0         
906.6      0          1          0         
906.7      0          1          0         
906.8      0          1          0         
906.9      0          1          0         
907        0          1          0         
907.1      0          1          0         
907.2      0          1          0         
907.3      0          1          0         
