~Version
 VERS              .         3.0                           : CWLS LOG ASCII STANDARD - VERSION 3.0
 WRAP              .         NO                            : ONE LINE PER DEPTH STEP
 DLM               .         SPACE                         : DELIMITING CHARACTER(SPACE TAB OR COMMA)
~Well Information
#_______________________________________________________________________________
#
#PARAMETER_NAME    .UNIT     VALUE                         : DESCRIPTION
#_______________________________________________________________________________
STRT               .M        0                             : First reference value
STOP               .M        911                           : Last reference value
STEP               .M        0.1                           : Step increment
NULL               .         -9999                         : Missing value
COMP               .         ICPetroleum                   : Company
WELL               .         311                           : Well name
FLD                .         Karatobe                      : Field
LOC                .                                       : Location
SRVC               .         ?                             : Service Company
CTRY               .         KZ                            : Country
DATE               .         10.05.05                      : Service Date
LATI               .         0                             : Latitude
LONG               .         0                             : Longitude
GDAT               .         WGS 84                        : Geodetic Datum
COORDIN            .                                       : Grid System
COUNTRY            .         Kazakhstan                    : 
COUNTRY            .         Kazakhstan                    : 
EREF               .m        143.5                         : 
KB                 .         142.8                         : KB Elevation
ORIGINALWELLNAME   .         311                           : 
PROV               .                                       : Province
RWS                .         -999                          : Def_Rw
UWI                .         1_311                         : Unique Well Identifier (UWI)
WST                .         -999                          : Def_Rwt
X                  .km       465871.99                     : 
XCOORD             .                                       : X or East-West Coordinate
Y                  .km       5307606.2                     : 
YCOORD             .                                       : Y or North-South Coordinate
~Parameter Information Block
#_______________________________________________________________________________
#
#PARAMETER_NAME    .UNIT     VALUE                         : DESCRIPTION
#_______________________________________________________________________________
SET                .         Las                           : 
BLI                .M        911.00                        : Bottom Logged Interval
BS                 .MM       215.90                        : Bit Size
DFD                .G/C3     1.14                          : Drilling Fluid Density
TDD                .M        908.00                        : Total Depth Driller
TLFamily_DEPT      .         Measured Depth                : 
TLFamily_PHI_FINAL .         Porosity                      : 
TLFamily_SW_AR     .         Water Saturation              : 
TLFamily_VSH_FINAL .         Shale Volume                  : 
~Curve Information
#_______________________________________________________________________________
#
#LOGNAME           .UNIT     LOG_ID                        : DESCRIPTION
#_______________________________________________________________________________
DEPT               .M                                      : Depth Curve {F}
PHI_FINAL          .m3/m3                                  : Porosity {F}
SW_AR              .m3/m3                                  :  {F}
VSH_FINAL          .unitless                               : Vshale {F}
~Ascii
# ...
434.3      0.2009141  0.7426876  0.5525219 
434.4      0.1863502  0.7929603  0.5848407 
434.5      0.1891771  0.7987795  0.5680168 
434.6      0.1907862  0.8194328  0.5681359 
434.7      0.2167126  0.7562985  0.5060077 
434.8      0.2316656  0.7187616  0.47551   
434.9      0.2311937  0.7306966  0.4809794 
435        0.2162409  0.7939373  0.5254735 
435.1      0.2314371  0.7621086  0.4985512 
435.2      0.224228   0.8072097  0.5116369 
435.3      0.2064108  0.8879933  0.5602291 
435.4      0.1948778  0.9590849  0.5926928 
435.5      0.2139317  0.8744854  0.5326977 
435.6      0.2377341  0.7647375  0.4864091 
435.7      0.2458717  0.6812725  0.4748305 
435.8      0.2770275  0.5829733  0.4152139 
435.9      0.2870952  0.5638067  0.4117195 
436        0.2754707  0.6196644  0.4517805 
436.1      0.2810288  0.644201   0.4571923 
436.2      0.2802682  0.7002161  0.4814676 
436.3      0.2835259  0.7383869  0.5117015 
436.4      0.2585633  0.8695837  0.5696387 
436.5      0.2433241  0.9515192  0.6458072 
436.6      0.2329252  1          0.6807908 
436.7      0.2281305  1          0.7148196 
436.8      0.1860946  1          0.7876223 
436.9      0.1593785  1          0.8257987 
437        0.06112528 1          1         
437.1      0.04684477 1          1         
437.2      0.03838252 1          1         
437.3      0.04146209 1          1         
437.4      0.04775791 1          1         
437.5      0.08409365 1          0.9222713 
437.6      0.1776338  1          0.7045559 
437.7      0.2552165  1          0.523358  
437.8      0.2760973  1          0.4686998 
437.9      0.2750514  1          0.4938397 
438        0.2695719  1          0.5077636 
438.1      0.2553332  1          0.5272127 
438.2      0.2683492  1          0.5138419 
438.3      0.2874748  1          0.4726942 
438.4      0.3111251  0.9729636  0.4395131 
438.5      0.3014036  0.9983763  0.4771257 
438.6      0.2971993  0.9839768  0.4929073 
438.7      0.3084825  0.9437547  0.4729428 
438.8      0.3559259  0.8230817  0.3688236 
438.9      0.376872   0.7420108  0.3144598 
439        0.4280957  0.6319464  0.1677838 
439.1      0.4256558  0.6206905  0.1510553 
439.2      0.4078456  0.6396539  0.1556944 
439.3      0.3807809  0.6756918  0.1812476 
439.4      0.3615578  0.7042013  0.2219863 
439.5      0.3393742  0.7629148  0.2890782 
439.6      0.3278406  0.8230911  0.3317376 
439.7      0.3035934  0.9229785  0.4005423 
439.8      0.2733995  1          0.4652402 
439.9      0.2485561  1          0.5120369 
440        0.1995631  1          0.593848  
440.1      0.1596748  1          0.6788518 
440.2      0.1545824  1          0.7140152 
440.3      0.1402398  1          0.7582147 
440.4      0.1252302  1          0.8213204 
440.5      0.05992365 1          1         
440.6      0.0539236  1          1         
440.7      0.04546773 1          1         
440.8      0.03999034 1          1         
440.9      0.02733078 1          1         
441        0.01697774 1          1         
441.1      0.06087554 1          0.8552701 
441.2      0.08233138 1          0.7790173 
441.3      0.07021977 1          0.8131645 
441.4      0.06383093 1          0.8305129 
441.5      0.03987692 1          0.8906474 
441.6      0.02148126 1          0.9385322 
441.7      0.02898316 1          0.8976735 
441.8      0.02880828 1          0.8724425 
441.9      0.01232058 1          0.9167982 
442        0.0102681  1          0.9202319 
442.1      0.02144839 1          0.8738271 
442.2      0.03502541 1          0.8364773 
442.3      0.02442832 1          0.8854789 
442.4      0.02861843 1          0.9035618 
442.5      0.03515705 1          0.923957  
442.6      0.05510597 1          0.8903802 
442.7      0.108953   1          0.80464   
442.8      0.1536084  1          0.7641636 
442.9      0.1636363  1          0.7982619 
443        0.2063438  1          0.7619468 
443.1      0.2196996  1          0.7620853 
443.2      0.2356157  1          0.7374122 
443.3      0.2443006  1          0.71034   
443.4      0.1728514  1          0.8880737 
443.5      0.1288345  1          1         
443.6      0.1271079  1          1         
443.7      0.1615864  1          0.9029366 
443.8      0.2049807  1          0.8114582 
443.9      0.2357108  1          0.7332726 
444        0.2438279  1          0.6734763 
444.1      0.2573919  1          0.6256788 
444.2      0.2145568  1          0.6857135 
444.3      0.1938106  1          0.6871032 
444.4      0.1324691  1          0.7977891 
444.5      0.08422837 1          0.8887626 
444.6      0.0867131  1          0.8505862 
444.7      0.1078831  1          0.7760174 
444.8      0.09468142 1          0.7860475 
444.9      0.1150569  1          0.7359657 
445        0.1198373  1          0.7118268 
445.1      0.1099601  1          0.7448536 
445.2      0.1066783  1          0.756164  
445.3      0.1004692  1          0.761807  
445.4      0.07509723 1          0.8359993 
445.5      0.1147548  1          0.7314378 
445.6      0.1222939  1          0.7136677 
445.7      0.07895796 1          0.8280579 
445.8      0.06395958 1          0.867438  
445.9      0.02115662 1          0.9925668 
446        0.01870277 1          0.9958923 
446.1      0.02256525 1          0.9737195 
446.2      0.02538918 1          0.9598127 
446.3      0.0186622  1          1         
446.4      0.07035569 1          0.8556652 
446.5      0.08086594 1          0.8551986 
446.6      0.06394555 1          0.8931723 
446.7      0.1141389  1          0.7642934 
446.8      0.08749782 1          0.8323279 
446.9      0.088444   1          0.8675057 
447        0.104146   1          0.8368118 
447.1      0.13128    1          0.7984369 
447.2      0.1436442  1          0.7882771 
447.3      0.1235288  1          0.8511698 
447.4      0.1916843  1          0.6934423 
447.5      0.1459948  1          0.8094275 
447.6      0.1668763  1          0.7512563 
447.7      0.1570362  1          0.7552146 
447.8      0.1848492  1          0.6889124 
447.9      0.1937892  1          0.6531228 
448        0.1422311  1          0.7691423 
448.1      0.137196   1          0.7793509 
448.2      0.09693743 1          0.9038993 
448.3      0.05755381 1          1         
448.4      0.05701927 1          1         
448.5      0.05979494 1          1         
448.6      0.05542457 1          1         
448.7      0.04856041 1          1         
448.8      0.04526952 1          1         
448.9      0.03749359 1          1         
449        0.03284925 1          1         
449.1      0.02698205 1          1         
449.2      0.05196791 1          0.9121912 
449.3      0.03272368 1          0.9776714 
449.4      0.04290962 1          0.9634018 
449.5      0.05966726 1          0.946974  
449.6      0.1120839  1          0.8144585 
449.7      0.1754502  1          0.652291  
449.8      0.1719543  1          0.6348948 
449.9      0.1600475  1          0.6319847 
450        0.1190274  1          0.7198042 
450.1      0.07724034 1          0.8260635 
450.2      0.05190284 1          0.8953599 
450.3      0.06250771 1          0.8703367 
450.4      0.06908538 1          0.8423325 
450.5      0.06948129 1          0.8198478 
450.6      0.04339681 1          0.8836001 
450.7      0.03129524 1          0.9314883 
450.8      0.04744094 1          0.8773068 
450.9      0.06184066 1          0.8355478 
451        0.07927642 1          0.7608418 
451.1      0.0738843  1          0.7631804 
451.2      0.09489802 1          0.6813238 
451.3      0.1003618  1          0.6531234 
451.4      0.09395836 1          0.6508576 
451.5      0.0896991  1          0.6940078 
451.6      0.0848105  1          0.7303697 
451.7      0.1055819  1          0.7083081 
451.8      0.1053057  1          0.7669051 
451.9      0.127154   1          0.792876  
452        0.1462262  1          0.7993098 
452.1      0.1561772  1          0.8072369 
452.2      0.1985366  1          0.7442602 
452.3      0.2242122  1          0.7173915 
452.4      0.2982636  0.8865145  0.5438104 
