~Version information
  VERS.                           2.00 : CWLS log ASCII Standard -Version 2.00
  WRAP.                             NO : One line per depth step
~Well information
#MNEM.UNIT              Data Type        Information
#----------------------------------------------------------------------
  STRT.M                         0.000 :
  STOP.M                       911.000 : 
  STEP.M                         0.100 :
  NULL.                      -999.2500 : 
  WELL.                            311 : Well Name
  FLD .                       KARATUBE : Field Name
  DATE.                       10.05.05 : Log date
~Curve information
#MNEM.UNIT                               Curve Description
#----------------------------------------------------------------------
  DEPT.M                               : Depth Curve
  GZ3 .OHMM                            : App.resistivity by lateral A2.0M0.5N
  SP  .MV                              : Spontaneous potential
  LL3 .OHMM                            : Appar.resist.laterolog,3 electrodes
  CALI.MM                              : Caliper
  GR  .UR/H                            : Gamma-ray log
  RHOB.G/C3                            : Bulk density by gamma-gamma log
  CILR.MMHO                            : Conduct. by sonde 7I1.6,react.signal
  MLL .OHMM                            : Microlaterolog sonde
  DT  .US/M                            : Interval travel time
  T1  .US                              : Travel time1
  C1  .MM                              : Diameter from profile1
  C2  .MM                              : Diameter from profile2
  BSC .MM                              : 
  T2  .US                              : Travel time2
  NGLD.UE                              : Neutron-gamma log/device DRST-90
  GZ3B.OHMM                            : App.resistivity by lateral N0.5M2.0A
  CILA.MMHO                            : Conduct. by sonde 7I1.6,active signal
~Parameter information
#MNEM.UNIT              Value            Description
#----------------------------------------------------------------------
#----------------------------------------------------------------------
  BS  .MM                       215.90 : Bit Size
  DFD .G/C3                       1.14 : Drilling Fluid Density
  TDD .M                        908.00 : Total Depth Driller
  BLI .M                        911.00 : Bottom Logged Interval
~Ascii Log Data
# ...
  499.900 6.0910 412.2820 4.9280 238.3290 9.2460 2.1850 72.5920 10.8900 375.4470 1493.7900 255.8080 220.8510 215.9000 1651.8300 1.1370 5.8730 135.2810
  500.000 6.1930 411.5060 4.9260 240.1210 9.1970 2.2030 73.5900 10.7570 374.7180 1495.0699 254.7800 225.4610 215.9000 1655.8600 1.1200 5.9240 134.8790
  500.100 6.2800 410.9820 4.9280 234.9350 9.4010 2.2190 74.1690 10.7970 374.8840 1494.9900 250.0870 219.7820 215.9000 1659.1100 1.0920 5.9690 134.8830
  500.200 6.3510 409.7350 4.9600 232.0120 9.5030 2.2070 73.7760 10.8720 376.1730 1493.8500 248.8630 215.1600 215.9000 1660.6000 1.1130 6.0270 136.7170
  500.300 6.4100 407.9220 4.9860 231.0900 9.1940 2.1850 75.0300 10.8320 378.0490 1492.1600 246.7640 215.4160 215.9000 1660.2100 1.1330 6.0630 135.8830
  500.400 6.4340 406.3150 5.0120 230.1370 9.0130 2.2170 76.6640 10.7330 379.3610 1490.4100 245.7780 214.4970 215.9000 1658.7000 1.1190 6.0680 136.5040
  500.500 6.4510 404.1760 4.9940 229.0580 9.5210 2.2390 75.6110 10.6450 379.2750 1488.8600 245.0720 213.0440 215.9000 1657.1000 1.1170 6.0350 137.6770
  500.600 6.4420 403.0320 4.9640 230.6610 9.4670 2.2350 76.2820 10.7620 377.5850 1487.5900 245.0290 216.2930 215.9000 1655.9900 1.1170 5.9200 137.6580
  500.700 6.4210 401.9220 4.9140 228.6390 9.4230 2.2260 77.9940 10.8550 374.9800 1486.5500 242.7780 214.4990 215.9000 1655.3800 1.1400 5.8420 137.5440
  500.800 6.3890 400.9410 4.8820 226.4690 9.4210 2.2240 76.4480 10.8820 372.5770 1485.6899 240.1000 212.8390 215.9000 1654.7700 1.1660 5.7760 139.8510
  500.900 6.3620 400.5650 4.8420 226.7520 9.3040 2.2430 76.8100 10.8420 371.6080 1484.9900 239.6720 213.8320 215.9000 1653.6899 1.1520 5.7460 139.1500
  501.000 6.3010 399.9470 4.7620 226.1780 8.9190 2.2390 77.9650 10.8260 372.8240 1484.5100 238.6610 213.6950 215.9000 1651.9800 1.1670 5.7210 138.4990
  501.100 6.2450 399.6210 4.6800 225.5240 8.8420 2.2420 76.9430 10.5950 376.2000 1484.1801 236.7160 214.3320 215.9000 1649.9800 1.1450 5.7090 139.6520
  501.200 6.1710 399.4050 4.6800 224.6740 8.3800 2.2640 76.2990 10.8440 380.4060 1483.8400 234.9350 214.4130 215.9000 1648.3000 1.1420 5.7000 138.5990
  501.300 6.1130 399.4800 4.7620 223.6960 8.4440 2.2800 78.2460 10.8410 383.7600 1483.3600 232.9450 214.4470 215.9000 1647.4800 1.1350 5.6910 136.8460
  501.400 6.0550 400.3690 4.8540 223.7880 8.5700 2.3010 77.9760 10.7400 384.8480 1482.7500 233.0470 214.5280 215.9000 1647.7500 1.1490 5.6780 138.7040
  501.500 5.9880 402.1310 4.9420 224.7260 8.9960 2.2810 77.0490 10.8430 384.1440 1482.1500 235.0440 214.4090 215.9000 1648.9600 1.1680 5.6490 138.1760
  501.600 5.9730 403.0480 5.0220 225.4350 9.0700 2.2830 79.2570 10.7640 382.8490 1481.7400 236.8850 213.9840 215.9000 1650.4500 1.1830 5.6230 138.9360
  501.700 5.9610 404.2660 5.0780 224.3410 9.4250 2.2660 79.1450 10.6800 382.5570 1481.4900 235.8700 212.8130 215.9000 1651.5300 1.1730 5.5630 139.7910
  501.800 5.9400 405.6270 5.0620 224.0560 9.5080 2.2800 78.1010 10.6250 383.1280 1481.2000 235.1420 212.9710 215.9000 1651.6600 1.2300 5.5200 140.5550
  501.900 5.9250 406.4060 4.9920 224.0930 9.4040 2.2580 79.8200 10.6630 383.7900 1480.5200 235.2010 212.9840 215.9000 1651.0601 1.2340 5.4920 139.2120
  502.000 5.8750 407.2800 4.9560 221.6730 8.9610 2.2560 80.5380 10.7720 383.0660 1479.2200 230.0090 213.3370 215.9000 1650.1200 1.2630 5.4290 139.2070
  502.100 5.8360 407.9540 4.9380 221.3660 9.3620 2.2730 79.2850 10.7530 380.9410 1477.3000 229.3810 213.3520 215.9000 1649.3000 1.2680 5.4100 139.0540
  502.200 5.7920 408.5990 4.9180 220.6000 9.0790 2.2760 78.9560 10.7710 377.8420 1474.9301 227.6570 213.5430 215.9000 1648.2900 1.2820 5.4070 135.4630
  502.300 5.7470 408.7000 4.9000 219.4360 9.2010 2.2790 80.8130 10.7180 375.0050 1472.3700 225.2700 213.6020 215.9000 1646.6899 1.2680 5.4340 133.0490
  502.400 5.7930 408.6100 4.9200 218.9750 9.2570 2.2550 79.2800 11.0120 372.7380 1469.6899 223.8730 214.0770 215.9000 1643.9700 1.2300 5.4880 133.2930
  502.500 5.9160 408.7010 5.0080 219.4450 8.8580 2.2320 78.4260 10.9440 371.2160 1466.7900 223.4790 215.4100 215.9000 1640.3400 1.2440 5.6310 132.6060
  502.600 6.0260 408.8070 5.2160 219.2600 9.0710 2.2520 81.8980 12.7320 370.1670 1463.5601 223.7440 214.7760 215.9000 1636.1100 1.3060 5.7010 131.2640
  502.700 6.1520 408.7950 5.4160 219.0250 8.6980 2.2890 81.6180 12.1660 369.6770 1460.0300 224.8760 213.1740 215.9000 1631.7900 1.2850 5.7160 134.4930
  502.800 6.2290 408.4160 5.3320 217.9420 8.5090 2.3200 81.4860 11.0350 369.7300 1456.3600 222.8710 213.0130 215.9000 1627.4301 1.2560 5.6840 137.3010
  502.900 6.2320 408.3300 5.0260 217.1760 8.5590 2.3030 84.7160 10.6760 370.2580 1452.7600 221.0460 213.3060 215.9000 1623.1300 1.2460 5.6410 139.0410
  503.000 6.1280 408.6900 4.9140 216.3830 8.8770 2.3000 85.3090 10.7100 371.1130 1449.3500 219.9660 212.7990 215.9000 1618.9399 1.2240 5.5110 141.8160
  503.100 6.0070 409.1200 4.8820 216.6030 9.0880 2.2750 85.1340 10.8110 372.3650 1446.2000 220.0530 213.1540 215.9000 1615.1000 1.2400 5.3900 143.1930
  503.200 5.9180 409.7710 4.8600 215.9840 9.4020 2.2840 85.3950 10.9330 374.2360 1443.3900 218.7220 213.2460 215.9000 1611.7200 1.2090 5.2060 142.7920
  503.300 5.8640 410.5700 4.8440 216.3620 9.4130 2.2950 87.7790 10.8890 376.8670 1441.0400 219.2740 213.4510 215.9000 1608.8300 1.2570 4.8960 143.2270
  503.400 5.8320 411.0440 4.8240 216.3170 9.3730 2.2840 87.6370 10.9430 379.9900 1439.3000 218.0250 214.6090 215.9000 1606.4399 1.2740 4.5630 144.6780
  503.500 5.8110 412.0570 4.7580 217.0260 9.5230 2.2630 87.1740 10.9280 383.0810 1438.2300 219.3480 214.7040 215.9000 1604.7200 1.2500 4.2270 143.9210
  503.600 5.8050 412.5960 4.6700 216.4430 9.7250 2.2080 92.6460 10.7030 385.5960 1437.8101 218.5070 214.3780 215.9000 1603.9100 1.2740 4.0450 147.4990
  503.700 5.7550 413.0170 4.5540 216.8170 9.6620 2.2130 93.3690 10.7050 387.2570 1437.9700 219.4160 214.2180 215.9000 1604.1700 1.2590 3.8820 149.5610
  503.800 5.7240 412.9110 4.5440 216.0100 9.8800 2.2120 98.0850 10.8960 388.0400 1438.6300 218.2220 213.7980 215.9000 1605.3101 1.2630 3.7570 148.9390
  503.900 5.7020 412.8220 4.5680 216.0050 10.0230 2.2140 99.0710 10.8850 388.0870 1439.7700 218.5960 213.4140 215.9000 1607.0100 1.2570 3.6820 149.8560
  504.000 5.6420 412.7180 4.5520 215.7270 9.8850 2.2260 102.1070 10.8230 387.5960 1441.3300 218.1720 213.2830 215.9000 1608.9301 1.2680 3.5930 151.8420
  504.100 5.6220 412.2920 4.5040 215.4780 10.5230 2.2390 106.1960 10.8020 386.6280 1443.2100 217.4390 213.5170 215.9000 1610.9000 1.2730 3.5530 152.0940
  504.200 5.5940 410.6550 4.5380 215.2350 10.8330 2.2510 106.3450 11.0740 384.4280 1445.2900 216.9070 213.5630 215.9000 1612.8500 1.2910 3.4920 152.0390
  504.300 5.5660 409.2240 4.5900 215.7880 10.5830 2.2550 109.1180 11.0580 379.1340 1447.4399 217.5330 214.0440 215.9000 1614.7600 1.2560 3.4350 153.9980
  504.400 5.5320 408.4000 4.5480 215.7770 10.4370 2.2580 111.0740 10.9690 367.8430 1449.6300 217.4960 214.0580 215.9000 1616.5800 1.2730 3.3920 154.8110
  504.500 5.5020 407.0930 4.4720 215.8990 9.7450 2.2630 114.4480 10.8610 348.7310 1451.7800 218.0640 213.7340 215.9000 1618.2600 1.2490 3.3640 153.9910
  504.600 5.4730 406.1650 4.4020 215.4690 10.2350 2.2660 118.5810 10.9340 322.5420 1453.8400 217.7760 213.1620 215.9000 1619.3400 1.2620 3.3670 153.8010
  504.700 5.4370 405.2570 4.4340 216.0430 10.2610 2.2740 119.2290 11.0110 294.1330 1455.6200 219.0480 213.0370 215.9000 1618.8500 1.2630 3.3920 150.5380
  504.800 5.4410 404.1120 4.4920 216.2790 10.8620 2.2560 121.4730 11.0620 270.3530 1456.8300 219.5360 213.0220 215.9000 1615.2600 1.3150 3.4470 146.4300
  504.900 5.5030 403.5900 4.6560 216.0850 10.7570 2.2600 120.7040 11.0350 257.6050 1457.0800 219.7690 212.4020 215.9000 1607.4800 1.3080 3.5150 144.4630
  505.000 5.6230 403.4470 4.9700 215.9220 11.4630 2.2870 118.2050 11.4660 258.3270 1455.9800 218.9460 212.8980 215.9000 1595.6000 1.3600 3.6040 145.4720
  505.100 6.0210 403.6170 5.6960 220.2050 12.0550 2.3290 120.4580 17.4460 271.2390 1453.1600 222.0070 218.4030 215.9000 1581.6500 1.4170 3.6690 147.0220
