~Version information
  VERS.                           2.00 : CWLS log ASCII Standard -Version 2.00
  WRAP.                             NO : One line per depth step
~Well information
#MNEM.UNIT              Data Type        Information
#----------------------------------------------------------------------
  STRT.M                         0.000 :
  STOP.M                       911.000 : 
  STEP.M                         0.100 :
  NULL.                      -999.2500 : 
  WELL.                            311 : Well Name
  FLD .                       KARATUBE : Field Name
  DATE.                       10.05.05 : Log date
~Curve information
#MNEM.UNIT                               Curve Description
#----------------------------------------------------------------------
  DEPT.M                               : Depth Curve
  GZ3 .OHMM                            : App.resistivity by lateral A2.0M0.5N
  SP  .MV                              : Spontaneous potential
  LL3 .OHMM                            : Appar.resist.laterolog,3 electrodes
  CALI.MM                              : Caliper
  GR  .UR/H                            : Gamma-ray log
  RHOB.G/C3                            : Bulk density by gamma-gamma log
  CILR.MMHO                            : Conduct. by sonde 7I1.6,react.signal
  MLL .OHMM                            : Microlaterolog sonde
  DT  .US/M                            : Interval travel time
  T1  .US                              : Travel time1
  C1  .MM                              : Diameter from profile1
  C2  .MM                              : Diameter from profile2
  BSC .MM                              : 
  T2  .US                              : Travel time2
  NGLD.UE                              : Neutron-gamma log/device DRST-90
  GZ3B.OHMM                            : App.resistivity by lateral N0.5M2.0A
  CILA.MMHO                            : Conduct. by sonde 7I1.6,active signal
~Parameter information
#MNEM.UNIT              Value            Description
#----------------------------------------------------------------------
#----------------------------------------------------------------------
  BS  .MM                       215.90 : Bit Size
  DFD .G/C3                       1.14 : Drilling Fluid Density
  TDD .M                        908.00 : Total Depth Driller
  BLI .M                        911.00 : Bottom Logged Interval
~Ascii Log Data
# ...
  145.400 -0.0170 -999.2500 0.2320 227.2760 4.0920 -999.2500 -999.2500 -999.2500 -999.2500 -999.2500 226.0660 228.4850 227.0000 -999.2500 0.9280 0.1730 -999.2500
  145.500 -0.0210 -999.2500 0.2320 227.3400 3.8450 -999.2500 -999.2500 -999.2500 -999.2500 -999.2500 226.2080 228.4730 227.0000 -999.2500 0.9720 0.1760 -999.2500
  145.600 -0.0120 -999.2500 0.2340 227.5260 3.8910 -999.2500 -999.2500 -999.2500 -999.2500 -999.2500 226.5050 228.5470 227.0000 -999.2500 0.9570 0.1740 -999.2500
  145.700 -0.0140 -999.2500 0.2340 227.6390 3.9660 -999.2500 -999.2500 -999.2500 -999.2500 -999.2500 226.7030 228.5750 227.0000 -999.2500 0.9690 0.1730 -999.2500
  145.800 -0.0170 -999.2500 0.2340 227.3980 4.0050 -999.2500 -999.2500 -999.2500 -999.2500 -999.2500 226.2290 228.5670 227.0000 -999.2500 0.9820 0.1730 -999.2500
  145.900 -0.0170 -999.2500 0.2340 227.3980 4.0050 -999.2500 -999.2500 -999.2500 -999.2500 -999.2500 226.2290 228.5670 227.0000 -999.2500 0.9820 0.1730 -999.2500
  146.000 -0.0160 -999.2500 0.2300 227.7640 4.1780 -999.2500 -999.2500 -999.2500 -999.2500 -999.2500 226.9950 228.5340 227.0000 -999.2500 0.9790 0.1720 -999.2500
  146.100 -0.0170 -999.2500 0.2300 227.9090 4.2820 -999.2500 -999.2500 -999.2500 -999.2500 -999.2500 227.2940 228.5240 227.0000 -999.2500 0.9840 0.1710 -999.2500
  146.200 -0.0160 -999.2500 0.2320 227.7590 4.2730 -999.2500 -999.2500 -999.2500 -999.2500 -999.2500 227.2810 228.2370 227.0000 -999.2500 0.9610 0.1750 -999.2500
  146.300 -0.0110 -999.2500 0.2320 227.6070 4.3330 -999.2500 -999.2500 -999.2500 -999.2500 -999.2500 227.1790 228.0350 227.0000 -999.2500 0.9650 0.1740 -999.2500
  146.400 -0.0110 -999.2500 0.2320 227.6070 4.3330 -999.2500 -999.2500 -999.2500 -999.2500 -999.2500 227.1790 228.0350 227.0000 -999.2500 0.9650 0.1740 -999.2500
  146.500 -0.0180 -999.2500 0.2300 227.1840 4.2050 -999.2500 -999.2500 -999.2500 -999.2500 -999.2500 226.1990 228.1680 227.0000 -999.2500 0.9950 0.1760 -999.2500
  146.600 -0.0200 -999.2500 0.2280 227.7640 4.1930 -999.2500 -999.2500 -999.2500 -999.2500 -999.2500 226.9880 228.5400 227.0000 -999.2500 0.9830 0.1730 -999.2500
  146.700 -0.0200 -999.2500 0.2240 227.8220 4.1580 -999.2500 -999.2500 -999.2500 -999.2500 -999.2500 227.0620 228.5810 227.0000 -999.2500 0.9900 0.1720 -999.2500
  146.800 -0.0160 -999.2500 0.2260 227.8220 4.0950 -999.2500 -999.2500 -999.2500 -999.2500 -999.2500 227.0260 228.6180 227.0000 -999.2500 0.9900 0.1750 -999.2500
  146.900 -0.0160 -999.2500 0.2260 227.8220 4.0950 -999.2500 -999.2500 -999.2500 -999.2500 -999.2500 227.0260 228.6180 227.0000 -999.2500 0.9900 0.1750 -999.2500
  147.000 -0.0190 -999.2500 0.2260 227.8290 3.8320 -999.2500 -999.2500 -999.2500 -999.2500 -999.2500 226.9790 228.6780 227.0000 -999.2500 0.9350 0.1730 -999.2500
  147.100 -0.0240 -999.2500 0.2280 227.8660 3.9680 -999.2500 -999.2500 -999.2500 -999.2500 -999.2500 227.0360 228.6950 227.0000 -999.2500 0.9650 0.1760 -999.2500
  147.200 -0.0120 -999.2500 0.2240 227.8190 4.0270 -999.2500 -999.2500 -999.2500 -999.2500 -999.2500 226.9430 228.6950 227.0000 -999.2500 0.9640 0.1720 -999.2500
  147.300 -0.0110 -999.2500 0.2220 227.7850 3.8950 -999.2500 -999.2500 -999.2500 -999.2500 -999.2500 226.8750 228.6950 227.0000 -999.2500 0.9560 0.1720 -999.2500
  147.400 -0.0110 -999.2500 0.2220 227.7850 3.8950 -999.2500 -999.2500 -999.2500 -999.2500 -999.2500 226.8750 228.6950 227.0000 -999.2500 0.9560 0.1720 -999.2500
  147.500 -0.0170 -999.2500 0.2220 227.9130 4.0170 -999.2500 -999.2500 -999.2500 -999.2500 -999.2500 227.1040 228.7220 227.0000 -999.2500 0.9550 0.1750 -999.2500
  147.600 -0.0150 -999.2500 0.2220 227.8790 4.1080 -999.2500 -999.2500 -999.2500 -999.2500 915.4210 227.0420 228.7160 227.0000 983.4780 0.9650 0.1750 -999.2500
  147.700 -0.0130 -999.2500 0.2200 227.7380 4.3130 -999.2500 -999.2500 -999.2500 -999.2500 916.5270 226.7730 228.7030 227.0000 983.8820 0.9830 0.1720 -999.2500
  147.800 0.0180 -999.2500 0.2180 227.8060 4.3920 -999.2500 -999.2500 -999.2500 -999.2500 918.2190 226.8740 228.7380 227.0000 984.0330 0.9920 0.1740 -999.2500
  147.900 0.0180 -999.2500 0.2180 227.8060 4.3920 -999.2500 -999.2500 -999.2500 -999.2500 920.1520 226.8740 228.7380 227.0000 984.1070 0.9920 0.1740 -999.2500
  148.000 -0.0180 -999.2500 0.2180 227.7480 4.3120 -999.2500 -999.2500 -999.2500 -999.2500 921.6480 227.0300 228.4660 227.0000 984.2150 1.0010 0.1710 -999.2500
  148.100 -0.0180 -999.2500 0.2180 227.6170 4.3270 -999.2500 -999.2500 -999.2500 -999.2500 922.1620 226.6900 228.5450 227.0000 984.5490 1.0160 0.1740 -999.2500
  148.200 -0.0180 337.1570 0.2180 227.6090 4.2440 -999.2500 72.0610 -999.2500 -999.2500 921.6210 226.6840 228.5350 227.0000 985.2450 1.0390 0.1720 -1.6580
  148.300 0.0010 337.3770 0.2180 227.6770 4.3070 -999.2500 83.1240 -999.2500 -999.2500 920.4290 226.7780 228.5770 227.0000 986.3340 1.0550 0.1730 -3.4300
  148.400 0.0010 337.3770 0.2180 227.6770 4.3070 -999.2500 83.1240 -999.2500 189.8660 919.1300 226.7780 228.5770 227.0000 987.6500 1.0550 0.1730 -3.4300
  148.500 0.0260 337.1690 0.2140 227.8190 4.3860 -999.2500 73.8670 -999.2500 190.4760 918.1110 227.0600 228.5780 227.0000 988.7110 0.9520 0.1740 -1.1720
  148.600 0.0160 336.9520 0.2140 227.7910 4.2800 -999.2500 72.5280 -999.2500 190.5410 917.4740 226.9940 228.5880 227.0000 989.4080 0.9620 0.1730 -1.6690
  148.700 -0.0020 336.5770 0.2140 227.8530 4.2270 -999.2500 70.9640 -999.2500 190.4300 917.1460 227.0970 228.6080 227.0000 989.7430 0.9560 0.1730 -0.8160
  148.800 -0.0050 336.4400 0.2140 227.8980 4.1270 -999.2500 68.5060 -999.2500 190.4070 917.0060 227.1420 228.6550 227.0000 989.9070 0.9550 0.1750 -1.4430
  148.900 -0.0050 336.4400 0.2140 227.8980 4.1270 -999.2500 68.5060 -999.2500 190.4520 916.9830 227.1420 228.6550 227.0000 989.8840 0.9550 0.1750 -1.4430
  149.000 -0.0110 336.2470 0.2140 227.8250 4.0400 -999.2500 74.6930 -999.2500 190.4440 917.0480 226.9800 228.6690 227.0000 989.7770 0.9850 0.1740 -2.0950
  149.100 -0.0170 336.4100 0.2120 227.8360 4.1400 -999.2500 74.6330 -999.2500 190.3980 917.1820 226.9770 228.6940 227.0000 989.6990 0.9840 0.1730 -1.0380
  149.200 -0.0170 336.7150 0.2120 227.8730 4.0990 -999.2500 75.3630 -999.2500 190.3890 917.3570 227.1090 228.6370 227.0000 989.7510 0.9740 0.1720 -1.6630
  149.300 -0.0180 337.1250 0.2120 228.1300 3.9610 -999.2500 68.5180 -999.2500 190.5750 917.5390 227.2360 229.0250 227.0000 989.9080 0.9700 0.1720 1.2340
  149.400 -0.0180 337.1250 0.2120 228.1300 3.9610 -999.2500 68.5180 -999.2500 190.8970 917.7030 227.2360 229.0250 227.0000 990.0790 0.9700 0.1720 1.2340
  149.500 -0.0200 338.5030 0.2120 227.9540 3.8540 -999.2500 104.6510 -999.2500 191.1930 917.8260 227.1920 228.7160 227.0000 990.2380 1.0190 0.1720 2.2950
  149.600 -0.0190 339.4770 0.2120 227.9810 3.9180 -999.2500 103.7090 -999.2500 191.2320 917.8890 227.2670 228.6960 227.0000 990.3970 1.0190 0.1720 4.5050
  149.700 -0.0190 340.2200 0.2080 227.9810 3.9170 -999.2500 102.9910 -999.2500 191.0100 917.8730 227.2660 228.6970 227.0000 990.6130 1.0110 0.1720 5.9210
  149.800 -0.0120 340.7050 0.2020 227.9780 4.0490 -999.2500 102.5220 -999.2500 190.5300 917.7600 227.2230 228.7330 227.0000 990.8380 1.0420 0.1710 7.0030
  149.900 -0.0120 340.7050 0.2020 227.9780 4.0490 -999.2500 102.5220 -999.2500 189.6890 917.5510 227.2230 228.7330 227.0000 990.9690 1.0420 0.1710 7.0030
  150.000 -0.0170 342.0770 0.1940 227.9460 4.2140 -999.2500 99.5030 -999.2500 188.8680 917.2740 227.2400 228.6510 227.0000 990.8760 1.0380 0.1740 6.8840
  150.100 -0.0170 342.4670 0.1920 228.0200 4.2380 -999.2500 99.8510 -999.2500 189.1310 916.9870 227.3440 228.6950 227.0000 990.5560 1.0220 0.1740 7.0400
  150.200 -0.0160 343.7400 0.1920 227.9700 4.3640 -999.2500 136.0500 -999.2500 191.9200 916.7620 227.2450 228.6960 227.0000 990.0390 1.0130 0.1740 -6.5860
  150.300 -0.0100 344.5370 0.1900 227.9220 4.3340 -999.2500 -55.3990 -999.2500 201.4560 916.6840 227.1440 228.7000 227.0000 989.3310 1.0390 0.1730 -10.6320
  150.400 -0.0100 344.5370 0.1900 227.9220 4.3340 -999.2500 -55.3990 -999.2500 221.3490 916.8410 227.1440 228.7000 227.0000 988.6970 1.0390 0.1730 -10.6320
