~Version information
  VERS.                           2.00 : CWLS log ASCII Standard -Version 2.00
  WRAP.                             NO : One line per depth step
~Well information
#MNEM.UNIT              Data Type        Information
#----------------------------------------------------------------------
  STRT.M                         0.000 :
  STOP.M                       911.000 : 
  STEP.M                         0.100 :
  NULL.                      -999.2500 : 
  WELL.                            311 : Well Name
  FLD .                       KARATUBE : Field Name
  DATE.                       10.05.05 : Log date
~Curve information
#MNEM.UNIT                               Curve Description
#----------------------------------------------------------------------
  DEPT.M                               : Depth Curve
  GZ3 .OHMM                            : App.resistivity by lateral A2.0M0.5N
  SP  .MV                              : Spontaneous potential
  LL3 .OHMM                            : Appar.resist.laterolog,3 electrodes
  CALI.MM                              : Caliper
  GR  .UR/H                            : Gamma-ray log
  RHOB.G/C3                            : Bulk density by gamma-gamma log
  CILR.MMHO                            : Conduct. by sonde 7I1.6,react.signal
  MLL .OHMM                            : Microlaterolog sonde
  DT  .US/M                            : Interval travel time
  T1  .US                              : Travel time1
  C1  .MM                              : Diameter from profile1
  C2  .MM                              : Diameter from profile2
  BSC .MM                              : 
  T2  .US                              : Travel time2
  NGLD.UE                              : Neutron-gamma log/device DRST-90
  GZ3B.OHMM                            : App.resistivity by lateral N0.5M2.0A
  CILA.MMHO                            : Conduct. by sonde 7I1.6,active signal
~Parameter information
#MNEM.UNIT              Value            Description
#----------------------------------------------------------------------
#----------------------------------------------------------------------
  BS  .MM                       215.90 : Bit Size
  DFD .G/C3                       1.14 : Drilling Fluid Density
  TDD .M                        908.00 : Total Depth Driller
  BLI .M                        911.00 : Bottom Logged Interval
~Ascii Log Data
# ...
  903.700 5.9950 543.4020 19448.1992 228.2070 1.2310 2.0770 17.3040 101.5290 211.9540 978.8260 229.0990 227.3160 215.9000 1063.4900 6.7840 -999.2500 0.5040
  903.800 6.0960 544.2470 19706.6191 214.6590 1.3450 2.0750 17.3310 16.7340 214.7390 977.3080 217.6680 211.6510 215.9000 1062.6600 6.9860 -999.2500 -5.1650
  903.900 6.2970 544.7750 19933.3594 211.1900 1.4030 2.0860 17.7310 21.7280 217.2160 975.9860 215.4490 206.9300 215.9000 1062.3000 7.3360 -999.2500 -8.5900
  904.000 6.4580 544.8730 21356.6992 213.4000 1.4800 2.0970 17.8710 24.2810 219.1480 975.0130 215.3240 211.4760 215.9000 1062.1801 7.3710 -999.2500 -8.7520
  904.100 6.5490 544.9170 22299.3398 210.1980 1.4600 2.0780 17.2160 17.5900 219.9980 974.5700 213.2040 207.1910 215.9000 1062.0900 7.6010 -999.2500 -5.7680
  904.200 6.5410 545.0470 22656.4609 206.5470 1.4940 2.0870 16.7400 45.6700 220.3100 974.3160 208.7710 204.3230 215.9000 1062.0900 7.7710 -999.2500 -2.1530
  904.300 6.5240 544.7400 22633.3203 207.3240 1.5180 2.0820 17.6450 49.8440 220.1350 974.0780 209.5780 205.0700 215.9000 1062.0699 7.7730 -999.2500 -0.6630
  904.400 6.5440 544.4050 22691.8008 206.1380 1.4940 2.0920 17.0090 76.8090 220.0230 973.7420 207.7620 204.5130 215.9000 1061.9700 7.7840 -999.2500 -2.0530
  904.500 6.5280 544.3490 21760.2793 205.2500 1.4880 2.0870 17.2580 27.7540 220.0980 973.4080 206.8040 203.6960 215.9000 1061.6500 7.8090 -999.2500 -1.3860
  904.600 6.5270 543.8460 20733.4199 206.1970 1.5000 2.0560 16.9890 36.9650 220.4820 973.2260 208.2790 204.1150 215.9000 1061.2500 8.0710 -999.2500 -2.7590
  904.700 6.5190 543.4910 20081.7207 203.5490 1.4720 2.0780 17.1840 30.5210 220.8840 973.1810 204.6250 202.4720 215.9000 1060.9600 8.0720 -999.2500 -1.0690
  904.800 6.5100 542.4750 20305.8398 204.8620 1.3450 2.0650 17.0220 37.4140 220.9020 973.2800 205.6100 204.1140 215.9000 1060.9700 8.0980 -999.2500 0.3790
  904.900 6.5200 541.6220 20624.5391 203.8540 1.4090 2.0800 16.5670 73.6080 220.5050 973.3390 205.3550 202.3540 215.9000 1061.1200 8.1140 -999.2500 1.1050
  905.000 6.5220 541.2010 19938.3594 204.3190 1.3970 2.0830 17.1500 79.7490 219.7800 973.3500 205.9210 202.7170 215.9000 1061.2300 8.1930 -999.2500 2.0850
  905.100 6.5400 540.9590 19178.3809 204.0520 1.4210 2.0740 17.2470 16.7580 219.0690 973.2060 205.7060 202.4000 215.9000 1061.0900 8.3180 -999.2500 0.8350
  905.200 6.5300 -999.2500 19281.1797 203.9540 1.4640 2.0720 -999.2500 20.5090 218.5510 972.8080 205.3030 202.6060 215.9000 1060.7400 8.3640 -999.2500 -999.2500
  905.300 6.4980 -999.2500 19254.6797 202.2140 1.3980 2.0960 -999.2500 55.5190 218.4230 972.0100 201.9790 202.4500 215.9000 1060.2400 8.3650 -999.2500 -999.2500
  905.400 6.5240 -999.2500 18758.4297 203.2760 1.2690 2.1020 -999.2500 65.3380 218.7400 970.8660 204.3470 202.2040 215.9000 1059.5800 8.4430 -999.2500 -999.2500
  905.500 6.5260 -999.2500 18860.4199 202.4980 1.4300 2.0880 -999.2500 22.0780 219.3420 969.7530 203.0910 201.9040 215.9000 1058.7200 8.4530 -999.2500 -999.2500
  905.600 6.5150 -999.2500 19545.1895 198.7030 1.3730 2.0930 -999.2500 18.2780 220.0300 968.9180 198.7600 198.6470 215.9000 1057.7400 8.5620 -999.2500 -999.2500
  905.700 6.5210 -999.2500 21029.7402 199.4490 1.2990 2.0820 -999.2500 50.9970 220.5790 968.3710 199.9260 198.9720 215.9000 1056.9200 8.6190 -999.2500 -999.2500
  905.800 6.5450 -999.2500 21713.0996 199.4640 1.3590 2.0770 -999.2500 97.4690 220.9210 967.7240 200.2570 198.6700 215.9000 1056.4301 8.7090 -999.2500 -999.2500
  905.900 6.5190 -999.2500 21507.1992 197.8140 1.3980 2.0760 -999.2500 20.5020 221.0470 966.7880 197.2830 198.3450 215.9000 1056.1600 8.6260 -999.2500 -999.2500
  906.000 6.5140 -999.2500 20498.4395 197.4410 1.4420 2.0720 -999.2500 15.9390 220.9640 965.5170 197.5180 197.3650 215.9000 1055.6801 8.7280 -999.2500 -999.2500
  906.100 6.5460 -999.2500 19793.2695 197.1600 1.4820 2.0800 -999.2500 47.4180 220.7490 964.1510 197.5100 196.8110 215.9000 1054.8101 8.8160 -999.2500 -999.2500
  906.200 6.5300 -999.2500 19896.7305 199.3210 1.4530 2.0970 -999.2500 107.2320 220.5550 962.9010 201.9410 196.7020 215.9000 1053.5000 8.8650 -999.2500 -999.2500
  906.300 6.5440 -999.2500 20434.9004 199.9930 1.3490 2.0910 -999.2500 146.4830 220.5370 961.9150 202.5350 197.4510 215.9000 1052.0300 8.9680 -999.2500 -999.2500
  906.400 6.5090 -999.2500 21034.8594 199.4650 1.3340 2.1100 -999.2500 199.6580 220.7100 961.2540 200.7450 198.1860 215.9000 1050.6801 9.0810 -999.2500 -999.2500
  906.500 6.5440 -999.2500 21954.9199 198.9570 1.3700 2.1040 -999.2500 185.2530 220.9290 960.7920 200.7420 197.1720 215.9000 1049.6801 9.1020 -999.2500 -999.2500
  906.600 6.5090 -999.2500 22742.9609 197.6920 1.3020 2.1030 -999.2500 212.1800 221.0510 960.4790 200.3810 195.0020 215.9000 1049.1100 9.1970 -999.2500 -999.2500
  906.700 6.5330 -999.2500 23293.6602 195.9180 1.2880 2.1060 -999.2500 151.2640 221.1080 960.1660 195.9730 195.8640 215.9000 1048.7600 9.3450 -999.2500 -999.2500
  906.800 6.5210 -999.2500 22733.1992 195.1240 1.3070 2.1100 -999.2500 245.1910 221.1750 959.8560 196.0480 194.2010 215.9000 1048.5000 9.5170 -999.2500 -999.2500
  906.900 -999.2500 -999.2500 22061.4609 193.2880 1.3030 2.0940 -999.2500 231.9280 221.2060 959.5430 193.2610 193.3140 215.9000 1048.2200 9.6190 -999.2500 -999.2500
  907.000 -999.2500 -999.2500 21444.7402 194.1660 1.4070 2.0850 -999.2500 272.4410 221.1390 959.2800 194.8160 193.5160 215.9000 1047.9399 9.7030 -999.2500 -999.2500
  907.100 -999.2500 -999.2500 20781.3594 194.7460 1.5110 2.0900 -999.2500 209.4690 220.9000 959.0990 195.5640 193.9270 215.9000 1047.6500 9.5830 -999.2500 -999.2500
  907.200 -999.2500 -999.2500 20826.9004 193.3460 1.4690 2.0640 -999.2500 130.1850 220.6730 958.8850 193.4760 193.2160 215.9000 1047.3500 9.7080 -999.2500 -999.2500
  907.300 -999.2500 -999.2500 21612.6992 193.7510 1.5270 2.0650 -999.2500 235.6130 220.4450 958.5310 193.9580 193.5440 215.9000 1047.0500 9.7360 -999.2500 -999.2500
  907.400 -999.2500 -999.2500 22396.1992 192.6050 1.4350 2.0730 -999.2500 267.3300 220.2800 957.8910 192.1180 193.0920 215.9000 1046.7200 9.8120 -999.2500 -999.2500
  907.500 -999.2500 -999.2500 23740.2402 192.7290 1.3640 2.0760 -999.2500 125.7860 220.0050 957.1300 193.4530 192.0050 215.9000 1046.2500 9.7400 -999.2500 -999.2500
  907.600 -999.2500 -999.2500 23899.2598 192.2480 1.3680 2.0670 -999.2500 13.2790 219.6600 956.4280 192.5300 191.9650 215.9000 1045.5300 9.7450 -999.2500 -999.2500
  907.700 -999.2500 -999.2500 23353.4805 191.7500 1.4010 2.0600 -999.2500 118.0850 219.2060 956.0580 191.8100 191.6900 215.9000 1044.6300 9.8220 -999.2500 -999.2500
  907.800 -999.2500 -999.2500 21186.7402 191.7110 1.2360 2.0270 -999.2500 120.4240 218.8220 955.9420 192.1670 191.2560 215.9000 1043.7600 9.8410 -999.2500 -999.2500
  907.900 -999.2500 -999.2500 20951.3398 190.5440 1.3130 2.0270 -999.2500 210.9190 218.5230 955.9850 190.7650 190.3230 215.9000 1043.1600 9.8230 -999.2500 -999.2500
  908.000 -999.2500 -999.2500 21283.3008 190.1990 1.3040 2.0120 -999.2500 244.7400 218.3370 956.0030 190.1240 190.2730 215.9000 1042.8500 9.7700 -999.2500 -999.2500
  908.100 -999.2500 -999.2500 21392.3203 190.0150 1.3110 2.0030 -999.2500 270.4140 218.1530 956.0050 190.1260 189.9050 215.9000 1042.7500 9.7210 -999.2500 -999.2500
  908.200 -999.2500 -999.2500 21758.0195 189.8600 1.2850 1.9990 -999.2500 239.1570 218.0070 956.0170 190.2230 189.4960 215.9000 1042.6700 9.6360 -999.2500 -999.2500
  908.300 -999.2500 -999.2500 21556.1406 190.2110 1.3960 1.9890 -999.2500 231.4080 217.9590 956.0480 191.3280 189.0940 215.9000 1042.5800 9.5930 -999.2500 -999.2500
  908.400 -999.2500 -999.2500 21656.6406 189.8390 1.3850 1.9840 -999.2500 244.1760 218.0330 956.0850 190.6990 188.9790 215.9000 1042.5200 9.7330 -999.2500 -999.2500
  908.500 -999.2500 -999.2500 21607.0996 189.6720 1.3360 1.9340 -999.2500 254.6510 -999.2500 956.0940 190.5740 188.7710 215.9000 1042.5300 9.7350 -999.2500 -999.2500
  908.600 -999.2500 -999.2500 21692.6406 189.6380 1.4500 1.9040 -999.2500 269.9940 -999.2500 956.1130 190.9990 188.2770 215.9000 1042.6000 9.7980 -999.2500 -999.2500
