~Version information
  VERS.                           2.00 : CWLS log ASCII Standard -Version 2.00
  WRAP.                             NO : One line per depth step
~Well information
#MNEM.UNIT              Data Type        Information
#----------------------------------------------------------------------
  STRT.M                         0.000 :
  STOP.M                       911.000 : 
  STEP.M                         0.100 :
  NULL.                      -999.2500 : 
  WELL.                            311 : Well Name
  FLD .                       KARATUBE : Field Name
  DATE.                       10.05.05 : Log date
~Curve information
#MNEM.UNIT                               Curve Description
#----------------------------------------------------------------------
  DEPT.M                               : Depth Curve
  GZ3 .OHMM                            : App.resistivity by lateral A2.0M0.5N
  SP  .MV                              : Spontaneous potential
  LL3 .OHMM                            : Appar.resist.laterolog,3 electrodes
  CALI.MM                              : Caliper
  GR  .UR/H                            : Gamma-ray log
  RHOB.G/C3                            : Bulk density by gamma-gamma log
  CILR.MMHO                            : Conduct. by sonde 7I1.6,react.signal
  MLL .OHMM                            : Microlaterolog sonde
  DT  .US/M                            : Interval travel time
  T1  .US                              : Travel time1
  C1  .MM                              : Diameter from profile1
  C2  .MM                              : Diameter from profile2
  BSC .MM                              : 
  T2  .US                              : Travel time2
  NGLD.UE                              : Neutron-gamma log/device DRST-90
  GZ3B.OHMM                            : App.resistivity by lateral N0.5M2.0A
  CILA.MMHO                            : Conduct. by sonde 7I1.6,active signal
~Parameter information
#MNEM.UNIT              Value            Description
#----------------------------------------------------------------------
#----------------------------------------------------------------------
  BS  .MM                       215.90 : Bit Size
  DFD .G/C3                       1.14 : Drilling Fluid Density
  TDD .M                        908.00 : Total Depth Driller
  BLI .M                        911.00 : Bottom Logged Interval
~Ascii Log Data
# ...
  193.200 8.2470 364.2810 6.5780 222.2900 8.0830 2.0680 46.9960 5.4010 392.7180 1645.0300 222.0360 222.5430 215.9000 1819.2900 1.2140 8.3030 96.8730
  193.300 8.2470 364.2810 6.5780 222.2900 8.0830 2.0680 46.9960 5.4010 393.7300 1643.6300 222.0360 222.5430 215.9000 1819.0500 1.2140 8.3030 96.8730
  193.400 8.2730 364.9440 6.7520 222.1510 8.4170 2.0390 47.5780 5.1900 395.0870 1642.2200 221.7100 222.5920 215.9000 1818.2500 1.2020 8.4420 96.6950
  193.500 8.4270 365.5740 6.7880 222.3900 8.1870 2.0390 47.7690 5.1900 396.7260 1640.8199 222.1990 222.5810 215.9000 1817.1600 1.1640 8.5780 95.8060
  193.600 8.4270 365.5740 6.7880 222.3900 8.1870 2.0460 47.7690 5.1890 398.9150 1639.4200 222.1990 222.5810 215.9000 1816.0800 1.1640 8.5780 95.8060
  193.700 8.3870 366.0120 6.6220 226.1380 7.7290 2.0350 47.8510 5.0680 402.2900 1638.0500 226.7110 225.5640 215.9000 1815.1801 1.1660 8.5520 98.0420
  193.800 8.3870 366.0120 6.6220 226.1380 7.7290 2.0350 47.8510 5.0680 407.4790 1636.7300 226.7110 225.5640 215.9000 1814.4600 1.1660 8.5520 98.0420
  193.900 8.3180 366.1220 6.5980 226.7320 7.7960 2.0500 48.0130 5.2610 414.5020 1635.5100 226.2740 227.1900 215.9000 1813.9100 1.2110 8.5560 98.2250
  194.000 8.2340 365.9700 6.6400 227.3690 7.6160 2.0500 48.7350 5.2610 422.6650 1634.4200 227.1310 227.6070 215.9000 1813.6899 1.1920 8.6010 95.8820
  194.100 8.2340 365.9700 6.6400 227.3690 7.6160 2.0610 48.7350 5.2310 430.9800 1633.5000 227.1310 227.6070 215.9000 1814.1500 1.1920 8.6010 95.8820
  194.200 8.3280 365.5820 6.8260 227.0390 7.8040 2.0360 48.8920 5.3720 438.9010 1632.7600 227.2870 226.7920 215.9000 1815.6600 1.1520 8.7180 97.0270
  194.300 8.3280 365.5820 6.8260 227.0390 7.8040 2.0360 48.8920 5.3720 446.5350 1632.1899 227.2870 226.7920 215.9000 1818.2500 1.1520 8.7180 97.0270
  194.400 8.4460 365.8670 6.9500 225.7470 7.5730 2.0800 48.4670 7.4140 454.3550 1631.7400 225.5810 225.9130 215.9000 1821.6000 1.1800 8.7770 96.7270
  194.500 8.6130 367.4410 7.6560 229.0240 7.8910 2.0800 49.6340 7.4140 462.6260 1631.4000 230.2690 227.7790 215.9000 1825.1801 1.1730 8.5180 97.1500
  194.600 8.6130 367.4410 7.6560 229.0240 7.8910 2.0690 49.6340 6.6270 471.1830 1631.1400 230.2690 227.7790 215.9000 1828.6899 1.1730 8.5180 97.1500
  194.700 8.5560 368.5590 7.2000 247.1660 7.7510 2.0690 50.6480 5.3860 479.5110 1631.0100 257.2380 237.0940 215.9000 1832.1600 1.1470 7.9720 100.4560
  194.800 8.5560 368.5590 7.2000 247.1660 7.7510 2.0690 50.6480 5.3860 486.9910 1631.0900 257.2380 237.0940 215.9000 1835.8199 1.1470 7.9720 100.4560
  194.900 8.4120 368.9220 7.0500 253.4490 7.7390 2.0220 51.2550 5.4830 493.0610 1631.4399 261.9750 244.9220 215.9000 1839.8300 1.1920 7.6660 101.1230
  195.000 8.2250 369.5300 6.4260 244.0000 7.8180 2.0220 51.5470 5.4830 497.3410 1632.1700 242.1810 245.8200 215.9000 1844.1801 1.1940 7.2160 103.0090
  195.100 8.2250 369.5300 6.4260 244.0000 7.8180 2.0530 51.5470 5.4120 499.7450 1633.3600 242.1810 245.8200 215.9000 1848.7000 1.1940 7.2160 103.0090
  195.200 8.1710 369.3640 6.1900 259.9420 7.6330 2.0090 53.3910 5.3800 500.5170 1635.1400 243.8070 276.0770 215.9000 1853.1700 1.1980 6.8810 103.4100
  195.300 8.1710 369.3640 6.1900 259.9420 7.6330 2.0090 53.3910 5.3800 500.1170 1637.6300 243.8070 276.0770 215.9000 1857.3900 1.1980 6.8810 103.4100
  195.400 8.0920 369.0470 6.0880 270.4930 7.3900 1.9870 53.4950 5.2520 498.9700 1640.9399 249.2280 291.7580 215.9000 1861.3101 1.2020 6.6720 106.0040
  195.500 8.0480 367.1660 5.8780 270.7900 7.8300 1.9870 54.8980 5.2520 497.2660 1645.1300 250.0600 291.5200 215.9000 1865.0000 1.1900 6.4090 107.1890
  195.600 8.0480 367.1660 5.8780 270.7900 7.8300 1.9850 54.8980 5.2560 495.0030 1650.1400 250.0600 291.5200 215.9000 1868.7000 1.1900 6.4090 107.1890
  195.700 8.2300 364.8310 5.7680 262.8270 7.7180 1.9120 57.7550 5.1430 492.2210 1655.8000 253.8740 271.7800 215.9000 1872.6899 1.1170 6.2100 108.2460
  195.800 8.2300 364.8310 5.7680 262.8270 7.7180 1.9120 57.7550 5.1430 489.3300 1661.8900 253.8740 271.7800 215.9000 1877.1200 1.1170 6.2100 108.2460
  195.900 8.2920 363.4310 5.6320 269.6780 7.6620 1.8770 58.5410 5.1100 487.1960 1668.1600 255.9730 283.3830 215.9000 1881.9301 1.0890 6.1300 111.1400
  196.000 8.4000 360.7550 5.3720 269.0410 7.8830 1.8770 58.6920 5.1100 486.9210 1674.4100 271.1910 266.8900 215.9000 1886.8900 1.1300 6.0770 113.0120
  196.100 8.4000 360.7550 5.3720 269.0410 7.8830 1.8820 58.6920 5.1340 489.2480 1680.4900 271.1910 266.8900 215.9000 1891.7700 1.1300 6.0770 113.0120
  196.200 8.5940 359.4330 5.5080 262.4910 8.2920 1.8540 59.2890 4.8990 493.9570 1686.4000 253.8390 271.1440 215.9000 1896.5699 1.1610 6.1470 112.3470
  196.300 8.5940 359.4330 5.5080 262.4910 8.2920 1.8540 59.2890 4.8990 499.6620 1692.3101 253.8390 271.1440 215.9000 1901.5900 1.1610 6.1470 112.3470
  196.400 8.7580 358.8760 5.5520 259.7960 8.4800 1.8440 60.5250 5.0470 504.3070 1698.6600 246.5310 273.0610 215.9000 1907.3600 1.1640 6.2050 113.2060
  196.500 8.9830 359.1490 5.4860 255.2770 8.3030 1.8440 61.6070 5.0470 506.1800 1706.0500 246.8660 263.6890 215.9000 1914.4399 1.1230 6.2860 117.0960
  196.600 8.9830 359.1490 5.4860 255.2770 8.3030 1.8550 61.6070 5.2080 504.7050 1714.9800 246.8660 263.6890 215.9000 1923.1400 1.1230 6.2860 117.0960
  196.700 9.0650 360.3530 5.3340 261.4920 8.2120 1.8630 63.1790 4.4380 500.6840 1725.6400 245.6710 277.3130 215.9000 1933.3800 1.1310 6.3370 118.7470
  196.800 9.0650 360.3530 5.3340 261.4920 8.2120 1.8630 63.1790 4.4380 495.7620 1737.7100 245.6710 277.3130 215.9000 1944.6300 1.1310 6.3370 118.7470
  196.900 9.1000 361.0080 5.2880 260.1400 8.2710 1.8480 63.8240 4.9530 491.6950 1750.5500 249.3240 270.9560 215.9000 1956.2300 1.0860 6.3630 118.7020
  197.000 9.0670 363.0510 5.2520 253.3680 8.4500 1.8480 64.2120 4.9530 489.5530 1763.4800 241.6870 265.0500 215.9000 1967.5601 1.0890 6.5430 119.8800
  197.100 9.0670 363.0510 5.2520 253.3680 8.4500 1.8440 64.2120 4.7780 489.3580 1776.0500 241.6870 265.0500 215.9000 1978.3900 1.0890 6.5430 119.8800
  197.200 8.9870 365.0380 5.2620 253.0970 8.2090 1.8620 64.0900 5.1060 490.2100 1788.0400 243.2940 262.9000 215.9000 1988.8600 1.0640 6.6910 120.5550
  197.300 8.9870 365.0380 5.2620 253.0970 8.2090 1.8620 64.0900 5.1060 490.9380 1799.3000 243.2940 262.9000 215.9000 1999.4000 1.0640 6.6910 120.5550
  197.400 8.9220 365.8350 5.2760 248.6580 8.3690 1.9090 64.2730 4.9470 490.8010 1809.6500 240.5480 256.7670 215.9000 2010.3199 1.0560 6.7460 120.3030
  197.500 8.6830 367.8040 5.2780 251.3390 8.3930 1.9090 66.1390 4.9470 489.7540 1818.8600 246.0850 256.5920 215.9000 2021.4800 1.0420 6.7520 121.2060
  197.600 8.6830 367.8040 5.2780 251.3390 8.3930 1.9000 66.1390 4.9470 488.2610 1826.8000 246.0850 256.5920 215.9000 2032.2600 1.0420 6.7520 121.2060
  197.700 8.2500 368.4510 5.2120 253.1210 8.2650 1.9020 65.5070 5.0760 486.9070 1833.4700 245.7050 260.5360 215.9000 2041.8300 1.0530 6.6240 122.9430
  197.800 8.2500 368.4510 5.2120 253.1210 8.2650 1.9020 65.5070 5.0760 486.1420 1838.9900 245.7050 260.5360 215.9000 2049.7000 1.0530 6.6240 122.9430
  197.900 7.9740 368.6430 5.1800 258.9620 8.2060 1.8830 66.1740 5.1680 486.1410 1843.5400 253.1870 264.7370 215.9000 2055.8401 1.0680 6.5130 121.7910
  198.000 7.4620 368.8190 5.0020 265.6930 8.1270 1.8830 67.4000 5.1680 486.7690 1847.2200 259.2440 272.1410 215.9000 2060.6299 1.0990 6.2740 122.6020
  198.100 7.4620 368.8190 5.0020 265.6930 8.1270 1.8630 67.4000 5.1630 487.6450 1850.1200 259.2440 272.1410 215.9000 2064.4900 1.0990 6.2740 122.6020
  198.200 7.0640 368.7880 4.8740 277.0440 8.4730 1.8580 66.5900 5.0270 488.3360 1852.3500 284.7110 269.3770 215.9000 2067.7900 1.1210 6.1550 121.6880
  198.300 7.0640 368.7880 4.8740 277.0440 8.4730 1.8580 66.5900 5.0270 488.5880 1854.0100 284.7110 269.3770 215.9000 2070.6899 1.1210 6.1550 121.6880
  198.400 6.8860 368.8410 4.8740 273.3210 8.2340 1.8550 66.4690 5.0580 488.4160 1855.2200 268.8830 277.7600 215.9000 2073.2300 1.0920 6.0870 121.5200
  198.500 6.6790 369.5270 4.9040 284.8110 8.1540 1.8550 67.2870 5.0580 488.0170 1856.0800 261.8500 307.7720 215.9000 2075.3301 1.0740 5.9430 121.2860
