~Version information
  VERS.                           2.00 : CWLS log ASCII Standard -Version 2.00
  WRAP.                             NO : One line per depth step
~Well information
#MNEM.UNIT              Data Type        Information
#----------------------------------------------------------------------
  STRT.M                         0.000 :
  STOP.M                       911.000 : 
  STEP.M                         0.100 :
  NULL.                      -999.2500 : 
  WELL.                            311 : Well Name
  FLD .                       KARATUBE : Field Name
  DATE.                       10.05.05 : Log date
~Curve information
#MNEM.UNIT                               Curve Description
#----------------------------------------------------------------------
  DEPT.M                               : Depth Curve
  GZ3 .OHMM                            : App.resistivity by lateral A2.0M0.5N
  SP  .MV                              : Spontaneous potential
  LL3 .OHMM                            : Appar.resist.laterolog,3 electrodes
  CALI.MM                              : Caliper
  GR  .UR/H                            : Gamma-ray log
  RHOB.G/C3                            : Bulk density by gamma-gamma log
  CILR.MMHO                            : Conduct. by sonde 7I1.6,react.signal
  MLL .OHMM                            : Microlaterolog sonde
  DT  .US/M                            : Interval travel time
  T1  .US                              : Travel time1
  C1  .MM                              : Diameter from profile1
  C2  .MM                              : Diameter from profile2
  BSC .MM                              : 
  T2  .US                              : Travel time2
  NGLD.UE                              : Neutron-gamma log/device DRST-90
  GZ3B.OHMM                            : App.resistivity by lateral N0.5M2.0A
  CILA.MMHO                            : Conduct. by sonde 7I1.6,active signal
~Parameter information
#MNEM.UNIT              Value            Description
#----------------------------------------------------------------------
#----------------------------------------------------------------------
  BS  .MM                       215.90 : Bit Size
  DFD .G/C3                       1.14 : Drilling Fluid Density
  TDD .M                        908.00 : Total Depth Driller
  BLI .M                        911.00 : Bottom Logged Interval
~Ascii Log Data
# ...
  247.200 11.1110 382.8560 41.4420 323.8580 4.2920 2.0440 49.5680 6.2840 453.7300 1733.6700 305.1060 342.6090 215.9000 1945.3700 1.2560 8.5230 68.8600
  247.300 12.1040 382.8900 36.1480 321.2780 4.5510 2.0450 51.8210 6.2790 455.1490 1730.9301 301.8620 340.6940 215.9000 1940.8700 1.2690 8.1940 73.5550
  247.400 13.6690 382.9040 30.5940 318.5530 4.7380 2.0520 53.1800 6.1190 455.8980 1727.9600 302.5170 334.5880 215.9000 1937.3900 1.2330 7.6930 74.8170
  247.500 14.8440 382.8700 27.1680 311.6710 4.9170 2.0530 56.0230 6.1340 455.4370 1724.5400 301.2200 322.1210 215.9000 1934.7100 1.2010 7.3800 81.8000
  247.600 16.5240 382.8610 22.7580 306.4860 5.1920 2.0530 57.6640 6.3030 454.0400 1720.7400 303.7350 309.2370 215.9000 1932.3199 1.1990 7.0180 89.2010
  247.700 18.5690 383.0940 18.2200 305.0940 5.6110 2.0710 60.8630 6.1510 452.5300 1716.8300 300.9130 309.2740 215.9000 1929.6100 1.1640 6.6630 97.3090
  247.800 19.8540 383.1090 13.3400 309.0640 5.7730 2.0660 68.5510 5.8000 451.6790 1713.1500 304.0310 314.0970 215.9000 1926.1899 1.1920 6.3430 112.7720
  247.900 22.1800 383.2200 10.5220 308.6000 6.5360 2.0600 72.3820 5.4220 451.4150 1709.9700 300.0020 317.1980 215.9000 1922.0500 1.1750 6.1230 124.7590
  248.000 23.9090 383.5510 8.1940 310.9980 7.2470 2.0440 76.6510 5.2800 450.5570 1707.4500 300.2230 321.7740 215.9000 1917.6700 1.1510 5.9500 136.2990
  248.100 25.2950 383.7900 5.7540 311.2200 7.6160 2.0130 81.7090 5.2450 447.6420 1705.6600 306.0180 316.4220 215.9000 1913.7300 1.1660 5.3580 143.8960
  248.200 26.4280 383.8740 4.7740 282.8850 8.2320 2.0200 85.3640 4.9700 442.2700 1704.6000 301.2640 264.5060 215.9000 1910.7900 1.1690 5.0890 149.0740
  248.300 26.4020 383.7650 4.1260 278.5280 8.4730 2.0390 86.5410 4.7830 435.9050 1704.2400 294.5910 262.4650 215.9000 1908.8700 1.1650 4.9320 152.0880
  248.400 25.4680 383.6890 3.7080 276.2170 9.0930 2.0490 86.4600 4.7780 431.1170 1704.5601 286.1080 266.3260 215.9000 1907.3800 1.1350 4.8420 150.5830
  248.500 23.7890 383.5470 3.5820 273.9890 9.2730 2.0300 83.9260 4.7590 429.6230 1705.5000 285.5620 262.4160 215.9000 1905.5601 1.1910 4.8020 140.3640
  248.600 21.3960 382.6900 3.5880 273.3610 8.9970 2.0340 82.8090 4.7480 431.1670 1706.9500 285.3490 261.3730 215.9000 1903.2000 1.2280 4.7550 137.6300
  248.700 19.2780 381.6350 3.6720 281.5690 8.9760 2.0550 80.3990 4.7390 433.3650 1708.8300 296.9200 266.2170 215.9000 1900.9500 1.2070 4.6190 134.0510
  248.800 17.7230 381.0660 3.7840 283.9350 8.6890 2.0810 78.4090 4.8740 433.8360 1711.0900 296.9670 270.9020 215.9000 1900.0100 1.2270 4.4660 133.7390
  248.900 15.9600 379.8320 3.8660 282.6330 8.6810 2.0890 77.9740 4.9880 431.5250 1713.6801 294.6020 270.6640 215.9000 1901.1400 1.2660 4.1020 133.0900
  249.000 14.8590 379.0090 3.9280 281.5710 8.8440 2.0900 77.8750 5.0880 427.5950 1716.4200 292.9300 270.2120 215.9000 1904.1801 1.2790 3.8500 139.2710
  249.100 13.7260 377.6200 3.9460 283.4010 8.8330 2.0620 78.3490 5.0470 424.0140 1719.0000 296.6120 270.1910 215.9000 1907.8600 1.2980 3.5900 144.5090
  249.200 12.6010 376.0400 3.8740 286.2510 8.8540 2.0650 78.6840 5.0140 422.3960 1720.9900 301.5340 270.9670 215.9000 1910.8400 1.2750 3.3760 147.9140
  249.300 11.8500 374.7370 3.7660 286.9950 8.8960 2.0520 80.0260 4.9220 423.2710 1722.0100 300.9470 273.0440 215.9000 1912.2700 1.2570 3.2900 147.5430
  249.400 10.8660 373.5520 3.6880 282.4670 9.1980 2.0380 80.7040 4.7910 426.1860 1721.8900 296.7500 268.1840 215.9000 1912.2900 1.2310 3.2470 149.3050
  249.500 10.2380 372.6250 3.5800 272.0300 9.1460 2.0300 79.3760 4.7400 429.8990 1720.8000 288.4880 255.5720 215.9000 1911.5200 1.2320 3.2790 147.6170
  249.600 9.7820 371.6960 3.5280 269.3450 9.0250 2.0240 78.6690 4.7960 432.3480 1719.2000 286.7040 251.9870 215.9000 1910.5900 1.2630 3.3700 145.4670
  249.700 8.7750 371.2190 3.5480 263.9320 9.3580 2.0110 78.8630 4.8190 430.8370 1717.7000 286.6900 241.1740 215.9000 1909.9399 1.2240 3.4870 139.7880
  249.800 8.2740 371.3530 3.6860 262.3380 9.2130 2.0170 78.2250 4.8770 422.5870 1716.8700 286.0200 238.6560 215.9000 1909.7900 1.2540 3.5850 135.8810
  249.900 7.6410 371.8960 3.8580 263.2740 9.0290 2.0270 78.4240 4.8910 405.6950 1717.0200 280.4980 246.0490 215.9000 1910.1500 1.2760 3.7330 135.3290
  250.000 7.1220 372.8860 3.9900 268.5620 9.0300 2.0300 79.3740 4.9620 380.4050 1718.0601 285.6900 251.4340 215.9000 1910.5400 1.2510 3.8240 134.0510
  250.100 6.7370 373.8320 4.0480 273.3020 8.7040 2.0300 80.6810 4.8320 349.6460 1719.5000 288.3790 258.2240 215.9000 1909.9301 1.2970 3.9720 132.8820
  250.200 6.4040 374.2200 4.0460 276.1140 8.8940 2.0480 82.0030 4.7810 318.8310 1720.5200 286.5030 265.7250 215.9000 1906.8500 1.2900 4.1640 129.0170
  250.300 6.2820 375.1500 4.0540 275.3570 8.6080 2.0840 80.2050 4.8110 294.2680 1720.1000 286.0270 264.6860 215.9000 1899.8500 1.3340 4.4190 126.0990
  250.400 6.3910 375.9950 4.1080 274.4230 8.3090 2.0700 77.9300 4.8620 281.1750 1717.2400 292.3350 256.5100 215.9000 1888.2200 1.3240 5.1030 118.8810
  250.500 6.7570 376.2690 4.5140 275.0830 8.3240 2.1040 73.6880 5.1350 280.8390 1711.2000 304.2820 245.8840 215.9000 1872.4200 1.3650 5.7040 110.0790
  250.600 7.4780 376.5900 5.2920 266.2260 8.4400 2.1880 71.5120 5.6510 288.5300 1701.7400 294.4800 237.9710 215.9000 1854.1500 1.3920 6.6140 107.9840
  250.700 8.5490 377.1290 6.3940 261.5640 8.4540 2.2030 70.1770 12.6140 301.1930 1689.7400 290.7920 232.3350 215.9000 1835.8300 1.5120 7.3040 107.1870
  250.800 9.2860 377.2090 7.7140 238.6150 8.2870 2.3120 73.2090 20.9070 318.0840 1677.8300 257.6490 219.5800 215.9000 1819.8300 1.4740 7.7060 107.8670
  250.900 10.2850 377.5420 9.0520 237.8880 8.2300 2.3230 73.1680 16.2500 344.8310 1666.8800 255.9090 219.8670 215.9000 1807.6600 1.4150 7.8450 111.8410
  251.000 10.4700 378.0210 8.9820 238.0470 8.4880 2.2860 77.9650 13.5580 377.3710 1656.5000 253.6030 222.4910 215.9000 1799.6000 1.3650 7.6010 125.7610
  251.100 10.2850 378.2520 7.0300 240.6900 8.6900 2.2000 82.6640 9.1320 409.1810 1643.4600 258.5600 222.8200 215.9000 1794.9700 1.3390 6.8750 133.7090
  251.200 9.4130 378.1720 5.8200 250.7670 8.3260 2.1820 86.6960 5.5800 430.1940 1629.5300 268.5570 232.9780 215.9000 1793.0400 1.2490 6.1000 143.0820
  251.300 8.5510 378.2270 4.5800 258.8720 8.6300 2.1110 90.3330 5.2120 441.5230 1617.0300 275.6470 242.0970 215.9000 1793.3800 1.2020 5.3740 150.0710
  251.400 7.1660 378.4080 4.1040 266.8120 8.8350 2.0940 91.0370 5.1430 447.5070 1609.5000 279.0300 254.5930 215.9000 1795.7100 1.2110 4.7800 152.5880
  251.500 6.3280 378.4650 3.7800 274.0330 8.9300 2.0630 89.8830 5.0690 452.0940 1604.9500 279.2100 268.8560 215.9000 1799.1200 1.2270 4.4430 153.7020
  251.600 5.4250 378.5580 3.5880 272.0930 8.8920 2.0280 89.4210 4.9650 454.5450 1600.7200 280.2730 263.9130 215.9000 1802.0900 1.2000 4.3110 152.2590
  251.700 4.9060 378.7190 3.5080 273.0040 8.8250 2.0350 88.8410 4.9460 452.0780 1595.1899 274.2970 271.7120 215.9000 1803.2100 1.1850 4.3850 148.2340
  251.800 4.6900 378.9460 3.4820 266.4250 8.6500 2.0570 86.8920 5.0270 446.5500 1589.5800 271.6490 261.2010 215.9000 1801.9700 1.1990 4.5040 146.5260
  251.900 4.3920 379.5000 3.4540 272.9510 8.5610 2.0680 84.2700 5.0340 441.0920 1586.1400 266.8380 279.0650 215.9000 1798.7400 1.2330 4.7130 145.4240
  252.000 4.2280 379.9640 3.4020 279.1690 8.5070 2.0520 82.1920 5.0620 440.3120 1584.7500 278.0270 280.3110 215.9000 1794.3500 1.2300 4.8260 143.0990
  252.100 4.0670 380.5080 3.4240 278.7170 8.5000 2.0600 81.2060 5.1350 443.1620 1584.3900 282.8660 274.5670 215.9000 1789.6801 1.2520 4.9610 140.9630
  252.200 3.9380 380.8560 3.5000 273.5870 8.5200 2.0500 79.9600 5.4710 445.2020 1582.9500 280.8900 266.2830 215.9000 1785.5200 1.2930 4.9990 140.8670
  252.300 3.8370 381.0540 3.5740 271.0170 8.6060 2.0950 78.4030 5.5360 440.3790 1580.7200 281.6940 260.3400 215.9000 1782.4301 1.2820 4.9920 142.2910
  252.400 3.7690 381.2300 3.5260 270.5760 8.3500 2.0680 78.2130 5.3880 428.5670 1579.4600 282.5130 258.6390 215.9000 1780.6000 1.2420 4.9260 143.2050
  252.500 3.7180 381.0310 3.4300 285.9890 8.5320 2.0520 77.7260 5.1180 415.7770 1582.0100 287.4460 284.5330 215.9000 1779.8000 1.2430 4.9100 144.7180
