~Version information
  VERS.                           2.00 : CWLS log ASCII Standard -Version 2.00
  WRAP.                             NO : One line per depth step
~Well information
#MNEM.UNIT              Data Type        Information
#----------------------------------------------------------------------
  STRT.M                         0.000 :
  STOP.M                       911.000 : 
  STEP.M                         0.100 :
  NULL.                      -999.2500 : 
  WELL.                            311 : Well Name
  FLD .                       KARATUBE : Field Name
  DATE.                       10.05.05 : Log date
~Curve information
#MNEM.UNIT                               Curve Description
#----------------------------------------------------------------------
  DEPT.M                               : Depth Curve
  GZ3 .OHMM                            : App.resistivity by lateral A2.0M0.5N
  SP  .MV                              : Spontaneous potential
  LL3 .OHMM                            : Appar.resist.laterolog,3 electrodes
  CALI.MM                              : Caliper
  GR  .UR/H                            : Gamma-ray log
  RHOB.G/C3                            : Bulk density by gamma-gamma log
  CILR.MMHO                            : Conduct. by sonde 7I1.6,react.signal
  MLL .OHMM                            : Microlaterolog sonde
  DT  .US/M                            : Interval travel time
  T1  .US                              : Travel time1
  C1  .MM                              : Diameter from profile1
  C2  .MM                              : Diameter from profile2
  BSC .MM                              : 
  T2  .US                              : Travel time2
  NGLD.UE                              : Neutron-gamma log/device DRST-90
  GZ3B.OHMM                            : App.resistivity by lateral N0.5M2.0A
  CILA.MMHO                            : Conduct. by sonde 7I1.6,active signal
~Parameter information
#MNEM.UNIT              Value            Description
#----------------------------------------------------------------------
#----------------------------------------------------------------------
  BS  .MM                       215.90 : Bit Size
  DFD .G/C3                       1.14 : Drilling Fluid Density
  TDD .M                        908.00 : Total Depth Driller
  BLI .M                        911.00 : Bottom Logged Interval
~Ascii Log Data
# ...
  755.100 4.1200 451.3510 3.9320 223.6710 5.9230 2.3570 142.4380 6.0050 282.7360 1224.4900 220.3410 227.0010 215.9000 1357.2300 1.4600 4.4850 183.6030
  755.200 4.1860 451.2450 3.9520 223.1920 5.9220 2.3510 143.0780 5.6840 275.7240 1223.6700 219.2270 227.1560 215.9000 1350.7500 1.4620 4.5400 183.4050
  755.300 4.2470 451.1710 4.3060 223.7560 5.9900 2.3490 142.0550 5.6220 275.4310 1224.2600 219.5280 227.9840 215.9000 1343.3600 1.4830 4.5610 184.0140
  755.400 4.2930 451.0130 4.6220 224.7110 5.9280 2.3470 143.3060 7.1860 277.6870 1225.9301 221.1210 228.3010 215.9000 1339.0300 1.4940 4.5250 181.9650
  755.500 4.3250 450.7770 4.6260 222.8470 6.0830 2.3310 143.9130 6.9760 279.8750 1227.5000 220.2780 225.4160 215.9000 1339.4800 1.4930 4.4850 181.6950
  755.600 4.3450 450.3630 4.4480 220.5600 6.3270 2.3470 142.7220 6.0110 280.5050 1228.3400 218.4260 222.6930 215.9000 1342.2800 1.4540 4.4180 181.1460
  755.700 4.3390 450.0690 4.4180 221.0210 6.4840 2.3640 143.7260 5.5940 280.3680 1228.2200 220.2400 221.8030 215.9000 1344.9399 1.4510 4.3830 178.5920
  755.800 4.3210 449.2230 4.6400 220.6470 6.6980 2.3830 143.7340 5.7370 279.3320 1227.5200 219.4930 221.8010 215.9000 1346.0900 1.4540 4.3050 179.1290
  755.900 4.3170 448.5110 4.8220 220.9700 6.7910 2.3900 143.3600 6.0270 277.3020 1226.5200 220.2040 221.7360 215.9000 1345.9000 1.4640 4.2790 179.5160
  756.000 4.3230 447.9630 4.8560 220.3740 7.0430 2.3970 147.2250 6.8280 274.9560 1225.2500 219.3220 221.4250 215.9000 1344.6801 1.4440 4.1160 181.8610
  756.100 4.3070 446.9470 4.4940 220.7930 7.2200 2.3990 148.4190 6.6230 272.4240 1223.8101 220.1050 221.4810 215.9000 1342.6700 1.4510 3.9910 187.3370
  756.200 4.2600 446.0200 4.2400 220.5850 7.2380 2.3960 150.6350 5.8290 268.3150 1222.3400 220.4950 220.6740 215.9000 1340.2200 1.4800 3.9260 190.6550
  756.300 4.1620 445.1060 3.9640 217.9990 6.8020 2.3630 152.5450 5.6370 262.0270 1220.8600 217.6410 218.3570 215.9000 1337.5300 1.4710 3.8640 192.2930
  756.400 4.0260 444.5780 3.9420 217.7800 6.6390 2.3680 152.7390 5.6000 253.8280 1219.3900 217.1700 218.3900 215.9000 1334.0000 1.4610 3.8280 194.6430
  756.500 3.9660 444.2270 3.9340 218.3040 6.7610 2.3730 152.3220 5.6450 247.3570 1217.9100 217.7310 218.8770 215.9000 1329.3800 1.4630 3.7980 193.2190
  756.600 3.8650 444.0450 3.9560 218.9460 7.0600 2.3660 151.0460 5.6570 244.6680 1216.4301 219.1930 218.6980 215.9000 1323.8000 1.4530 3.7540 190.5190
  756.700 3.8310 444.1580 3.9760 218.8570 6.9170 2.3770 147.5340 5.5960 245.6460 1214.9600 216.4640 221.2500 215.9000 1319.0900 1.4410 3.7370 188.7040
  756.800 3.8240 444.2370 4.0100 219.2220 6.8840 2.3620 145.7390 5.7470 249.3000 1213.4800 218.3010 220.1420 215.9000 1316.2700 1.4540 3.7150 186.0460
  756.900 3.8440 444.7290 4.0200 218.3200 6.8320 2.3540 145.4410 5.7230 254.9070 1212.0000 216.5240 220.1170 215.9000 1315.2800 1.4430 3.6970 184.6100
  757.000 3.8640 445.8760 4.0160 218.9600 6.6760 2.3590 143.3590 5.6250 262.3630 1210.5300 217.5230 220.3970 215.9000 1315.6300 1.4690 3.6530 184.1770
  757.100 3.8700 447.0550 4.0060 219.3940 6.5450 2.3690 143.2170 5.8570 270.9180 1208.5699 217.2920 221.4970 215.9000 1316.9600 1.4520 3.5760 182.9570
  757.200 3.8560 447.9810 3.9400 222.0090 6.5020 2.3840 143.8600 7.0810 279.9080 1205.9301 218.8360 225.1830 215.9000 1319.2100 1.4110 3.5340 186.2330
  757.300 3.8350 448.8960 3.4780 225.1450 6.5830 2.3780 143.3660 6.9820 287.2710 1203.2800 220.7090 229.5820 215.9000 1321.5300 1.4250 3.5120 188.9590
  757.400 3.7940 449.0310 3.3100 226.3590 6.3310 2.3690 145.8920 5.7550 291.6380 1201.6000 220.9690 231.7480 215.9000 1323.3800 1.3740 3.4760 192.4420
  757.500 3.7620 449.2450 3.2120 224.0290 6.6530 2.3300 147.8260 5.6450 293.1710 1201.1400 219.9110 228.1470 215.9000 1324.4200 1.3660 3.4840 195.0290
  757.600 3.7180 449.6670 3.1860 225.7770 6.6820 2.3150 147.8550 5.6380 294.5260 1200.7900 223.5810 227.9740 215.9000 1324.9200 1.3360 3.5690 195.4330
  757.700 3.7000 449.9710 3.1140 224.3460 6.9150 2.3280 147.6120 5.5680 295.7630 1199.8199 222.0890 226.6030 215.9000 1325.2300 1.3520 3.6620 191.7210
  757.800 3.6820 450.6060 3.0760 224.6550 7.0000 2.3180 146.3510 5.5020 295.8010 1198.2500 221.9700 227.3400 215.9000 1325.5500 1.3640 3.8340 191.6630
  757.900 3.7190 450.7220 3.1300 223.7660 6.4780 2.3520 143.2940 5.6430 293.7060 1197.4100 221.2010 226.3320 215.9000 1325.2000 1.4190 3.9890 188.0640
  758.000 3.7900 450.6970 3.3420 222.8630 6.3830 2.3510 143.2890 5.5050 290.8540 1198.6500 221.6740 224.0520 215.9000 1323.6500 1.4290 4.0890 182.9800
  758.100 3.9390 450.7200 3.8580 220.2360 6.2010 2.3430 142.5160 6.7840 288.5160 1202.2800 218.6820 221.7890 215.9000 1321.7700 1.4320 4.1050 181.4890
  758.200 4.0440 450.7300 4.3300 219.5350 6.0310 2.3270 141.7210 7.3680 289.7260 1205.9500 218.2280 220.8420 215.9000 1321.5800 1.4310 4.0890 178.1000
  758.300 4.1320 451.5060 4.3800 218.6140 5.8020 2.3100 142.3160 6.3350 293.9940 1207.8800 217.2750 219.9530 215.9000 1324.0400 1.4280 4.0360 176.8940
  758.400 4.1510 451.8500 4.3600 218.7560 5.6840 2.2940 141.0760 5.7120 299.7410 1207.8900 217.9480 219.5640 215.9000 1328.3101 1.4230 3.9820 179.9700
  758.500 4.1430 452.1080 4.4080 219.2980 5.8240 2.3120 142.7290 5.7120 302.4290 1207.9900 217.9580 220.6370 215.9000 1332.3800 1.4010 3.8940 178.9070
  758.600 4.1280 452.8110 4.5100 220.1370 5.8660 2.3460 145.3550 5.6690 301.8020 1208.5500 218.5090 221.7650 215.9000 1335.2600 1.3870 3.7250 177.0820
  758.700 4.1060 453.2510 4.6480 221.0600 6.0300 2.3460 145.1110 6.7610 299.6870 1208.9000 220.3550 221.7640 215.9000 1336.7100 1.3600 3.6380 179.3130
  758.800 4.0680 454.3020 4.3140 221.5600 5.9920 2.3710 144.8360 7.3000 298.8740 1208.4000 220.2430 222.8760 215.9000 1336.9500 1.3640 3.4960 181.3240
  758.900 4.0030 454.9210 3.9780 229.5980 6.1520 2.3560 149.9720 6.3150 299.3460 1207.9800 227.6460 231.5510 215.9000 1336.2400 1.3650 3.4170 185.5670
  759.000 3.9440 455.3520 3.6460 223.2260 6.2140 2.3230 149.0110 5.6500 299.8320 1208.5601 223.2060 223.2470 215.9000 1335.3300 1.4040 3.3750 186.9340
  759.100 3.8980 455.8770 3.6060 222.6500 6.4460 2.3130 151.6120 5.5740 299.2320 1210.4100 223.6150 221.6850 215.9000 1335.1500 1.4330 3.3480 186.2590
  759.200 3.7850 456.2020 3.6360 221.7170 6.2510 2.3230 151.9390 5.4610 298.6300 1213.1000 221.7490 221.6860 215.9000 1335.9800 1.4030 3.3230 187.2810
  759.300 3.7430 456.4290 3.7700 221.8750 6.3580 2.3290 151.1570 5.5560 299.5400 1216.6100 222.0620 221.6880 215.9000 1337.5300 1.3910 3.2640 187.9400
  759.400 3.7140 456.2100 3.8400 221.7780 6.1520 2.3320 153.9530 5.8320 302.1810 1220.6100 221.7180 221.8390 215.9000 1339.9100 1.3650 3.1570 188.0330
  759.500 3.6670 456.2070 3.8360 222.6780 6.0620 2.3490 154.8960 6.0430 305.0750 1223.9700 222.5050 222.8510 215.9000 1343.8800 1.3490 3.0670 190.2230
  759.600 3.6100 455.7660 3.6800 223.9840 6.2530 2.3240 155.0570 5.9710 306.6190 1225.4700 223.7740 224.1950 215.9000 1349.2000 1.3200 2.9880 191.2040
  759.700 3.5780 454.8340 3.5600 224.2070 6.4070 2.3330 156.1130 5.5610 306.0420 1225.0300 223.9600 224.4540 215.9000 1354.0100 1.3070 2.9780 188.2170
  759.800 3.5470 453.8720 3.4980 223.2460 6.3720 2.3290 155.2490 5.5250 304.4900 1224.6700 223.9060 222.5870 215.9000 1356.2800 1.3430 2.9760 187.9500
  759.900 3.5400 452.4780 3.5880 221.5710 6.1020 2.3150 155.1580 5.6320 303.9850 1226.0100 222.5000 220.6410 215.9000 1355.5601 1.3440 2.9660 188.6420
  760.000 3.5680 451.4050 3.7700 219.7970 6.1630 2.3140 160.8460 5.8870 305.9890 1229.3600 221.7740 217.8210 215.9000 1354.4100 1.3460 2.9440 189.8140
  760.100 3.6220 449.8390 3.7740 218.0410 6.3530 2.3050 165.1460 5.5730 307.8900 1233.1500 217.2350 218.8470 215.9000 1355.5000 1.3850 2.8820 189.6130
  760.200 3.6300 449.0930 3.6000 220.9000 6.3960 2.2870 169.5970 5.7130 305.7990 1236.4301 221.4290 220.3710 215.9000 1359.8500 1.4010 2.8260 189.6670
  760.300 3.6250 447.8220 3.1000 222.4150 6.4020 2.2760 171.8610 5.4400 298.4700 1239.1100 222.5610 222.2690 215.9000 1364.6000 1.4090 2.7850 190.3950
