~Version information
  VERS.                           2.00 : CWLS log ASCII Standard -Version 2.00
  WRAP.                             NO : One line per depth step
~Well information
#MNEM.UNIT              Data Type        Information
#----------------------------------------------------------------------
  STRT.M                         0.000 :
  STOP.M                       911.000 : 
  STEP.M                         0.100 :
  NULL.                      -999.2500 : 
  WELL.                            311 : Well Name
  FLD .                       KARATUBE : Field Name
  DATE.                       10.05.05 : Log date
~Curve information
#MNEM.UNIT                               Curve Description
#----------------------------------------------------------------------
  DEPT.M                               : Depth Curve
  GZ3 .OHMM                            : App.resistivity by lateral A2.0M0.5N
  SP  .MV                              : Spontaneous potential
  LL3 .OHMM                            : Appar.resist.laterolog,3 electrodes
  CALI.MM                              : Caliper
  GR  .UR/H                            : Gamma-ray log
  RHOB.G/C3                            : Bulk density by gamma-gamma log
  CILR.MMHO                            : Conduct. by sonde 7I1.6,react.signal
  MLL .OHMM                            : Microlaterolog sonde
  DT  .US/M                            : Interval travel time
  T1  .US                              : Travel time1
  C1  .MM                              : Diameter from profile1
  C2  .MM                              : Diameter from profile2
  BSC .MM                              : 
  T2  .US                              : Travel time2
  NGLD.UE                              : Neutron-gamma log/device DRST-90
  GZ3B.OHMM                            : App.resistivity by lateral N0.5M2.0A
  CILA.MMHO                            : Conduct. by sonde 7I1.6,active signal
~Parameter information
#MNEM.UNIT              Value            Description
#----------------------------------------------------------------------
#----------------------------------------------------------------------
  BS  .MM                       215.90 : Bit Size
  DFD .G/C3                       1.14 : Drilling Fluid Density
  TDD .M                        908.00 : Total Depth Driller
  BLI .M                        911.00 : Bottom Logged Interval
~Ascii Log Data
# ...
  802.800 3.1090 461.8730 2.7040 245.4980 4.9310 2.2930 129.5550 3.7820 261.0650 1294.5900 229.9130 261.0830 215.9000 1409.0699 1.4490 3.4980 181.4410
  802.900 3.1440 462.3920 2.7960 253.2110 4.8480 2.2710 126.2510 3.6740 257.0300 1293.4500 238.8450 267.5780 215.9000 1405.8101 1.4530 3.5770 178.9680
  803.000 3.1770 463.0180 2.8620 245.1870 5.0680 2.2840 123.7350 3.9370 252.8880 1292.6300 243.9990 246.3760 215.9000 1402.6300 1.4380 3.6510 175.0210
  803.100 3.2260 463.5080 2.9300 240.5220 5.1820 2.3210 123.5620 4.1440 256.3650 1288.6600 239.1160 241.9270 215.9000 1399.4600 1.4160 3.7120 175.8110
  803.200 3.2910 463.7970 2.9880 244.3860 5.2240 2.3260 122.3570 4.3880 270.6180 1280.3700 241.0010 247.7700 215.9000 1396.5699 1.3690 3.7630 175.8280
  803.300 3.3170 463.9400 3.0400 244.4630 5.2440 2.3140 121.5220 4.3910 294.1410 1268.3300 244.9710 243.9560 215.9000 1394.3500 1.3840 3.7860 174.6710
  803.400 3.3240 464.0930 3.0620 243.4410 5.2170 2.3290 122.4860 4.1900 314.9920 1258.1400 249.3290 237.5530 215.9000 1393.1801 1.3860 3.7900 176.4300
  803.500 3.3280 464.3660 3.0500 240.4960 5.0490 2.3390 122.0880 3.9030 325.2050 1253.3900 247.7510 233.2400 215.9000 1392.9000 1.4170 3.7750 176.9470
  803.600 3.3310 464.2320 2.9860 245.8290 4.9290 2.3470 122.8150 3.6210 324.0710 1254.3000 257.4830 234.1750 215.9000 1393.1400 1.4350 3.7760 176.4940
  803.700 3.3140 464.1310 2.9440 243.6960 4.9660 2.3280 121.3110 3.6040 317.3240 1258.0300 253.1810 234.2110 215.9000 1393.4900 1.4390 3.8430 174.9630
  803.800 3.3060 464.1580 2.9180 240.0740 5.1110 2.3290 121.8150 3.5360 310.0790 1262.2500 245.6130 234.5340 215.9000 1393.8400 1.4120 3.9170 171.2880
  803.900 3.3110 464.1840 2.9300 239.1810 4.8680 2.3430 122.3490 3.5450 303.2890 1266.4700 243.6770 234.6850 215.9000 1394.1899 1.3800 4.0590 170.4390
  804.000 3.3260 464.6670 2.9400 237.8580 4.5890 2.3570 120.6110 3.5800 296.5920 1270.6899 242.7740 232.9430 215.9000 1394.7900 1.4150 4.1450 169.7950
  804.100 3.3350 465.4250 2.9740 240.1120 4.5700 2.3770 120.7220 3.5800 290.7060 1274.9100 246.6900 233.5340 215.9000 1395.6100 1.4540 4.1900 166.6020
  804.200 3.3330 466.7850 3.0200 242.1520 4.4740 2.3950 117.6430 3.5960 286.7120 1278.9000 250.7820 233.5220 215.9000 1396.4800 1.4890 4.2260 162.5250
  804.300 3.3290 466.9220 3.0820 240.9270 4.4210 2.3920 115.0510 4.0740 285.6230 1282.3600 248.5830 233.2720 215.9000 1397.7600 1.5240 4.2410 164.9070
  804.400 3.3070 466.9950 3.1460 241.8510 4.2760 2.3690 115.5520 4.2870 284.8220 1284.9500 246.8870 236.8160 215.9000 1399.7600 1.5240 4.2320 165.7300
  804.500 3.2750 467.3080 3.2060 248.5890 4.3340 2.3510 120.4860 4.0940 282.5890 1286.8199 243.2210 253.9560 215.9000 1402.6700 1.5370 4.2140 167.8860
  804.600 3.2300 467.1930 3.2260 248.6040 4.2470 2.3140 115.3010 4.5220 278.2620 1288.2700 247.6140 249.5930 215.9000 1404.8600 1.5290 4.2380 163.6260
  804.700 3.1820 466.4710 3.1960 254.5520 4.1810 2.2850 117.9630 4.3490 273.2510 1289.6300 249.3330 259.7720 215.9000 1405.6100 1.5120 4.3180 162.8030
  804.800 3.1540 465.7790 3.2240 260.0600 4.1350 2.2590 110.9670 3.7110 268.2360 1290.9800 252.5260 267.5940 215.9000 1404.9000 1.5350 4.3930 159.9550
  804.900 3.1500 465.2100 3.3640 257.8730 3.8780 2.2210 109.0060 3.7160 263.6810 1292.1100 251.5060 264.2410 215.9000 1403.7500 1.5440 4.4180 161.1510
  805.000 3.1730 464.7190 3.4260 260.6530 3.7830 2.2040 115.6930 3.4980 260.8610 1292.6801 255.0200 266.2860 215.9000 1402.6000 1.5980 4.3450 162.8890
  805.100 3.2030 464.1890 3.5780 265.9490 3.5490 2.1940 112.8520 3.7430 258.9090 1292.3700 255.3910 276.5080 215.9000 1401.4500 1.5720 4.2090 156.5030
  805.200 3.2370 463.1980 3.6000 272.7470 3.6460 2.1940 112.1290 3.8710 255.0080 1291.3101 255.9920 289.5020 215.9000 1400.6100 1.6020 4.0940 149.0630
  805.300 3.2600 462.6340 3.4780 265.9710 3.6800 2.1960 109.2370 4.0950 244.6900 1289.8300 249.6550 282.2870 215.9000 1399.3300 1.5750 4.0630 151.9060
  805.400 3.2960 461.7710 3.3020 272.2910 3.9610 2.2190 107.4390 3.6070 227.7370 1289.0200 257.2090 287.3730 215.9000 1396.3199 1.6050 4.0790 164.2080
  805.500 3.3430 461.1390 3.2600 282.2080 4.2340 2.2250 110.7830 3.2820 208.0360 1289.4200 256.8880 307.5270 215.9000 1389.6700 1.6360 4.1240 173.2950
  805.600 3.3810 460.7880 3.3020 276.9330 4.2960 2.2100 114.5980 3.3620 190.2980 1291.5800 249.8710 303.9950 215.9000 1380.3800 1.6360 4.1770 170.8340
  805.700 3.3760 460.6190 3.3420 263.1800 4.2780 2.1900 116.1660 3.6990 179.6110 1293.2600 245.1140 281.2450 215.9000 1370.9399 1.5660 4.1380 165.7430
  805.800 3.3550 460.5720 3.2800 263.6650 4.4170 2.1680 116.5670 4.2720 177.9430 1292.3500 243.9120 283.4180 215.9000 1364.2200 1.5010 4.0900 168.7080
  805.900 3.3380 460.8570 2.9660 285.2830 4.4830 2.1540 113.5700 4.0800 185.9040 1287.2500 266.7220 303.8440 215.9000 1360.5699 1.5480 4.1410 174.8390
  806.000 3.3350 461.3390 2.8380 310.0780 4.7550 2.1610 108.0810 3.5450 196.1800 1281.0500 292.4120 327.7430 215.9000 1358.8199 1.5060 4.2160 175.6980
  806.100 3.3670 462.1360 2.9500 295.8980 4.9810 2.1360 109.5830 3.5500 201.6120 1277.2800 266.2590 325.5370 215.9000 1357.7000 1.4520 4.3220 173.9600
  806.200 3.5950 463.5210 3.0360 266.0860 4.9500 2.1220 115.2720 3.5190 202.5380 1275.7700 232.8100 299.3610 215.9000 1356.6400 1.4990 4.5120 168.5010
  806.300 3.7280 464.2750 3.0120 269.4980 4.7970 2.0830 109.7220 3.7760 206.3750 1272.7900 241.4870 297.5080 215.9000 1355.5900 1.4670 4.5850 171.5810
  806.400 3.8350 464.8260 2.8960 271.8100 4.8500 2.0320 108.6080 3.5720 218.5990 1265.6300 254.1700 289.4500 215.9000 1354.5300 1.4190 4.5980 184.1840
  806.500 3.8460 465.1090 2.7080 257.0170 5.0510 2.0350 108.0740 3.7910 233.7720 1256.9800 239.2300 274.8050 215.9000 1353.4800 1.4130 4.5210 189.6950
  806.600 3.7470 465.1160 2.7040 254.8490 5.1770 2.0290 111.6310 3.3900 246.4430 1249.5900 233.6300 276.0670 215.9000 1352.4301 1.4640 4.3660 178.4900
  806.700 3.5650 465.0010 2.8620 256.6940 5.4140 2.0590 111.8460 3.5950 254.5400 1244.3800 235.5620 277.8260 215.9000 1351.3700 1.5210 4.2100 167.5640
  806.800 3.4620 465.0480 2.8520 288.7300 5.5130 2.2250 108.4800 3.5430 260.0050 1240.2100 264.7790 312.6800 215.9000 1350.3101 1.5370 4.2150 172.2380
  806.900 3.4780 464.5800 2.7500 313.1510 5.4330 2.1760 104.8760 3.5180 262.8990 1236.9000 287.1330 339.1690 215.9000 1349.1500 1.5410 4.5210 171.6860
  807.000 3.6410 464.2890 2.8920 313.0390 5.6970 2.1710 94.8550 3.3900 262.3490 1234.9399 292.7240 333.3530 215.9000 1347.7100 1.6230 4.7290 165.4000
  807.100 3.8800 463.8270 3.4440 298.9330 5.8760 2.1170 92.7620 3.6550 259.0740 1234.1300 273.8420 324.0250 215.9000 1345.8400 1.6740 5.0000 151.2820
  807.200 4.1650 463.6950 3.8660 248.2410 5.5470 2.0740 94.5480 4.8180 254.4000 1233.9800 231.7270 264.7540 215.9000 1343.6100 1.6860 5.0060 144.4450
  807.300 4.2670 463.5200 3.8320 258.2020 5.3470 2.1010 100.6400 5.3360 249.4210 1233.9800 231.4280 284.9770 215.9000 1341.1700 1.6980 4.8860 148.5380
  807.400 4.2220 462.9450 3.5740 276.5090 4.9950 2.0530 104.2240 4.1630 244.1430 1234.1500 239.1340 313.8850 215.9000 1338.6801 1.6930 4.6620 150.8760
  807.500 3.9710 462.4070 3.2660 295.6600 4.7300 2.0800 105.4910 3.3940 237.8500 1234.8000 268.3030 323.0160 215.9000 1336.1899 1.7050 4.4170 160.2040
  807.600 3.6930 462.4630 3.2460 280.2280 4.2460 2.2430 106.2060 3.3830 229.6320 1236.1801 268.4930 291.9630 215.9000 1333.7200 1.6960 4.2710 163.7280
  807.700 3.5820 463.1020 3.2560 264.4570 3.7610 2.2510 106.6580 4.1220 218.1200 1238.6899 260.0930 268.8220 215.9000 1331.2200 1.6990 4.3700 161.5990
  807.800 3.6040 463.5550 3.3980 267.4630 3.5310 2.4040 104.3300 3.6540 202.1990 1242.6300 249.0770 285.8500 215.9000 1328.5000 1.7330 4.4780 153.0530
  807.900 3.7480 464.5670 3.6920 270.5040 3.2570 2.4330 103.1360 3.3610 182.9040 1247.6200 238.9890 302.0200 215.9000 1325.2500 1.8150 4.7480 149.4170
  808.000 3.9540 465.3740 3.9860 257.0850 3.1170 2.4130 103.4660 3.6200 167.7020 1250.2200 227.9500 286.2190 215.9000 1321.2300 1.8640 4.8750 144.4280
