~Version information
  VERS.                           2.00 : CWLS log ASCII Standard -Version 2.00
  WRAP.                             NO : One line per depth step
~Well information
#MNEM.UNIT              Data Type        Information
#----------------------------------------------------------------------
  STRT.M                         0.000 :
  STOP.M                       911.000 : 
  STEP.M                         0.100 :
  NULL.                      -999.2500 : 
  WELL.                            311 : Well Name
  FLD .                       KARATUBE : Field Name
  DATE.                       10.05.05 : Log date
~Curve information
#MNEM.UNIT                               Curve Description
#----------------------------------------------------------------------
  DEPT.M                               : Depth Curve
  GZ3 .OHMM                            : App.resistivity by lateral A2.0M0.5N
  SP  .MV                              : Spontaneous potential
  LL3 .OHMM                            : Appar.resist.laterolog,3 electrodes
  CALI.MM                              : Caliper
  GR  .UR/H                            : Gamma-ray log
  RHOB.G/C3                            : Bulk density by gamma-gamma log
  CILR.MMHO                            : Conduct. by sonde 7I1.6,react.signal
  MLL .OHMM                            : Microlaterolog sonde
  DT  .US/M                            : Interval travel time
  T1  .US                              : Travel time1
  C1  .MM                              : Diameter from profile1
  C2  .MM                              : Diameter from profile2
  BSC .MM                              : 
  T2  .US                              : Travel time2
  NGLD.UE                              : Neutron-gamma log/device DRST-90
  GZ3B.OHMM                            : App.resistivity by lateral N0.5M2.0A
  CILA.MMHO                            : Conduct. by sonde 7I1.6,active signal
~Parameter information
#MNEM.UNIT              Value            Description
#----------------------------------------------------------------------
#----------------------------------------------------------------------
  BS  .MM                       215.90 : Bit Size
  DFD .G/C3                       1.14 : Drilling Fluid Density
  TDD .M                        908.00 : Total Depth Driller
  BLI .M                        911.00 : Bottom Logged Interval
~Ascii Log Data
# ...
  653.600 3.4560 426.9760 4.4240 220.1220 9.8960 2.1880 53.4390 8.5780 370.2860 1413.8000 220.7710 219.4730 215.9000 1579.5601 1.4330 15.0960 123.2460
  653.700 3.5550 429.3960 4.6360 219.6850 9.5110 2.1870 52.0990 8.5740 371.3400 1412.5601 219.9600 219.4110 215.9000 1577.7600 1.4560 16.2310 119.6250
  653.800 3.6050 430.0380 4.7060 220.1910 9.4760 2.2010 49.7490 8.5500 367.8480 1413.4301 220.4020 219.9800 215.9000 1576.4399 1.5280 16.9900 113.2690
  653.900 3.6780 430.4640 4.7840 219.7230 9.2610 2.2360 47.2310 8.4970 356.7760 1415.6000 219.4280 220.0170 215.9000 1575.7300 1.5060 18.2840 109.7550
  654.000 3.7420 430.8790 4.9620 220.1970 8.7770 2.3040 44.0620 8.6240 333.9080 1418.8300 220.0630 220.3320 215.9000 1574.8600 1.5560 19.5890 97.4940
  654.100 3.8110 431.1880 5.2780 220.0200 8.6980 2.3370 44.2260 8.8540 301.9720 1421.2100 219.7770 220.2620 215.9000 1571.4900 1.6380 20.0200 88.7270
  654.200 3.9320 431.6360 6.9500 220.5010 8.1830 2.3840 43.2590 9.6920 273.7580 1417.9600 220.0920 220.9100 215.9000 1563.2800 1.6910 21.0470 82.2990
  654.300 4.1200 431.9970 8.4000 223.7680 7.7310 2.4630 41.1160 11.9960 257.6740 1406.2000 223.8800 223.6560 215.9000 1549.6899 1.7110 21.0780 71.8720
  654.400 4.3410 432.2700 11.7540 223.4010 7.5920 2.4890 41.8940 13.4660 250.3730 1388.4500 223.4030 223.3980 215.9000 1532.3400 1.7570 20.4410 67.1630
  654.500 4.7580 432.4530 14.5560 222.7880 6.9140 2.5420 42.1910 20.4660 243.5810 1370.6400 222.4230 223.1540 215.9000 1512.5400 1.8110 19.2890 63.9930
  654.600 5.0290 432.6400 19.7740 223.3800 6.6650 2.5290 40.8030 27.7190 234.4940 1355.4600 223.4890 223.2710 215.9000 1491.1300 1.8190 17.6760 63.4150
  654.700 5.5560 432.8800 22.5300 223.0460 6.6980 2.5070 40.9350 26.7670 227.1690 1341.2000 222.5300 223.5620 215.9000 1469.9301 1.8380 15.6770 64.6020
  654.800 5.9110 433.1530 23.2140 223.5370 6.7330 2.4510 42.6510 23.4600 221.4310 1325.4500 223.7690 223.3050 215.9000 1450.2100 1.7350 14.0780 69.6290
  654.900 6.3780 433.6490 22.9460 223.5130 6.8630 2.4420 41.4400 19.2920 222.9260 1306.2700 224.1550 222.8700 215.9000 1432.2800 1.7190 12.2080 71.8050
  655.000 6.8950 434.3330 22.6800 223.8150 7.0170 2.3780 44.2380 25.9030 235.9860 1283.8000 224.8350 222.7940 215.9000 1413.6700 1.6110 10.7130 76.2050
  655.100 7.2760 434.9950 18.1200 223.4300 7.2050 2.3380 45.0250 26.9370 261.9840 1260.4301 224.3220 222.5380 215.9000 1395.2300 1.5520 9.9420 81.1890
  655.200 7.7590 435.6560 12.9520 222.8590 7.2890 2.2730 46.4440 17.3200 289.7980 1240.5800 224.5680 221.1500 215.9000 1379.3000 1.4950 9.1790 84.1900
  655.300 8.0610 436.1770 10.6540 221.0820 7.3910 2.2050 48.7740 9.1850 308.3820 1227.6600 223.3760 218.7880 215.9000 1368.9200 1.4650 8.8180 87.5350
  655.400 8.3520 436.6910 9.3100 221.9350 7.2490 2.1940 50.8430 8.9270 316.1780 1220.7000 225.0790 218.7910 215.9000 1362.9700 1.4490 8.5310 89.1810
  655.500 8.6250 437.2840 8.9720 222.6270 7.0450 2.1210 52.6710 8.9430 318.9970 1216.9000 226.3870 218.8670 215.9000 1359.3500 1.4530 8.3310 86.8220
  655.600 8.7660 437.5020 9.3480 223.6630 7.0070 2.0800 56.9870 9.0130 321.6500 1214.2100 227.8760 219.4500 215.9000 1356.2900 1.4390 8.1950 89.5810
  655.700 9.2270 437.9330 9.5240 223.2530 6.6450 2.0680 58.9280 8.7650 324.6180 1212.4900 227.5330 218.9720 215.9000 1353.9000 1.4190 8.0050 91.3500
  655.800 9.4300 437.7810 9.6780 222.4740 6.3320 2.0640 62.9840 8.7250 326.7170 1211.8800 226.2580 218.6910 215.9000 1352.5400 1.3690 7.9170 91.8580
  655.900 10.3150 437.3700 10.2360 221.8200 6.1310 2.0640 64.7640 9.1110 326.3790 1212.7500 225.0300 218.6110 215.9000 1352.2900 1.3290 7.7820 94.0390
  656.000 11.0530 437.0180 10.8760 221.2270 6.1410 2.0880 66.3210 9.3940 322.9740 1215.1600 223.8630 218.5920 215.9000 1352.7400 1.3050 7.5760 97.0160
  656.100 11.6620 436.7130 11.7540 220.1240 6.2770 2.0950 70.0050 9.2480 316.1890 1219.2600 221.6860 218.5630 215.9000 1353.4399 1.3000 7.3340 99.3640
  656.200 12.6370 436.0740 12.2020 219.1350 6.4140 2.0780 72.1800 9.1330 309.7030 1223.2000 219.7640 218.5060 215.9000 1354.1500 1.3260 7.0050 102.6290
  656.300 13.5560 435.4210 12.2900 219.7470 6.5220 2.0710 75.9230 9.0230 309.4130 1225.7300 221.0020 218.4920 215.9000 1354.8500 1.3380 6.6940 109.2690
  656.400 14.6120 434.5560 11.7960 219.6690 6.5530 2.0740 78.8260 8.8980 320.7500 1226.8900 221.0050 218.3340 215.9000 1355.5500 1.3390 6.3780 112.6690
  656.500 15.9950 433.7080 11.3620 219.9810 6.8850 2.0860 82.0100 8.8690 341.1480 1228.9301 221.4350 218.5260 215.9000 1357.9399 1.2870 6.0610 117.2920
  656.600 17.0420 432.9790 10.6900 219.9670 7.0090 2.0830 85.0030 8.8680 362.2730 1234.9100 221.5670 218.3680 215.9000 1364.7600 1.2680 5.8530 124.1600
  656.700 18.5240 431.9760 10.2300 219.9610 7.4130 2.0740 87.7810 8.9610 376.1910 1246.2400 221.5680 218.3550 215.9000 1377.0100 1.2610 5.5620 130.2150
  656.800 19.5080 431.2160 9.8160 220.2370 7.8980 2.0790 94.6920 8.9830 386.2110 1262.0800 222.1680 218.3050 215.9000 1393.5500 1.2640 5.3410 146.3710
  656.900 20.4940 430.8100 8.4060 220.6140 8.6930 2.0930 99.9290 8.9640 394.2000 1280.7600 222.6880 218.5400 215.9000 1411.8400 1.2730 5.0080 155.0500
  657.000 20.8090 430.9140 7.1860 219.8820 9.2160 2.0910 109.2790 8.7830 402.4030 1299.4301 221.1900 218.5740 215.9000 1432.6899 1.2270 4.7120 171.3740
  657.100 20.4700 431.0690 5.1620 221.2170 9.5320 2.1130 119.0800 8.2790 408.3940 1317.5601 223.3420 219.0910 215.9000 1455.3600 1.2430 4.4280 184.1360
  657.200 18.8620 431.4240 4.1660 224.5320 10.4800 2.1250 122.9260 8.0260 415.0780 1333.8000 226.9140 222.1500 215.9000 1478.1400 1.2610 4.0480 194.5170
  657.300 17.3410 431.3870 3.5680 239.4470 11.0220 2.1490 124.8360 7.9820 418.5480 1350.3900 245.3400 233.5530 215.9000 1499.2600 1.2680 3.8650 199.6170
  657.400 14.7150 431.3920 3.2260 240.6080 11.2110 2.1670 124.2010 8.0070 416.3160 1366.8000 247.6640 233.5510 215.9000 1518.8400 1.2880 3.7890 199.0630
  657.500 12.5570 431.2580 3.2300 238.2330 11.3310 2.1510 126.0350 8.0770 407.0120 1382.5500 244.7520 231.7140 215.9000 1537.1600 1.2470 3.8450 198.8660
  657.600 11.4960 431.0580 3.3960 231.0940 11.7210 2.1450 126.2960 8.2670 398.4150 1395.8199 238.4640 223.7250 215.9000 1552.4600 1.2550 3.9300 192.8480
  657.700 10.3710 431.2430 3.5760 227.2730 11.5790 2.1480 125.0030 8.5150 393.4140 1407.2500 232.7600 221.7870 215.9000 1563.5601 1.2630 4.1020 188.0370
  657.800 9.7190 431.5120 3.6740 227.5580 11.4340 2.1210 123.6190 8.4900 389.5290 1419.0000 233.0020 222.1130 215.9000 1572.5200 1.2750 4.2120 185.6730
  657.900 9.1050 431.7520 3.6780 230.4540 11.2640 2.1170 119.5110 8.3890 382.7230 1431.0200 235.8080 225.0990 215.9000 1581.4600 1.2780 4.3970 182.7430
  658.000 8.5460 431.3010 3.5840 230.6810 11.3660 2.0920 116.8910 8.2790 371.0060 1441.9800 235.6390 225.7220 215.9000 1591.2700 1.2650 4.6080 176.7670
  658.100 8.2240 430.8300 3.6420 234.8480 11.4390 2.0930 112.7700 8.2480 360.3760 1448.0601 238.1050 231.5910 215.9000 1599.8800 1.2820 4.8370 174.4830
  658.200 7.7730 430.4810 3.8940 225.1720 11.3970 2.1350 109.1470 8.3780 354.9660 1448.5601 227.6050 222.7390 215.9000 1604.9800 1.3210 5.1320 169.1750
  658.300 7.5660 430.4940 4.2460 224.1410 11.0730 2.1320 106.5820 8.7080 356.1260 1444.9800 225.6530 222.6290 215.9000 1605.7400 1.3290 5.3190 163.2440
  658.400 7.3950 430.7470 4.6160 223.6380 11.1740 2.1440 105.0270 8.8330 360.3430 1440.5000 224.6680 222.6080 215.9000 1603.5400 1.3220 5.4620 162.3420
  658.500 7.2710 430.9200 4.6940 224.1080 11.1970 2.1510 102.0830 8.8370 364.3740 1436.4000 225.8160 222.4010 215.9000 1600.5500 1.2890 5.5490 162.0800
  658.600 7.2530 430.6920 4.6900 224.7460 11.2660 2.1390 100.9130 8.8760 368.2570 1432.4000 227.0830 222.4090 215.9000 1598.1801 1.2910 5.5710 162.0930
  658.700 6.9550 430.4160 4.6740 224.2560 11.4790 2.1430 99.8700 8.7850 371.9590 1428.5800 226.0730 222.4380 215.9000 1596.0900 1.3160 5.5690 163.3010
  658.800 6.7400 430.5970 4.6220 224.8230 11.3600 2.1420 97.9430 8.6240 375.1600 1425.6000 227.2600 222.3860 215.9000 1594.0300 1.3100 5.5540 165.5690
