~Version information
  VERS.                           2.00 : CWLS log ASCII Standard -Version 2.00
  WRAP.                             NO : One line per depth step
~Well information
#MNEM.UNIT              Data Type        Information
#----------------------------------------------------------------------
  STRT.M                         0.000 :
  STOP.M                       911.000 : 
  STEP.M                         0.100 :
  NULL.                      -999.2500 : 
  WELL.                            311 : Well Name
  FLD .                       KARATUBE : Field Name
  DATE.                       10.05.05 : Log date
~Curve information
#MNEM.UNIT                               Curve Description
#----------------------------------------------------------------------
  DEPT.M                               : Depth Curve
  GZ3 .OHMM                            : App.resistivity by lateral A2.0M0.5N
  SP  .MV                              : Spontaneous potential
  LL3 .OHMM                            : Appar.resist.laterolog,3 electrodes
  CALI.MM                              : Caliper
  GR  .UR/H                            : Gamma-ray log
  RHOB.G/C3                            : Bulk density by gamma-gamma log
  CILR.MMHO                            : Conduct. by sonde 7I1.6,react.signal
  MLL .OHMM                            : Microlaterolog sonde
  DT  .US/M                            : Interval travel time
  T1  .US                              : Travel time1
  C1  .MM                              : Diameter from profile1
  C2  .MM                              : Diameter from profile2
  BSC .MM                              : 
  T2  .US                              : Travel time2
  NGLD.UE                              : Neutron-gamma log/device DRST-90
  GZ3B.OHMM                            : App.resistivity by lateral N0.5M2.0A
  CILA.MMHO                            : Conduct. by sonde 7I1.6,active signal
~Parameter information
#MNEM.UNIT              Value            Description
#----------------------------------------------------------------------
#----------------------------------------------------------------------
  BS  .MM                       215.90 : Bit Size
  DFD .G/C3                       1.14 : Drilling Fluid Density
  TDD .M                        908.00 : Total Depth Driller
  BLI .M                        911.00 : Bottom Logged Interval
~Ascii Log Data
# ...
  349.700 4.2780 383.1790 3.8620 209.7020 8.7260 2.1930 66.1730 7.0230 386.2020 1627.9500 204.3220 215.0820 215.9000 1802.3199 1.1460 5.4990 124.7380
  349.800 4.3250 382.1390 3.9920 210.8970 9.1610 2.2190 65.9560 7.0710 385.1640 1624.3700 204.1970 217.5970 215.9000 1800.2200 1.1670 5.7320 122.0750
  349.900 4.3720 381.3880 4.2020 211.9340 9.2130 2.2330 65.8420 7.3860 384.7080 1620.5900 205.6430 218.2250 215.9000 1797.9100 1.2330 5.8770 118.0340
  350.000 4.4740 380.3270 4.5560 212.5810 9.0580 2.2450 66.1650 7.4840 386.8740 1616.4600 206.3320 218.8290 215.9000 1794.9800 1.2530 5.9940 116.6470
  350.100 4.6070 379.5680 4.6240 223.4770 8.8540 2.2500 66.2300 7.6120 391.9060 1611.6400 214.5770 232.3770 215.9000 1791.1899 1.2340 6.0940 114.2990
  350.200 4.7500 379.4460 4.6900 229.4330 8.6540 2.2610 64.1610 7.7340 397.9970 1605.8600 221.8470 237.0190 215.9000 1786.5400 1.2590 6.1500 112.7060
  350.300 4.9320 379.2940 4.9520 231.4630 8.2890 2.2610 62.8770 7.7810 402.2100 1599.2700 223.6550 239.2710 215.9000 1781.4900 1.3320 6.2230 111.3830
  350.400 5.1240 379.4130 5.3540 231.7140 8.3750 2.2680 64.2510 9.8960 403.0070 1592.1100 222.1650 241.2630 215.9000 1776.8000 1.3800 6.2650 109.4750
  350.500 5.3860 379.9160 6.1100 229.9460 8.1580 2.2980 65.0290 9.6410 401.0690 1584.7000 219.3960 240.4960 215.9000 1772.7200 1.3700 6.2440 110.4530
  350.600 5.6430 380.5570 6.2360 230.3380 8.6690 2.3070 65.3300 9.4030 398.0620 1577.1500 218.2030 242.4720 215.9000 1768.6100 1.3720 6.1680 114.5790
  350.700 5.8470 381.2790 5.8020 227.9100 8.9730 2.2930 66.8670 7.6920 395.4850 1569.7900 214.7220 241.0980 215.9000 1763.3101 1.3640 6.0660 116.6660
  350.800 5.9700 382.0520 5.2820 224.6130 8.9480 2.2720 66.6630 7.3420 393.7450 1562.8600 210.7440 238.4810 215.9000 1756.1500 1.2760 5.9000 118.0440
  350.900 5.9630 382.6030 5.0200 222.7880 9.0930 2.2660 66.5300 7.3140 392.9680 1556.5300 209.1180 236.4590 215.9000 1747.8300 1.2520 5.8230 120.7150
  351.000 5.8860 384.0040 4.8740 222.6830 9.0940 2.2280 66.1330 7.3030 393.0340 1550.5699 209.9780 235.3880 215.9000 1739.3900 1.2690 5.7570 120.3160
  351.100 5.7640 385.1090 4.8000 220.9010 9.2040 2.2120 66.2420 7.1480 393.8150 1544.8101 210.0260 231.7760 215.9000 1731.7700 1.2470 5.7640 119.6170
  351.200 5.7090 385.5160 4.8020 220.5870 9.0260 2.2060 67.5490 7.2890 395.0440 1539.0800 210.3030 230.8710 215.9000 1724.9399 1.2850 5.7990 119.8150
  351.300 5.6770 385.7720 4.9420 221.0270 8.9490 2.1960 66.8730 7.4640 396.4830 1533.3700 211.4420 230.6120 215.9000 1718.7900 1.2700 5.8450 119.6220
  351.400 5.6620 386.0050 5.0300 219.2990 8.8900 2.2200 67.0240 7.5120 398.0870 1527.6801 210.0620 228.5360 215.9000 1713.1000 1.2350 5.8630 120.7690
  351.500 5.6360 386.2490 4.9240 217.9800 8.9510 2.2500 67.9570 7.3170 399.9710 1521.9800 209.5440 226.4150 215.9000 1707.7800 1.2520 5.8940 123.1550
  351.600 5.5850 386.2990 4.8160 217.5680 8.9830 2.2340 67.6470 7.2700 402.2820 1516.2700 209.7770 225.3580 215.9000 1702.7000 1.2390 5.8940 123.4970
  351.700 5.5300 387.0000 4.7320 217.2830 9.1470 2.1950 67.0730 7.3020 405.0450 1510.5400 209.9220 224.6450 215.9000 1697.7200 1.2440 5.8790 123.9410
  351.800 5.4270 387.4360 4.7000 217.3090 9.1900 2.1970 67.8750 7.3620 408.0080 1504.7800 210.8310 223.7880 215.9000 1692.8101 1.2260 5.8750 123.9060
  351.900 5.3800 387.6270 4.6720 217.1830 9.2680 2.1980 66.8600 7.4040 410.7910 1499.0000 210.7680 223.5980 215.9000 1688.0300 1.2350 5.8880 123.8440
  352.000 5.3530 387.5060 4.6360 217.5010 9.1190 2.2080 65.7510 7.3840 413.0400 1493.3101 211.9850 223.0180 215.9000 1683.4200 1.2560 5.9200 124.0640
  352.100 5.3590 387.5300 4.6100 217.0160 9.4010 2.2100 65.9920 7.3920 414.6650 1487.9000 211.1650 222.8670 215.9000 1679.0300 1.3000 5.9440 124.1630
  352.200 5.3770 387.6900 4.5580 217.5640 9.5200 2.2070 65.0160 7.3790 415.2860 1483.1700 212.2960 222.8310 215.9000 1674.8101 1.2830 5.9570 123.3260
  352.300 5.4250 388.2020 4.5120 218.3010 9.5700 2.1900 63.7400 7.4470 413.6510 1479.5699 213.3820 223.2200 215.9000 1670.8000 1.2620 5.9520 124.1510
  352.400 5.4550 388.6700 4.4400 222.4320 9.5800 2.1900 63.8130 7.4360 407.5980 1477.7200 218.7330 226.1310 215.9000 1667.1899 1.2670 5.9420 124.9750
  352.500 5.5040 388.9190 4.3820 222.5810 9.4800 2.2010 62.7820 7.4030 395.7040 1478.2900 218.8660 226.2960 215.9000 1664.4000 1.2870 5.9210 124.0980
  352.600 5.5730 389.2500 4.3900 222.6620 9.6980 2.2290 62.1150 7.4760 379.4310 1481.8500 218.7950 226.5280 215.9000 1662.8600 1.2330 5.8790 123.1020
  352.700 5.6360 389.6230 4.4880 220.8180 9.7390 2.2390 62.8990 7.5550 363.2440 1488.4301 218.0510 223.5860 215.9000 1662.6200 1.2300 5.8320 124.2230
  352.800 5.7200 389.8260 4.4620 221.3740 9.6960 2.2400 62.6970 7.4880 351.9290 1497.1899 216.3780 226.3700 215.9000 1663.1500 1.2380 5.7580 123.9000
  352.900 5.7450 390.0620 4.3280 223.2000 9.5750 2.2060 62.2680 7.6950 347.2570 1506.5800 217.0980 229.3030 215.9000 1663.7800 1.2340 5.7280 124.6240
  353.000 5.7040 390.2870 4.2280 223.5340 9.4970 2.2090 63.5930 7.7840 347.3140 1514.9000 217.4230 229.6450 215.9000 1664.4100 1.2320 5.6870 125.5020
  353.100 5.6190 390.1940 4.1920 223.2590 9.6450 2.1970 65.5880 7.4740 349.0480 1521.0900 216.4400 230.0780 215.9000 1665.7000 1.2700 5.6490 125.3560
  353.200 5.5210 389.8940 4.1520 222.1710 9.6450 2.1880 65.1090 7.3890 350.4390 1524.9500 212.5810 231.7600 215.9000 1668.3600 1.2370 5.6350 123.3810
  353.300 5.3690 388.8690 4.1300 220.7010 9.8120 2.1930 65.8030 7.3360 351.3030 1526.9100 210.5120 230.8910 215.9000 1672.2200 1.2320 5.6370 121.6370
  353.400 5.2740 388.3520 4.1080 220.1830 9.9590 2.2000 66.2100 7.3200 351.6440 1527.6300 209.1730 231.1940 215.9000 1676.1000 1.2500 5.6550 117.6290
  353.500 5.1600 387.2920 4.1920 219.5580 10.0130 2.1940 65.4540 7.3820 351.3990 1527.7900 210.1200 228.9960 215.9000 1678.9301 1.2500 5.7340 115.0260
  353.600 5.1260 386.2740 4.3400 220.0650 10.1850 2.1790 64.6980 7.4710 350.0600 1528.0500 209.4020 230.7280 215.9000 1680.3500 1.2730 5.7670 111.3220
  353.700 5.1560 385.4490 4.7760 218.8130 9.9220 2.1450 64.9100 7.5190 347.6640 1529.0100 208.7850 228.8410 215.9000 1680.9500 1.2820 5.9130 108.4780
  353.800 5.2030 384.2570 5.2040 212.6720 9.5340 2.1280 65.9640 7.5090 344.5750 1531.1200 206.8730 218.4710 215.9000 1681.3700 1.2890 6.1930 106.8120
  353.900 5.2330 383.5460 5.6420 212.2650 9.1860 2.1060 65.7590 7.3520 341.8810 1534.4301 207.6930 216.8360 215.9000 1682.2100 1.3090 6.2830 107.0850
  354.000 5.6580 382.6640 5.9080 212.6040 8.7750 2.0900 65.6180 7.3310 340.7790 1538.5800 208.9670 216.2410 215.9000 1683.6500 1.3230 6.3850 106.6170
  354.100 5.8600 381.8690 6.0240 211.7640 8.6630 2.0740 65.7670 7.3090 342.1220 1542.9500 208.3900 215.1390 215.9000 1685.7600 1.3190 6.4280 105.6710
  354.200 5.9960 381.4790 6.3440 211.8240 8.6880 2.0800 65.9570 7.3550 345.2310 1546.8600 208.5820 215.0660 215.9000 1688.3700 1.3420 6.4540 105.8550
  354.300 6.2340 381.4970 6.5540 211.8570 8.5880 2.0800 66.1960 7.4940 348.2530 1549.8101 208.7690 214.9460 215.9000 1691.3900 1.3270 6.4650 107.5840
  354.400 6.4280 381.4880 6.6740 212.5610 8.6040 2.0840 66.0930 7.5540 349.6100 1551.4700 210.8860 214.2360 215.9000 1694.7500 1.3320 6.4510 110.8340
  354.500 6.6700 381.4940 7.2140 213.2060 8.7600 2.1050 67.4060 7.7090 349.8280 1551.8000 212.4610 213.9500 215.9000 1698.3700 1.3290 6.3330 114.1280
  354.600 6.9180 382.2640 7.2440 215.0220 9.3650 2.1050 69.7070 7.8920 351.5140 1550.9500 214.5490 215.4950 215.9000 1701.5800 1.2770 6.1770 121.9180
  354.700 6.9880 383.3830 6.5200 215.4170 9.3670 2.1130 72.1650 7.8580 357.3040 1549.2200 215.0870 215.7460 215.9000 1703.4200 1.3340 5.9020 128.5980
  354.800 6.9830 384.4720 5.6220 214.8780 9.8980 2.1270 75.1770 7.5290 368.0060 1546.8199 215.2470 214.5080 215.9000 1703.2600 1.3320 5.6180 135.0390
  354.900 6.8910 385.0350 4.8700 213.8850 10.1390 2.1390 75.8470 7.3290 381.8820 1543.9000 214.7860 212.9850 215.9000 1701.6300 1.3020 5.4150 138.8500
  355.000 6.5880 385.5310 4.4140 213.9680 10.4250 2.1490 76.6820 7.3690 396.1030 1540.5000 215.0800 212.8560 215.9000 1700.0800 1.2640 5.1520 138.9050
