~Version information
  VERS.                           2.00 : CWLS log ASCII Standard -Version 2.00
  WRAP.                             NO : One line per depth step
~Well information
#MNEM.UNIT              Data Type        Information
#----------------------------------------------------------------------
  STRT.M                         0.000 :
  STOP.M                       911.000 : 
  STEP.M                         0.100 :
  NULL.                      -999.2500 : 
  WELL.                            311 : Well Name
  FLD .                       KARATUBE : Field Name
  DATE.                       10.05.05 : Log date
~Curve information
#MNEM.UNIT                               Curve Description
#----------------------------------------------------------------------
  DEPT.M                               : Depth Curve
  GZ3 .OHMM                            : App.resistivity by lateral A2.0M0.5N
  SP  .MV                              : Spontaneous potential
  LL3 .OHMM                            : Appar.resist.laterolog,3 electrodes
  CALI.MM                              : Caliper
  GR  .UR/H                            : Gamma-ray log
  RHOB.G/C3                            : Bulk density by gamma-gamma log
  CILR.MMHO                            : Conduct. by sonde 7I1.6,react.signal
  MLL .OHMM                            : Microlaterolog sonde
  DT  .US/M                            : Interval travel time
  T1  .US                              : Travel time1
  C1  .MM                              : Diameter from profile1
  C2  .MM                              : Diameter from profile2
  BSC .MM                              : 
  T2  .US                              : Travel time2
  NGLD.UE                              : Neutron-gamma log/device DRST-90
  GZ3B.OHMM                            : App.resistivity by lateral N0.5M2.0A
  CILA.MMHO                            : Conduct. by sonde 7I1.6,active signal
~Parameter information
#MNEM.UNIT              Value            Description
#----------------------------------------------------------------------
#----------------------------------------------------------------------
  BS  .MM                       215.90 : Bit Size
  DFD .G/C3                       1.14 : Drilling Fluid Density
  TDD .M                        908.00 : Total Depth Driller
  BLI .M                        911.00 : Bottom Logged Interval
~Ascii Log Data
# ...
  856.100 18.2670 450.9500 15.9320 213.8290 3.5200 2.2500 33.9520 5.8050 308.3070 1021.4600 212.4370 215.2200 215.9000 1135.9900 1.7540 15.4320 57.8900
  856.200 18.4550 451.0290 16.1800 216.1810 3.5180 2.2690 34.5860 5.0930 307.5370 1032.6100 216.4390 215.9220 215.9000 1144.1200 1.7180 14.7210 58.7040
  856.300 18.6310 451.0410 16.0980 215.3510 3.5070 2.2830 35.3610 4.3960 311.9460 1043.9200 213.4130 217.2890 215.9000 1153.1100 1.6650 14.0010 58.9750
  856.400 18.7420 451.3160 15.8660 214.6430 3.5120 2.2650 35.6540 4.0900 320.3060 1055.2100 213.4820 215.8040 215.9000 1163.8800 1.6510 13.4450 60.6560
  856.500 18.8900 452.3210 15.5500 215.4250 3.8650 2.2680 36.9530 3.8780 328.6920 1066.5100 215.3970 215.4520 215.9000 1177.3900 1.6550 12.6080 61.5750
  856.600 18.9540 452.9060 15.1620 215.3830 3.7200 2.2470 38.5570 3.6750 332.9490 1077.8000 216.2760 214.4910 215.9000 1192.8700 1.6800 12.1170 64.0390
  856.700 19.0640 453.5390 14.4840 214.7550 3.4530 2.2460 39.4920 3.6560 330.6100 1089.0601 215.8920 213.6180 215.9000 1208.3500 1.6930 11.3180 63.5000
  856.800 19.1560 453.9800 14.0580 212.4860 3.5470 2.2360 40.8880 3.6160 323.4920 1100.3199 213.9040 211.0690 215.9000 1221.7700 1.7010 10.8230 64.9730
  856.900 19.2450 454.1020 13.4840 213.3200 3.4660 2.2150 41.6890 3.8080 313.8780 1111.5699 214.8810 211.7580 215.9000 1231.8600 1.7100 10.3170 67.5170
  857.000 19.3970 453.9040 13.3140 213.3780 3.6080 2.2120 41.7900 4.0350 304.0360 1122.8199 214.3600 212.3960 215.9000 1239.5699 1.7270 9.6590 67.5110
  857.100 19.4940 453.6230 13.4240 213.5810 3.6470 2.2160 42.8150 4.0710 294.1880 1134.0699 214.2820 212.8810 215.9000 1246.0100 1.7410 9.1310 71.2980
  857.200 19.5850 453.2770 13.4260 213.2810 3.3420 2.2350 43.9880 4.4880 284.8000 1145.3199 212.7460 213.8160 215.9000 1252.3300 1.7310 8.5240 75.1670
  857.300 19.6390 452.8110 12.9900 214.4390 3.4410 2.2310 47.0360 4.7880 276.3590 1156.5699 215.5520 213.3260 215.9000 1258.6700 1.6950 7.9230 76.4470
  857.400 19.6480 452.2000 11.8060 213.7540 3.4330 2.2540 49.1650 4.5310 269.9690 1167.5200 214.0440 213.4640 215.9000 1265.2200 1.7070 7.3100 81.1490
  857.500 19.6290 451.3320 10.6620 214.5800 3.5900 2.2840 51.3960 4.1230 265.8750 1177.8600 212.8630 216.2960 215.9000 1272.2500 1.7130 6.7890 86.3380
  857.600 19.6410 451.4060 9.8880 213.9760 3.8130 2.2960 51.3020 3.5660 264.2300 1187.2400 212.1880 215.7640 215.9000 1280.0100 1.6790 6.5520 92.1600
  857.700 19.7400 450.9290 9.3840 213.0590 4.0500 2.3000 52.9590 3.5620 264.0100 1195.9399 212.2200 213.8980 215.9000 1288.2900 1.6790 6.1370 94.1380
  857.800 19.8580 450.3610 9.1460 213.5570 4.3090 2.3040 55.3570 3.6450 264.5100 1204.2800 211.8630 215.2520 215.9000 1296.8600 1.6910 5.8610 94.4380
  857.900 19.9180 449.7750 8.6060 213.5860 4.3740 2.3070 57.9330 3.6620 263.9900 1212.5900 214.0550 213.1160 215.9000 1305.4399 1.6890 5.4430 94.2470
  858.000 19.8430 449.0740 8.2620 213.7450 4.4310 2.2820 59.7570 3.7520 261.1810 1220.8900 215.7760 211.7140 215.9000 1314.0400 1.7390 5.0340 95.3010
  858.100 19.6410 448.6000 7.7240 212.1960 4.3990 2.2690 61.4580 3.9180 254.8730 1229.2000 214.3200 210.0720 215.9000 1322.0800 1.8030 4.8060 97.2980
  858.200 19.1070 448.7800 7.0600 212.3660 4.5570 2.2730 62.3000 4.2700 248.0170 1236.5100 215.6630 209.0690 215.9000 1328.9800 1.8280 4.7060 102.2080
  858.300 18.6730 449.3290 6.8720 213.4300 4.7260 2.2720 65.2800 4.5330 244.0050 1241.7400 216.2150 210.6450 215.9000 1334.1400 1.8540 4.7100 109.1010
  858.400 18.2540 450.2060 7.0960 213.7590 4.7950 2.3000 67.6630 4.5680 246.2460 1243.7900 214.8390 212.6800 215.9000 1338.0200 1.8360 4.7280 112.2290
  858.500 17.9720 451.6010 7.8720 216.0220 4.8040 2.3090 73.3890 4.3370 252.4670 1243.5200 214.4510 217.5920 215.9000 1341.2500 1.7770 4.7390 116.2740
  858.600 17.9080 452.8990 8.6820 216.5750 5.0280 2.2870 77.5900 4.3660 259.7740 1242.0500 215.9650 217.1850 215.9000 1344.4100 1.8040 4.7290 116.6400
  858.700 17.8640 454.3750 8.8080 216.1630 5.4400 2.2790 78.4140 4.7480 265.2560 1240.4700 215.4170 216.9090 215.9000 1347.2600 1.8550 4.6970 117.2090
  858.800 17.7280 455.3190 8.5060 216.6600 5.8450 2.2860 82.0310 5.0000 268.2540 1238.8900 216.2110 217.1100 215.9000 1349.4399 1.8860 4.6480 119.2680
  858.900 17.4710 456.4130 7.6620 214.9150 6.1470 2.2850 84.6710 4.9940 269.3540 1237.3101 215.0700 214.7600 215.9000 1350.6000 1.9220 4.6080 121.1890
  859.000 16.9620 457.4750 7.2360 215.6690 6.6580 2.2760 90.6870 4.9770 267.6670 1236.9600 216.5720 214.7660 215.9000 1350.5100 1.9360 4.5750 126.8080
  859.100 16.5680 457.8170 6.9120 218.0570 7.0070 2.2990 91.4990 5.2030 265.6390 1237.6700 217.8170 218.2970 215.9000 1349.4800 1.9390 4.5830 135.1650
  859.200 16.2580 458.5120 6.7260 217.4130 7.5360 2.3200 95.0220 5.5800 264.0900 1239.0500 216.1700 218.6560 215.9000 1348.3000 1.9460 4.6600 143.0830
  859.300 15.4610 458.8470 6.6860 217.7340 7.7170 2.3190 101.5100 5.5710 264.9760 1239.1801 217.6430 217.8250 215.9000 1347.9900 1.9170 4.6740 155.0500
  859.400 14.9250 458.9740 6.2700 217.1460 7.4890 2.3210 105.3330 5.0940 265.1460 1239.0900 216.0740 218.2180 215.9000 1348.6000 1.9050 4.6440 165.8450
  859.500 14.0080 458.7760 5.6880 222.7830 7.1560 2.2770 109.8650 4.0950 262.4790 1240.1500 221.7930 223.7740 215.9000 1349.1700 1.8700 4.5890 170.6260
  859.600 13.2460 458.5030 4.9520 223.9620 6.8020 2.2080 108.0380 3.7150 257.0690 1243.1600 218.0620 229.8620 215.9000 1349.1600 1.7850 4.5750 169.4030
  859.700 12.1850 458.3520 4.6380 222.5260 6.6220 2.1280 102.9660 2.7230 251.3780 1247.2700 216.6400 228.4130 215.9000 1348.8900 1.7910 4.5930 169.2060
  859.800 11.3600 458.4040 4.6640 225.9290 6.4290 2.1070 94.1400 2.8120 246.3530 1251.7600 225.2470 226.6100 215.9000 1349.1899 1.7450 4.5900 177.3930
  859.900 10.8000 458.6710 5.0840 224.5440 6.2570 2.0720 93.0930 3.8080 246.9100 1256.1100 224.3450 224.7430 215.9000 1350.4600 1.7320 4.5540 182.6210
  860.000 10.2930 458.8690 5.6200 224.4370 5.7020 2.0040 93.5340 8.8480 262.4450 1260.4500 223.0900 225.7840 215.9000 1352.4301 1.6750 4.2850 177.4350
  860.100 9.7780 459.0690 5.4640 222.9960 5.6630 1.9630 99.8460 8.6060 298.2920 1264.2600 222.5350 223.4560 215.9000 1357.0699 1.6580 4.0160 174.4120
  860.200 8.7350 459.8000 3.5960 229.1090 5.9480 1.8920 106.3690 5.0670 344.4850 1268.3199 228.0160 230.2020 215.9000 1369.1700 1.5960 3.5510 180.0540
  860.300 7.7110 460.4310 2.8380 253.9670 6.3660 1.8370 113.5330 2.3790 379.1740 1272.7000 253.1850 254.7490 215.9000 1390.9100 1.5260 3.1820 203.8940
  860.400 6.4890 460.5860 2.2700 292.8200 6.5180 1.7630 115.8240 2.3640 387.5130 1279.7200 295.3790 290.2620 215.9000 1418.0601 1.4660 2.8780 217.2480
  860.500 5.1230 460.7370 2.1600 319.9330 6.5800 1.7210 115.1880 2.3260 374.8460 1288.8000 317.8370 322.0290 215.9000 1439.7800 1.4610 2.7520 220.1840
  860.600 4.5570 460.7370 2.0520 334.2990 6.3300 1.6930 116.1270 2.3740 348.4030 1303.2700 325.0810 343.5180 215.9000 1450.9700 1.4610 2.8050 212.7990
  860.700 4.1680 460.9930 1.9760 335.7830 6.0950 1.7130 112.7580 2.2630 324.7740 1319.1400 320.7000 350.8660 215.9000 1453.7200 1.5000 3.0480 201.8040
  860.800 4.0150 461.2340 2.0540 337.8760 6.0700 1.7820 95.2880 2.1550 301.6110 1336.6801 326.4030 349.3480 215.9000 1454.9700 1.5520 3.3310 182.6870
  860.900 3.9900 461.1470 2.2900 311.2890 6.0260 2.0090 90.9220 2.1120 290.0540 1348.4700 310.5040 312.0750 215.9000 1459.0300 1.5520 3.7710 175.2650
  861.000 4.1000 460.2220 2.4500 290.9850 5.9370 2.2040 91.8510 2.0040 283.6290 1355.3300 317.5320 264.4380 215.9000 1464.9800 1.5700 4.1760 155.9030
  861.100 4.1540 459.3210 2.7240 288.0420 5.9280 2.2410 91.5330 1.8880 282.3190 1357.8000 324.0910 251.9930 215.9000 1471.0000 1.5690 4.4820 133.8140
  861.200 4.2180 457.8850 2.9640 282.1800 5.7580 2.3550 93.1910 1.8410 279.8110 1359.8600 320.2460 244.1140 215.9000 1474.6400 1.6040 4.6370 135.6580
  861.300 4.3510 456.9340 2.8800 281.8740 5.4050 2.3590 92.7420 2.0240 275.4420 1363.2700 313.7710 249.9780 215.9000 1476.4600 1.6460 4.7190 154.0160
