~Version information
  VERS.                           2.00 : CWLS log ASCII Standard -Version 2.00
  WRAP.                             NO : One line per depth step
~Well information
#MNEM.UNIT              Data Type        Information
#----------------------------------------------------------------------
  STRT.M                         0.000 :
  STOP.M                       911.000 : 
  STEP.M                         0.100 :
  NULL.                      -999.2500 : 
  WELL.                            311 : Well Name
  FLD .                       KARATUBE : Field Name
  DATE.                       10.05.05 : Log date
~Curve information
#MNEM.UNIT                               Curve Description
#----------------------------------------------------------------------
  DEPT.M                               : Depth Curve
  GZ3 .OHMM                            : App.resistivity by lateral A2.0M0.5N
  SP  .MV                              : Spontaneous potential
  LL3 .OHMM                            : Appar.resist.laterolog,3 electrodes
  CALI.MM                              : Caliper
  GR  .UR/H                            : Gamma-ray log
  RHOB.G/C3                            : Bulk density by gamma-gamma log
  CILR.MMHO                            : Conduct. by sonde 7I1.6,react.signal
  MLL .OHMM                            : Microlaterolog sonde
  DT  .US/M                            : Interval travel time
  T1  .US                              : Travel time1
  C1  .MM                              : Diameter from profile1
  C2  .MM                              : Diameter from profile2
  BSC .MM                              : 
  T2  .US                              : Travel time2
  NGLD.UE                              : Neutron-gamma log/device DRST-90
  GZ3B.OHMM                            : App.resistivity by lateral N0.5M2.0A
  CILA.MMHO                            : Conduct. by sonde 7I1.6,active signal
~Parameter information
#MNEM.UNIT              Value            Description
#----------------------------------------------------------------------
#----------------------------------------------------------------------
  BS  .MM                       215.90 : Bit Size
  DFD .G/C3                       1.14 : Drilling Fluid Density
  TDD .M                        908.00 : Total Depth Driller
  BLI .M                        911.00 : Bottom Logged Interval
~Ascii Log Data
# ...
  452.000 4.9600 408.2690 4.0040 226.0800 9.6400 1.9750 88.7970 10.2050 454.7160 1508.0400 219.9620 232.1990 215.9000 1688.9399 1.1660 4.3220 136.2490
  452.100 4.9600 408.7020 3.8780 227.0230 9.6680 1.9200 87.4370 10.1950 464.2620 1500.4301 222.9520 231.0940 215.9000 1689.1600 1.1640 4.3310 135.5990
  452.200 4.9440 409.2150 3.7720 227.4130 9.4430 1.8320 86.8220 10.1120 465.3080 1496.8500 224.0300 230.7960 215.9000 1691.7300 1.1200 4.4060 133.6860
  452.300 4.9390 409.7320 3.7260 227.5630 9.3420 1.7530 86.3440 10.0490 458.5210 1497.5000 225.4130 229.7130 215.9000 1695.9900 1.0650 4.4700 131.6180
  452.400 4.9500 410.4900 3.8320 228.0750 8.5910 1.6610 85.2450 10.1090 447.8550 1501.7400 226.3620 229.7880 215.9000 1701.7000 1.0580 4.5630 130.7930
  452.500 4.9890 411.3340 4.0960 223.9570 7.3280 1.5670 85.0540 10.6940 438.9240 1509.0500 219.6590 228.2540 215.9000 1707.1300 1.0650 4.5800 130.1190
  452.600 5.0160 411.9380 4.4960 223.7260 7.0300 1.5280 86.8740 10.9520 437.2990 1517.9301 218.9700 228.4820 215.9000 1711.9000 1.0400 4.5240 132.0420
  452.700 5.0190 412.4870 4.4640 223.8450 6.8010 1.5490 87.2030 10.5400 442.8950 1526.5601 218.1400 229.5500 215.9000 1715.8101 0.9940 4.4080 135.5020
  452.800 4.9730 412.2840 4.0980 219.3310 7.0400 1.6140 88.2660 9.7790 451.1580 1533.3900 212.8790 225.7830 215.9000 1719.3600 1.0240 4.3040 136.3030
  452.900 4.8530 411.5420 3.8140 213.7510 7.8180 1.7030 89.9290 9.6630 455.1420 1538.5500 205.3590 222.1430 215.9000 1723.5300 1.0200 4.1900 137.7960
  453.000 4.7420 410.4460 3.7780 215.8650 8.4220 1.7610 92.1980 9.7130 451.3700 1543.0500 204.2960 227.4340 215.9000 1729.5400 1.0040 4.1340 142.4920
  453.100 4.6420 409.0440 3.6860 216.6780 8.6270 1.7990 93.6320 10.0520 440.2970 1548.1899 201.3610 231.9960 215.9000 1737.5000 1.0430 4.1490 141.3610
  453.200 4.5250 407.7330 3.5240 212.0910 8.9820 1.8780 95.3360 9.5970 426.2360 1554.4800 193.6230 230.5590 215.9000 1746.1300 1.1060 4.2230 140.6950
  453.300 4.4580 406.9560 3.3420 207.5710 9.3000 1.9350 92.6260 9.5080 413.7510 1561.8600 193.0130 222.1280 215.9000 1753.2600 1.1110 4.2600 139.9490
  453.400 4.3620 405.4160 3.3200 208.0130 9.7310 2.0190 91.4910 9.5020 406.3860 1569.6899 194.8520 221.1730 215.9000 1757.6700 1.1280 4.2820 137.3900
  453.500 4.2800 404.0610 3.4100 213.3940 10.0870 2.0870 90.1210 9.7220 404.7420 1577.3300 202.9730 223.8160 215.9000 1759.5100 1.1380 4.2740 135.1860
  453.600 4.1310 402.7910 3.6060 220.9710 10.1730 2.1010 89.0930 10.0170 406.9090 1584.1200 213.7610 228.1810 215.9000 1760.3101 1.1980 4.2580 134.5710
  453.700 3.9950 401.5970 3.7620 222.3290 10.0000 2.1230 88.1750 10.0910 409.9630 1589.5601 216.7340 227.9230 215.9000 1761.7000 1.2400 4.2410 133.6530
  453.800 3.9460 400.7450 3.8840 222.0550 9.9770 2.1220 87.9650 10.0810 412.4120 1593.4301 217.3740 226.7360 215.9000 1764.8101 1.1950 4.2420 133.1420
  453.900 3.9540 399.9570 3.9280 221.8560 10.4050 2.1200 88.2160 10.0970 414.8450 1595.8199 216.3150 227.3970 215.9000 1769.4399 1.2060 4.2920 134.8640
  454.000 3.9910 399.6510 3.9280 221.4800 10.6640 2.1180 88.2140 10.0320 418.5390 1597.1300 215.7280 227.2310 215.9000 1774.3800 1.1990 4.3440 136.1330
  454.100 4.0220 399.7440 3.8640 222.0920 11.0170 2.1170 88.8250 10.0060 423.7670 1597.8101 216.2170 227.9660 215.9000 1778.3101 1.2080 4.4290 138.2500
  454.200 4.0640 400.1470 3.8100 223.4370 10.7910 2.1110 89.2320 10.0060 429.4260 1598.2300 217.2530 229.6200 215.9000 1780.8400 1.2290 4.5520 140.2630
  454.300 4.0890 400.6220 3.7420 224.9650 10.9120 2.1020 89.0510 9.9920 433.8660 1598.6899 218.1440 231.7860 215.9000 1782.7300 1.2440 4.6110 139.2980
  454.400 4.1200 401.8760 3.6700 226.2290 10.8940 2.0750 89.6000 10.0300 435.9940 1599.3800 217.4860 234.9710 215.9000 1785.0000 1.2330 4.7560 139.4040
  454.500 4.1560 402.8280 3.6180 229.0360 10.1540 2.0520 88.9990 10.0750 435.4740 1600.4700 218.7110 239.3620 215.9000 1788.0699 1.1080 4.8270 140.1450
  454.600 4.1790 403.9140 3.4880 229.4910 10.1140 2.0330 87.9620 9.9800 432.5750 1602.0500 218.0070 240.9740 215.9000 1791.5900 1.1340 4.9980 138.5540
  454.700 4.1780 405.5160 3.4300 232.1710 9.7350 2.0230 87.4590 9.9700 427.6880 1604.0601 220.1440 244.1980 215.9000 1794.9000 1.1710 5.0410 136.8480
  454.800 4.1580 406.2250 3.4080 232.3930 9.7880 2.0250 86.7440 9.9810 421.1300 1606.2900 218.9140 245.8730 215.9000 1797.5400 1.1900 5.0290 134.9220
  454.900 4.0870 407.0080 3.3880 231.3480 9.3720 2.0430 85.4240 9.8750 413.8260 1608.2800 216.0310 246.6650 215.9000 1799.3000 1.2140 4.9910 134.6420
  455.000 3.9830 407.7380 3.3820 231.1010 9.2300 2.0800 84.8960 9.8550 407.4200 1609.4700 213.6630 248.5400 215.9000 1800.0800 1.2690 4.9440 132.2840
  455.100 3.8620 408.2960 3.4380 231.3980 9.5800 2.0990 83.1250 9.9020 404.2080 1609.2800 214.2050 248.5910 215.9000 1799.6300 1.2570 4.9130 131.2690
  455.200 3.7860 408.7490 3.5260 234.3440 9.4370 2.0990 81.6410 10.0510 405.1480 1607.3400 218.3890 250.2990 215.9000 1797.5400 1.2330 4.9030 129.6310
  455.300 3.7730 409.1480 3.6780 240.2370 9.7340 2.0960 80.9520 10.2430 409.5290 1603.6200 227.3440 253.1300 215.9000 1793.7000 1.2070 4.8990 129.4770
  455.400 3.7860 409.8320 3.7700 250.0430 9.7950 2.1090 81.2510 10.2380 414.9080 1598.5300 241.6910 258.3950 215.9000 1788.5500 1.2280 4.8440 130.4320
  455.500 3.7880 409.9600 3.7820 264.7990 9.3300 2.1160 81.0340 10.2970 419.1130 1592.6600 255.5650 274.0340 215.9000 1783.2300 1.2110 4.7620 131.8230
  455.600 3.7860 410.0320 3.7400 260.5460 9.0710 2.1070 81.5480 10.2970 420.8360 1586.5699 260.1660 260.9250 215.9000 1778.6100 1.1810 4.6160 133.3710
  455.700 3.7810 410.1320 3.6200 275.1430 9.1180 2.0860 82.9380 10.2020 420.3790 1580.6700 285.1860 265.1010 215.9000 1774.9301 1.2260 4.4650 137.1910
  455.800 3.7730 410.3090 3.4420 290.4670 9.1430 2.0980 83.2140 10.0360 418.8030 1575.3199 307.7030 273.2320 215.9000 1771.5300 1.2310 4.3840 137.7860
  455.900 3.7470 410.4740 3.3060 290.3050 9.2040 2.1080 83.0230 10.0350 417.0570 1570.9600 313.4920 267.1180 215.9000 1767.7300 1.2400 4.3270 136.5790
  456.000 3.7360 410.5990 3.2820 266.3880 9.2360 2.0700 83.0750 10.1130 414.9910 1567.9700 271.8060 260.9690 215.9000 1763.2400 1.2380 4.3060 137.1200
  456.100 3.7630 410.7040 3.2820 270.5130 9.5240 2.0500 82.5010 10.0150 411.8710 1566.4000 270.5770 270.4480 215.9000 1758.6600 1.2460 4.3160 136.7610
  456.200 3.8090 410.8230 3.3020 281.4340 9.6770 2.0640 82.9120 9.9730 407.4090 1565.9301 287.6680 275.1990 215.9000 1754.8700 1.2190 4.3270 134.7100
  456.300 3.8390 410.8880 3.3260 276.1320 9.8380 2.0700 82.4700 10.0370 402.6840 1566.0400 285.6580 266.6060 215.9000 1752.4301 1.2240 4.3200 134.7620
  456.400 3.8920 410.6740 3.3640 262.6030 9.6370 2.0770 81.2540 10.1560 399.1290 1566.3000 262.0350 263.1700 215.9000 1750.9301 1.2530 4.2900 135.0610
  456.500 3.9330 410.5880 3.4000 255.6440 9.9720 2.0740 81.5030 10.2270 397.7800 1566.5400 253.3650 257.9230 215.9000 1749.4800 1.2690 4.2470 130.4340
  456.600 3.9830 410.4090 3.4820 252.6950 9.8180 2.0800 80.7300 10.2010 398.2580 1566.7500 248.0620 257.3280 215.9000 1747.5100 1.2780 4.1560 130.1210
  456.700 4.0780 410.2330 3.5360 246.4440 9.8640 2.0950 79.0160 10.1690 399.9300 1566.9500 240.5340 252.3530 215.9000 1745.3800 1.2440 4.0270 126.9140
  456.800 4.1510 410.0080 3.5680 239.7240 9.7740 2.0910 78.4530 10.2260 402.4950 1566.9301 231.6060 247.8420 215.9000 1743.8199 1.2320 3.8530 124.1270
  456.900 4.2950 408.3630 3.9400 232.2690 9.6670 2.0790 78.3250 10.3610 406.6920 1566.3600 221.5960 242.9420 215.9000 1743.3400 1.2660 3.6580 123.1840
  457.000 4.4240 407.1040 4.1960 227.6020 9.2730 2.0720 77.9520 10.8000 413.3590 1564.9100 218.5540 236.6500 215.9000 1743.5601 1.2160 3.6190 123.1320
  457.100 4.5700 406.0100 4.4700 226.4840 9.3900 2.0630 79.5290 10.7980 422.3150 1562.5300 216.5850 236.3840 215.9000 1743.8199 1.1900 3.6720 124.2440
  457.200 4.7010 404.7540 4.5220 227.4210 9.4600 2.0460 81.2230 10.6660 432.0620 1559.5300 217.5480 237.2940 215.9000 1743.6500 1.1810 3.7580 126.4190
  457.300 4.7430 404.0810 4.4640 227.1920 9.1630 2.0320 83.6600 10.5280 440.2280 1556.4301 217.9520 236.4330 215.9000 1743.3800 1.1940 3.7940 126.7680
