~Version information
  VERS.                           2.00 : CWLS log ASCII Standard -Version 2.00
  WRAP.                             NO : One line per depth step
~Well information
#MNEM.UNIT              Data Type        Information
#----------------------------------------------------------------------
  STRT.M                         0.000 :
  STOP.M                       911.000 : 
  STEP.M                         0.100 :
  NULL.                      -999.2500 : 
  WELL.                            311 : Well Name
  FLD .                       KARATUBE : Field Name
  DATE.                       10.05.05 : Log date
~Curve information
#MNEM.UNIT                               Curve Description
#----------------------------------------------------------------------
  DEPT.M                               : Depth Curve
  GZ3 .OHMM                            : App.resistivity by lateral A2.0M0.5N
  SP  .MV                              : Spontaneous potential
  LL3 .OHMM                            : Appar.resist.laterolog,3 electrodes
  CALI.MM                              : Caliper
  GR  .UR/H                            : Gamma-ray log
  RHOB.G/C3                            : Bulk density by gamma-gamma log
  CILR.MMHO                            : Conduct. by sonde 7I1.6,react.signal
  MLL .OHMM                            : Microlaterolog sonde
  DT  .US/M                            : Interval travel time
  T1  .US                              : Travel time1
  C1  .MM                              : Diameter from profile1
  C2  .MM                              : Diameter from profile2
  BSC .MM                              : 
  T2  .US                              : Travel time2
  NGLD.UE                              : Neutron-gamma log/device DRST-90
  GZ3B.OHMM                            : App.resistivity by lateral N0.5M2.0A
  CILA.MMHO                            : Conduct. by sonde 7I1.6,active signal
~Parameter information
#MNEM.UNIT              Value            Description
#----------------------------------------------------------------------
#----------------------------------------------------------------------
  BS  .MM                       215.90 : Bit Size
  DFD .G/C3                       1.14 : Drilling Fluid Density
  TDD .M                        908.00 : Total Depth Driller
  BLI .M                        911.00 : Bottom Logged Interval
~Ascii Log Data
# ...
  552.900 4.5400 424.8150 3.7280 268.9790 9.2840 1.7720 112.7170 10.3940 381.1070 1450.4301 304.0340 233.9250 215.9000 1604.1500 1.2010 3.9050 159.4710
  553.000 4.4460 425.5800 3.6080 284.6290 9.6310 1.8550 113.6050 10.1180 383.1150 1462.4600 334.4230 234.8350 215.9000 1614.0100 1.2140 3.8650 161.3880
  553.100 4.4150 426.2290 3.5600 282.8220 10.3300 1.8950 114.3450 10.0260 386.9880 1472.2400 329.0660 236.5770 215.9000 1622.9900 1.1840 3.9280 161.0010
  553.200 4.4350 426.5280 3.4520 281.0170 10.5290 1.8960 117.5200 10.0010 389.3150 1479.6801 329.8820 232.1510 215.9000 1631.6300 1.2080 3.9590 163.3270
  553.300 4.4620 426.2180 3.3860 286.7830 10.8240 1.8710 119.8580 10.0090 385.8930 1485.0400 338.6720 234.8950 215.9000 1640.2900 1.1900 4.0110 166.6790
  553.400 4.4070 426.1710 3.3340 284.8170 10.8270 1.8610 121.4560 9.9690 381.0820 1488.7800 329.4410 240.1930 215.9000 1648.7300 1.1980 3.9510 167.0960
  553.500 4.3210 426.0810 3.2520 284.9880 10.7870 1.8600 122.9980 10.0090 377.1240 1491.4200 332.3210 237.6560 215.9000 1656.0300 1.2150 3.8540 168.1010
  553.600 4.2080 425.6860 3.1700 280.3390 10.6730 1.8490 123.0640 10.2410 370.1470 1493.2700 325.6610 235.0160 215.9000 1660.9399 1.2300 3.7990 169.9670
  553.700 4.1780 425.1530 3.0880 293.6170 10.5830 1.8260 121.2810 9.8470 364.8000 1494.4399 340.7550 246.4800 215.9000 1661.8600 1.2380 3.8400 169.1020
  553.800 4.2470 424.3060 3.1860 295.4180 10.1870 1.7980 121.3300 9.8940 361.8410 1494.8500 331.1250 259.7110 215.9000 1661.3101 1.2490 4.0320 167.0080
  553.900 4.3720 423.3620 3.3640 238.3890 9.9830 1.8280 122.5080 10.8310 361.1990 1494.3500 239.7010 237.0760 215.9000 1660.5100 1.2610 4.1740 168.0300
  554.000 4.5900 422.6610 3.6820 230.4580 9.7630 1.8980 123.3760 11.1350 362.3290 1492.9100 225.7020 235.2140 215.9000 1657.4301 1.2620 4.2960 169.9300
  554.100 4.8230 422.7160 3.8860 227.4080 8.9700 1.9280 127.2580 11.0070 364.4240 1490.6801 221.8700 232.9450 215.9000 1654.2500 1.2530 4.3220 173.4790
  554.200 4.8910 422.9400 3.9520 225.7130 8.5640 1.9520 130.3310 11.0830 366.4790 1487.9600 220.3230 231.1030 215.9000 1651.3300 1.2610 4.2840 179.2600
  554.300 4.8580 423.4510 3.7900 222.1900 8.2780 1.9870 130.9170 10.4030 367.3840 1485.0601 218.6600 225.7190 215.9000 1648.7800 1.2750 4.1300 183.1110
  554.400 4.7380 424.0340 3.6060 220.1810 7.9200 2.0140 132.3610 10.2930 366.1680 1482.2200 217.8570 222.5060 215.9000 1646.6200 1.2790 4.0540 184.0840
  554.500 4.5780 424.6070 3.4440 220.4370 8.0900 2.0510 132.7390 10.2470 362.4310 1479.5500 218.5940 222.2790 215.9000 1644.7700 1.3230 4.0070 184.2330
  554.600 4.3640 424.8380 3.4460 219.8200 8.3300 2.0780 132.0120 10.5330 356.6110 1477.0300 217.3540 222.2850 215.9000 1642.9600 1.2930 4.0250 185.6760
  554.700 4.2920 424.8690 3.4820 220.1810 8.5030 2.0880 131.0840 10.4490 349.7200 1474.5601 218.0310 222.3320 215.9000 1640.7400 1.3190 4.0930 184.3370
  554.800 4.2220 424.8240 3.5180 220.4090 8.7820 2.0910 130.8860 10.4720 342.4850 1471.9600 218.4300 222.3870 215.9000 1637.6100 1.3300 4.2140 181.4670
  554.900 4.1420 424.7390 3.5560 220.6320 8.9920 2.0820 129.2130 10.5970 334.5540 1469.0500 218.5410 222.7240 215.9000 1633.2700 1.3690 4.3210 175.6020
  555.000 4.0460 424.5610 3.6800 221.8090 8.6600 2.0730 125.8750 10.6730 324.7070 1465.7200 219.7320 223.8850 215.9000 1627.7700 1.3800 4.3990 171.5020
  555.100 3.8850 424.0440 3.7660 223.3150 8.7320 2.0760 123.3600 11.3030 312.2780 1461.9500 221.5200 225.1110 215.9000 1621.4100 1.4150 4.5040 168.7390
  555.200 3.7990 423.2630 4.0360 223.7180 8.6180 2.1130 118.1610 18.4640 298.8090 1457.7100 222.0910 225.3460 215.9000 1614.4600 1.4600 4.5230 167.0060
  555.300 3.7490 422.1370 5.1500 223.2710 8.4890 2.1370 117.1400 45.7290 288.2540 1452.6400 222.1890 224.3540 215.9000 1606.7300 1.4580 4.3790 165.1550
  555.400 3.8140 421.3880 7.2780 222.8480 8.6190 2.1580 119.2190 75.4210 285.1940 1445.9399 222.5700 223.1250 215.9000 1597.5601 1.4650 4.1860 163.7120
  555.500 3.9510 420.2630 8.2600 222.7500 8.7350 2.1750 120.6410 52.5510 292.0230 1436.4800 222.4440 223.0560 215.9000 1586.2800 1.4590 3.9760 166.7220
  555.600 4.0890 419.1130 7.6300 222.5200 8.9180 2.1690 121.5480 42.0060 307.2940 1423.4000 222.1340 222.9060 215.9000 1572.8400 1.3600 3.8250 170.1800
  555.700 4.1790 418.1450 5.8520 219.7210 9.2660 2.1640 123.3210 20.6000 326.2980 1406.7800 217.9490 221.4920 215.9000 1558.1100 1.3220 3.7500 170.9710
  555.800 4.1930 416.6560 3.8820 219.1260 9.7990 2.1580 122.8320 11.0450 343.5050 1387.9600 216.5170 221.7350 215.9000 1543.5000 1.2790 3.7640 171.8570
  555.900 4.1010 415.3530 3.7800 219.7700 10.3110 2.1580 121.4690 10.7750 355.0450 1369.1700 217.1550 222.3850 215.9000 1530.2900 1.2660 3.8170 169.5760
  556.000 3.9740 414.8660 3.8320 220.4670 10.7890 2.1690 121.4240 10.9450 359.9040 1352.6400 218.2650 222.6700 215.9000 1519.1100 1.2540 3.8880 167.1780
  556.100 3.9210 414.5740 3.8800 220.3560 11.4050 2.1740 121.0970 10.9120 359.4740 1339.7400 217.2990 223.4120 215.9000 1509.8199 1.2350 3.9250 166.1780
  556.200 3.9270 414.5040 3.9160 220.2280 11.5580 2.1820 119.6410 10.8860 356.2920 1330.6300 218.0510 222.4050 215.9000 1501.8900 1.2640 3.9330 166.9090
  556.300 3.9650 414.4390 3.9260 220.0880 11.4580 2.1920 120.2440 10.9010 352.7840 1324.5900 217.7200 222.4550 215.9000 1494.7600 1.2920 3.9210 166.6900
  556.400 4.0060 414.5070 3.8880 220.6240 11.2290 2.1970 121.8790 10.8600 350.5530 1320.5601 218.5900 222.6580 215.9000 1488.0800 1.2900 3.9210 168.2570
  556.500 4.0160 415.0430 3.8060 220.7360 10.9440 2.1850 120.9500 10.7520 350.1820 1317.6700 218.2130 223.2580 215.9000 1481.8300 1.2810 3.9350 169.8090
  556.600 4.0000 415.8370 3.7820 221.8160 11.0050 2.1690 121.0800 10.8070 351.4420 1315.4200 219.6870 223.9440 215.9000 1476.2100 1.2920 3.9680 169.8430
  556.700 3.9770 416.7180 3.7920 221.6440 11.2030 2.1690 121.1630 10.9600 353.6760 1313.6100 219.4060 223.8820 215.9000 1471.5601 1.2820 3.9960 168.5030
  556.800 3.9430 417.8180 3.8020 220.3820 11.3950 2.1830 120.5250 10.8640 356.2510 1312.2200 219.2460 221.5170 215.9000 1468.1899 1.3120 4.0300 169.0910
  556.900 3.9350 418.5720 3.8160 218.7520 11.0330 2.2050 119.4980 10.7490 358.9500 1311.2700 218.5900 218.9140 215.9000 1466.2000 1.2900 4.0560 168.5050
  557.000 3.9360 419.4930 3.8920 218.7140 11.1580 2.1950 119.7240 10.6900 362.2030 1310.7900 218.5390 218.8900 215.9000 1465.4399 1.3040 4.0780 167.8330
  557.100 3.9510 420.7550 3.9580 218.5880 10.9530 2.1740 118.4900 10.7580 367.0370 1310.8900 217.8070 219.3690 215.9000 1465.6100 1.3460 4.1010 168.2750
  557.200 3.9830 421.3710 4.0120 219.9120 10.7920 2.1650 116.9380 10.7480 374.5340 1311.8101 218.3430 221.4820 215.9000 1466.4100 1.3560 4.1170 167.9510
  557.300 4.0630 422.2430 4.0200 219.6450 10.7950 2.1660 117.3300 10.7470 385.0000 1313.9700 217.2510 222.0390 215.9000 1467.8600 1.3790 4.1300 168.3330
  557.400 4.1330 422.7350 4.0020 221.1960 10.8220 2.1780 116.5670 10.7070 397.2780 1317.8400 220.2790 222.1130 215.9000 1470.4200 1.3870 4.1350 170.7780
  557.500 4.1980 423.2180 3.9640 220.6780 11.0590 2.1840 115.8500 10.6820 409.0440 1323.8600 219.4070 221.9490 215.9000 1474.9800 1.3570 4.1360 171.2490
  557.600 4.2410 423.6900 3.9280 220.4340 10.9360 2.1730 116.5610 10.6570 417.9060 1332.1200 218.9940 221.8740 215.9000 1482.6100 1.3870 4.1230 171.3750
  557.700 4.2390 424.0300 3.8360 220.0080 10.9690 2.1650 116.0610 10.5810 422.6410 1342.2600 219.3450 220.6700 215.9000 1493.8600 1.3960 4.1020 172.9840
  557.800 4.1270 424.5260 3.7800 219.6910 10.7230 2.1670 114.8990 10.4870 423.3330 1353.4900 218.8610 220.5210 215.9000 1508.2600 1.3870 4.0680 171.6770
  557.900 3.9900 424.4120 3.7560 220.1500 10.4240 2.1630 113.3860 10.4810 420.6110 1364.8199 219.7230 220.5770 215.9000 1524.2800 1.3820 4.0520 166.9470
  558.000 3.8610 424.4960 3.7380 219.5820 10.7400 2.1490 111.9690 10.4620 414.7120 1375.4399 218.6520 220.5110 215.9000 1539.9399 1.3410 4.0470 165.5250
  558.100 3.7610 424.7940 3.7160 220.5360 10.9340 2.1330 109.0950 10.4310 405.5990 1384.9301 220.3530 220.7200 215.9000 1553.6400 1.3370 4.0520 162.3330
