~Version information
  VERS.                           2.00 : CWLS log ASCII Standard -Version 2.00
  WRAP.                             NO : One line per depth step
~Well information
#MNEM.UNIT              Data Type        Information
#----------------------------------------------------------------------
  STRT.M                         0.000 :
  STOP.M                       911.000 : 
  STEP.M                         0.100 :
  NULL.                      -999.2500 : 
  WELL.                            311 : Well Name
  FLD .                       KARATUBE : Field Name
  DATE.                       10.05.05 : Log date
~Curve information
#MNEM.UNIT                               Curve Description
#----------------------------------------------------------------------
  DEPT.M                               : Depth Curve
  GZ3 .OHMM                            : App.resistivity by lateral A2.0M0.5N
  SP  .MV                              : Spontaneous potential
  LL3 .OHMM                            : Appar.resist.laterolog,3 electrodes
  CALI.MM                              : Caliper
  GR  .UR/H                            : Gamma-ray log
  RHOB.G/C3                            : Bulk density by gamma-gamma log
  CILR.MMHO                            : Conduct. by sonde 7I1.6,react.signal
  MLL .OHMM                            : Microlaterolog sonde
  DT  .US/M                            : Interval travel time
  T1  .US                              : Travel time1
  C1  .MM                              : Diameter from profile1
  C2  .MM                              : Diameter from profile2
  BSC .MM                              : 
  T2  .US                              : Travel time2
  NGLD.UE                              : Neutron-gamma log/device DRST-90
  GZ3B.OHMM                            : App.resistivity by lateral N0.5M2.0A
  CILA.MMHO                            : Conduct. by sonde 7I1.6,active signal
~Parameter information
#MNEM.UNIT              Value            Description
#----------------------------------------------------------------------
#----------------------------------------------------------------------
  BS  .MM                       215.90 : Bit Size
  DFD .G/C3                       1.14 : Drilling Fluid Density
  TDD .M                        908.00 : Total Depth Driller
  BLI .M                        911.00 : Bottom Logged Interval
~Ascii Log Data
# ...
  398.300 4.3010 394.2100 3.8920 221.9530 11.8340 2.1410 96.8640 8.7360 426.0950 1554.1700 220.1270 223.7790 215.9000 1739.6500 1.2520 3.8410 146.8980
  398.400 4.2260 393.4420 3.8820 220.2810 11.6390 2.1380 98.4710 8.7250 431.7580 1553.5601 216.7740 223.7880 215.9000 1739.1801 1.2400 3.8650 148.5410
  398.500 4.2100 393.3470 3.7500 222.0050 11.5780 2.1420 98.6210 8.5680 436.3970 1553.0200 218.3570 225.6530 215.9000 1739.7100 1.2550 3.9090 149.9290
  398.600 4.1940 393.7600 3.5400 224.6940 11.1380 2.1260 97.9570 8.4220 439.9340 1552.9100 219.6310 229.7570 215.9000 1741.2300 1.2630 3.9900 149.6580
  398.700 4.1820 394.3030 3.4220 226.6690 10.8410 2.1180 97.7580 8.3810 442.7140 1553.5100 224.0020 229.3360 215.9000 1743.5601 1.2230 4.0660 150.2100
  398.800 4.1550 395.1600 3.4080 228.4610 10.3410 2.1100 97.1240 8.4890 444.4990 1554.8000 225.4180 231.5030 215.9000 1746.2900 1.1880 4.1240 149.2680
  398.900 4.1070 396.1850 3.4780 224.9320 10.1090 2.1390 96.6180 8.7780 444.8530 1556.6500 217.6350 232.2300 215.9000 1749.2100 1.1880 4.1730 147.2090
  399.000 4.0530 396.8360 3.5600 229.4010 10.2670 2.1480 96.9970 8.7850 443.6400 1558.9301 222.5330 236.2680 215.9000 1752.2700 1.2180 4.1760 148.2530
  399.100 3.9760 398.0930 3.5600 229.1190 10.2500 2.1430 96.6270 8.6360 441.2760 1561.5400 221.4180 236.8190 215.9000 1755.5100 1.1700 4.1610 149.5570
  399.200 3.9300 399.0370 3.5120 228.9170 10.4590 2.1290 97.9040 8.5220 438.4590 1564.2700 221.9380 235.8970 215.9000 1758.6801 1.2470 4.1530 149.5840
  399.300 3.8950 399.4200 3.4580 233.5400 10.3890 2.1150 97.6840 8.4910 435.8530 1566.8600 230.1610 236.9200 215.9000 1761.4600 1.2240 4.1700 150.3420
  399.400 3.8850 399.8720 3.4320 233.4060 10.2890 2.0960 97.3220 8.5120 434.1800 1569.0601 231.4150 235.3970 215.9000 1763.5900 1.2390 4.2160 150.8700
  399.500 3.8920 400.2680 3.4360 232.9980 10.4610 2.1080 98.3250 8.5740 433.9660 1570.8199 232.7580 233.2390 215.9000 1765.0000 1.2580 4.2610 149.8370
  399.600 3.9190 401.0360 3.4520 228.0500 10.7540 2.1150 97.9580 8.5470 435.1730 1572.3400 222.7530 233.3470 215.9000 1765.7900 1.2410 4.3290 149.9600
  399.700 3.9310 401.5030 3.4500 231.1460 10.8260 2.1140 96.9240 8.4900 437.0140 1573.8400 226.3670 235.9250 215.9000 1766.2500 1.1890 4.3420 150.5430
  399.800 3.9260 401.5770 3.4580 231.3250 10.9600 2.1030 97.0920 8.4980 438.2470 1575.4900 222.7660 239.8840 215.9000 1766.9301 1.2100 4.3380 149.2440
  399.900 3.8970 401.3640 3.4780 232.4720 10.8300 2.0880 96.4560 8.4730 437.8480 1577.2500 228.0730 236.8710 215.9000 1768.3300 1.2320 4.3210 150.3740
  400.000 3.8800 401.1560 3.4860 231.8900 10.3630 2.0840 96.1140 8.4590 435.0390 1579.0300 225.0940 238.6860 215.9000 1770.5699 1.2190 4.3100 152.2960
  400.100 3.8360 401.3790 3.4500 227.1440 10.0640 2.0760 97.2520 8.4420 429.4950 1580.7900 220.7040 233.5850 215.9000 1773.2500 1.2280 4.3100 151.6430
  400.200 3.7980 401.6280 3.4340 226.2290 9.5620 2.0950 97.5760 8.4680 421.4770 1582.6200 219.7630 232.6950 215.9000 1775.6500 1.2400 4.3230 150.6740
  400.300 3.7560 401.6080 3.4180 225.6130 9.6460 2.0930 96.5600 8.5130 412.5880 1584.7000 218.6760 232.5490 215.9000 1777.2100 1.2480 4.3540 150.8560
  400.400 3.6850 401.6400 3.4060 229.3400 9.7490 2.0880 95.5460 8.4850 405.3210 1587.1100 222.3180 236.3630 215.9000 1777.6400 1.2600 4.4070 150.1100
  400.500 3.6510 401.8940 3.3880 228.2160 9.8180 2.0840 94.2620 8.4330 402.1200 1589.6600 218.4910 237.9410 215.9000 1776.9399 1.2770 4.4710 148.0000
  400.600 3.6000 402.5650 3.4240 226.7020 9.8490 2.0840 93.0270 8.4510 403.7430 1591.8800 217.4040 236.0000 215.9000 1775.3500 1.2430 4.5760 147.5050
  400.700 3.5770 403.0370 3.5280 225.8500 10.0910 2.0980 90.1850 8.5790 409.0620 1593.2400 216.7250 234.9760 215.9000 1773.4500 1.2670 4.6460 144.7370
  400.800 3.5740 403.5840 3.7720 227.5270 10.1510 2.0920 89.5280 8.7830 415.8140 1593.4900 216.1160 238.9380 215.9000 1772.0400 1.2500 4.7200 143.7070
  400.900 3.5890 404.2850 3.8560 224.5940 10.0900 2.0910 88.5680 8.7780 421.9190 1592.8000 215.8820 233.3070 215.9000 1771.8000 1.2240 4.7750 145.8580
  401.000 3.6040 404.6050 3.8400 225.8220 9.8140 2.0990 87.0020 8.6590 426.1630 1591.6899 217.4150 234.2280 215.9000 1772.8700 1.2400 4.8100 144.9750
  401.100 3.6170 404.8710 3.8260 226.2740 9.8990 2.1250 86.7530 8.6590 427.8460 1590.7800 218.2490 234.2990 215.9000 1774.8300 1.2510 4.8170 145.2070
  401.200 3.6360 404.7100 3.8360 220.4040 9.7740 2.1260 86.5760 8.6390 426.8490 1590.4301 214.5700 226.2370 215.9000 1777.1000 1.2550 4.8070 148.0090
  401.300 3.6210 404.0890 3.7820 219.3150 9.5340 2.1180 85.1550 8.5990 423.5840 1590.6700 214.1680 224.4610 215.9000 1779.2400 1.2460 4.8190 148.6310
  401.400 3.6040 402.8100 3.6900 219.5850 9.2940 2.0880 83.4110 8.5960 419.5140 1591.2900 214.2640 224.9070 215.9000 1781.0100 1.2280 4.8600 145.7650
  401.500 3.5900 401.9020 3.5760 222.3770 9.4210 2.0730 81.8510 8.6540 416.2690 1592.0300 216.3770 228.3760 215.9000 1782.0900 1.2170 4.9150 146.1010
  401.600 3.5830 400.6200 3.5460 226.6540 9.8990 2.0700 80.3020 8.6840 414.7750 1592.7300 220.3270 232.9810 215.9000 1782.2100 1.2340 5.0110 145.5710
  401.700 3.5920 399.8870 3.5580 227.4740 9.9060 2.0800 78.1760 8.6060 414.5250 1593.2700 221.6790 233.2680 215.9000 1781.3199 1.2450 5.1960 142.4300
  401.800 3.6420 398.6890 3.6660 225.1170 10.0580 2.1030 77.3340 8.7040 414.3310 1593.5400 219.6740 230.5600 215.9000 1779.9800 1.2740 5.3710 142.3320
  401.900 3.7000 396.8670 3.7400 222.1630 10.0080 2.1170 76.3870 8.7380 413.2470 1593.4399 216.9230 227.4040 215.9000 1778.9000 1.2500 5.5330 142.5410
  402.000 3.7240 395.9830 3.7540 222.6070 10.0760 2.1040 74.7870 8.6950 411.1950 1592.9600 216.5290 228.6840 215.9000 1778.4301 1.2180 5.7140 141.4070
  402.100 3.7330 394.4700 3.6680 223.4960 10.2820 2.1030 74.6430 8.6780 408.6350 1592.1000 217.2850 229.7070 215.9000 1778.2000 1.2540 5.9040 139.0740
  402.200 3.7110 393.6990 3.6260 224.9440 10.2290 2.0900 72.5140 8.6920 406.3800 1590.8199 218.9160 230.9710 215.9000 1777.6300 1.2650 6.0930 136.4770
  402.300 3.6760 393.1640 3.6500 223.9740 9.8940 2.1010 68.5570 8.6750 405.3310 1589.0100 217.2400 230.7070 215.9000 1776.2300 1.3050 6.2640 132.4490
  402.400 3.6230 393.3780 3.7380 224.2170 9.8320 2.1190 67.3150 8.7110 406.1250 1586.5900 216.7060 231.7290 215.9000 1773.9200 1.3200 6.4960 125.6450
  402.500 3.6080 393.7290 3.9380 224.1480 9.6350 2.1170 66.1910 8.8410 408.7110 1583.6801 216.0470 232.2500 215.9000 1770.8199 1.2740 6.6660 120.6390
  402.600 3.6190 394.2780 4.2440 225.9410 9.3550 2.1060 65.2290 8.8970 412.0560 1580.5601 217.0000 234.8820 215.9000 1767.2800 1.2630 6.8890 116.2720
  402.700 3.6810 395.1590 4.4380 223.2800 9.4820 2.0930 62.2920 9.0310 414.9860 1577.4900 215.3610 231.2000 215.9000 1763.8400 1.2180 6.9950 111.4150
  402.800 3.7660 396.4080 4.8180 220.8340 9.1250 2.1030 62.1000 9.1840 416.7420 1574.5400 216.6690 224.9990 215.9000 1761.1200 1.2220 7.1040 110.5840
  402.900 3.8980 397.6550 4.9620 218.7470 9.0940 2.1110 61.3010 9.1730 417.3440 1571.5500 215.0280 222.4650 215.9000 1759.3500 1.2560 7.1840 109.5290
  403.000 4.0030 398.9480 5.1320 219.6890 8.8150 2.0930 59.0550 9.0690 417.1940 1568.2000 219.0450 220.3320 215.9000 1758.0699 1.2720 7.2140 109.2730
  403.100 4.1380 400.2540 5.2800 218.9300 8.6890 2.0750 58.9150 9.1650 416.9210 1564.2400 218.6280 219.2310 215.9000 1756.5400 1.3060 7.1930 110.7370
  403.200 4.2280 400.9460 5.3000 218.4440 8.5350 2.0830 59.2710 9.1520 417.2610 1559.6100 218.0810 218.8070 215.9000 1754.0699 1.2660 7.1550 112.6580
  403.300 4.3010 401.7050 5.2320 218.5550 8.6560 2.0790 58.3470 9.0320 418.4480 1554.7000 217.1430 219.9670 215.9000 1750.4100 1.2630 7.0810 112.9020
  403.400 4.3900 402.4750 5.2300 217.4910 8.7580 2.0560 58.5890 9.1660 419.9630 1550.1801 216.0340 218.9490 215.9000 1745.7100 1.2610 6.9810 113.8630
  403.500 4.4280 403.4300 5.2720 218.1050 8.9440 2.0260 59.7600 9.1660 420.0740 1546.7500 217.3010 218.9080 215.9000 1740.6600 1.2670 6.8840 112.8550
  403.600 4.4520 404.2940 5.1740 217.5610 8.5900 2.0010 60.7250 9.3280 416.8650 1544.6300 216.3330 218.7900 215.9000 1736.3101 1.2600 6.6810 111.4360
