~Version information
  VERS.                           2.00 : CWLS log ASCII Standard -Version 2.00
  WRAP.                             NO : One line per depth step
~Well information
#MNEM.UNIT              Data Type        Information
#----------------------------------------------------------------------
  STRT.M                         0.000 :
  STOP.M                       911.000 : 
  STEP.M                         0.100 :
  NULL.                      -999.2500 : 
  WELL.                            311 : Well Name
  FLD .                       KARATUBE : Field Name
  DATE.                       10.05.05 : Log date
~Curve information
#MNEM.UNIT                               Curve Description
#----------------------------------------------------------------------
  DEPT.M                               : Depth Curve
  GZ3 .OHMM                            : App.resistivity by lateral A2.0M0.5N
  SP  .MV                              : Spontaneous potential
  LL3 .OHMM                            : Appar.resist.laterolog,3 electrodes
  CALI.MM                              : Caliper
  GR  .UR/H                            : Gamma-ray log
  RHOB.G/C3                            : Bulk density by gamma-gamma log
  CILR.MMHO                            : Conduct. by sonde 7I1.6,react.signal
  MLL .OHMM                            : Microlaterolog sonde
  DT  .US/M                            : Interval travel time
  T1  .US                              : Travel time1
  C1  .MM                              : Diameter from profile1
  C2  .MM                              : Diameter from profile2
  BSC .MM                              : 
  T2  .US                              : Travel time2
  NGLD.UE                              : Neutron-gamma log/device DRST-90
  GZ3B.OHMM                            : App.resistivity by lateral N0.5M2.0A
  CILA.MMHO                            : Conduct. by sonde 7I1.6,active signal
~Parameter information
#MNEM.UNIT              Value            Description
#----------------------------------------------------------------------
#----------------------------------------------------------------------
  BS  .MM                       215.90 : Bit Size
  DFD .G/C3                       1.14 : Drilling Fluid Density
  TDD .M                        908.00 : Total Depth Driller
  BLI .M                        911.00 : Bottom Logged Interval
~Ascii Log Data
# ...
  600.600 1.7940 428.8720 2.2540 218.5570 9.5860 2.1180 227.0880 9.0930 387.0160 1443.6700 218.7730 218.3410 215.9000 1614.8101 1.3620 1.9880 206.6310
  600.700 1.7640 429.1080 2.2600 218.2440 9.5040 2.0960 228.8960 9.1620 386.0880 1443.8900 218.1340 218.3540 215.9000 1614.8000 1.3500 2.0260 203.1460
  600.800 1.7400 429.1130 2.3200 218.6380 9.4140 2.0690 223.4560 9.2710 384.7090 1444.2000 218.9540 218.3210 215.9000 1614.6801 1.3480 2.0550 202.4650
  600.900 1.7450 428.9790 2.3800 218.5710 9.3800 2.0610 222.2010 9.3150 383.0710 1444.6100 218.8780 218.2650 215.9000 1614.4301 1.3580 2.1060 200.0610
  601.000 1.7480 428.9050 2.4520 218.3950 9.5280 2.0690 223.6130 9.3730 382.0710 1444.9600 218.4800 218.3100 215.9000 1614.0601 1.3860 2.1310 198.4550
  601.100 1.7650 428.9000 2.5360 218.5430 9.4790 2.0780 221.3050 9.4160 382.2640 1444.8600 218.7990 218.2860 215.9000 1613.6400 1.3690 2.1550 199.2510
  601.200 1.7840 428.8460 2.5660 218.6440 9.3650 2.0910 223.0120 9.4160 383.3280 1444.3500 218.9990 218.2880 215.9000 1613.5000 1.3520 2.1640 198.6480
  601.300 1.7980 428.9720 2.5980 218.5540 9.3650 2.1010 226.7140 9.4230 383.9870 1443.6600 218.7860 218.3210 215.9000 1613.4900 1.3420 2.1660 198.9050
  601.400 1.8280 429.8680 2.6100 218.0820 9.3470 2.1080 225.4320 9.4320 384.2520 1443.0300 217.7390 218.4250 215.9000 1613.5200 1.3750 2.1640 200.5090
  601.500 1.8480 430.3150 2.6100 217.8560 9.4170 2.1060 224.9220 9.4200 384.2780 1442.4900 217.4600 218.2520 215.9000 1613.1600 1.3650 2.1610 200.5330
  601.600 1.8680 431.4090 2.6100 217.9780 9.7280 2.1090 231.1130 9.3980 384.6800 1442.1300 217.6280 218.3290 215.9000 1612.6600 1.3610 2.1630 200.7480
  601.700 1.8740 431.9380 2.6260 218.3620 9.4200 2.1150 229.8070 9.3620 385.4560 1441.8101 218.4730 218.2520 215.9000 1612.1300 1.3210 2.1700 203.9660
  601.800 1.8790 432.2370 2.6320 217.7520 9.5690 2.1110 233.8860 9.3670 386.5650 1441.5100 217.1770 218.3280 215.9000 1611.9600 1.3410 2.1750 203.9130
  601.900 1.8810 432.4740 2.6160 218.1730 9.4750 2.1040 232.8230 9.3700 387.5800 1441.1000 218.0780 218.2680 215.9000 1612.0400 1.3360 2.1840 203.5470
  602.000 1.8750 432.2910 2.5880 217.9790 9.3660 2.0980 234.6850 9.3410 387.4990 1440.8700 217.6060 218.3520 215.9000 1612.2900 1.3320 2.1910 206.5870
  602.100 1.8720 431.6690 2.5420 218.5850 9.3470 2.0970 236.1300 9.3030 386.4390 1440.8400 218.8510 218.3180 215.9000 1612.3900 1.3500 2.2050 205.5090
  602.200 1.8720 430.8540 2.5240 218.5740 9.4140 2.0740 233.5240 9.3010 385.0830 1441.0100 218.8440 218.3040 215.9000 1612.1200 1.3450 2.2230 205.0650
  602.300 1.8580 430.2860 2.5040 218.5690 9.5110 2.0470 234.0120 9.2830 384.2600 1441.1100 218.8370 218.3010 215.9000 1611.5601 1.3800 2.2540 207.6280
  602.400 1.8470 429.2630 2.4880 218.3510 9.1050 2.0500 233.4260 9.2260 383.9610 1441.0900 218.3070 218.3960 215.9000 1611.0601 1.3460 2.3130 207.2610
  602.500 1.8380 428.4800 2.4760 218.8220 9.1460 2.0450 231.8460 9.1960 384.1260 1440.8900 219.3920 218.2520 215.9000 1610.7400 1.3440 2.3480 207.5100
  602.600 1.8180 426.6610 2.4740 218.2210 9.3000 2.0390 229.9000 9.1840 384.6660 1440.6600 218.1150 218.3270 215.9000 1610.5699 1.3650 2.4020 208.0890
  602.700 1.8040 425.2280 2.4740 218.6350 9.1120 2.0480 224.8460 9.1850 385.0840 1440.3199 219.0280 218.2410 215.9000 1610.4600 1.3650 2.4330 208.9650
  602.800 1.7850 424.3640 2.4800 217.5050 9.0260 2.0810 223.1850 9.2090 384.4660 1439.7800 216.7590 218.2520 215.9000 1610.4900 1.3810 2.4460 209.7120
  602.900 1.7660 422.8320 2.4900 218.0100 8.8880 2.0960 219.0840 9.2350 382.9050 1438.9600 217.6850 218.3360 215.9000 1610.3600 1.3540 2.4270 212.2780
  603.000 1.7590 422.0380 2.5120 218.0270 8.8460 2.0870 212.1430 9.2920 381.2250 1438.0800 217.7440 218.3110 215.9000 1609.5100 1.3610 2.3920 215.5500
  603.100 1.7550 421.4550 2.5040 218.0630 8.9080 2.0650 209.4000 9.2830 380.4630 1437.4600 217.7110 218.4160 215.9000 1607.9200 1.3270 2.3270 216.4070
  603.200 1.7600 421.1230 2.4940 217.6910 8.8830 2.0620 203.0950 9.2600 380.5620 1437.1500 217.0530 218.3290 215.9000 1606.2000 1.3340 2.2890 220.4990
  603.300 1.7600 421.1140 2.4760 217.5340 8.7060 2.0510 197.8130 9.2710 381.0830 1437.0699 216.7020 218.3650 215.9000 1605.1899 1.3320 2.2850 221.8140
  603.400 1.7580 421.8480 2.4600 217.1650 8.6670 2.0430 195.4130 9.2870 381.4910 1437.1500 215.9120 218.4190 215.9000 1604.9301 1.3940 2.3190 222.8130
  603.500 1.7590 422.5910 2.4240 218.5270 8.6560 2.0450 189.9920 9.2060 381.6300 1437.3300 218.7740 218.2790 215.9000 1605.1100 1.3320 2.3360 223.1960
  603.600 1.7510 424.0170 2.3260 218.4450 8.5820 2.0520 186.3210 9.1020 381.4980 1437.5699 218.5480 218.3420 215.9000 1605.3900 1.3580 2.4210 221.8110
  603.700 1.7430 425.0340 2.2560 218.6720 8.7540 2.0630 183.0770 9.0420 381.2070 1437.7600 218.8810 218.4630 215.9000 1605.6500 1.3670 2.5580 216.2300
  603.800 1.7300 426.1020 2.1740 218.8480 8.8500 2.0660 177.7680 9.0340 381.0400 1438.0000 219.3110 218.3840 215.9000 1605.8199 1.3720 2.6200 214.4800
  603.900 1.7120 427.1090 2.1680 218.5740 8.7640 2.0730 172.4710 9.0640 381.1500 1438.2500 218.7010 218.4480 215.9000 1605.8700 1.4070 2.6590 211.5000
  604.000 1.7150 427.5540 2.2180 218.0970 8.8200 2.0950 170.7320 9.1520 381.7140 1438.4200 217.9210 218.2730 215.9000 1606.0200 1.3750 2.6640 206.4660
  604.100 1.7270 427.9970 2.3220 216.7480 8.9550 2.1200 168.7650 9.1230 382.0730 1438.4500 215.1510 218.3450 215.9000 1606.3300 1.3730 2.6810 204.8010
  604.200 1.7520 428.4230 2.3740 216.9190 8.7210 2.1320 165.0380 9.0730 381.2510 1438.3400 216.2020 217.6370 215.9000 1606.7700 1.3550 2.7110 196.0410
  604.300 1.7710 428.7170 2.4080 216.2430 8.5640 2.1340 163.3060 9.0290 376.4140 1438.0900 215.7380 216.7480 215.9000 1606.9800 1.4340 2.7790 180.4560
  604.400 1.8330 429.2260 2.4220 216.5940 8.6390 2.1370 159.7290 8.9500 362.1870 1437.6899 216.3630 216.8250 215.9000 1606.4700 1.4390 2.9280 168.7920
  604.500 1.8930 429.2050 2.4720 216.6970 8.4940 2.1900 152.4550 8.8990 335.7110 1437.3900 216.4720 216.9220 215.9000 1603.8000 1.4250 3.0750 152.5840
  604.600 2.0200 429.1230 2.7180 217.4880 8.1950 2.2060 150.6040 9.1690 300.9920 1437.0100 217.4150 217.5610 215.9000 1596.2900 1.4560 3.3320 145.0910
  604.700 2.1970 428.9230 3.0880 219.4620 7.8940 2.2840 144.7950 10.3660 272.4600 1434.7600 219.3090 219.6150 215.9000 1582.7400 1.5120 3.3810 135.5170
  604.800 2.3560 428.5190 4.3980 221.3150 7.6120 2.3760 142.9490 14.1330 260.2240 1428.9399 222.2890 220.3410 215.9000 1565.0000 1.5380 3.3730 134.5160
  604.900 2.6050 428.3440 5.5980 221.9400 7.3670 2.3940 143.0830 16.1710 266.4820 1418.6100 223.2490 220.6300 215.9000 1548.4900 1.5720 3.2170 134.7210
  605.000 2.7830 428.3360 6.2000 222.2460 7.2440 2.4230 157.7910 12.0680 282.4310 1405.6700 224.4280 220.0640 215.9000 1536.5500 1.5880 3.0290 150.0260
  605.100 2.9180 428.8160 6.0100 221.6530 7.2960 2.3830 166.4730 20.4130 300.7120 1391.7100 222.9660 220.3400 215.9000 1529.3500 1.5750 2.7690 160.5810
  605.200 2.9970 429.3470 5.1120 221.0050 7.4020 2.3560 183.1170 14.6350 312.3800 1379.0200 221.8390 220.1720 215.9000 1524.3800 1.5370 2.5320 170.9030
  605.300 2.9900 429.7560 3.6680 219.5730 7.3820 2.3640 190.6670 9.1460 312.0220 1368.4900 220.2380 218.9070 215.9000 1519.5699 1.5160 2.3730 176.4670
  605.400 2.8690 430.6290 3.2460 219.5000 7.8910 2.3190 193.6340 8.9700 299.4740 1360.7400 219.3610 219.6390 215.9000 1512.7100 1.4900 2.2570 176.6100
  605.500 2.7530 431.0430 2.7820 220.3660 7.8400 2.2740 194.1210 8.9460 281.6470 1354.7500 220.4290 220.3040 215.9000 1502.0000 1.5210 2.2280 173.4530
  605.600 2.5950 431.5990 2.9560 220.5330 7.8700 2.2790 193.1410 9.0080 265.9820 1349.4700 220.7160 220.3500 215.9000 1487.9800 1.5540 2.1960 170.9340
  605.700 2.5250 431.8020 3.3360 220.8910 7.7400 2.2690 193.3600 10.9410 254.4490 1343.5000 221.3220 220.4600 215.9000 1473.0699 1.5780 2.1540 168.3310
  605.800 2.5500 431.8830 4.8880 221.6220 7.7440 2.3330 199.5420 17.7100 252.9340 1334.4700 221.8990 221.3460 215.9000 1459.9600 1.6020 2.0770 166.7100
