~Version information
  VERS.                           2.00 : CWLS log ASCII Standard -Version 2.00
  WRAP.                             NO : One line per depth step
~Well information
#MNEM.UNIT              Data Type        Information
#----------------------------------------------------------------------
  STRT.M                         0.000 :
  STOP.M                       911.000 : 
  STEP.M                         0.100 :
  NULL.                      -999.2500 : 
  WELL.                            311 : Well Name
  FLD .                       KARATUBE : Field Name
  DATE.                       10.05.05 : Log date
~Curve information
#MNEM.UNIT                               Curve Description
#----------------------------------------------------------------------
  DEPT.M                               : Depth Curve
  GZ3 .OHMM                            : App.resistivity by lateral A2.0M0.5N
  SP  .MV                              : Spontaneous potential
  LL3 .OHMM                            : Appar.resist.laterolog,3 electrodes
  CALI.MM                              : Caliper
  GR  .UR/H                            : Gamma-ray log
  RHOB.G/C3                            : Bulk density by gamma-gamma log
  CILR.MMHO                            : Conduct. by sonde 7I1.6,react.signal
  MLL .OHMM                            : Microlaterolog sonde
  DT  .US/M                            : Interval travel time
  T1  .US                              : Travel time1
  C1  .MM                              : Diameter from profile1
  C2  .MM                              : Diameter from profile2
  BSC .MM                              : 
  T2  .US                              : Travel time2
  NGLD.UE                              : Neutron-gamma log/device DRST-90
  GZ3B.OHMM                            : App.resistivity by lateral N0.5M2.0A
  CILA.MMHO                            : Conduct. by sonde 7I1.6,active signal
~Parameter information
#MNEM.UNIT              Value            Description
#----------------------------------------------------------------------
#----------------------------------------------------------------------
  BS  .MM                       215.90 : Bit Size
  DFD .G/C3                       1.14 : Drilling Fluid Density
  TDD .M                        908.00 : Total Depth Driller
  BLI .M                        911.00 : Bottom Logged Interval
~Ascii Log Data
# ...
  295.700 8.2280 399.6890 5.9200 233.4490 7.0240 2.0600 60.5080 6.4680 467.7750 1681.8101 236.5820 230.3160 215.9000 1876.3000 1.3330 5.2740 103.7120
  295.800 8.2280 399.6890 5.9200 233.4490 7.0240 2.0830 60.5080 6.3630 470.9660 1686.0000 236.5820 230.3160 215.9000 1883.4700 1.3330 5.2740 103.7120
  295.900 8.3240 399.3000 5.9680 229.1200 6.7780 2.0370 62.9600 6.3280 473.4970 1689.0400 230.3690 227.8710 215.9000 1890.0900 1.3360 5.1640 105.1900
  296.000 8.4350 399.0080 5.9520 227.1510 7.4460 2.0370 66.1740 6.3280 474.6890 1691.1700 227.7580 226.5440 215.9000 1895.7800 1.3270 5.0080 106.8760
  296.100 8.5130 398.6170 5.7560 229.6920 7.0540 2.0240 69.3920 6.4590 474.2690 1692.7300 232.7090 226.6750 215.9000 1900.4301 1.3490 4.7800 112.0690
  296.200 8.5200 398.3110 5.6160 229.5780 6.9220 2.0180 69.0070 6.5260 472.5930 1694.1100 229.4970 229.6590 215.9000 1904.1500 1.3160 4.6810 113.0860
  296.300 8.5200 398.3110 5.6160 229.5780 6.9220 2.0330 69.0070 6.5460 470.5540 1695.5100 229.4970 229.6590 215.9000 1906.9800 1.3160 4.6810 113.0860
  296.400 8.5010 397.8210 5.5100 228.6860 7.1100 2.0140 71.8660 6.4890 469.2320 1696.9900 228.0390 229.3340 215.9000 1908.9500 1.3120 4.6290 115.9010
  296.500 8.4530 396.3970 5.4400 225.9390 7.3120 2.0140 73.2160 6.4890 469.4370 1698.4399 226.8170 225.0600 215.9000 1910.1500 1.3150 4.5030 116.8500
  296.600 8.4130 393.1270 5.3120 232.7240 7.7070 1.9970 76.0800 6.4260 471.3630 1699.6700 240.4470 225.0010 215.9000 1910.7800 1.3300 4.3390 122.0250
  296.700 8.4020 391.6580 5.3040 239.9430 7.9810 1.9840 78.8110 6.2790 474.5020 1700.5100 256.2140 223.6710 215.9000 1911.2100 1.3290 4.2550 125.9300
  296.800 8.4020 391.6580 5.3040 239.9430 7.9810 1.9800 78.8110 6.7980 477.8460 1700.8600 256.2140 223.6710 215.9000 1911.7900 1.3290 4.2550 125.9300
  296.900 8.3850 389.5900 5.2580 239.3840 8.4330 1.9810 81.9300 6.3520 480.3130 1700.7500 256.9140 221.8530 215.9000 1912.7300 1.3180 4.1730 129.5050
  297.000 8.3480 387.3090 5.1320 236.7550 8.3640 1.9810 83.9430 6.3520 481.1620 1700.3101 250.8430 222.6670 215.9000 1914.0500 1.3050 4.0580 131.9950
  297.100 8.1500 382.5120 4.4040 221.5480 9.3740 1.9910 87.9350 6.4160 480.2730 1699.7600 226.5460 216.5500 215.9000 1915.5000 1.2510 3.7950 138.6770
  297.200 7.9320 379.6960 4.1900 220.6150 10.1690 2.0210 89.6680 6.0990 478.0380 1699.3101 225.2450 215.9860 215.9000 1916.7300 1.2100 3.7110 141.9910
  297.300 7.9320 379.6960 4.1900 220.6150 10.1690 2.0170 89.6680 5.8230 475.1440 1699.0500 225.2450 215.9860 215.9000 1917.4200 1.2100 3.7110 141.9910
  297.400 7.7340 377.7370 3.9860 217.0170 10.6740 2.0060 90.1730 5.7530 472.2440 1698.9800 221.5820 212.4520 215.9000 1917.3900 1.2170 3.6590 144.0270
  297.500 7.3660 376.0860 3.9400 214.6050 10.9750 2.0060 90.3690 5.7530 469.9070 1699.0100 220.7540 208.4550 215.9000 1916.6899 1.2250 3.6090 144.1990
  297.600 6.7910 373.3680 3.6900 214.1380 10.2340 2.0180 91.2260 5.7290 468.6030 1699.0300 216.4910 211.7840 215.9000 1915.5000 1.1920 3.5570 147.4840
  297.700 6.5830 372.2340 3.6280 210.0320 10.2640 2.0160 90.8990 5.7170 468.6620 1698.9800 212.5690 207.4950 215.9000 1914.0800 1.1880 3.5500 149.5860
  297.800 6.5830 372.2340 3.6280 210.0320 10.2640 2.0180 90.8990 5.7150 470.0660 1698.8600 212.5690 207.4950 215.9000 1912.6500 1.1880 3.5500 149.5860
  297.900 6.3990 371.6360 3.5760 210.6650 10.3720 2.0210 92.6020 5.7490 472.2880 1698.7100 213.4930 207.8370 215.9000 1911.4301 1.1770 3.5280 150.2070
  298.000 6.1750 371.2040 3.5640 210.7860 10.6470 2.0210 92.8010 5.7490 474.3810 1698.6300 211.7200 209.8520 215.9000 1910.6600 1.1980 3.5120 151.6110
  298.100 5.5880 371.7010 3.3400 209.4740 10.7580 2.0200 91.7350 5.7300 475.2040 1698.6400 212.5930 206.3540 215.9000 1910.5500 1.1390 3.5790 152.0400
  298.200 5.3820 372.9090 3.2800 211.7370 10.6650 1.9820 90.3700 5.7050 473.8260 1698.7200 214.0940 209.3800 215.9000 1911.1600 1.2030 3.6670 150.4420
  298.300 5.3820 372.9090 3.2800 211.7370 10.6650 1.9720 90.3700 5.7250 469.5850 1698.8500 214.0940 209.3800 215.9000 1912.2900 1.2030 3.6670 150.4420
  298.400 5.2040 374.0100 3.2520 211.4630 10.2850 1.9670 88.1010 5.7080 462.6410 1699.0300 210.4400 212.4860 215.9000 1913.4200 1.1860 3.8010 147.9510
  298.500 5.0400 375.5000 3.2980 204.8020 10.3130 1.9670 85.4760 5.7080 453.6950 1699.4100 204.2920 205.3120 215.9000 1913.9500 1.2100 3.9940 143.3330
  298.600 4.8320 377.4220 3.5620 201.5760 10.0280 1.9830 82.4730 5.7160 444.7330 1699.9100 207.7870 195.3640 215.9000 1913.4500 1.2070 4.2850 137.9970
  298.700 4.7350 378.4760 3.6240 211.0440 9.7450 2.0100 80.3320 5.7880 438.4150 1700.3900 218.2520 203.8360 215.9000 1911.7000 1.2400 4.3530 136.4290
  298.800 4.7350 378.4760 3.6240 211.0440 9.7450 2.0220 80.3320 5.9790 437.7210 1700.3800 218.2520 203.8360 215.9000 1908.7300 1.2400 4.3530 136.4290
  298.900 4.6560 379.0300 3.7260 218.8020 9.8140 2.0230 79.5120 5.9450 442.9040 1699.4399 222.6260 214.9770 215.9000 1904.7400 1.2180 4.4260 135.8370
  299.000 4.6110 379.8230 3.7700 219.6700 10.1870 2.0230 79.2020 5.9450 451.2270 1697.1300 223.1320 216.2080 215.9000 1900.2400 1.2020 4.5030 137.8910
  299.100 4.6300 380.4130 3.7480 210.6520 10.0150 2.0240 78.4850 5.8550 458.0720 1693.9600 211.5980 209.7050 215.9000 1896.1500 1.2360 4.7210 137.9450
  299.200 4.6660 380.3070 3.7200 214.1240 10.0910 2.0430 78.1590 5.8410 460.1090 1691.1801 214.6650 213.5830 215.9000 1893.4900 1.1960 4.9780 137.0390
  299.300 4.6660 380.3070 3.7200 214.1240 10.0910 2.0350 78.1590 5.8750 456.9120 1690.3800 214.6650 213.5830 215.9000 1892.9100 1.1960 4.9780 137.0390
  299.400 4.6870 380.3790 3.6760 212.1030 10.0500 2.0230 77.1740 5.8330 449.6090 1692.1801 214.7700 209.4350 215.9000 1894.3000 1.1330 5.1600 136.0920
  299.500 4.6710 380.7280 3.6520 210.5180 10.5650 2.0230 75.6950 5.8330 440.9090 1695.9000 211.3540 209.6830 215.9000 1896.9100 1.1410 5.3610 134.3630
  299.600 4.5250 380.8770 3.7540 208.8800 10.5060 2.0350 74.4120 5.8160 432.1980 1700.3000 212.8860 204.8750 215.9000 1899.7400 1.1280 5.6050 132.0040
  299.700 4.4280 381.1940 3.8460 209.5350 10.4160 2.0280 72.9230 5.8290 425.4900 1703.7600 211.3930 207.6770 215.9000 1901.8500 1.1260 5.6400 131.7870
  299.800 4.4280 381.1940 3.8460 209.5350 10.4160 2.1010 72.9230 5.8370 421.4380 1705.5300 211.3930 207.6770 215.9000 1902.6100 1.1260 5.6400 131.7870
  299.900 4.2940 381.5620 3.9460 208.6300 10.7050 2.1140 72.6210 5.8830 421.1670 1704.9800 211.7360 205.5250 215.9000 1901.7100 1.1480 5.6330 129.6880
  300.000 4.1510 381.6260 3.9400 209.3960 10.3990 2.1140 72.5730 5.8830 424.4330 1702.4900 214.1780 204.6130 215.9000 1899.1300 1.1930 5.6270 129.2750
  300.100 3.9640 383.1950 4.0460 216.4450 10.2290 2.1220 70.3180 5.9630 430.4230 1698.4301 221.9150 210.9740 215.9000 1895.2200 1.2340 5.6540 126.7950
  300.200 3.8940 383.9940 4.1380 220.0580 10.2570 2.1280 70.0850 6.0180 436.6300 1693.4900 226.0670 214.0480 215.9000 1890.7100 1.2450 5.6730 126.3930
  300.300 3.8940 383.9940 4.1380 220.0580 10.2570 2.1590 70.0850 6.1830 440.1260 1688.0900 226.0670 214.0480 215.9000 1886.5100 1.2450 5.6730 126.3930
  300.400 3.8620 384.5660 4.2880 219.6180 10.1430 2.1440 69.7460 6.1270 438.6400 1682.9800 228.3570 210.8790 215.9000 1883.2100 1.2640 5.6930 126.9980
  300.500 3.8140 385.0480 4.2820 218.9680 10.5890 2.1440 68.8220 6.1270 433.1530 1679.1801 228.9980 208.9370 215.9000 1880.8101 1.1930 5.7040 125.2160
  300.600 3.7430 385.5200 4.3840 222.2890 11.2330 2.1350 68.6130 6.1700 426.0310 1677.6100 232.7340 211.8450 215.9000 1878.8000 1.1580 5.6200 125.3430
  300.700 3.7240 385.3480 4.4160 223.4580 11.1680 2.1200 68.3010 6.3610 420.2980 1677.8400 233.1800 213.7360 215.9000 1876.7400 1.1690 5.5740 125.8580
  300.800 3.7240 385.3480 4.4160 223.4580 11.1680 2.1080 68.3010 6.2960 417.3620 1678.6600 233.1800 213.7360 215.9000 1874.4399 1.1690 5.5740 125.8580
  300.900 3.7170 384.8160 4.3460 221.6580 11.0310 2.0990 67.0160 6.1850 417.6290 1678.5200 231.4100 211.9070 215.9000 1871.9100 1.1710 5.5320 126.8130
  301.000 3.7150 383.7760 4.2620 219.6770 10.9460 2.0990 67.4380 6.1850 420.3340 1676.8101 228.2630 211.0910 215.9000 1869.1700 1.1870 5.5030 127.1820
