~Version information
  VERS.                           2.00 : CWLS log ASCII Standard -Version 2.00
  WRAP.                             NO : One line per depth step
~Well information
#MNEM.UNIT              Data Type        Information
#----------------------------------------------------------------------
  STRT.M                         0.000 :
  STOP.M                       911.000 : 
  STEP.M                         0.100 :
  NULL.                      -999.2500 : 
  WELL.                            311 : Well Name
  FLD .                       KARATUBE : Field Name
  DATE.                       10.05.05 : Log date
~Curve information
#MNEM.UNIT                               Curve Description
#----------------------------------------------------------------------
  DEPT.M                               : Depth Curve
  GZ3 .OHMM                            : App.resistivity by lateral A2.0M0.5N
  SP  .MV                              : Spontaneous potential
  LL3 .OHMM                            : Appar.resist.laterolog,3 electrodes
  CALI.MM                              : Caliper
  GR  .UR/H                            : Gamma-ray log
  RHOB.G/C3                            : Bulk density by gamma-gamma log
  CILR.MMHO                            : Conduct. by sonde 7I1.6,react.signal
  MLL .OHMM                            : Microlaterolog sonde
  DT  .US/M                            : Interval travel time
  T1  .US                              : Travel time1
  C1  .MM                              : Diameter from profile1
  C2  .MM                              : Diameter from profile2
  BSC .MM                              : 
  T2  .US                              : Travel time2
  NGLD.UE                              : Neutron-gamma log/device DRST-90
  GZ3B.OHMM                            : App.resistivity by lateral N0.5M2.0A
  CILA.MMHO                            : Conduct. by sonde 7I1.6,active signal
~Parameter information
#MNEM.UNIT              Value            Description
#----------------------------------------------------------------------
#----------------------------------------------------------------------
  BS  .MM                       215.90 : Bit Size
  DFD .G/C3                       1.14 : Drilling Fluid Density
  TDD .M                        908.00 : Total Depth Driller
  BLI .M                        911.00 : Bottom Logged Interval
~Ascii Log Data
# ...
  701.600 2.0890 457.0140 2.7960 216.8290 8.3800 2.1850 130.7270 6.3110 353.9490 1411.4100 213.2710 220.3870 215.9000 1548.2400 1.2110 3.2350 174.7080
  701.700 2.1330 456.9220 2.8300 215.4900 8.3160 2.1890 129.5910 6.1880 352.9750 1420.6000 213.8620 217.1190 215.9000 1556.6700 1.2150 3.2530 174.4420
  701.800 2.2110 456.5550 2.8540 213.0850 8.4400 2.1870 128.9410 6.1720 349.3730 1428.5500 211.2370 214.9330 215.9000 1565.8800 1.2520 3.2730 172.4330
  701.900 2.2510 456.0590 2.8880 214.0430 8.4990 2.1780 129.3570 6.1860 344.3830 1434.9000 210.2170 217.8690 215.9000 1574.5900 1.2140 3.2870 169.1930
  702.000 2.3050 454.7580 2.9120 216.8120 8.6380 2.1750 127.2870 6.1910 341.2560 1440.1000 209.4780 224.1460 215.9000 1580.7300 1.2240 3.3050 170.0170
  702.100 2.3600 453.7210 2.9100 216.0790 8.9580 2.1820 125.9770 6.1630 342.5790 1445.4000 205.5640 226.5940 215.9000 1584.5900 1.2530 3.3280 167.6810
  702.200 2.3970 453.1800 2.9040 215.9390 8.6670 2.1910 127.2050 6.1260 345.5660 1451.5800 210.6210 221.2570 215.9000 1588.2200 1.2490 3.3590 167.4140
  702.300 2.4500 452.3790 2.9280 215.4480 8.4070 2.2000 124.7600 6.1700 346.0460 1458.8700 214.0980 216.7990 215.9000 1594.1899 1.2610 3.3980 169.3960
  702.400 2.4760 450.7350 2.9600 210.1910 8.3380 2.2050 124.6720 6.1850 346.1140 1466.8000 206.4580 213.9240 215.9000 1601.8600 1.2120 3.4290 168.6930
  702.500 2.4970 449.4350 2.9840 212.6520 7.9340 2.2290 126.4040 6.1770 349.9310 1474.7100 212.4390 212.8650 215.9000 1609.3900 1.2200 3.4560 169.5400
  702.600 2.5100 448.5710 2.9740 212.4280 7.8650 2.2530 124.4690 6.1770 358.8290 1482.5100 208.7760 216.0800 215.9000 1617.3500 1.2190 3.4710 172.3200
  702.700 2.5160 448.0480 2.9640 215.2670 7.8320 2.2610 124.3620 6.1410 368.3590 1489.6100 207.3620 223.1730 215.9000 1627.1801 1.2300 3.4730 170.8690
  702.800 2.5150 447.1880 2.9660 214.8760 8.1140 2.2750 124.6590 6.1530 374.8810 1495.5300 209.6390 220.1130 215.9000 1639.4301 1.2020 3.4810 171.0190
  702.900 2.5220 447.0250 2.9760 217.6510 8.0530 2.2910 123.9780 6.2120 377.7120 1499.6200 215.6260 219.6760 215.9000 1651.2900 1.1850 3.4960 172.9180
  703.000 2.5470 446.6510 2.9840 220.7010 8.0230 2.2980 122.6010 6.2120 374.6090 1502.3101 215.5510 225.8520 215.9000 1660.4700 1.1960 3.5330 171.8200
  703.100 2.5570 446.7660 2.9980 219.5220 7.6120 2.3150 124.0790 6.1730 363.9880 1504.6200 209.7150 229.3290 215.9000 1665.9800 1.2140 3.5630 171.0560
  703.200 2.6060 447.4310 2.9880 221.0760 7.6170 2.3020 123.8470 6.1190 344.6530 1506.9399 214.9290 227.2230 215.9000 1667.1100 1.2350 3.5860 172.6040
  703.300 2.6690 448.5590 2.9260 222.1950 7.8260 2.2750 124.0580 6.1060 321.5810 1508.7600 220.0830 224.3070 215.9000 1664.1200 1.2370 3.5840 172.0730
  703.400 2.6850 449.7340 2.8400 227.4630 7.7260 2.2690 126.7990 6.1700 299.4340 1509.1500 230.5770 224.3490 215.9000 1656.7700 1.2480 3.5640 172.2830
  703.500 2.6820 450.8520 2.7780 227.8840 7.9760 2.2800 126.0040 6.2700 283.5460 1507.5699 233.1400 222.6290 215.9000 1647.0500 1.2500 3.5150 175.0430
  703.600 2.6590 451.5580 2.7680 226.8170 8.1420 2.2850 125.4960 6.2480 277.4000 1503.3600 230.3780 223.2560 215.9000 1636.3600 1.2940 3.4740 174.9180
  703.700 2.6390 452.1020 2.7700 226.9900 8.1490 2.2810 130.5460 6.0940 280.6750 1496.1300 226.0000 227.9810 215.9000 1626.8400 1.3090 3.4440 174.8040
  703.800 2.6280 452.9180 2.7920 225.7950 8.2970 2.2890 129.2450 6.1530 289.8930 1486.7300 229.0910 222.4980 215.9000 1619.5601 1.3690 3.4330 176.1110
  703.900 2.6440 453.5320 2.8180 227.5900 8.3530 2.2910 127.1090 6.1150 297.5570 1477.4600 230.5560 224.6250 215.9000 1613.9700 1.3570 3.4470 173.6670
  704.000 2.6770 454.2410 2.8740 226.1220 7.9280 2.3020 129.0500 6.0570 301.2640 1469.7200 230.0380 222.2060 215.9000 1609.1700 1.3930 3.4710 172.3510
  704.100 2.7150 454.4940 2.9480 226.2380 7.7620 2.3230 129.9620 6.0820 300.0630 1463.3800 226.0980 226.3780 215.9000 1603.7300 1.3890 3.4730 172.7280
  704.200 2.7530 454.4190 3.1000 229.5360 7.5340 2.3580 128.3160 6.1860 296.9030 1457.5000 231.0730 227.9990 215.9000 1597.8500 1.4040 3.4540 171.2850
  704.300 2.8060 454.1100 3.1920 230.6440 6.9830 2.4220 133.1290 6.3410 293.5730 1451.6000 231.2520 230.0370 215.9000 1590.9100 1.3620 3.4020 170.2650
  704.400 2.8310 453.7560 3.2720 233.3480 7.0040 2.4630 133.0190 6.4760 291.6900 1445.6200 228.7620 237.9330 215.9000 1583.4500 1.3540 3.3370 170.9930
  704.500 2.8360 453.4710 3.3060 235.3860 6.9740 2.4740 133.2710 6.5650 293.1120 1439.0400 231.5220 239.2510 215.9000 1575.8900 1.3130 3.2350 171.4770
  704.600 2.8700 453.3570 3.3180 234.2080 7.0160 2.4800 136.5630 6.5970 297.9380 1431.8500 229.9690 238.4470 215.9000 1568.9700 1.3220 3.1480 170.5840
  704.700 2.8980 453.1610 3.3080 236.0140 7.1030 2.4530 137.4120 6.5240 306.8730 1424.2300 234.4910 237.5370 215.9000 1563.1000 1.2980 3.0680 171.8570
  704.800 2.9170 452.9120 3.2940 238.0560 7.2530 2.4090 139.3140 6.4640 316.1100 1417.1801 242.6370 233.4750 215.9000 1558.3199 1.2970 2.9710 172.5740
  704.900 2.9340 452.8480 3.2900 240.7820 7.3410 2.3970 139.3380 6.3010 322.5700 1411.1100 246.3480 235.2160 215.9000 1555.1700 1.2890 2.9320 170.6250
  705.000 2.9670 452.8190 3.3160 242.2550 6.9930 2.3950 139.5260 6.2640 325.2990 1405.8500 248.6460 235.8650 215.9000 1552.7300 1.2760 2.8690 171.5990
  705.100 2.9910 452.9090 3.3440 234.7940 7.0590 2.3750 141.2860 6.6230 325.8510 1400.9399 236.7410 232.8460 215.9000 1549.9000 1.2980 2.8220 172.7860
  705.200 3.0130 453.4950 3.3900 234.3620 7.1480 2.3730 141.4070 6.5550 326.7880 1395.6899 237.2710 231.4540 215.9000 1546.0000 1.2890 2.7800 172.3040
  705.300 3.0620 454.1780 3.4080 235.0140 7.0680 2.3890 141.9400 6.6160 327.7610 1390.1500 238.3520 231.6760 215.9000 1541.3700 1.3060 2.7350 174.0540
  705.400 3.0920 454.3880 3.3900 235.8680 7.2260 2.3870 141.8050 6.7580 328.7900 1384.2800 238.1350 233.6020 215.9000 1536.5900 1.2980 2.6980 174.7560
  705.500 3.1270 454.2170 3.3220 234.3680 7.3560 2.3630 142.5440 6.6730 330.3750 1378.4000 239.1670 229.5700 215.9000 1531.5300 1.2620 2.6580 175.0230
  705.600 3.1560 453.8330 3.2760 232.4910 7.6860 2.3500 144.7850 6.5450 333.5110 1372.9600 230.0330 234.9480 215.9000 1526.1700 1.2400 2.6290 176.8420
  705.700 3.1750 453.2760 3.2020 237.4270 7.5870 2.3310 143.7430 6.3830 340.1840 1368.0699 238.8160 236.0390 215.9000 1521.0900 1.2630 2.6120 178.3210
  705.800 3.1820 452.4980 3.1220 230.0510 7.8280 2.2950 146.5720 6.2900 350.4350 1363.7300 236.7810 223.3200 215.9000 1517.2100 1.3070 2.6010 179.3220
  705.900 3.1830 451.7000 3.0340 239.0420 8.0550 2.2720 149.7060 6.1910 362.8830 1359.9700 243.2230 234.8620 215.9000 1515.6600 1.2720 2.6030 181.4890
  706.000 3.1870 450.3590 2.9540 240.3580 8.2530 2.2700 149.7960 6.1360 373.7380 1357.6801 241.1650 239.5510 215.9000 1516.4500 1.2810 2.6230 181.5920
  706.100 3.2040 449.1200 2.8940 237.6350 8.5960 2.2730 150.3550 6.0890 379.1170 1358.2400 241.3840 233.8870 215.9000 1518.9100 1.2200 2.6600 181.5100
  706.200 3.2280 447.8230 2.7720 236.3660 8.8490 2.2550 153.4970 6.1090 378.9110 1361.4600 241.5400 231.1910 215.9000 1522.0500 1.2420 2.7350 183.7050
  706.300 3.2650 446.4400 2.6900 237.1330 8.9310 2.2360 153.5110 6.0310 374.9310 1366.2700 244.4550 229.8110 215.9000 1525.3000 1.2130 2.8290 185.6570
  706.400 3.3060 445.4130 2.6560 236.0120 9.0000 2.2260 153.7270 6.0570 370.6890 1371.3300 248.5540 223.4710 215.9000 1528.4200 1.2370 2.8930 185.2270
  706.500 3.3590 444.3520 2.6520 232.7420 8.7060 2.2470 154.3820 6.0610 367.3940 1376.2900 246.1010 219.3830 215.9000 1531.2400 1.1860 3.0400 186.5460
  706.600 3.3920 443.7540 2.6500 223.7840 8.5050 2.2690 153.6440 6.0530 365.5020 1381.1600 233.1640 214.4040 215.9000 1534.1801 1.1640 3.1150 188.4330
  706.700 3.3970 443.3840 2.6360 225.9680 8.4050 2.2660 153.9070 6.0560 364.5870 1385.8199 234.5770 217.3600 215.9000 1537.4900 1.1770 3.1760 188.5380
  706.800 3.3690 443.2510 2.6160 226.9090 8.6300 2.2640 153.9810 6.0230 364.0280 1390.4399 237.3300 216.4880 215.9000 1541.4100 1.2310 3.2150 190.6810
