~VERSION INFORMATION
 VERS.                 2.0:   CWLS LOG ASCII STANDARD - VERSION 2.0
 WRAP.                  NO:   SINGLE LINE PER DEPTH STEP
~WELL INFORMATION
#MNEM.UNIT       DATA           DESCRIPTION MNEMONIC
#---------    -------------   --------------------------
 STRT.M         0.0000                        : START DEPTH
 STOP.M         815.0000                      : STOP DEPTH
 STEP.M         0.1000                        : STEP VALUE
 NULL.          -999.0000                     : NULL VALUE
 SRVC.          SCH                           : Service Company/Logging company
 DATE.          08.11.2023                    : LAS file Creation Date
 WELL    .      Каратобе 337                  : Well Name
 COMP    .      LLP "KMG-Burenie"             : Company
 FLD     .      Каратобе                      : Field
 LATI    .      0                             : Latitude/Northing
 LONG    .      0                             : Longitude/Easting
 RWS     .      -999                          : Def_Rw
 WST     .      -999                          : Def_Rwt
~CURVE INFORMATION
#MNEM          UNIT     API CODE   Description
#---------- ---------- ----------  -----------
 DEPTH     .M                    : Depth Index
 BSC       .mm                   : Nominal Caliper
 CALI      .mm                   : Caliper
 GR        .gAPI                 : Gamma Ray
 URAN      .PPM                  : Uranium
 THOR      .PPM                  : Thorium
 POTA      .%                    : Potasium
 DT        .uSec/m               : Sonic travel time
 HAZIM     .deg                  : Hole Azimuth
 SDEVM     .deg                  : Hole Deviation
 RHOZ      .g/cm3                : Bulk Density
 PEFZ      .B/E                  : Formation Photoelectric Factor 
 TNPH      .v/v                  : Neutron porosity
 AT10      .ohm.m                : 10" Array Induction, two foot resolution Resistivity
 AT20      .ohm.m                : 20" Array Induction, two foot resolution Resistivity
 AT30      .ohm.m                : 30" Array Induction, two foot resolution Resistivity
 AT60      .ohm.m                : 60" Array Induction, two foot resolution Resistivity
 AT90      .ohm.m                : 90" Array Induction, two foot resolution Resistivity
 RLA1      .ohm.m                : HRLT Borehole Corrected Resistivity 1
 RLA2      .ohm.m                : HRLT Borehole Corrected Resistivity 2
 RLA3      .ohm.m                : HRLT Borehole Corrected Resistivity 3
 RLA4      .ohm.m                : HRLT Borehole Corrected Resisitivity 4
 RLA5      .ohm.m                : HRLT Borehole Corrected Resistivity 5 
 RT        .ohm.m                : Formation Resistivity
 RXO       .ohm.m                : Flushed zone resistivity
 SP        .mV                   : Spontaneous Potential
 MTEM      .degC                 : Formation Temperature
 HMIN      .ohm.m                : HIP Micro Inverse Resistivity
 HMNO      .ohm.m                : HIP Micro Normal Resistivity
~A Log data section
# ...
 235.2000  215.9000  230.8898  101.9706    0.1217   12.8363    2.9110  549.4027    8.0635    0.6642    2.0951    2.4072    0.3853    2.3043    2.7345    3.0912    3.4122    3.4349    3.8709    3.8906    3.9942    4.0869    4.2599    4.3476    2.8543   10.6250   27.4954    0.6953    0.8028 
 235.3000  215.9000  224.6916  100.3735   -0.0138   13.0383    2.8943  548.2116    8.6622    0.6681    2.0881    2.4205    0.3765    2.4057    2.8938    3.2510    3.6970    3.7938    4.0882    4.1489    4.2532    4.3434    4.5352    4.6719    2.9500   10.6250   27.4833    0.7795    0.8667 
 235.4000  215.9000  222.3728  100.4136   -0.0638   12.9677    2.9252  553.0651    9.5380    0.6675    2.0847    2.4330    0.4060    2.3013    2.9950    3.3977    3.8563    4.0325    3.8977    3.9612    4.0569    4.1299    4.3222    4.4509    2.8120   10.6250   27.4678    0.8929    0.9298 
 235.5000  215.9000  222.5887  101.4376   -0.1129   12.9813    2.9621  556.1398   10.3923    0.6688    2.0853    2.4347    0.4189    2.2067    2.8423    3.1801    3.6179    3.7734    3.4992    3.5460    3.6322    3.6924    3.8673    3.9714    2.5289   10.6250   27.4729    0.7936    0.8507 
 235.6000  215.9000  224.9370  103.6760   -0.1683   13.1352    3.0033  556.2253   11.1925    0.6731    2.0883    2.4370    0.4057    2.1423    2.6711    3.0082    3.3697    3.5466    3.2197    3.2934    3.3820    3.4387    3.5886    3.7200    2.3051   10.6250   27.5069    0.5794    0.6661 
 235.7000  215.9000  225.0589  103.8307    0.0257   12.7976    3.0923  563.5184   11.3537    0.6763    2.0921    2.4316    0.4378    2.0972    2.6198    2.9267    3.2861    3.3938    3.3192    3.4322    3.5312    3.5835    3.7246    3.9031    2.3519   10.6250   27.4940    0.4322    0.5323 
 235.8000  215.9000  223.2746  104.7707    0.2467   12.4463    3.1514  568.3745   11.4527    0.6796    2.0957    2.4223    0.4604    2.1678    2.6539    2.9355    3.3106    3.4372    3.4515    3.5627    3.6660    3.7124    3.8417    4.0116    2.4626   10.6250   27.4887    0.4064    0.5117 
 235.9000  215.9000  219.4582  107.4422    0.4662   12.1647    3.1508  567.7178   11.5668    0.6831    2.1006    2.4209    0.4586    2.1507    2.7031    2.9761    3.3683    3.4904    3.5026    3.6182    3.7235    3.7688    3.8839    4.0577    2.4977   10.6250   27.5053    0.5245    0.6273 
 236.0000  215.9000  216.8825  107.0503    0.4880   12.1166    3.1206  568.2491   11.7154    0.6880    2.1035    2.4268    0.4669    2.1909    2.7496    3.0070    3.4136    3.5002    3.4577    3.5716    3.6809    3.7285    3.8262    4.0031    2.4567   10.6250   27.4938    0.7500    0.8276 
 236.1000  215.9000  215.7041  106.6382    0.4826   12.0311    3.0658  569.2527   11.7852    0.6902    2.1040    2.4330    0.4677    2.1343    2.7595    3.0270    3.4485    3.4666    3.3900    3.5287    3.6377    3.6921    3.7673    3.9739    2.3811   10.6250   27.4846    0.7635    0.8293 
 236.2000  215.9000  216.2912  107.3314    0.4931   11.7787    2.9698  570.8146   11.6744    0.6865    2.1007    2.4307    0.4488    2.0969    2.7049    2.9968    3.3977    3.3904    3.3795    3.5395    3.6387    3.6969    3.7507    3.9698    2.3718   10.6250   27.4906    0.6996    0.7685 
 236.3000  215.9000  218.4227  106.3149    0.5431   11.3274    2.8365  576.4147   10.7585    0.6842    2.0900    2.4224    0.4349    2.0783    2.6378    2.9016    3.2967    3.3422    3.4043    3.5553    3.6560    3.7162    3.7549    3.9594    2.4133   10.6320   27.4899    0.6672    0.7446 
 236.4000  215.9000  220.3781  104.5750    0.6018   11.0187    2.7208  580.7222    9.7082    0.6835    2.0749    2.4149    0.4288    2.0455    2.5804    2.8297    3.2192    3.3313    3.3912    3.5130    3.6258    3.6844    3.7162    3.8919    2.4472   10.6436   27.4905    0.6816    0.7607 
 236.5000  215.9000  221.4745  102.0740    0.6569   11.2047    2.6745  579.1102    8.8297    0.6857    2.0630    2.4084    0.4395    2.0052    2.5065    2.7596    3.0967    3.2482    3.3288    3.4079    3.5267    3.5775    3.5955    3.7128    2.5301   10.6620   27.4989    0.7498    0.8049 
 236.6000  215.9000  225.3730  101.7050    0.5447   11.4696    2.6661  585.2360    8.5184    0.6850    2.0513    2.4033    0.4533    1.9696    2.4580    2.6975    2.9516    3.1171    3.2460    3.3032    3.4231    3.4555    3.4686    3.5450    2.5861   10.8972   27.5056    0.7990    0.8520 
 236.7000  215.9000  227.7543  101.3236    0.4676   11.7394    2.6708  592.7547    8.3596    0.6844    2.0364    2.3985    0.4666    1.9475    2.4117    2.6327    2.9011    3.0572    3.3110    3.3669    3.4893    3.5130    3.5228    3.5880    2.6945   11.1495   27.5114    0.6861    0.7661 
 236.8000  215.9000  225.2153   98.5212    0.6948   11.9377    2.6769  596.3022    8.0783    0.6878    2.0237    2.3898    0.4745    1.9040    2.3770    2.5808    2.8468    3.0043    3.2924    3.3345    3.4414    3.4520    3.4531    3.4805    2.8494   11.2172   27.5162    0.7289    0.7877 
 236.9000  215.9000  222.8966   98.6339    0.9819   11.7574    2.6776  600.7293    7.5783    0.6884    2.0154    2.3826    0.4807    1.8447    2.2988    2.5140    2.7942    2.9145    3.0668    3.1026    3.1955    3.1953    3.1959    3.2034    2.7657   11.1051   27.5142    0.7702    0.8012 
 237.0000  215.9000  221.6218  100.0081    1.2723   11.5029    2.6676  604.8523    7.0696    0.6878    2.0056    2.3783    0.4840    1.8104    2.2336    2.4480    2.7621    2.8663    2.9732    3.0000    3.0679    3.0643    3.0591    3.0512    2.8437   10.9189   27.5081    0.6757    0.7231 
 237.1000  215.9000  222.4437  101.4377    1.4609   11.6494    2.6194  605.8727    6.9477    0.6884    1.9977    2.3744    0.4765    1.7651    2.1874    2.4131    2.7061    2.7836    2.9930    3.0363    3.0845    3.0793    3.0677    3.0647    2.9014   10.7462   27.4960    0.4980    0.5793 
 237.2000  215.9000  225.0491  104.6253    1.5111   11.8181    2.6473  605.9622    6.8283    0.6879    1.9952    2.3733    0.4854    1.7621    2.1626    2.3572    2.6528    2.7277    3.0293    3.0855    3.1143    3.1087    3.0928    3.0946    2.9679   10.6605   27.4998    0.4072    0.4972 
 237.3000  215.9000  228.7632  108.3555    1.5021   11.9781    2.7071  600.1764    6.7116    0.6868    1.9890    2.3700    0.5014    1.7178    2.1142    2.3060    2.6018    2.6739    2.9608    3.0009    3.0093    3.0002    2.9886    2.9943    2.9381   10.6250   27.5095    0.3873    0.4599 
 237.4000  215.9000  234.1787  109.6554    1.5744   12.0029    2.7181  558.2805    6.6046    0.6860    1.9791    2.3599    0.5084    1.7026    2.0707    2.2810    2.5491    2.6261    2.8734    2.8773    2.8825    2.8671    2.8585    2.8716    2.8680   10.6250   27.5034    0.3247    0.3849 
 237.5000  215.9000  239.4297  111.0026    1.6767   12.0836    2.7373  545.1893    6.6039    0.6846    1.9830    2.3483    0.5273    1.6585    2.0405    2.2420    2.5195    2.5964    2.8461    2.8262    2.8306    2.8140    2.8066    2.8206    2.9026   10.6250   27.5010    0.2698    0.3352 
 237.6000  215.9000  243.8705  112.5009    1.7827   12.1885    2.7704  550.0362    6.6648    0.6824    1.9950    2.3567    0.5505    1.6525    2.0069    2.2110    2.5156    2.5813    2.8417    2.7815    2.7928    2.7715    2.7640    2.7765    2.9411   10.6250   27.5015    0.2569    0.3352 
 237.7000  215.9000  245.9485  115.3890    1.7088   12.1619    2.9041  549.3850    6.6542    0.6745    2.0020    2.3929    0.5355    1.6479    1.9524    2.1519    2.4359    2.5376    2.6409    2.5662    2.5825    2.5605    2.5536    2.5611    2.7604   10.6250   27.5076    0.2853    0.3782 
 237.8000  215.9000  240.8885  117.7135    1.7297   12.3246    3.0039  547.6617    6.6357    0.6669    2.0170    2.4486    0.5162    1.6271    1.9059    2.0681    2.3032    2.4299    2.4749    2.4238    2.4503    2.4369    2.4369    2.4433    2.4765   10.5970   27.5021    0.3766    0.4665 
 237.9000  215.9000  232.2870  119.6060    1.8173   12.6334    3.0773  544.8422    6.6051    0.6594    2.0400    2.5224    0.4935    1.6206    1.8956    2.0256    2.2157    2.3196    2.4655    2.4300    2.4558    2.4503    2.4500    2.4501    2.4893   10.5379   27.4890    0.5883    0.6484 
