~VERSION INFORMATION
 VERS.                 2.0:   CWLS LOG ASCII STANDARD - VERSION 2.0
 WRAP.                  NO:   SINGLE LINE PER DEPTH STEP
~WELL INFORMATION
#MNEM.UNIT       DATA           DESCRIPTION MNEMONIC
#---------    -------------   --------------------------
 STRT.M         0.0000                        : START DEPTH
 STOP.M         815.0000                      : STOP DEPTH
 STEP.M         0.1000                        : STEP VALUE
 NULL.          -999.0000                     : NULL VALUE
 SRVC.          SCH                           : Service Company/Logging company
 DATE.          08.11.2023                    : LAS file Creation Date
 WELL    .      Каратобе 337                  : Well Name
 COMP    .      LLP "KMG-Burenie"             : Company
 FLD     .      Каратобе                      : Field
 LATI    .      0                             : Latitude/Northing
 LONG    .      0                             : Longitude/Easting
 RWS     .      -999                          : Def_Rw
 WST     .      -999                          : Def_Rwt
~CURVE INFORMATION
#MNEM          UNIT     API CODE   Description
#---------- ---------- ----------  -----------
 DEPTH     .M                    : Depth Index
 BSC       .mm                   : Nominal Caliper
 CALI      .mm                   : Caliper
 GR        .gAPI                 : Gamma Ray
 URAN      .PPM                  : Uranium
 THOR      .PPM                  : Thorium
 POTA      .%                    : Potasium
 DT        .uSec/m               : Sonic travel time
 HAZIM     .deg                  : Hole Azimuth
 SDEVM     .deg                  : Hole Deviation
 RHOZ      .g/cm3                : Bulk Density
 PEFZ      .B/E                  : Formation Photoelectric Factor 
 TNPH      .v/v                  : Neutron porosity
 AT10      .ohm.m                : 10" Array Induction, two foot resolution Resistivity
 AT20      .ohm.m                : 20" Array Induction, two foot resolution Resistivity
 AT30      .ohm.m                : 30" Array Induction, two foot resolution Resistivity
 AT60      .ohm.m                : 60" Array Induction, two foot resolution Resistivity
 AT90      .ohm.m                : 90" Array Induction, two foot resolution Resistivity
 RLA1      .ohm.m                : HRLT Borehole Corrected Resistivity 1
 RLA2      .ohm.m                : HRLT Borehole Corrected Resistivity 2
 RLA3      .ohm.m                : HRLT Borehole Corrected Resistivity 3
 RLA4      .ohm.m                : HRLT Borehole Corrected Resisitivity 4
 RLA5      .ohm.m                : HRLT Borehole Corrected Resistivity 5 
 RT        .ohm.m                : Formation Resistivity
 RXO       .ohm.m                : Flushed zone resistivity
 SP        .mV                   : Spontaneous Potential
 MTEM      .degC                 : Formation Temperature
 HMIN      .ohm.m                : HIP Micro Inverse Resistivity
 HMNO      .ohm.m                : HIP Micro Normal Resistivity
~A Log data section
# ...
 719.6000  215.9000  216.7998   53.7759    0.1941    3.6559    1.7083  300.7434  119.8027    0.1528    2.4172    3.2283    0.2690    2.6608    3.1162    3.1552    3.2343    3.1894    4.7489    4.5184    4.4683    4.3772    4.1936    3.8014    6.2623   50.8029   33.4523    3.3175    2.9555 
 719.7000  215.9000  217.1897   55.8720    0.2901    3.6156    1.7339  306.3487  121.0299    0.1517    2.4175    3.2592    0.2795    2.5429    2.9593    3.0385    3.0905    3.0758    4.2267    4.0048    3.9657    3.8883    3.7142    3.3497    5.5602   51.0944   33.4502    2.7940    2.5129 
 719.8000  215.9000  218.9097   56.4676    0.3510    3.5702    1.7353  310.7914  122.2180    0.1500    2.4196    3.2798    0.2879    2.4250    2.8368    2.7885    2.8864    2.8586    3.7371    3.5317    3.5079    3.4498    3.2911    2.9850    4.8984   51.3629   33.4551    1.2659    1.3242 
 719.9000  215.9000  224.1810   54.0289    0.1703    3.8826    1.7614  313.9544  121.6979    0.1495    2.4203    3.2688    0.2831    2.2973    2.5768    2.6508    2.7546    2.6975    3.4509    3.2786    3.2711    3.2410    3.0821    2.8579    4.5117   51.5800   33.4554    0.6402    0.7482 
 720.0000  215.9000  225.0475   50.7207    0.0445    4.0514    1.7235  313.8001  121.0357    0.1487    2.4265    3.2315    0.2731    2.3523    2.5530    2.5712    2.6845    2.6200    3.6859    3.5005    3.4915    3.4858    3.2984    3.0770    4.7850   51.7730   33.4556    0.8305    0.9158 
 720.1000  215.9000  223.3791   46.9632   -0.0517    4.1080    1.6530  311.2456  120.7523    0.1486    2.4345    3.1890    0.2603    2.4968    2.6459    2.6842    2.7114    2.6532    3.8524    3.6663    3.6543    3.6662    3.4592    3.2500    4.9708   51.9511   33.4567    2.6872    2.3824 
 720.2000  215.9000  220.7231   43.9597   -0.1834    3.9478    1.6422  305.3884  124.6629    0.1553    2.4372    3.1617    0.2495    2.5092    2.7023    2.7811    2.7680    2.7434    3.9354    3.7305    3.7241    3.7416    3.5294    3.3042    5.0867   52.1293   33.4677    3.1346    2.7803 
 720.3000  215.9000  218.6274   42.5318   -0.2448    3.8581    1.5950  302.3235  126.5568    0.1582    2.4345    3.1595    0.2416    2.5442    2.7803    2.8532    2.8565    2.8467    4.1841    3.9359    3.9274    3.9491    3.7234    3.4492    5.4025   52.1979   33.4695    2.7552    2.4429 
 720.4000  215.9000  217.1191   42.2472   -0.2574    3.8315    1.5251  301.2280  126.9429    0.1585    2.4319    3.1589    0.2363    2.5728    2.8133    2.8939    2.9286    2.9116    4.3522    4.1451    4.1546    4.1593    3.9223    3.7228    5.5359   52.1905   33.4648    2.6057    2.3099 
 720.5000  215.9000  216.8426   42.0066   -0.3081    4.0301    1.5231  299.1358  126.4274    0.1591    2.4290    3.1488    0.2384    2.5561    2.8352    2.9016    2.9464    3.0235    4.0063    3.9354    3.9689    3.9158    3.7109    3.6575    4.9605   52.2508   33.4640    2.6564    2.3550 
 720.6000  215.9000  216.9171   42.3091   -0.2740    4.1881    1.4992  297.7954  125.9331    0.1588    2.4213    3.1336    0.2398    2.5541    2.8479    2.9048    2.9690    3.0602    4.1258    4.1191    4.1822    4.0839    3.8834    3.9155    4.9155   52.2099   33.4609    2.7816    2.4663 
 720.7000  215.9000  217.0917   43.0933   -0.1649    4.3103    1.4560  297.1217  125.4577    0.1578    2.4154    3.1113    0.2406    2.5437    2.8472    2.8967    2.9733    3.0658    4.0792    4.0921    4.1646    4.0613    3.8631    3.9165    4.7942   52.0792   33.4556    2.6979    2.3919 
 720.8000  215.9000  216.8058   42.1018   -0.0534    3.9967    1.4435  293.1689  123.6164    0.1608    2.4146    3.1004    0.2338    2.5263    2.8339    2.8949    2.9966    3.0787    4.1551    4.1633    4.2436    4.1340    3.9335    3.9749    4.9509   51.9147   33.4616    2.5324    2.2447 
 720.9000  215.9000  216.8791   41.6324    0.0844    3.7880    1.4248  289.6239  121.9620    0.1635    2.4161    3.1019    0.2309    2.5506    2.8427    2.9253    3.0489    3.0571    4.4642    4.4641    4.5225    4.4161    4.1994    4.2072    5.4633   51.8134   33.4645    2.5200    2.2337 
 721.0000  215.9000  217.2879   41.7286    0.2508    3.6931    1.3992  286.5209  120.5102    0.1660    2.4212    3.1239    0.2321    2.5481    2.8720    2.9644    3.1341    3.0767    4.8162    4.7775    4.8018    4.7263    4.4911    4.4548    5.9326   51.7805   33.4637    2.8685    2.5436 
 721.1000  215.9000  217.5867   42.0814    0.3509    3.8885    1.4454  287.2848  121.8533    0.1679    2.4268    3.1571    0.2323    2.5521    2.9340    3.0362    3.1788    3.0914    4.9532    4.9100    4.8834    4.8626    4.6316    4.5875    6.0663   51.5439   33.4586    3.1180    2.7655 
 721.2000  215.9000  216.6889   44.1430    0.4103    4.2404    1.5330  289.2334  122.6964    0.1697    2.4253    3.1884    0.2385    2.5680    2.9889    3.1059    3.2657    3.1881    4.9575    4.8764    4.8232    4.8394    4.6183    4.5453    6.0625   51.3871   33.4556    2.8895    2.5623 
 721.3000  215.9000  214.6366   48.4559    0.4192    4.7837    1.6712  292.5391  122.7224    0.1712    2.4220    3.2244    0.2525    2.4983    2.9567    3.0541    3.2164    3.1814    4.4943    4.3565    4.3053    4.3384    4.1598    4.0372    5.5556   51.3473   33.4556    2.5338    2.2459 
 721.4000  215.9000  216.4828   49.4315    0.3633    5.1415    1.8023  299.8199  123.8309    0.1692    2.4171    3.2798    0.2670    2.4159    2.7910    2.9012    3.0663    3.0445    3.9272    3.6936    3.6794    3.6812    3.5466    3.3069    5.0403   50.9609   33.4604    2.1777    1.9292 
 721.5000  215.9000  218.1313   50.1537    0.3839    5.3313    1.9027  306.8940  124.7449    0.1691    2.4108    3.3223    0.2783    2.3724    2.6274    2.7156    2.8711    2.9433    3.6895    3.4051    3.4136    3.3909    3.2813    2.9837    4.7712   50.6087   33.4640    1.6062    1.4220 
 721.6000  215.9000  219.0252   51.0010    0.5397    5.2773    1.9540  312.9892  125.1669    0.1728    2.4150    3.3542    0.2845    2.2937    2.4979    2.5682    2.7134    2.8611    3.5508    3.2722    3.2895    3.2571    3.1692    2.8867    4.5937   50.3685   33.4647    0.9220    0.9529 
 721.7000  215.9000  218.0027   48.8221    0.6616    4.7388    1.8530  313.5990  125.7241    0.1764    2.4342    3.3649    0.2777    2.3298    2.4666    2.5370    2.6408    2.7920    3.4520    3.1667    3.1783    3.1351    3.0596    2.7476    4.4908   50.0629   33.4544    0.9033    0.9785 
 721.8000  215.9000  217.1735   46.0834    0.7575    4.1495    1.7051  310.2878  125.9385    0.1801    2.4539    3.3482    0.2584    2.6002    2.6382    2.7214    2.8602    2.9198    3.5411    3.2792    3.2559    3.2000    3.1366    2.7864    4.6955   49.8329   33.4505    1.8390    1.6995 
 721.9000  215.9000  217.0059   43.2142    0.8138    3.6149    1.5143  301.0986  125.4451    0.1840    2.4735    3.3227    0.2189    3.0547    3.1022    3.2235    3.3793    3.4613    4.9254    4.7279    4.5616    4.4819    4.4096    3.9092    6.8319   49.7702   33.4625    2.9709    2.7554 
 722.0000  215.9000  216.4785   40.8599    0.8290    3.1307    1.3549  289.1917  125.3068    0.1863    2.4877    3.2981    0.1994    3.3596    3.9830    4.1601    4.4233    4.3394   10.1256    9.9946    9.6602    9.4685    9.3078    8.6499   13.8221   49.7872   33.4648    5.8403    5.3831 
 722.1000  215.9000  216.1303   39.5446    0.8665    2.8058    1.2753  276.3266  125.4026    0.1881    2.4824    3.2805    0.1869    4.2421    5.8101    6.1259    6.5734    6.4633   14.3931   14.3698   13.9178   13.5884   13.3332   12.6956   19.0379   49.8540   33.4665    7.8036    7.1029 
 722.2000  215.9000  216.2258   40.4771    0.9826    2.8422    1.3736  262.6763  125.8674    0.1896    2.4749    3.2833    0.1803    4.7732    7.4355    7.7663    8.3683    8.6575   14.7147   14.5667   14.1291   13.7688   13.4882   12.6856   19.5960   49.9969   33.4726    7.2330    6.6479 
 722.3000  215.9000  215.9403   44.9809    1.0689    3.0263    1.5017  268.9626  126.3031    0.1917    2.4634    3.2984    0.1964    3.6410    7.0893    7.5857    8.0422    8.6277   13.3304   13.2052   12.8046   12.4809   12.2553   11.7361   16.9557   50.1302   33.4648    6.7169    6.0562 
