~VERSION INFORMATION
 VERS.                 2.0:   CWLS LOG ASCII STANDARD - VERSION 2.0
 WRAP.                  NO:   SINGLE LINE PER DEPTH STEP
~WELL INFORMATION
#MNEM.UNIT       DATA           DESCRIPTION MNEMONIC
#---------    -------------   --------------------------
 STRT.M         0.0000                        : START DEPTH
 STOP.M         815.0000                      : STOP DEPTH
 STEP.M         0.1000                        : STEP VALUE
 NULL.          -999.0000                     : NULL VALUE
 SRVC.          SCH                           : Service Company/Logging company
 DATE.          08.11.2023                    : LAS file Creation Date
 WELL    .      Каратобе 337                  : Well Name
 COMP    .      LLP "KMG-Burenie"             : Company
 FLD     .      Каратобе                      : Field
 LATI    .      0                             : Latitude/Northing
 LONG    .      0                             : Longitude/Easting
 RWS     .      -999                          : Def_Rw
 WST     .      -999                          : Def_Rwt
~CURVE INFORMATION
#MNEM          UNIT     API CODE   Description
#---------- ---------- ----------  -----------
 DEPTH     .M                    : Depth Index
 BSC       .mm                   : Nominal Caliper
 CALI      .mm                   : Caliper
 GR        .gAPI                 : Gamma Ray
 URAN      .PPM                  : Uranium
 THOR      .PPM                  : Thorium
 POTA      .%                    : Potasium
 DT        .uSec/m               : Sonic travel time
 HAZIM     .deg                  : Hole Azimuth
 SDEVM     .deg                  : Hole Deviation
 RHOZ      .g/cm3                : Bulk Density
 PEFZ      .B/E                  : Formation Photoelectric Factor 
 TNPH      .v/v                  : Neutron porosity
 AT10      .ohm.m                : 10" Array Induction, two foot resolution Resistivity
 AT20      .ohm.m                : 20" Array Induction, two foot resolution Resistivity
 AT30      .ohm.m                : 30" Array Induction, two foot resolution Resistivity
 AT60      .ohm.m                : 60" Array Induction, two foot resolution Resistivity
 AT90      .ohm.m                : 90" Array Induction, two foot resolution Resistivity
 RLA1      .ohm.m                : HRLT Borehole Corrected Resistivity 1
 RLA2      .ohm.m                : HRLT Borehole Corrected Resistivity 2
 RLA3      .ohm.m                : HRLT Borehole Corrected Resistivity 3
 RLA4      .ohm.m                : HRLT Borehole Corrected Resisitivity 4
 RLA5      .ohm.m                : HRLT Borehole Corrected Resistivity 5 
 RT        .ohm.m                : Formation Resistivity
 RXO       .ohm.m                : Flushed zone resistivity
 SP        .mV                   : Spontaneous Potential
 MTEM      .degC                 : Formation Temperature
 HMIN      .ohm.m                : HIP Micro Inverse Resistivity
 HMNO      .ohm.m                : HIP Micro Normal Resistivity
~A Log data section
# ...
 190.4000  215.9000  218.3005   75.9670    0.2419    6.5906    2.3778  623.3171   14.3130    0.8025    1.9616    2.0399    0.4457    7.2631   11.3267   18.0450   23.1423   26.5845   26.0144   27.5523   27.4590   26.4218   24.9408   25.8050   31.9926   32.7721   26.8291    1.8371    2.0872 
 190.5000  215.9000  219.7146   80.2749    0.1713    6.9107    2.4820  627.9868   14.3923    0.8049    1.9566    1.9700    0.4672    8.8298   16.7526   25.5836   32.3739   34.6333   27.5033   29.3795   29.3564   28.2402   26.4876   27.8340   31.8326   32.8833   26.8472    1.7013    1.9682 
 190.6000  215.9000  222.3036   81.3676    0.0207    7.0184    2.5331  630.1198   14.2075    0.8091    1.9550    1.8910    0.4725    8.1842   16.2873   23.8822   32.8160   39.6198   28.2424   30.8335   30.9981   29.9189   27.9371   29.4879   29.6435   32.9689   26.8401    2.0476    2.2251 
 190.7000  215.9000  223.7396   81.0934    0.0059    7.0779    2.5949  631.0341   14.0511    0.8126    1.9567    1.8530    0.4759    8.4691   16.6326   25.7146   36.0372   44.7553   28.4301   31.4317   31.9603   30.9035   28.7705   30.2326   29.6105   33.0667   26.8427    2.1966    2.3276 
 190.8000  215.9000  224.0373   79.3384    0.1381    7.0851    2.6682  630.6281   13.9255    0.8154    1.9571    1.8449    0.4774    8.9638   18.3999   27.0600   39.1811   49.1831   28.7475   31.6479   32.5331   31.5172   29.2835   30.7040   29.9052   33.1778   26.8558    1.6140    1.8922 
 190.9000  215.9000  222.4756   78.3041    0.2730    6.7155    2.6561  629.0161   13.7703    0.8211    1.9576    1.8535    0.4829    9.0612   18.3805   28.9233   40.3057   50.8255   30.1768   32.1383   33.5016   32.5614   30.1856   31.6554   32.1673   33.1971   26.8602    1.5183    1.8130 
 191.0000  215.9000  220.4676   78.3489    0.3634    6.4517    2.6360  627.7733   13.7125    0.8255    1.9576    1.8710    0.4834    9.2733   19.2661   31.1850   46.4760   57.7992   32.3646   33.0366   34.8545   34.0511   31.5319   33.0656   33.8753   33.2156   26.8556    1.5753    1.8938 
 191.1000  215.9000  218.2084   79.7739    0.3948    6.3544    2.6113  627.1039   13.7861    0.8280    1.9570    1.8957    0.4770    8.9925   18.0044   28.9091   45.7264   55.9237   32.9170   33.3639   35.1977   34.7173   32.1512   33.6178   33.7828   33.2393   26.8396    1.7388    2.0456 
 191.2000  215.9000  216.9261   79.5915    0.4546    6.3332    2.5680  626.4547   13.8335    0.8308    1.9589    1.9067    0.4975    8.5449   16.1924   27.0590   43.6101   50.6458   31.5833   32.1829   33.4350   33.2931   30.8262   32.2470   32.1103   33.0642   26.8435    1.9888    2.2351 
 191.3000  215.9000  216.4247   79.0605    0.5520    6.2556    2.5453  626.4199   13.9043    0.8325    1.9616    1.9041    0.5007    8.4956   15.5252   24.9016   40.3202   44.9717   29.8993   31.0954   31.9093   31.9948   29.6144   30.8957   30.4787   32.8895   26.8510    1.9857    2.2102 
 191.4000  215.9000  216.7177   78.2520    0.7056    6.0723    2.5594  627.3843   14.0178    0.8325    1.9631    1.8982    0.4709    8.4854   14.7273   23.1634   37.3574   39.6142   29.0649   30.5616   30.9138   31.1588   28.8409   30.0883   30.0194   32.7515   26.8610    1.8213    2.0832 
 191.5000  215.9000  216.1439   76.6502    0.6865    6.2524    2.5853  626.9628   14.0514    0.8332    1.9642    1.8879    0.4765    8.4065   13.7051   21.7465   34.0190   35.2453   29.5477   31.3792   31.5368   31.7649   29.4172   30.6914   30.6785   32.8195   26.8591    1.5629    1.8951 
 191.6000  215.9000  215.9329   75.7287    0.6735    6.4093    2.6036  626.5665   14.1777    0.8319    1.9616    1.8860    0.4775    8.1382   13.3721   20.8458   31.8573   32.6316   30.0433   31.8570   31.9796   31.9936   29.6755   31.0551   31.2615   32.8848   26.8625    1.3473    1.6597 
 191.7000  215.9000  216.4507   76.4506    0.7296    6.3990    2.6027  626.6795   14.5185    0.8260    1.9572    1.8899    0.4579    8.1567   14.1315   22.5962   33.7572   33.5301   30.6337   32.3677   32.5745   32.3128   30.0418   31.4937   32.2616   32.8766   26.8806    1.1084    1.3969 
 191.8000  215.9000  217.2849   75.8324    0.7291    6.2189    2.5938  627.7107   14.8652    0.8184    1.9556    1.8996    0.4454    8.1419   14.7213   23.2564   35.0936   38.1290   32.0012   34.0714   34.3626   33.8788   31.5500   33.0864   33.7946   33.0853   26.8841    1.0173    1.3045 
 191.9000  215.9000  218.9901   74.7729    0.7442    5.9618    2.5719  628.8147   15.1825    0.8102    1.9545    1.9108    0.4413    8.4851   14.9518   25.3133   37.0033   40.3047   33.9089   35.9627   36.2968   35.6337   33.2050   34.8751   36.0421   33.3411   26.8841    1.0488    1.3502 
 192.0000  215.9000  222.1148   73.3866    0.8334    5.6096    2.5213  629.5516   15.4207    0.8016    1.9537    1.9094    0.4546    8.5024   14.0858   23.1802   33.7689   39.2961   34.6075   36.5752   36.9221   36.1416   33.6838   35.3874   37.2511   33.5869   26.8841    0.9954    1.2935 
 192.1000  215.9000  225.3967   71.1334    0.9520    5.5203    2.5121  628.8122   15.5631    0.7867    1.9534    1.8915    0.4541    8.1889   13.1343   22.4374   30.3675   37.2190   32.7844   34.2549   34.5549   33.7218   31.3442   32.6366   37.7123   33.7515   26.8841    0.9560    1.2422 
 192.2000  215.9000  226.2848   69.8154    1.0721    5.4820    2.4978  626.6542   15.6497    0.7718    1.9527    1.8814    0.4564    8.3052   13.5209   21.5374   29.1680   36.9609   31.0024   32.1918   32.4073   31.5293   29.3117   30.0822   37.6496   33.9273   26.8841    1.0386    1.3308 
 192.3000  215.9000  222.2565   72.3257    1.1674    5.3421    2.4258  621.4804   15.6555    0.7633    1.9516    1.8679    0.4816    8.8344   14.3081   23.1133   29.5247   38.0117   30.3832   31.3120   31.4900   30.4881   28.3364   28.4880   38.8836   34.2194   26.8841    1.2964    1.5919 
 192.4000  215.9000  219.9507   75.5691    1.0541    5.4218    2.4225  619.5426   15.6116    0.7547    1.9489    1.8659    0.4804    9.1963   15.4919   22.3575   30.1993   38.5869   31.7994   32.5730   32.8467   31.6126   29.3962   29.1964   41.5799   34.4957   26.8841    1.5257    1.8329 
 192.5000  215.9000  218.8414   78.5613    0.8799    5.5976    2.4283  618.8399   15.4751    0.7464    1.9471    1.8723    0.4689    9.2294   16.7028   25.1378   30.8705   41.8815   32.5865   33.4770   33.8341   32.3161   30.0883   29.8676   42.8456   34.7708   26.8852    1.5780    1.9088 
 192.6000  215.9000  218.8715   79.2067    0.8098    5.8009    2.3523  617.7683   15.0306    0.7395    1.9469    1.8782    0.4588    8.7021   15.9842   24.3221   31.1802   40.7904   31.9451   32.9691   33.3586   31.7039   29.5288   29.4423   41.8319   35.0685   26.8912    1.6885    2.0236 
 192.7000  215.9000  218.9598   78.3527    0.8276    5.6344    2.3159  616.5374   14.6051    0.7354    1.9448    1.8850    0.4400    8.2557   14.9744   23.1652   30.9056   38.0488   31.3967   33.1578   33.4389   31.7478   29.5669   30.2943   39.6066   35.4017   26.8912    1.8797    2.1692 
 192.8000  215.9000  219.0337   76.6411    0.8799    5.3241    2.3092  615.4130   14.1960    0.7331    1.9425    1.8840    0.4194    7.8179   14.5566   24.1147   33.0698   37.5984   30.8798   33.1167   33.0365   31.4405   29.2624   29.9100   41.6965   35.7456   26.8872    1.7013    2.0439 
 192.9000  215.9000  219.1391   74.4076    0.8656    5.3003    2.3594  615.4469   13.8271    0.7328    1.9422    1.8706    0.4152    7.7439   14.6565   27.3033   39.6498   40.9924   30.6205   33.1734   32.6255   31.2620   29.0323   29.6290   42.3058   36.0417   26.8783    1.6351    1.9823 
 193.0000  215.9000  217.9845   73.5145    0.8156    5.3972    2.3822  615.1692   13.3319    0.7357    1.9425    1.8615    0.4131    8.4651   15.9656   26.6570   38.6555   44.5217   31.2649   34.4028   33.4815   32.2980   29.9760   31.1731   41.8133   36.4300   26.8786    1.5853    1.9371 
 193.1000  215.9000  216.3430   73.3592    0.7386    5.5910    2.3904  614.5030   12.7633    0.7405    1.9445    1.8469    0.4125    8.4195   15.6900   26.8249   42.6766   35.4407   31.7936   34.6039   33.5111   32.5719   30.2218   30.8634   43.7678   36.8628   26.8841    1.5148    1.8436 
