~VERSION INFORMATION
 VERS.                 2.0:   CWLS LOG ASCII STANDARD - VERSION 2.0
 WRAP.                  NO:   SINGLE LINE PER DEPTH STEP
~WELL INFORMATION
#MNEM.UNIT       DATA           DESCRIPTION MNEMONIC
#---------    -------------   --------------------------
 STRT.M         0.0000                        : START DEPTH
 STOP.M         815.0000                      : STOP DEPTH
 STEP.M         0.1000                        : STEP VALUE
 NULL.          -999.0000                     : NULL VALUE
 SRVC.          SCH                           : Service Company/Logging company
 DATE.          08.11.2023                    : LAS file Creation Date
 WELL    .      Каратобе 337                  : Well Name
 COMP    .      LLP "KMG-Burenie"             : Company
 FLD     .      Каратобе                      : Field
 LATI    .      0                             : Latitude/Northing
 LONG    .      0                             : Longitude/Easting
 RWS     .      -999                          : Def_Rw
 WST     .      -999                          : Def_Rwt
~CURVE INFORMATION
#MNEM          UNIT     API CODE   Description
#---------- ---------- ----------  -----------
 DEPTH     .M                    : Depth Index
 BSC       .mm                   : Nominal Caliper
 CALI      .mm                   : Caliper
 GR        .gAPI                 : Gamma Ray
 URAN      .PPM                  : Uranium
 THOR      .PPM                  : Thorium
 POTA      .%                    : Potasium
 DT        .uSec/m               : Sonic travel time
 HAZIM     .deg                  : Hole Azimuth
 SDEVM     .deg                  : Hole Deviation
 RHOZ      .g/cm3                : Bulk Density
 PEFZ      .B/E                  : Formation Photoelectric Factor 
 TNPH      .v/v                  : Neutron porosity
 AT10      .ohm.m                : 10" Array Induction, two foot resolution Resistivity
 AT20      .ohm.m                : 20" Array Induction, two foot resolution Resistivity
 AT30      .ohm.m                : 30" Array Induction, two foot resolution Resistivity
 AT60      .ohm.m                : 60" Array Induction, two foot resolution Resistivity
 AT90      .ohm.m                : 90" Array Induction, two foot resolution Resistivity
 RLA1      .ohm.m                : HRLT Borehole Corrected Resistivity 1
 RLA2      .ohm.m                : HRLT Borehole Corrected Resistivity 2
 RLA3      .ohm.m                : HRLT Borehole Corrected Resistivity 3
 RLA4      .ohm.m                : HRLT Borehole Corrected Resisitivity 4
 RLA5      .ohm.m                : HRLT Borehole Corrected Resistivity 5 
 RT        .ohm.m                : Formation Resistivity
 RXO       .ohm.m                : Flushed zone resistivity
 SP        .mV                   : Spontaneous Potential
 MTEM      .degC                 : Formation Temperature
 HMIN      .ohm.m                : HIP Micro Inverse Resistivity
 HMNO      .ohm.m                : HIP Micro Normal Resistivity
~A Log data section
# ...
 456.4000  215.9000  218.2679  120.4602    3.0778   11.8429    2.7020  434.9269   25.4312    0.5241    2.2053    2.3999    0.4157    2.3431    2.7037    2.8297    2.9990    2.8915    3.8608    3.8316    3.8257    3.8191    3.8492    3.8374    3.8370   30.4545   30.5361    0.8251    0.8687 
 456.5000  215.9000  218.3255  119.4903    3.0803   11.8803    2.6591  432.1985   25.9519    0.5256    2.2038    2.3745    0.4353    2.3436    2.6955    2.8200    2.9916    2.9242    3.8031    3.7614    3.7472    3.7349    3.7584    3.7585    3.8269   30.9914   30.5398    0.7899    0.8413 
 456.6000  215.9000  217.7863  117.9700    3.0697   11.8893    2.5885  429.9677   26.4827    0.5271    2.1988    2.3520    0.4597    2.3402    2.7095    2.8390    2.9901    2.9330    3.8465    3.7866    3.7763    3.7579    3.7836    3.7851    3.8960   31.6655   30.5505    0.7452    0.8106 
 456.7000  215.9000  216.8405  115.2011    2.8199   11.6857    2.5229  440.8154   27.0213    0.5279    2.1807    2.3273    0.4817    2.3405    2.7175    2.8620    3.0225    2.9968    3.8772    3.8125    3.8063    3.7898    3.8139    3.8158    3.9079   31.9868   30.5484    0.7351    0.8048 
 456.8000  215.9000  215.9941  111.2835    2.6042   11.4284    2.4621  449.9551   27.7791    0.5251    2.1604    2.2997    0.4867    2.3020    2.7100    2.8451    3.0441    3.0133    3.7719    3.6893    3.6855    3.6703    3.6921    3.6925    3.8579   32.0797   30.5417    0.7203    0.7837 
 456.9000  215.9000  215.3161  106.7496    2.4141   11.1382    2.4088  457.8313   28.6502    0.5197    2.1462    2.2720    0.4792    2.2938    2.6457    2.8347    3.0406    3.0065    3.6544    3.5534    3.5463    3.5375    3.5521    3.5489    3.8107   32.0074   30.5329    0.6972    0.7604 
 457.0000  215.9000  215.1375  106.9743    2.2183   10.9928    2.4284  466.1835   28.5350    0.5177    2.1387    2.2427    0.4796    2.2654    2.6542    2.7956    3.0136    3.0108    3.5807    3.4807    3.4828    3.4793    3.4916    3.4863    3.6150   32.0718   30.5449    0.6749    0.7483 
 457.1000  215.9000  215.5120  106.5691    2.0709   10.7566    2.3983  471.7606   28.3151    0.5154    2.1398    2.2093    0.4711    2.2797    2.6532    2.7678    2.9915    2.9836    3.5985    3.4896    3.4957    3.5039    3.5016    3.5018    3.6072   32.0861   30.5496    0.6799    0.7604 
 457.2000  215.9000  216.1067  105.5826    1.9680   10.4364    2.3224  474.7763   27.9985    0.5129    2.1474    2.1719    0.4543    2.3256    2.5959    2.7649    3.0096    3.0066    3.5669    3.4682    3.4862    3.5034    3.4951    3.4950    3.5380   32.0542   30.5474    0.6969    0.7748 
 457.3000  215.9000  215.4588  102.8579    1.6955    9.8874    2.2159  458.1637   27.5439    0.5092    2.1544    2.1223    0.4294    2.3205    2.5789    2.7607    3.0510    3.0145    3.4792    3.4001    3.4143    3.4391    3.4079    3.4230    3.5350   32.0130   30.5435    0.7143    0.7832 
 457.4000  215.9000  214.3603   95.0372    1.5270    9.1140    2.0783  440.6903   26.9838    0.5061    2.1644    2.0612    0.4047    2.3668    2.6925    2.8834    3.2222    3.1866    3.5589    3.5039    3.5327    3.5673    3.5261    3.5372    3.6358   31.9453   30.5461    0.8681    0.9186 
 457.5000  215.9000  213.1409   81.6956    1.4710    8.0974    1.9070  422.2842   26.3095    0.5038    2.1819    1.9989    0.3802    2.4534    2.8015    3.0571    3.3366    3.3535    3.9422    3.9163    3.9542    3.9933    3.9247    3.9476    3.9937   31.8486   30.5556    1.0882    1.0862 
 457.6000  215.9000  214.4454   72.3221    1.3668    7.5086    1.7428  407.0279   25.5413    0.5007    2.2057    1.9552    0.3780    2.5252    2.9110    3.1181    3.3825    3.3930    4.1120    4.1069    4.1530    4.1878    4.1001    4.1339    4.2156   31.0117   30.5643    1.0235    1.0568 
 457.7000  215.9000  219.0491   66.5740    1.2701    7.2562    1.6662  393.6087   24.9559    0.4982    2.2271    1.9346    0.3852    2.6248    3.0411    3.2768    3.5886    3.5898    4.4856    4.5191    4.5815    4.5967    4.4854    4.5335    4.6099   30.4036   30.5640    0.8990    1.0029 
 457.8000  215.9000  226.6638   65.3546    1.1866    7.4200    1.7050  382.4049   24.6194    0.4967    2.2415    1.9305    0.4034    2.6968    3.2116    3.4675    3.7761    3.8075    4.7793    4.8269    4.9232    4.9274    4.7961    4.8500    4.8265   30.1503   30.5519    0.7774    0.9126 
 457.9000  215.9000  224.9134   72.0556    1.1935    7.5617    1.7737  396.1192   24.2659    0.4935    2.2468    1.9418    0.4122    2.7795    3.3583    3.6347    3.8914    3.9629    4.7703    4.8577    4.9803    4.9647    4.8295    4.8839    4.7284   30.1250   30.5642    0.7795    0.8939 
 458.0000  215.9000  221.5710   79.7902    1.2020    7.8847    1.9023  409.8879   23.9818    0.4912    2.2426    1.9563    0.4163    2.7963    3.4012    3.6534    3.8488    3.9631    4.4978    4.5796    4.7063    4.6808    4.5486    4.6055    4.4297   30.1271   30.5724    0.7861    0.8735 
 458.1000  215.9000  217.6103   87.7756    1.1971    8.5077    2.1235  419.2279   23.8138    0.4907    2.2341    1.9634    0.4144    2.6673    3.2737    3.4865    3.6525    3.7672    4.0428    4.0966    4.2020    4.1659    4.0469    4.1086    4.1078   30.1326   30.5695    0.7574    0.8386 
 458.2000  215.9000  217.7885   93.9150    1.1467    9.0134    2.3273  425.9766   23.3776    0.4911    2.2272    1.9716    0.4155    2.5416    3.1156    3.2682    3.4436    3.4889    4.0143    4.0702    4.1662    4.1269    4.0143    4.0756    4.0851   30.2667   30.5618    0.7849    0.8595 
 458.3000  215.9000  218.3021   98.4466    1.0919    9.6262    2.5260  430.0910   22.8753    0.4923    2.2227    1.9869    0.4160    2.4294    2.9545    3.1381    3.3589    3.2929    4.0439    4.1183    4.1903    4.1537    4.0450    4.1076    4.0817   30.5542   30.5569    0.8188    0.8826 
 458.4000  215.9000  218.3961  100.3239    1.0433   10.4952    2.7202  429.7135   22.3279    0.4946    2.2176    2.0117    0.4139    2.3705    2.8636    3.0093    3.2357    3.1133    3.9719    4.0350    4.0888    4.0554    3.9530    4.0189    3.9842   31.1109   30.5594    0.7969    0.8535 
 458.5000  215.9000  217.5541  102.3655    0.9869   10.6836    2.8579  421.3994   21.8624    0.4949    2.2117    2.0456    0.4020    2.3518    2.8420    3.0016    3.2498    3.0882    3.8586    3.9029    3.9409    3.9080    3.8157    3.8813    3.9290   31.9468   30.5550    0.7674    0.8196 
 458.6000  215.9000  216.4637  104.0976    0.9205   10.7698    2.9478  413.4510   21.5140    0.4949    2.2056    2.0797    0.3957    2.3568    2.8340    3.0459    3.2904    3.1143    3.9110    3.9510    3.9759    3.9434    3.8674    3.9268    3.9682   32.8906   30.5558    0.7124    0.7792 
 458.7000  215.9000  215.2604  104.9350    0.8330   11.0038    2.9488  411.2300   21.4177    0.4952    2.1973    2.1014    0.4096    2.3683    2.8412    3.0736    3.3156    3.1475    3.9536    3.9872    3.9962    3.9642    3.8960    3.9571    3.9663   33.9432   30.5740    0.6811    0.7647 
 458.8000  215.9000  214.6818  104.0020    0.7812   10.9398    2.9827  409.4393   21.0596    0.4953    2.1847    2.1203    0.4137    2.3834    2.8360    3.0788    3.3140    3.1912    3.7775    3.8167    3.8124    3.7756    3.7263    3.7803    3.8140   34.7609   30.5599    0.6899    0.7718 
 458.9000  215.9000  214.3304  102.3171    0.7783   10.7480    3.0185  408.5081   20.6631    0.4952    2.1697    2.1300    0.4143    2.3818    2.8297    3.0810    3.2991    3.2205    3.7438    3.7759    3.7730    3.7275    3.6960    3.7405    3.8115   35.5578   30.5465    0.7953    0.8499 
 459.0000  215.9000  214.0963  100.0219    0.8947   10.4494    3.0276  409.8683   20.4071    0.4945    2.1533    2.1415    0.4132    2.4894    2.9526    3.2286    3.4915    3.3950    3.8827    3.9433    3.9505    3.8982    3.8889    3.9108    4.0073   36.5240   30.5674    0.9169    0.9503 
 459.1000  215.9000  213.5475   96.5196    0.9098   10.0860    3.0466  413.4634   20.0592    0.4924    2.1360    2.1569    0.4013    2.7992    3.2584    3.5804    3.9444    3.8097    4.3248    4.4153    4.4364    4.3716    4.3790    4.3823    4.4352   37.3481   30.5714    0.9767    1.0144 
