~VERSION INFORMATION
 VERS.                 2.0:   CWLS LOG ASCII STANDARD - VERSION 2.0
 WRAP.                  NO:   SINGLE LINE PER DEPTH STEP
~WELL INFORMATION
#MNEM.UNIT       DATA           DESCRIPTION MNEMONIC
#---------    -------------   --------------------------
 STRT.M         0.0000                        : START DEPTH
 STOP.M         815.0000                      : STOP DEPTH
 STEP.M         0.1000                        : STEP VALUE
 NULL.          -999.0000                     : NULL VALUE
 SRVC.          SCH                           : Service Company/Logging company
 DATE.          08.11.2023                    : LAS file Creation Date
 WELL    .      Каратобе 337                  : Well Name
 COMP    .      LLP "KMG-Burenie"             : Company
 FLD     .      Каратобе                      : Field
 LATI    .      0                             : Latitude/Northing
 LONG    .      0                             : Longitude/Easting
 RWS     .      -999                          : Def_Rw
 WST     .      -999                          : Def_Rwt
~CURVE INFORMATION
#MNEM          UNIT     API CODE   Description
#---------- ---------- ----------  -----------
 DEPTH     .M                    : Depth Index
 BSC       .mm                   : Nominal Caliper
 CALI      .mm                   : Caliper
 GR        .gAPI                 : Gamma Ray
 URAN      .PPM                  : Uranium
 THOR      .PPM                  : Thorium
 POTA      .%                    : Potasium
 DT        .uSec/m               : Sonic travel time
 HAZIM     .deg                  : Hole Azimuth
 SDEVM     .deg                  : Hole Deviation
 RHOZ      .g/cm3                : Bulk Density
 PEFZ      .B/E                  : Formation Photoelectric Factor 
 TNPH      .v/v                  : Neutron porosity
 AT10      .ohm.m                : 10" Array Induction, two foot resolution Resistivity
 AT20      .ohm.m                : 20" Array Induction, two foot resolution Resistivity
 AT30      .ohm.m                : 30" Array Induction, two foot resolution Resistivity
 AT60      .ohm.m                : 60" Array Induction, two foot resolution Resistivity
 AT90      .ohm.m                : 90" Array Induction, two foot resolution Resistivity
 RLA1      .ohm.m                : HRLT Borehole Corrected Resistivity 1
 RLA2      .ohm.m                : HRLT Borehole Corrected Resistivity 2
 RLA3      .ohm.m                : HRLT Borehole Corrected Resistivity 3
 RLA4      .ohm.m                : HRLT Borehole Corrected Resisitivity 4
 RLA5      .ohm.m                : HRLT Borehole Corrected Resistivity 5 
 RT        .ohm.m                : Formation Resistivity
 RXO       .ohm.m                : Flushed zone resistivity
 SP        .mV                   : Spontaneous Potential
 MTEM      .degC                 : Formation Temperature
 HMIN      .ohm.m                : HIP Micro Inverse Resistivity
 HMNO      .ohm.m                : HIP Micro Normal Resistivity
~A Log data section
# ...
 145.6000  229.9000  229.7499   88.2274    1.4198   10.6591    2.3182  185.1342 -999.0000    0.6407 -999.0000   10.0000    0.6081 -999.0000 -999.0000 -999.0000 -999.0000 -999.0000 -999.0000 -999.0000 -999.0000 -999.0000 -999.0000 -999.0000 -999.0000 -999.0000   26.1625    0.0334    0.0305 
 145.7000  229.9000  230.0163   90.2119    1.4757   10.6880    2.3253  185.9219 -999.0000    0.6162 -999.0000   10.0000    0.5774 -999.0000 -999.0000 -999.0000 -999.0000 -999.0000 -999.0000 -999.0000 -999.0000 -999.0000 -999.0000 -999.0000 -999.0000 -999.0000   26.1566    0.0438    0.0396 
 145.8000  229.9000  229.4410   89.5043    1.4417   10.7945    2.3052  185.9118 -999.0000    0.5888 -999.0000   10.0000    0.5466 -999.0000 -999.0000 -999.0000 -999.0000 -999.0000 -999.0000 -999.0000 -999.0000 -999.0000 -999.0000 -999.0000 -999.0000 -999.0000   26.1538    0.0686    0.0612 
 145.9000  229.9000  229.5333   86.6003    1.5243   10.3900    2.2667  185.7686 -999.0000    0.5731 -999.0000   10.0000    0.5135 -999.0000 -999.0000 -999.0000 -999.0000 -999.0000 -999.0000 -999.0000 -999.0000 -999.0000 -999.0000 -999.0000 -999.0000 -999.0000   26.1493    0.1142    0.0944 
 146.0000  229.9000  230.0982   81.7403    1.7064    9.5355    2.2115  185.5159 -999.0000    0.5677 -999.0000   10.0000    0.4788 -999.0000 -999.0000 -999.0000 -999.0000 -999.0000 -999.0000 -999.0000 -999.0000 -999.0000 -999.0000 -999.0000 -999.0000 -999.0000   26.1434    0.0922    0.0801 
 146.1000  229.9000  230.2220   76.0786    1.5073    9.0045    2.1113  186.0965 -999.0000    0.5583 -999.0000   10.0000    0.5048 -999.0000 -999.0000 -999.0000 -999.0000 -999.0000 -999.0000 -999.0000 -999.0000 -999.0000 -999.0000 -999.0000 -999.0000 -999.0000   26.1558    0.0542    0.0487 
 146.2000  229.9000  230.2821   70.0386    1.3839    8.4918    2.0259  185.9814 -999.0000    0.5584 -999.0000   10.0000    0.5310 -999.0000 -999.0000 -999.0000 -999.0000 -999.0000 -999.0000 -999.0000 -999.0000 -999.0000 -999.0000 -999.0000 -999.0000 -999.0000   26.1664    0.0506    0.0455 
 146.3000  229.9000  230.3456   63.5886    1.3426    7.9991    1.9564  185.1127 -999.0000    0.5689 -999.0000   10.0000    0.5576 -999.0000 -999.0000 -999.0000 -999.0000 -999.0000 -999.0000 -999.0000 -999.0000 -999.0000 -999.0000 -999.0000 -999.0000 -999.0000   26.1749    0.0478    0.0432 
 146.4000  229.9000  230.6004   64.2177    1.3303    7.6141    1.9270  184.8900 -999.0000    0.5730 -999.0000   10.0000    0.6413 -999.0000 -999.0000 -999.0000 -999.0000 -999.0000 -999.0000 -999.0000 -999.0000 -999.0000 -999.0000 -999.0000 -999.0000 -999.0000   26.1714    0.0566    0.0508 
 146.5000  229.9000  230.7297   65.4779    1.3545    7.1987    1.9181  184.7414 -999.0000    0.5699 -999.0000   10.0000    0.7317 -999.0000 -999.0000 -999.0000 -999.0000 -999.0000 -999.0000 -999.0000 -999.0000 -999.0000 -999.0000 -999.0000 -999.0000 -999.0000   26.1729    0.1513    0.1404 
 146.6000  229.9000  230.7185   67.1658    1.4236    6.7389    1.9333  184.6530 -999.0000    0.5580 -999.0000   10.0000    0.8277 -999.0000 -999.0000 -999.0000 -999.0000 -999.0000 -999.0000 -999.0000 -999.0000 -999.0000 -999.0000 -999.0000 -999.0000 -999.0000   26.1812    0.1190    0.0996 
 146.7000  229.9000  230.8357   68.2288    1.5219    6.4082    1.9561  184.5313 -999.0000    0.5589 -999.0000   10.0000    0.8255 -999.0000 -999.0000 -999.0000 -999.0000 -999.0000 -999.0000 -999.0000 -999.0000 -999.0000 -999.0000 -999.0000 -999.0000 -999.0000   26.1795    0.0670    0.0544 
 146.8000  229.9000  230.8526   69.2872    1.5769    6.2471    1.9647  184.3356 -999.0000    0.5511 -999.0000   10.0000    0.8165 -999.0000 -999.0000 -999.0000 -999.0000 -999.0000 -999.0000 -999.0000 -999.0000 -999.0000 -999.0000 -999.0000 -999.0000 -999.0000   26.1795    0.0422    0.0383 
 146.9000  229.9000  230.7360   70.4351    1.5594    6.3311    1.9498  184.0290 -999.0000    0.5279 -999.0000   10.0000    0.8124 -999.0000 -999.0000 -999.0000 -999.0000 -999.0000 -999.0000 -999.0000 -999.0000 -999.0000 -999.0000 -999.0000 -999.0000 -999.0000   26.1838    0.0350    0.0319 
 147.0000  229.9000  230.7482   69.3995    1.5925    6.7459    1.9082  202.1282 -999.0000    0.5107 -999.0000   10.0000    0.7259 -999.0000 -999.0000 -999.0000 -999.0000 -999.0000 -999.0000 -999.0000 -999.0000 -999.0000 -999.0000 -999.0000 -999.0000 -999.0000   26.1886    0.0283    0.0260 
 147.1000  229.9000  230.6889   68.3701    1.6290    7.0448    1.8693  217.0153 -999.0000    0.4874 -999.0000   10.0000    0.6633 -999.0000 -999.0000 -999.0000 -999.0000 -999.0000 -999.0000 -999.0000 -999.0000 -999.0000 -999.0000 -999.0000 -999.0000 -999.0000   26.1901    0.0318    0.0291 
 147.2000  229.9000  230.5038   68.0429    1.6561    7.0140    1.8440  219.8507 -999.0000    0.4505 -999.0000   10.0000    0.6729 -999.0000 -999.0000 -999.0000 -999.0000 -999.0000 -999.0000 -999.0000 -999.0000 -999.0000 -999.0000 -999.0000 -999.0000 -999.0000   26.1853    0.0467    0.0417 
 147.3000  229.9000  230.5137   68.7366    1.5595    7.2229    1.8397  429.8605 -999.0000    0.4075 -999.0000   10.0000    0.6943 -999.0000 -999.0000 -999.0000 -999.0000 -999.0000 -999.0000 -999.0000 -999.0000 -999.0000 -999.0000 -999.0000 -999.0000 -999.0000   26.1795    0.0520    0.0462 
 147.4000  229.9000  230.5926   68.8298    1.4990    7.3546    1.8373  586.8195 -999.0000    0.3654 -999.0000   10.0000    0.7335 -999.0000 -999.0000 -999.0000 -999.0000 -999.0000 -999.0000 -999.0000 -999.0000 -999.0000 -999.0000 -999.0000 -999.0000 -999.0000   26.1769    0.0694    0.0612 
 147.5000  229.9000  230.7207   66.9045    1.5932    7.1687    1.8282  502.5548 -999.0000    0.3287 -999.0000   10.0000    0.8101 -999.0000 -999.0000 -999.0000 -999.0000 -999.0000 -999.0000 -999.0000 -999.0000 -999.0000 -999.0000 -999.0000 -999.0000 -999.0000   26.1830    0.1607    0.1638 
 147.6000  229.9000  230.7322   66.8482    1.3710    7.4517    1.8830  465.9265 -999.0000    0.2786 -999.0000   10.0000    0.7919 -999.0000 -999.0000 -999.0000 -999.0000 -999.0000 -999.0000 -999.0000 -999.0000 -999.0000 -999.0000 -999.0000 -999.0000 -999.0000   26.1937    0.1983    0.2541 
 147.7000  229.9000  230.6852   67.1559    1.1344    7.8003    1.9402  436.9009 -999.0000    0.2210 -999.0000   10.0000    0.7366 -999.0000 -999.0000 -999.0000 -999.0000 -999.0000 -999.0000 -999.0000 -999.0000 -999.0000 -999.0000 -999.0000 -999.0000 -999.0000   26.2043    0.0904    0.0738 
 147.8000  229.9000  230.5801   66.8480    1.1511    7.9129    1.9446  386.8915 -999.0000    0.1526 -999.0000   10.0000    0.6536 -999.0000 -999.0000 -999.0000 -999.0000 -999.0000    0.0339    0.0306    0.0283    0.0262    0.0231 -999.0000 -999.0000 -999.0000   26.2103    0.0375    0.0346 
 147.9000  229.9000  230.6401   66.5399    1.0584    7.8156    1.9222  364.4355 -999.0000    0.1255 -999.0000   10.0000    0.5880 -999.0000 -999.0000 -999.0000 -999.0000 -999.0000    0.0342    0.0300    0.0276    0.0255    0.0223 -999.0000 -999.0000 -999.0000   26.2076    0.0328    0.0300 
 148.0000  229.9000  230.7425   65.9366    0.9402    7.6221    1.8901  351.7324  305.4153    0.1313 -999.0000    9.9853    0.5423 -999.0000 -999.0000 -999.0000 -999.0000 -999.0000    0.0317    0.0278    0.0255    0.0235    0.0206    0.0206    0.0206 -999.0000   26.2040    0.0365    0.0333 
 148.1000  229.9000  230.8160   64.1529    0.8905    7.3699    1.8600  335.1804  330.8459    0.2050 -999.0000    9.7067    0.5492 -999.0000 -999.0000 -999.0000 -999.0000 -999.0000    0.0327    0.0284    0.0261    0.0242    0.0213    0.0213    0.0213 -999.0000   26.2100    0.0395    0.0359 
 148.2000  229.9000  230.7888   64.6480    0.8316    7.4835    1.9200  342.6255  341.9067    0.2929 -999.0000    9.0176    0.5880 -999.0000 -999.0000 -999.0000 -999.0000 -999.0000    0.0317    0.0279    0.0256    0.0238    0.0210    0.0210    0.0210 -999.0000   26.2031    0.0408    0.0371 
 148.3000  229.9000  230.9902   66.7782    0.7791    7.8373    2.0397  367.3328  346.1102    0.3863 -999.0000    7.9407    0.6340 -999.0000 -999.0000 -999.0000 -999.0000 -999.0000    0.0333    0.0290    0.0264    0.0244    0.0214    0.0214    0.0214   73.7450   26.1919    0.0505    0.0452 
