~VERSION INFORMATION
 VERS.                 2.0:   CWLS LOG ASCII STANDARD - VERSION 2.0
 WRAP.                  NO:   SINGLE LINE PER DEPTH STEP
~WELL INFORMATION
#MNEM.UNIT       DATA           DESCRIPTION MNEMONIC
#---------    -------------   --------------------------
 STRT.M         0.0000                        : START DEPTH
 STOP.M         815.0000                      : STOP DEPTH
 STEP.M         0.1000                        : STEP VALUE
 NULL.          -999.0000                     : NULL VALUE
 SRVC.          SCH                           : Service Company/Logging company
 DATE.          08.11.2023                    : LAS file Creation Date
 WELL    .      Каратобе 337                  : Well Name
 COMP    .      LLP "KMG-Burenie"             : Company
 FLD     .      Каратобе                      : Field
 LATI    .      0                             : Latitude/Northing
 LONG    .      0                             : Longitude/Easting
 RWS     .      -999                          : Def_Rw
 WST     .      -999                          : Def_Rwt
~CURVE INFORMATION
#MNEM          UNIT     API CODE   Description
#---------- ---------- ----------  -----------
 DEPTH     .M                    : Depth Index
 BSC       .mm                   : Nominal Caliper
 CALI      .mm                   : Caliper
 GR        .gAPI                 : Gamma Ray
 URAN      .PPM                  : Uranium
 THOR      .PPM                  : Thorium
 POTA      .%                    : Potasium
 DT        .uSec/m               : Sonic travel time
 HAZIM     .deg                  : Hole Azimuth
 SDEVM     .deg                  : Hole Deviation
 RHOZ      .g/cm3                : Bulk Density
 PEFZ      .B/E                  : Formation Photoelectric Factor 
 TNPH      .v/v                  : Neutron porosity
 AT10      .ohm.m                : 10" Array Induction, two foot resolution Resistivity
 AT20      .ohm.m                : 20" Array Induction, two foot resolution Resistivity
 AT30      .ohm.m                : 30" Array Induction, two foot resolution Resistivity
 AT60      .ohm.m                : 60" Array Induction, two foot resolution Resistivity
 AT90      .ohm.m                : 90" Array Induction, two foot resolution Resistivity
 RLA1      .ohm.m                : HRLT Borehole Corrected Resistivity 1
 RLA2      .ohm.m                : HRLT Borehole Corrected Resistivity 2
 RLA3      .ohm.m                : HRLT Borehole Corrected Resistivity 3
 RLA4      .ohm.m                : HRLT Borehole Corrected Resisitivity 4
 RLA5      .ohm.m                : HRLT Borehole Corrected Resistivity 5 
 RT        .ohm.m                : Formation Resistivity
 RXO       .ohm.m                : Flushed zone resistivity
 SP        .mV                   : Spontaneous Potential
 MTEM      .degC                 : Formation Temperature
 HMIN      .ohm.m                : HIP Micro Inverse Resistivity
 HMNO      .ohm.m                : HIP Micro Normal Resistivity
~A Log data section
# ...
 277.2000  215.9000  224.5440  103.3037    0.3794   10.8068    3.0845  503.5275   11.5010    0.7428    2.1085    2.8304    0.4379    2.2562    2.7256    3.1033    3.4342    3.0667    3.8258    3.7073    3.6685    3.6685    3.6274    3.5547    4.5498   20.1270   28.1559    0.7137    0.7871 
 277.3000  215.9000  221.9262  106.0333    0.4427   10.8488    3.0413  517.4519   11.9327    0.7390    2.1073    2.8584    0.4606    2.1696    2.5177    2.9047    3.2185    2.9681    3.6552    3.5675    3.4913    3.4979    3.4604    3.3793    4.4240   20.0911   28.1611    0.7611    0.8175 
 277.4000  215.9000  221.9264  107.2719    0.4825   10.8703    2.9708  521.8530   12.1823    0.7356    2.1199    2.8824    0.4719    2.1062    2.4277    2.8157    3.1076    2.9209    3.5636    3.5007    3.4162    3.4136    3.3758    3.3132    4.2658   20.1339   28.1695    0.6748    0.7410 
 277.5000  215.9000  226.4842  105.5777    0.4074   10.9272    2.8804  510.8491   12.2886    0.7334    2.1347    2.8726    0.4638    2.1034    2.4123    2.7615    3.0635    2.9261    3.4702    3.4616    3.3978    3.3753    3.3458    3.3581    3.8355   20.3311   28.1804    0.6005    0.6761 
 277.6000  215.9000  221.5933  102.8517    0.5108   10.3828    2.8446  496.4655   11.7366    0.7249    2.1434    2.8177    0.4423    2.1858    2.4983    2.8739    3.1753    3.1415    3.6227    3.6616    3.6254    3.5742    3.5435    3.5909    3.8041   20.4102   28.1730    0.7102    0.7850 
 277.7000  215.9000  216.3239   99.6961    0.6099    9.7091    2.8108  481.9383   11.2447    0.7164    2.1379    2.7238    0.4225    2.3103    2.6713    3.1267    3.5296    3.5578    3.8463    3.9231    3.9227    3.8398    3.7991    3.8621    3.9072   20.7476   28.1642    0.9043    0.9571 
 277.8000  215.9000  214.5279   96.0763    0.5767    9.0924    2.7456  469.3073   11.3599    0.7117    2.1218    2.6181    0.4162    2.3406    2.8421    3.3570    3.8075    3.9296    3.8678    4.0025    4.0435    3.9454    3.8982    3.9506    3.8466   21.8628   28.1642    1.0098    1.0283 
 277.9000  215.9000  213.9549   93.3925    0.6261    8.8529    2.7327  460.4621   11.4590    0.7063    2.1102    2.5123    0.4037    2.4244    3.0230    3.5937    4.1641    4.3294    4.0691    4.3035    4.4130    4.3078    4.2469    4.3596    3.5837   22.6587   28.1777    1.2176    1.1865 
 278.0000  215.9000  213.7801   91.0173    0.6846    8.6390    2.7264  454.5407   11.4441    0.7020    2.1074    2.4389    0.3928    2.5182    3.2269    3.8977    4.6358    4.8920    4.4088    4.7382    4.9209    4.8255    4.7419    5.0338    3.3206   23.1654   28.1905    1.3622    1.3373 
 278.1000  215.9000  213.9667   88.6299    0.6779    8.0695    2.6817  454.5105   11.0439    0.7026    2.1149    2.4203    0.3951    2.5158    3.3216    4.1342    5.0972    5.3552    4.2222    4.5635    4.7661    4.7018    4.6076    4.9703    2.9997   23.0244   28.1844    1.2840    1.3149 
 278.2000  215.9000  214.3121   87.6979    0.6128    8.2025    2.6944  454.9735   10.7962    0.6986    2.1276    2.4295    0.3968    2.4778    3.3213    4.1557    5.1259    5.2458    4.1977    4.5721    4.7725    4.7407    4.6356    5.0624    2.8925   23.0690   28.1826    1.1554    1.2261 
 278.3000  215.9000  214.5082   87.3307    0.5198    8.5350    2.7340  455.3175   10.5917    0.6931    2.1365    2.4585    0.3985    2.3692    3.2826    4.0676    4.9730    5.0639    4.3762    4.7863    4.9998    4.9978    4.8734    5.3857    2.9176   23.3514   28.1815    1.1042    1.1743 
 278.4000  215.9000  214.1840   86.6946    0.4127    8.4050    2.7838  454.1567   10.2855    0.6897    2.1370    2.5002    0.4005    2.2636    3.1361    3.9196    4.7685    4.8826    4.1426    4.4832    4.6879    4.7128    4.5897    5.0373    2.7696   24.3543   28.1755    1.1280    1.1114 
 278.5000  215.9000  213.6627   87.7736    0.3569    8.2287    2.8632  455.0995   10.9043    0.6769    2.1269    2.5166    0.4047    2.1964    2.9330    3.6385    4.5150    4.7443    3.7791    4.0296    4.2122    4.2533    4.1391    4.4688    2.6248   25.3812   28.1852    1.1592    1.0458 
 278.6000  215.9000  213.2904   89.6250    0.3280    8.0728    2.9477  457.3995   11.8359    0.6607    2.1093    2.5132    0.4079    2.1291    2.8027    3.4342    4.3124    4.6432    3.6023    3.8049    3.9704    4.0176    3.9049    4.1656    2.5849   26.3599   28.2014    1.1045    0.9761 
 278.7000  215.9000  213.6573   90.4666    0.2944    8.2207    2.9584  461.2019   11.5281    0.6568    2.0922    2.4970    0.3958    2.0628    2.6798    3.2495    4.2805    4.6851    3.5160    3.7264    3.8742    3.9229    3.8153    4.0770    2.5081   26.9302   28.2042    1.0386    0.9178 
 278.8000  215.9000  213.7308   91.0488    0.2740    8.2584    2.9988  459.2755   11.1791    0.6507    2.0778    2.4736    0.4040    2.0081    2.5755    3.0681    3.9826    4.3887    3.4163    3.6575    3.7872    3.8428    3.7439    4.0372    2.3806   27.3743   28.1963    0.9910    0.8757 
 278.9000  215.9000  213.6908   91.4560    0.2600    8.2261    3.0590  454.0378   10.7762    0.6435    2.0705    2.4639    0.4236    1.9359    2.4347    2.8863    3.6329    3.9377    3.2966    3.5220    3.6263    3.6742    3.5819    3.8238    2.3828   27.6711   28.1826    0.9450    0.8349 
 279.0000  215.9000  214.0478   91.8410    0.2166    8.2337    3.1191  454.6397   10.0682    0.6416    2.0749    2.4585    0.4172    1.9909    2.4149    2.8219    3.5024    3.7797    3.2390    3.4578    3.5407    3.5814    3.4921    3.6915    2.4494   27.2422   28.1826    0.9087    0.8028 
 279.1000  215.9000  214.6829   93.1245    0.1932    8.2278    3.1339  454.6684    9.7018    0.6373    2.0844    2.4508    0.4147    2.1043    2.6052    3.0306    3.7869    4.1272    3.5599    3.8529    3.9320    3.9698    3.8768    4.1439    2.6234   26.8885   28.1909    0.9464    0.8362 
 279.2000  215.9000  215.2467   95.0843    0.1859    8.2129    3.1121  454.2874    9.6110    0.6313    2.0929    2.4471    0.4149    2.2070    2.8790    3.4768    4.4113    4.9582    4.2147    4.6045    4.7102    4.7521    4.6479    5.0461    2.9621   26.6400   28.2050    1.0645    0.9764 
 279.3000  215.9000  214.3336   96.0856    0.1889    8.2514    3.0513  455.2218    9.7496    0.6260    2.0948    2.4436    0.4084    2.4060    3.1579    4.0027    5.1196    6.2224    4.6008    5.1060    5.2611    5.3071    5.2076    5.8353    3.0333   27.8823   28.1962    1.2411    1.1439 
 279.4000  215.9000  213.6419   95.7568    0.1584    8.3531    3.0072  458.2565    9.7689    0.6208    2.0860    2.4289    0.4036    2.3972    3.2561    4.0802    5.2204    6.6966    3.9295    4.3035    4.4449    4.4715    4.4045    4.8674    2.6021   28.8051   28.1949    1.1642    1.0290 
 279.5000  215.9000  213.2566   94.1500    0.0956    8.5154    2.9793  463.3091    9.6737    0.6156    2.0708    2.4084    0.4005    2.2345    3.1526    3.7107    4.6527    5.4843    3.5713    3.8713    4.0396    4.0518    4.0111    4.4108    2.3938   29.4207   28.2009    1.0538    0.9312 
 279.6000  215.9000  213.0878   90.4195    0.2106    8.4559    2.9555  464.9660    9.9383    0.6138    2.0547    2.4007    0.4026    2.3062    2.9663    3.4051    4.1643    5.0299    3.7098    4.0202    4.2348    4.2400    4.2146    4.6842    2.4575   28.5978   28.1911    1.1089    0.9800 
 279.7000  215.9000  213.2908   89.8695    0.2849    8.4985    2.9903  466.4271   10.2714    0.6125    2.0485    2.4106    0.4087    2.3067    2.9830    3.2882    3.9034    4.4765    3.5764    3.8131    4.0191    4.0117    4.0045    4.3624    2.4008   27.2272   28.1903    1.1371    1.0050 
 279.8000  215.9000  213.8082   93.1039    0.3074    8.6663    3.0940  467.7398   10.6762    0.6116    2.0614    2.4444    0.4194    2.2651    2.9147    3.1959    3.8291    4.2683    3.4119    3.5703    3.7428    3.7269    3.7279    3.9362    2.4779   25.2482   28.2004    1.1572    1.0227 
 279.9000  215.9000  214.3166   95.1680    0.1848    9.1633    3.2496  502.1286   11.6786    0.6074    2.0779    2.4968    0.4214    2.3117    2.8835    3.0983    3.6052    4.0357    3.5099    3.6573    3.7903    3.7739    3.7776    3.9218    2.7180   23.1821   28.1954    0.8732    0.8541 
