~VERSION INFORMATION
 VERS.                 2.0:   CWLS LOG ASCII STANDARD - VERSION 2.0
 WRAP.                  NO:   SINGLE LINE PER DEPTH STEP
~WELL INFORMATION
#MNEM.UNIT       DATA           DESCRIPTION MNEMONIC
#---------    -------------   --------------------------
 STRT.M         0.0000                        : START DEPTH
 STOP.M         815.0000                      : STOP DEPTH
 STEP.M         0.1000                        : STEP VALUE
 NULL.          -999.0000                     : NULL VALUE
 SRVC.          SCH                           : Service Company/Logging company
 DATE.          08.11.2023                    : LAS file Creation Date
 WELL    .      Каратобе 337                  : Well Name
 COMP    .      LLP "KMG-Burenie"             : Company
 FLD     .      Каратобе                      : Field
 LATI    .      0                             : Latitude/Northing
 LONG    .      0                             : Longitude/Easting
 RWS     .      -999                          : Def_Rw
 WST     .      -999                          : Def_Rwt
~CURVE INFORMATION
#MNEM          UNIT     API CODE   Description
#---------- ---------- ----------  -----------
 DEPTH     .M                    : Depth Index
 BSC       .mm                   : Nominal Caliper
 CALI      .mm                   : Caliper
 GR        .gAPI                 : Gamma Ray
 URAN      .PPM                  : Uranium
 THOR      .PPM                  : Thorium
 POTA      .%                    : Potasium
 DT        .uSec/m               : Sonic travel time
 HAZIM     .deg                  : Hole Azimuth
 SDEVM     .deg                  : Hole Deviation
 RHOZ      .g/cm3                : Bulk Density
 PEFZ      .B/E                  : Formation Photoelectric Factor 
 TNPH      .v/v                  : Neutron porosity
 AT10      .ohm.m                : 10" Array Induction, two foot resolution Resistivity
 AT20      .ohm.m                : 20" Array Induction, two foot resolution Resistivity
 AT30      .ohm.m                : 30" Array Induction, two foot resolution Resistivity
 AT60      .ohm.m                : 60" Array Induction, two foot resolution Resistivity
 AT90      .ohm.m                : 90" Array Induction, two foot resolution Resistivity
 RLA1      .ohm.m                : HRLT Borehole Corrected Resistivity 1
 RLA2      .ohm.m                : HRLT Borehole Corrected Resistivity 2
 RLA3      .ohm.m                : HRLT Borehole Corrected Resistivity 3
 RLA4      .ohm.m                : HRLT Borehole Corrected Resisitivity 4
 RLA5      .ohm.m                : HRLT Borehole Corrected Resistivity 5 
 RT        .ohm.m                : Formation Resistivity
 RXO       .ohm.m                : Flushed zone resistivity
 SP        .mV                   : Spontaneous Potential
 MTEM      .degC                 : Formation Temperature
 HMIN      .ohm.m                : HIP Micro Inverse Resistivity
 HMNO      .ohm.m                : HIP Micro Normal Resistivity
~A Log data section
# ...
 322.0000  215.9000  215.9889  103.3808    1.9803    9.6014    3.1014  564.3366  355.3776    0.7369    2.1849    3.0684    0.4044    2.3281    2.9865    3.1436    3.4813    3.3623    3.4842    3.5972    3.7194    3.7598    3.7491    3.8911    2.6409   17.8787   28.8249    0.9444    0.9769 
 322.1000  215.9000  214.2423  103.5664    1.7971   10.0054    3.0547  558.5662  355.3665    0.7373    2.1874    3.0734    0.4097    2.3065    2.9604    3.1202    3.4040    3.2617    3.4794    3.5862    3.7058    3.7534    3.7452    3.8828    2.6387   17.4467   28.8258    0.9275    0.9558 
 322.2000  215.9000  212.6967  103.9883    1.5879   10.3769    2.9902  552.7255  355.3495    0.7372    2.1940    3.0678    0.4122    2.3775    2.9885    3.1588    3.4218    3.2318    3.5346    3.6494    3.7635    3.8222    3.8117    3.9536    2.6846   17.0616   28.8233    0.9207    0.9560 
 322.3000  215.9000  212.0978  101.9089    1.5385   10.3699    2.8905  550.6191  355.2738    0.7360    2.2010    3.0519    0.4076    2.4479    2.9865    3.1702    3.4230    3.2337    3.7047    3.8156    3.9380    4.0136    3.9960    4.1533    2.7680   16.8497   28.8193    0.9122    0.9760 
 322.4000  215.9000  213.3494  102.5972    1.4867   10.5167    2.8899  504.2571  355.1721    0.7352    2.2046    3.0217    0.4077    2.4977    3.0738    3.3053    3.5393    3.3197    3.7884    3.9075    4.0471    4.1346    4.1159    4.3057    2.7591   16.8251   28.8272    0.8168    0.9234 
 322.5000  215.9000  214.1717  103.5054    1.3926   10.6568    2.8968  455.4849  355.0667    0.7343    2.2135    2.9950    0.4133    2.6519    3.2476    3.5413    3.7678    3.5315    3.8848    4.0089    4.1644    4.2490    4.2249    4.4309    2.8076   16.8405   28.8377    0.7220    0.8529 
 322.6000  215.9000  212.8898  101.7454    1.1512   10.5818    2.8067  453.2968  354.9811    0.7332    2.2277    2.9939    0.4324    2.8253    3.4482    3.8461    4.0756    3.8104    3.9400    4.0728    4.2422    4.3168    4.2950    4.5215    2.8119   16.7646   28.8425    0.6349    0.7594 
 322.7000  215.9000  212.4411   99.9776    1.0360   10.6889    2.7307  456.3667  355.0077    0.7307    2.2368    3.0236    0.4653    2.8862    3.5082    3.9870    4.2850    4.0756    3.8842    4.0450    4.2079    4.2752    4.2517    4.4981    2.7562   16.8378   28.8407    0.6315    0.7539 
 322.8000  215.9000  212.0480   97.7985    0.9767   10.7044    2.6594  461.1069  355.0592    0.7276    2.2484    3.0767    0.5011    2.8235    3.3885    3.8842    4.1977    4.1323    3.8884    4.0553    4.2149    4.2707    4.2497    4.4921    2.7748   16.9538   28.8364    0.6587    0.8044 
 322.9000  215.9000  210.6913   93.6283    0.9130    9.8728    2.5803  462.4679  354.9864    0.7242    2.2592    3.1469    0.5214    2.7341    3.1686    3.5797    3.8862    3.8288    3.8822    4.0580    4.2136    4.2640    4.2445    4.4944    2.7541   16.9517   28.8348    0.6921    0.8468 
 323.0000  215.9000  210.4595   92.3737    1.0100    9.4277    2.5046  472.2882  354.8498    0.7197    2.2568    3.2295    0.5391    2.5341    2.9046    3.3042    3.5964    3.5912    3.6444    3.8163    3.9495    3.9944    3.9816    4.2065    2.6154   16.8682   28.8313    0.7376    0.8643 
 323.1000  215.9000  210.7677   92.7127    1.1769    9.2630    2.4388  486.9665  354.6984    0.7147    2.2446    3.3056    0.5589    2.3639    2.8031    3.1126    3.4144    3.4099    3.4141    3.5610    3.6564    3.6905    3.6750    3.8233    2.6027   16.7612   28.8282    0.7187    0.8170 
 323.2000  215.9000  210.9587   92.7126    1.1936    9.5590    2.4309  502.3769  354.7009    0.7110    2.2299    3.3757    0.6048    2.2442    2.6464    2.9365    3.2376    3.2812    3.3168    3.4492    3.5306    3.5581    3.5431    3.6575    2.6104   16.8170   28.8342    0.7780    0.8475 
 323.3000  215.9000  210.9706   94.2735    1.2030    9.5125    2.4059  510.5433  354.6519    0.7061    2.2050    3.4365    0.6202    2.1231    2.5186    2.7912    3.0521    3.1223    3.1643    3.2891    3.3608    3.3785    3.3630    3.4528    2.5673   16.9303   28.8439    0.8564    0.8949 
 323.4000  215.9000  210.8512   96.5958    1.1996    9.2924    2.3730  513.7419  354.5160    0.7008    2.1803    3.4735    0.6197    2.0428    2.4400    2.6903    2.9502    2.9801    3.0128    3.1115    3.1742    3.1812    3.1664    3.2138    2.5861   17.1002   28.8546    0.7852    0.8163 
 323.5000  215.9000  210.4879   95.2096    1.0917    9.7996    2.3881  515.1005  353.6825    0.7009    2.1636    3.4970    0.6783    2.0282    2.4032    2.6360    2.9015    2.9333    3.0157    3.1000    3.1583    3.1604    3.1413    3.1651    2.7197   17.5110   28.8473    0.7359    0.7780 
 323.6000  215.9000  210.6839   94.5439    0.9867   10.1791    2.4288  540.6991  353.4556    0.7000    2.1482    3.4994    0.6751    2.0786    2.4222    2.6470    2.9182    2.9646    2.9950    3.0832    3.1398    3.1366    3.1166    3.1420    2.7031   17.9127   28.8414    0.7396    0.7808 
 323.7000  215.9000  211.4129   94.4968    0.8890   10.4507    2.4917  584.7174  353.7197    0.6984    2.1382    3.4926    0.6225    2.0914    2.4547    2.6735    2.9574    3.0046    2.9938    3.0974    3.1500    3.1442    3.1241    3.1578    2.6764   18.3051   28.8368    0.7879    0.8195 
 323.8000  215.9000  213.3000   95.8831    1.0388   10.5542    2.6262  559.4946  353.7222    0.6960    2.1345    3.4475    0.6186    2.1291    2.4837    2.6967    3.0276    3.0480    3.0493    3.1577    3.2020    3.1862    3.1581    3.1855    2.8157   18.6047   28.8428    0.8470    0.8739 
 323.9000  215.9000  213.9627   97.8084    1.1079   10.7378    2.7571  548.5032  354.0618    0.6940    2.1351    3.3866    0.5804    2.1613    2.5290    2.7463    3.0344    3.0570    3.0946    3.2274    3.2734    3.2571    3.2299    3.2727    2.7870   18.9145   28.8485    0.8523    0.8806 
 324.0000  215.9000  213.6153  100.2725    1.0962   11.0015    2.8842  551.7432  354.7385    0.6925    2.1440    3.2976    0.5080    2.2568    2.6413    2.9353    3.2870    3.3582    3.3090    3.4482    3.5107    3.4892    3.4562    3.5085    2.9471   19.2347   28.8537    0.8857    0.9008 
 324.1000  215.9000  213.5305  103.2459    1.1666   11.2812    2.9795  534.6308  354.9856    0.6920    2.1559    3.1507    0.4769    2.3167    2.7550    3.1237    3.4619    3.5563    3.6666    3.8362    3.9360    3.9165    3.8812    3.9841    3.0701   19.6338   28.8605    0.9455    0.9450 
 324.2000  215.9000  213.5521  105.0602    1.2911   11.2193    3.0637  506.6754  355.2987    0.6930    2.1669    2.9923    0.4421    2.3763    2.8799    3.2584    3.6909    3.8181    3.8049    3.9252    4.0332    4.0231    3.9777    4.0392    3.3187   19.9418   28.8643    1.0474    1.0454 
 324.3000  215.9000  213.6567  105.4453    1.4794   10.7396    3.1349  465.9752  355.7031    0.6959    2.1738    2.8521    0.4017    2.3455    2.7811    3.3080    3.7486    3.8811    3.7282    3.8455    3.9476    3.9367    3.8895    3.9473    3.2650   20.1364   28.8643    1.2705    1.2261 
 324.4000  215.9000  214.2620  107.6071    1.4819   10.4675    3.1687  464.1661  355.2761    0.7020    2.1773    2.7234    0.3888    2.4136    2.9140    3.2454    3.7259    3.8800    3.6322    3.7371    3.8401    3.8416    3.7943    3.8523    3.1478   20.1891   28.8587    1.4587    1.3437 
 324.5000  215.9000  215.1632  109.3234    1.4994   10.2886    3.1508  462.4933  355.0571    0.7078    2.1742    2.6372    0.3868    2.4107    2.9185    3.3027    3.7905    3.9853    3.6217    3.7403    3.8422    3.8578    3.8066    3.8774    3.1039   20.2160   28.8599    1.4340    1.2999 
 324.6000  215.9000  216.3351  110.1705    1.5605   10.2260    3.0597  456.6339  355.2440    0.7129    2.1638    2.6098    0.3979    2.5086    3.0500    3.4785    4.0348    4.2220    3.8254    3.9410    4.0492    4.0778    4.0205    4.0882    3.3042   20.2203   28.8720    1.2027    1.1316 
 324.7000  215.9000  217.4711  109.6581    1.4865   10.0020    3.0555  461.2868  355.3932    0.7174    2.1577    2.5781    0.4055    2.5668    3.1867    3.5795    4.1590    4.3664    4.2857    4.3926    4.5091    4.5550    4.4803    4.5381    3.7661   20.1033   28.8682    1.0835    1.0627 
