~VERSION INFORMATION
 VERS.                 2.0:   CWLS LOG ASCII STANDARD - VERSION 2.0
 WRAP.                  NO:   SINGLE LINE PER DEPTH STEP
~WELL INFORMATION
#MNEM.UNIT       DATA           DESCRIPTION MNEMONIC
#---------    -------------   --------------------------
 STRT.M         0.0000                        : START DEPTH
 STOP.M         815.0000                      : STOP DEPTH
 STEP.M         0.1000                        : STEP VALUE
 NULL.          -999.0000                     : NULL VALUE
 SRVC.          SCH                           : Service Company/Logging company
 DATE.          08.11.2023                    : LAS file Creation Date
 WELL    .      Каратобе 337                  : Well Name
 COMP    .      LLP "KMG-Burenie"             : Company
 FLD     .      Каратобе                      : Field
 LATI    .      0                             : Latitude/Northing
 LONG    .      0                             : Longitude/Easting
 RWS     .      -999                          : Def_Rw
 WST     .      -999                          : Def_Rwt
~CURVE INFORMATION
#MNEM          UNIT     API CODE   Description
#---------- ---------- ----------  -----------
 DEPTH     .M                    : Depth Index
 BSC       .mm                   : Nominal Caliper
 CALI      .mm                   : Caliper
 GR        .gAPI                 : Gamma Ray
 URAN      .PPM                  : Uranium
 THOR      .PPM                  : Thorium
 POTA      .%                    : Potasium
 DT        .uSec/m               : Sonic travel time
 HAZIM     .deg                  : Hole Azimuth
 SDEVM     .deg                  : Hole Deviation
 RHOZ      .g/cm3                : Bulk Density
 PEFZ      .B/E                  : Formation Photoelectric Factor 
 TNPH      .v/v                  : Neutron porosity
 AT10      .ohm.m                : 10" Array Induction, two foot resolution Resistivity
 AT20      .ohm.m                : 20" Array Induction, two foot resolution Resistivity
 AT30      .ohm.m                : 30" Array Induction, two foot resolution Resistivity
 AT60      .ohm.m                : 60" Array Induction, two foot resolution Resistivity
 AT90      .ohm.m                : 90" Array Induction, two foot resolution Resistivity
 RLA1      .ohm.m                : HRLT Borehole Corrected Resistivity 1
 RLA2      .ohm.m                : HRLT Borehole Corrected Resistivity 2
 RLA3      .ohm.m                : HRLT Borehole Corrected Resistivity 3
 RLA4      .ohm.m                : HRLT Borehole Corrected Resisitivity 4
 RLA5      .ohm.m                : HRLT Borehole Corrected Resistivity 5 
 RT        .ohm.m                : Formation Resistivity
 RXO       .ohm.m                : Flushed zone resistivity
 SP        .mV                   : Spontaneous Potential
 MTEM      .degC                 : Formation Temperature
 HMIN      .ohm.m                : HIP Micro Inverse Resistivity
 HMNO      .ohm.m                : HIP Micro Normal Resistivity
~A Log data section
# ...
 543.2000  215.9000  212.4803  119.2166    1.4177   11.5693    3.1765  422.2230   89.7494    0.2353    2.1506    2.2961    0.4123    1.4079    1.7066    1.7961    1.9096    1.8816    2.1069    2.1017    2.1577    2.1843    2.1967    2.1877    1.8671   38.7015   31.8467    1.2912    1.1419 
 543.3000  215.9000  212.2732  113.8014    1.2170   11.4049    3.0926  418.8459   91.0637    0.2378    2.1395    2.3425    0.4189    1.3310    1.5797    1.6676    1.7829    1.7502    1.9712    1.9489    2.0013    2.0198    2.0273    2.0076    1.8498   39.1305   31.8417    1.2142    1.0735 
 543.4000  215.9000  212.4754  110.0830    1.0467   11.0996    3.0122  420.4346   91.6481    0.2383    2.1257    2.3450    0.3975    1.2712    1.4871    1.5620    1.6682    1.6359    2.0183    1.9926    2.0517    2.0777    2.0877    2.0695    1.8313   39.5879   31.8699    1.2424    1.0986 
 543.5000  215.9000  212.4397  105.9105    0.9695   10.6108    2.9228  422.1867   92.2693    0.2388    2.1090    2.3288    0.3828    1.2078    1.3902    1.4648    1.5635    1.5272    1.8269    1.8093    1.8480    1.8675    1.8764    1.8587    1.6993   39.8599   31.8799    1.0402    0.9193 
 543.6000  215.9000  212.1117  100.9613    1.0180    9.8810    2.8207  423.7271   93.0059    0.2393    2.0946    2.3066    0.3798    1.1263    1.2761    1.3444    1.4348    1.4012    1.5694    1.5588    1.5735    1.5829    1.5850    1.5750    1.5486   39.8735   31.8619    0.8170    0.7217 
 543.7000  215.9000  211.9626   99.5946    0.9053    9.7990    2.8221  425.4258   93.6372    0.2394    2.0867    2.2788    0.3789    1.0631    1.1941    1.2545    1.3403    1.3120    1.5314    1.5296    1.5351    1.5429    1.5469    1.5374    1.5508   39.8750   31.8707    0.7788    0.6879 
 543.8000  215.9000  211.8663   99.4370    0.7757    9.7601    2.8361  427.1143   94.2630    0.2396    2.0803    2.2638    0.3861    1.0552    1.1712    1.2279    1.3150    1.2851    1.6142    1.6133    1.6208    1.6273    1.6324    1.6227    1.6020   39.8750   31.8733    0.8291    0.7324 
 543.9000  215.9000  211.8039  100.5846    0.6513    9.6581    2.8497  428.7517   94.9019    0.2401    2.0770    2.2550    0.4066    1.0586    1.1781    1.2308    1.3168    1.2916    1.5535    1.5458    1.5501    1.5483    1.5514    1.5499    1.5528   39.8750   31.8599    0.8101    0.7156 
 544.0000  215.9000  211.7494   97.9176    0.7271    9.6846    2.8485  430.4728   95.8653    0.2430    2.0743    2.2509    0.4084    1.0512    1.1790    1.2418    1.3200    1.3224    1.5573    1.5505    1.5473    1.5369    1.5358    1.5439    1.5842   39.8750   31.8589    0.7937    0.7011 
 544.1000  215.9000  211.8088   96.0289    0.7922    9.7551    2.8792  432.4041   96.6987    0.2452    2.0682    2.2490    0.4031    1.0489    1.1859    1.2444    1.3190    1.3389    1.6239    1.6388    1.6398    1.6261    1.6285    1.6318    1.6030   39.8750   31.8579    0.8348    0.7375 
 544.2000  215.9000  212.0392   97.3382    0.7535    9.8668    2.9837  434.7481   97.1247    0.2447    2.0672    2.2535    0.3904    1.0502    1.1855    1.2428    1.3252    1.3469    1.5427    1.5622    1.5715    1.5578    1.5643    1.5621    1.4916   39.8750   31.8519    0.7909    0.6986 
 544.3000  215.9000  211.8237   97.2558    0.8635   10.2142    3.0565  434.4807   97.3643    0.2436    2.0732    2.2509    0.3740    1.0353    1.1544    1.2075    1.2943    1.3211    1.3763    1.3903    1.3936    1.3801    1.3827    1.3846    1.3936   39.8619   31.8453    0.7021    0.6202 
 544.4000  215.9000  211.6629   97.6902    0.9033   10.7328    3.1121  434.1778   97.4910    0.2423    2.0818    2.2572    0.3626    1.0849    1.2016    1.2428    1.3362    1.3722    1.4576    1.4689    1.4727    1.4573    1.4558    1.4617    1.5433   39.8145   31.8438    0.7688    0.6791 
 544.5000  215.9000  211.7812  100.4628    0.6528   11.5550    3.1429  435.5441   97.4386    0.2407    2.0907    2.2803    0.3670    1.1499    1.2966    1.3593    1.4493    1.5035    1.8334    1.8519    1.8749    1.8622    1.8605    1.8580    1.8502   39.6829   31.8567    1.0431    0.9231 
 544.6000  215.9000  211.8248  102.4830    0.6450   11.6070    3.1322  435.9196   97.1530    0.2402    2.0965    2.3127    0.3710    1.2125    1.3655    1.4657    1.5576    1.6374    2.0178    2.0385    2.0798    2.0724    2.0675    2.0684    1.8729   39.7603   31.8599    1.1483    1.0151 
 544.7000  215.9000  211.8622  104.1998    0.7173   11.4572    3.0979  435.4503   96.8082    0.2401    2.0946    2.3457    0.3808    1.2417    1.3868    1.4857    1.6193    1.7124    1.6938    1.6900    1.7242    1.7204    1.7117    1.7114    1.6469   39.8738   31.8599    0.9312    0.8228 
 544.8000  215.9000  211.9470  105.7305    0.7872   11.5016    3.0287  433.1572   96.5293    0.2396    2.0907    2.3803    0.4111    1.2345    1.3932    1.4697    1.6338    1.7300    1.5789    1.5722    1.6048    1.6066    1.5990    1.5941    1.5895   39.8683   31.8599    0.8387    0.7409 
 544.9000  215.9000  212.0694  107.6352    0.9176   11.4062    3.0014  433.6389   96.2088    0.2407    2.0936    2.4039    0.4108    1.2609    1.4174    1.4934    1.6635    1.7724    1.7530    1.7667    1.8058    1.8149    1.8050    1.7989    1.6865   39.8705   31.8641    0.9974    0.8814 
 545.0000  215.9000  212.2602  109.5196    1.0662   11.2657    2.9922  434.5310   95.8629    0.2421    2.1014    2.4131    0.4005    1.3088    1.4621    1.5665    1.7313    1.8385    2.0161    2.0353    2.0816    2.0957    2.0812    2.0806    1.8682   39.8750   31.8688    1.1589    1.0245 
 545.1000  215.9000  212.6085  110.5810    1.1797   11.1922    2.9847  431.8758   95.4826    0.2421    2.1092    2.4117    0.4043    1.3466    1.5172    1.6204    1.7892    1.9046    1.8713    1.8660    1.9012    1.9104    1.8897    1.8906    1.8716   39.8750   31.8670    1.0652    0.9414 
 545.2000  215.9000  212.6747  108.9251    1.1612   11.2686    2.9641  429.6454   95.2703    0.2434    2.1169    2.4093    0.3985    1.3745    1.5384    1.6333    1.8008    1.9161    1.9070    1.8934    1.9297    1.9416    1.9214    1.9204    1.9382   39.8750   31.8715    1.1091    0.9803 
 545.3000  215.9000  212.5718  105.9249    1.0928   11.3501    2.9291  428.1243   95.0443    0.2445    2.1168    2.4089    0.3905    1.3946    1.5690    1.6573    1.8240    1.9357    2.0653    2.0598    2.0952    2.1067    2.0863    2.0852    2.0729   39.8750   31.8780    1.2553    1.1100 
 545.4000  215.9000  212.3305  103.7204    1.1656   10.9241    2.8446  429.8187   94.1203    0.2403    2.1094    2.3975    0.4021    1.3693    1.5794    1.6773    1.8368    1.9377    2.0712    2.0791    2.0976    2.1062    2.0842    2.0884    2.0425   39.8750   31.8759    1.1662    1.0309 
 545.5000  215.9000  212.1970  101.9808    1.0772   10.9488    2.8092  431.1691   93.6457    0.2404    2.0981    2.3857    0.3996    1.3028    1.5181    1.6040    1.7360    1.8274    1.9192    1.9110    1.9077    1.9111    1.8895    1.9071    1.9130   39.8750   31.8691    1.0700    0.9457 
 545.6000  215.9000  212.1310  101.1160    0.8994   11.2453    2.8099  432.4144   93.4857    0.2430    2.0865    2.3818    0.3882    1.2726    1.4651    1.5336    1.6526    1.7172    1.7798    1.7603    1.7560    1.7597    1.7399    1.7544    1.8337   39.8750   31.8616    0.9706    0.8577 
 545.7000  215.9000  212.0791  106.7478    0.9281   11.2113    2.8477  435.0902   93.4980    0.2445    2.0799    2.3673    0.3837    1.2361    1.4160    1.4563    1.5605    1.6128    1.7591    1.7278    1.7296    1.7320    1.7147    1.7252    1.8352   39.8750   31.8830    0.9200    0.8129 
 545.8000  215.9000  212.3593  111.1968    0.9982   11.3284    2.9052  436.9617   93.6009    0.2462    2.0793    2.3419    0.3889    1.2262    1.4104    1.4430    1.5350    1.5778    1.7692    1.7410    1.7457    1.7441    1.7265    1.7355    1.8846   39.8750   31.8805    0.9868    0.8721 
 545.9000  215.9000  212.7420  114.5978    1.0995   11.5630    2.9777  438.1520   93.7689    0.2482    2.0817    2.3347    0.4014    1.2408    1.4244    1.4635    1.5500    1.5780    1.8913    1.8497    1.8556    1.8456    1.8237    1.8291    2.0720   39.8750   31.8604    1.0499    0.9279 
