~VERSION INFORMATION
 VERS.                 2.0:   CWLS LOG ASCII STANDARD - VERSION 2.0
 WRAP.                  NO:   SINGLE LINE PER DEPTH STEP
~WELL INFORMATION
#MNEM.UNIT       DATA           DESCRIPTION MNEMONIC
#---------    -------------   --------------------------
 STRT.M         0.0000                        : START DEPTH
 STOP.M         815.0000                      : STOP DEPTH
 STEP.M         0.1000                        : STEP VALUE
 NULL.          -999.0000                     : NULL VALUE
 SRVC.          SCH                           : Service Company/Logging company
 DATE.          08.11.2023                    : LAS file Creation Date
 WELL    .      Каратобе 337                  : Well Name
 COMP    .      LLP "KMG-Burenie"             : Company
 FLD     .      Каратобе                      : Field
 LATI    .      0                             : Latitude/Northing
 LONG    .      0                             : Longitude/Easting
 RWS     .      -999                          : Def_Rw
 WST     .      -999                          : Def_Rwt
~CURVE INFORMATION
#MNEM          UNIT     API CODE   Description
#---------- ---------- ----------  -----------
 DEPTH     .M                    : Depth Index
 BSC       .mm                   : Nominal Caliper
 CALI      .mm                   : Caliper
 GR        .gAPI                 : Gamma Ray
 URAN      .PPM                  : Uranium
 THOR      .PPM                  : Thorium
 POTA      .%                    : Potasium
 DT        .uSec/m               : Sonic travel time
 HAZIM     .deg                  : Hole Azimuth
 SDEVM     .deg                  : Hole Deviation
 RHOZ      .g/cm3                : Bulk Density
 PEFZ      .B/E                  : Formation Photoelectric Factor 
 TNPH      .v/v                  : Neutron porosity
 AT10      .ohm.m                : 10" Array Induction, two foot resolution Resistivity
 AT20      .ohm.m                : 20" Array Induction, two foot resolution Resistivity
 AT30      .ohm.m                : 30" Array Induction, two foot resolution Resistivity
 AT60      .ohm.m                : 60" Array Induction, two foot resolution Resistivity
 AT90      .ohm.m                : 90" Array Induction, two foot resolution Resistivity
 RLA1      .ohm.m                : HRLT Borehole Corrected Resistivity 1
 RLA2      .ohm.m                : HRLT Borehole Corrected Resistivity 2
 RLA3      .ohm.m                : HRLT Borehole Corrected Resistivity 3
 RLA4      .ohm.m                : HRLT Borehole Corrected Resisitivity 4
 RLA5      .ohm.m                : HRLT Borehole Corrected Resistivity 5 
 RT        .ohm.m                : Formation Resistivity
 RXO       .ohm.m                : Flushed zone resistivity
 SP        .mV                   : Spontaneous Potential
 MTEM      .degC                 : Formation Temperature
 HMIN      .ohm.m                : HIP Micro Inverse Resistivity
 HMNO      .ohm.m                : HIP Micro Normal Resistivity
~A Log data section
# ...
 411.6000  215.9000  211.8505  115.9602    2.9514   11.0253    2.2696  462.5894    5.0520    0.5717    2.1588    2.4051    0.4567    2.0604    2.4438    2.6477    2.8448    2.8762    3.1254    3.1652    3.2232    3.2596    3.2383    3.2403    2.8549   26.9934   30.0675    0.5642    0.6200 
 411.7000  215.9000  211.9566  115.1592    2.9576   10.9692    2.3717  463.0478    4.8867    0.5736    2.1579    2.4246    0.4587    2.0524    2.4206    2.6077    2.7951    2.8233    3.1424    3.1713    3.2299    3.2611    3.2366    3.2305    2.9707   26.1657   30.0709    0.6322    0.6915 
 411.8000  215.9000  211.6322  113.8692    2.9285   11.0040    2.4873  461.9700    4.5106    0.5720    2.1598    2.4573    0.4588    2.0231    2.4047    2.5665    2.7423    2.7632    3.1699    3.1974    3.2561    3.2817    3.2606    3.2533    3.0040   25.2986   30.0686    0.7697    0.8227 
 411.9000  215.9000  211.9201  115.0245    2.7519   11.0745    2.5660  459.1729    4.0600    0.5692    2.1651    2.5111    0.4577    1.9996    2.3965    2.5574    2.7278    2.7523    3.1959    3.2374    3.2806    3.3084    3.2858    3.2796    3.0472   24.3173   30.0572    0.8201    0.8685 
 412.0000  215.9000  213.1134  114.6807    2.4199   11.3624    2.6549  456.0426    3.7386    0.5672    2.1708    2.5681    0.4506    1.9470    2.3714    2.4929    2.6637    2.6719    3.1679    3.1935    3.2206    3.2379    3.2144    3.2106    3.1249   23.4343   30.0530    0.7746    0.8169 
 412.1000  215.9000  214.2815  113.6513    2.0337   11.6833    2.7360  452.5311    3.4856    0.5658    2.1718    2.6010    0.4411    1.9289    2.3108    2.4247    2.6008    2.6125    3.0689    3.0961    3.1178    3.1349    3.1145    3.1100    3.0310   22.6782   30.0536    0.7559    0.7960 
 412.2000  215.9000  213.7328  114.3732    1.9828   11.1534    2.6935  447.3503    3.1652    0.5663    2.1689    2.5958    0.4438    1.8903    2.2536    2.3793    2.5396    2.5445    3.0408    3.0528    3.0769    3.0838    3.0628    3.0642    3.0538   22.5439   30.0596    0.7568    0.7961 
 412.3000  215.9000  213.5060  113.1269    1.9462   10.9550    2.7137  446.7945    2.8511    0.5641    2.1642    2.5575    0.4542    1.8949    2.2291    2.3641    2.5268    2.5329    3.0517    3.0281    3.0517    3.0469    3.0315    3.0424    3.0522   22.7716   30.0587    0.7440    0.7919 
 412.4000  215.9000  213.3657  110.7881    1.9081   10.9813    2.7740  449.8548    2.5569    0.5604    2.1481    2.4973    0.4713    1.9163    2.2361    2.3516    2.5318    2.5053    3.0578    3.0269    3.0572    3.0375    3.0148    3.0375    3.0825   23.3271   30.0533    0.6958    0.7643 
 412.5000  215.9000  212.1172  113.6621    1.6846   10.7686    2.7535  457.0962    2.5031    0.5620    2.1114    2.4316    0.5031    1.9488    2.2861    2.4291    2.6105    2.6025    3.0899    3.0641    3.1012    3.0725    3.0555    3.0765    3.0980   24.9101   30.0594    0.6424    0.7207 
 412.6000  215.9000  211.0215  114.1378    1.5095   10.6406    2.7690  465.9833    2.4593    0.5634    2.0452    2.3746    0.5603    1.9896    2.3311    2.5155    2.6768    2.6901    3.1031    3.0814    3.1159    3.0832    3.0650    3.0894    3.1049   26.1655   30.0654    0.6332    0.7064 
 412.7000  215.9000  210.4056  112.5228    1.3775   10.5893    2.8158  476.3570    2.4251    0.5646    1.9628    2.3268    0.6396    2.0101    2.3249    2.5461    2.7172    2.7682    3.0417    3.0404    3.0497    3.0161    2.9922    3.0241    3.0940   27.1260   30.0713    0.6129    0.6774 
 412.8000  215.9000  212.1625  114.4597    1.2647   10.6955    2.7846  489.4311    2.4616    0.5646    1.8915    2.2943    0.7015    1.9786    2.2906    2.5010    2.7159    2.7743    3.0492    3.0517    3.0445    3.0202    2.9849    3.0187    3.1962   27.6681   30.0653    0.5147    0.5993 
 412.9000  215.9000  212.8068  115.0394    1.1825   10.9286    2.8107  503.2234    2.5738    0.5647    1.8481    2.2716    0.7148    1.9664    2.2415    2.4423    2.6601    2.6953    3.3056    3.3098    3.2969    3.2711    3.2283    3.2635    3.5329   28.4750   30.0620    0.4208    0.5321 
 413.0000  215.9000  212.3376  114.1487    1.1336   11.2993    2.8991  517.7938    2.7679    0.5649    1.8548    2.2760    0.6754    1.9544    2.1798    2.3628    2.5640    2.6030    3.5191    3.4878    3.4625    3.4326    3.3801    3.3907    3.9616   29.5687   30.0617    0.3927    0.4984 
 413.1000  215.9000  212.1252  115.0050    1.1113   11.5324    2.9298  526.3207    2.8063    0.5575    1.8954    2.3082    0.5856    1.8978    2.1443    2.2832    2.4678    2.5052    3.1552    3.0681    3.0457    3.0142    2.9621    2.8826    3.8851   29.9305   30.0736    0.3947    0.4792 
 413.2000  215.9000  211.3448  114.2185    0.9883   11.5574    2.9378  532.1748    2.7886    0.5526    1.9226    2.3472    0.5376    1.8195    2.0662    2.2316    2.4177    2.4557    2.8957    2.7790    2.7634    2.7356    2.6847    2.5710    3.6398   30.1186   30.0780    0.4841    0.5485 
 413.3000  215.9000  209.9064  111.2487    0.7357   11.3246    2.9200  534.9478    2.7077    0.5514    1.9107    2.3781    0.5454    1.7472    1.9810    2.1065    2.2838    2.3357    2.6816    2.5853    2.5780    2.5502    2.5063    2.4244    3.3239   30.1245   30.0720    0.5448    0.5915 
 413.4000  215.9000  208.0001  105.2218    0.7412   10.3284    2.6768  533.8499    2.6427    0.5495    1.8507    2.4059    0.6390    1.6899    1.9015    2.0013    2.1537    2.2018    2.6431    2.5558    2.5462    2.5227    2.4783    2.4055    3.2661   30.1250   30.0824    0.5665    0.5940 
 413.5000  215.9000  208.6681   98.7631    0.7613    9.3699    2.4569  528.9144    2.4891    0.5482    1.7491    2.3876    0.7169    1.6630    1.8863    1.9881    2.1173    2.1461    2.6774    2.5954    2.5799    2.5536    2.5034    2.4238    3.3405   30.1250   30.0875    0.5909    0.6255 
 413.6000  215.9000  212.3505   92.1019    0.7646    8.5881    2.3083  518.5751    2.1945    0.5477    1.6461    2.3265    0.7571    1.7465    1.9825    2.0954    2.2216    2.2366    2.8275    2.7573    2.7436    2.7168    2.6638    2.6033    3.4814   30.1250   30.0815    0.6003    0.6721 
 413.7000  215.9000  214.1971   88.7850    0.8868    8.0844    2.2122  508.2972    2.3397    0.5447    1.5862    2.2382    0.8291    1.8727    2.1453    2.2453    2.3951    2.4045    3.1146    3.0578    3.0403    3.0056    2.9414    2.8863    3.8371   30.1274   30.0895    0.6277    0.7282 
 413.8000  215.9000  215.0897   87.5935    0.9933    8.0276    2.1907  501.9922    2.3886    0.5412    1.5927    2.1561    0.8252    1.9074    2.2373    2.3615    2.4791    2.4801    3.5110    3.4576    3.4372    3.3862    3.3130    3.2530    4.3296   30.2581   30.0908    0.8895    1.0113 
 413.9000  215.9000  215.1179   89.4707    1.0318    8.7503    2.2970  503.3800    2.1119    0.5376    1.6655    2.1245    0.6640    2.0308    2.4086    2.5503    2.6163    2.5949    3.7568    3.7039    3.6854    3.6292    3.5429    3.4992    4.5373   30.6371   30.0744    1.0106    1.1055 
 414.0000  215.9000  215.0400   93.3886    1.1033    9.3423    2.5280  508.8153    1.7460    0.5363    1.7847    2.1620    0.5819    2.0559    2.4935    2.6291    2.7492    2.7069    3.4859    3.4363    3.4237    3.3632    3.2927    3.2574    4.1814   31.2496   30.0862    0.8370    0.8950 
 414.1000  215.9000  214.9735   97.4487    1.1444    9.8671    2.7552  515.1424    1.3691    0.5356    1.8976    2.2512    0.5321    1.9500    2.3955    2.5138    2.6723    2.6317    3.2402    3.1789    3.1759    3.1153    3.0568    3.0082    3.9356   31.8138   30.0936    0.6195    0.6844 
 414.2000  215.9000  214.9355  100.7601    1.0935   10.2980    2.9064  521.4778    1.0135    0.5354    1.9624    2.3546    0.5188    1.9551    2.3066    2.4008    2.5958    2.5431    3.1758    3.1214    3.1173    3.0577    3.0000    2.9608    3.8305   32.1346   30.0747    0.6329    0.6865 
 414.3000  215.9000  214.7187  100.2513    1.1946   10.1042    2.8807  524.7455  181.3630    0.5412    1.9660    2.4265    0.5530    1.9139    2.2430    2.3534    2.5487    2.4816    3.0994    3.0520    3.0505    2.9951    2.9434    2.9208    3.6776   31.9882   30.0755    0.6626    0.7051 
