~VERSION INFORMATION
 VERS.                 2.0:   CWLS LOG ASCII STANDARD - VERSION 2.0
 WRAP.                  NO:   SINGLE LINE PER DEPTH STEP
~WELL INFORMATION
#MNEM.UNIT       DATA           DESCRIPTION MNEMONIC
#---------    -------------   --------------------------
 STRT.M         0.0000                        : START DEPTH
 STOP.M         815.0000                      : STOP DEPTH
 STEP.M         0.1000                        : STEP VALUE
 NULL.          -999.0000                     : NULL VALUE
 SRVC.          SCH                           : Service Company/Logging company
 DATE.          08.11.2023                    : LAS file Creation Date
 WELL    .      Каратобе 337                  : Well Name
 COMP    .      LLP "KMG-Burenie"             : Company
 FLD     .      Каратобе                      : Field
 LATI    .      0                             : Latitude/Northing
 LONG    .      0                             : Longitude/Easting
 RWS     .      -999                          : Def_Rw
 WST     .      -999                          : Def_Rwt
~CURVE INFORMATION
#MNEM          UNIT     API CODE   Description
#---------- ---------- ----------  -----------
 DEPTH     .M                    : Depth Index
 BSC       .mm                   : Nominal Caliper
 CALI      .mm                   : Caliper
 GR        .gAPI                 : Gamma Ray
 URAN      .PPM                  : Uranium
 THOR      .PPM                  : Thorium
 POTA      .%                    : Potasium
 DT        .uSec/m               : Sonic travel time
 HAZIM     .deg                  : Hole Azimuth
 SDEVM     .deg                  : Hole Deviation
 RHOZ      .g/cm3                : Bulk Density
 PEFZ      .B/E                  : Formation Photoelectric Factor 
 TNPH      .v/v                  : Neutron porosity
 AT10      .ohm.m                : 10" Array Induction, two foot resolution Resistivity
 AT20      .ohm.m                : 20" Array Induction, two foot resolution Resistivity
 AT30      .ohm.m                : 30" Array Induction, two foot resolution Resistivity
 AT60      .ohm.m                : 60" Array Induction, two foot resolution Resistivity
 AT90      .ohm.m                : 90" Array Induction, two foot resolution Resistivity
 RLA1      .ohm.m                : HRLT Borehole Corrected Resistivity 1
 RLA2      .ohm.m                : HRLT Borehole Corrected Resistivity 2
 RLA3      .ohm.m                : HRLT Borehole Corrected Resistivity 3
 RLA4      .ohm.m                : HRLT Borehole Corrected Resisitivity 4
 RLA5      .ohm.m                : HRLT Borehole Corrected Resistivity 5 
 RT        .ohm.m                : Formation Resistivity
 RXO       .ohm.m                : Flushed zone resistivity
 SP        .mV                   : Spontaneous Potential
 MTEM      .degC                 : Formation Temperature
 HMIN      .ohm.m                : HIP Micro Inverse Resistivity
 HMNO      .ohm.m                : HIP Micro Normal Resistivity
~A Log data section
# ...
 366.8000  215.9000  219.7462  118.6013    1.4876   11.2795    3.0733  497.0159   22.0093    0.6113    2.1496    2.8549    0.4781    2.1005    2.4178    2.5383    2.6860    2.6971    3.3980    3.3437    3.3554    3.3587    3.3419    3.3561    3.4268   23.9745   29.4437    1.1410    1.1844 
 366.9000  215.9000  220.0020  117.5063    1.6350   11.0217    3.1476  494.8811   22.2714    0.6100    2.1437    2.8640    0.4857    2.1001    2.4158    2.5565    2.7020    2.7207    3.4319    3.3845    3.4040    3.4112    3.3913    3.4043    3.4055   24.0192   29.4397    0.8422    0.9374 
 367.0000  215.9000  220.1886  116.2562    1.7670   10.7089    3.2521  490.4526   22.4662    0.6084    2.1357    2.8735    0.4894    2.1101    2.4143    2.5516    2.7092    2.7070    3.3054    3.2679    3.2947    3.3055    3.2833    3.2919    3.2974   24.1040   29.4355    0.6697    0.7664 
 367.1000  215.9000  219.3509  114.6494    1.7132   10.5943    3.3140  483.7465   22.3861    0.6072    2.1282    2.8786    0.4693    2.1372    2.4019    2.5678    2.7599    2.7240    3.3034    3.2696    3.3091    3.3234    3.2972    3.3020    3.3317   24.3228   29.4355    0.6570    0.7410 
 367.2000  215.9000  218.3470  115.5099    1.6284   11.0909    3.3502  482.1510   22.3639    0.6076    2.1252    2.8773    0.4535    2.1551    2.3995    2.5810    2.8061    2.7341    3.4122    3.3796    3.4236    3.4421    3.4035    3.4139    3.4387   24.4947   29.4355    0.6168    0.6985 
 367.3000  215.9000  217.6007  117.0355    1.4851   11.7805    3.3780  483.2844   22.4004    0.6086    2.1265    2.8785    0.4402    2.1583    2.4390    2.6281    2.8523    2.7746    3.4674    3.4465    3.4909    3.5067    3.4574    3.4756    3.4748   24.6337   29.4364    0.5505    0.6345 
 367.4000  215.9000  217.6811  115.9573    1.1126   11.9732    3.4251  486.1180   22.6022    0.6080    2.1269    2.8836    0.4299    2.1623    2.4330    2.6936    2.8904    2.8711    3.4303    3.4395    3.4902    3.5079    3.4562    3.4657    3.4307   24.7162   29.4416    0.5278    0.6136 
 367.5000  215.9000  217.2957  115.9120    0.9418   12.0468    3.3672  489.1001   22.7578    0.6065    2.1324    2.8863    0.4348    2.1758    2.5063    2.7576    2.9275    2.9443    3.3820    3.3962    3.4540    3.4678    3.4130    3.4235    3.3889   24.9493   29.4479    0.6632    0.7392 
 367.6000  215.9000  216.9720  115.9715    0.9066   12.0181    3.2501  491.8427   22.8860    0.6046    2.1432    2.8871    0.4482    2.2184    2.5074    2.7749    2.9813    3.0205    3.4028    3.4064    3.4700    3.4687    3.4051    3.4307    3.4581   25.2367   29.4540    0.9412    0.9935 
 367.7000  215.9000  217.8725  112.1783    1.0500   11.7039    3.1318  491.9706   23.0043    0.6049    2.1489    2.8779    0.4618    2.1951    2.4950    2.7580    3.0336    3.0815    3.5378    3.5484    3.6196    3.5993    3.5237    3.5643    3.5955   25.2787   29.4540    0.6847    0.7861 
 367.8000  215.9000  219.2450  108.5918    1.2177   11.5497    3.0936  490.0637   23.0788    0.6050    2.1521    2.8492    0.4639    2.1775    2.4668    2.6968    2.9282    2.9797    3.6469    3.6601    3.7404    3.7055    3.6260    3.6740    3.6660   25.3246   29.4540    0.5427    0.6581 
 367.9000  215.9000  219.9404  105.4834    1.3857   11.5159    3.1090  486.6337   23.1165    0.6049    2.1564    2.8223    0.4583    2.1519    2.3767    2.5957    2.8067    2.8698    3.6323    3.6591    3.7422    3.7056    3.6284    3.6717    3.5774   25.3926   29.4536    0.6050    0.7177 
 368.0000  215.9000  216.1365  107.6156    1.2956   11.6289    3.0943  481.4956   23.0570    0.6043    2.1502    2.8120    0.4560    2.0734    2.3331    2.5432    2.7212    2.8018    3.2568    3.2764    3.3297    3.3000    3.2274    3.2777    3.2207   25.7601   29.4475    0.9489    0.9847 
 368.1000  215.9000  214.6117  109.7194    1.2920   11.6631    3.0966  477.9794   23.0052    0.6042    2.1339    2.8056    0.4589    1.9769    2.2758    2.4426    2.5848    2.6790    3.0213    3.0439    3.0625    3.0367    2.9621    3.0163    3.1531   25.8274   29.4513    1.0139    0.9983 
 368.2000  215.9000  214.9553  111.7527    1.3557   11.6331    3.1115  476.0305   22.9550    0.6045    2.1285    2.8164    0.4661    1.9117    2.2054    2.3746    2.5848    2.6549    3.1816    3.2177    3.2113    3.1919    3.1066    3.1676    3.3764   25.6329   29.4632    0.9949    0.9886 
 368.3000  215.9000  215.3922  111.5232    1.1102   11.7415    3.0426  483.1731   22.6694    0.6063    2.1282    2.8363    0.4699    1.8804    2.2598    2.4129    2.6399    2.7258    3.2957    3.3061    3.2928    3.2763    3.1818    3.2323    3.6070   25.1337   29.4632    0.9257    0.9572 
 368.4000  215.9000  218.1071  111.5477    0.9669   12.0609    3.0369  492.0152   22.5400    0.6076    2.1258    2.8426    0.4711    1.8989    2.2780    2.3943    2.6511    2.7277    3.3355    3.3124    3.3053    3.2955    3.1956    3.2150    3.8248   24.5958   29.4691    0.6936    0.7648 
 368.5000  215.9000  222.1183  111.8366    0.9298   12.6000    3.0971  502.6261   22.5729    0.6082    2.1241    2.8363    0.4695    1.8893    2.2471    2.4184    2.6954    2.7859    3.4258    3.3262    3.3168    3.3067    3.1922    3.1116    4.2337   24.0174   29.4812    0.6435    0.7186 
 368.6000  215.9000  219.5943  109.9156    1.1729   12.6398    3.0045  511.1728   22.5871    0.6104    2.1187    2.8292    0.4665    1.8918    2.2333    2.4307    2.6980    2.8248    3.4022    3.2971    3.2927    3.2917    3.1702    3.0983    4.1695   23.3575   29.4641    0.6606    0.7281 
 368.7000  215.9000  217.6768  109.4115    1.2017   12.9734    2.9469  518.8972   22.6575    0.6120    2.1061    2.8187    0.4700    1.9156    2.1833    2.3936    2.6828    2.8012    3.2751    3.1881    3.1902    3.1929    3.0741    3.0383    3.9156   22.9052   29.4593    0.7165    0.7708 
 368.8000  215.9000  217.0869  110.7977    0.9469   13.7005    2.9397  525.6563   22.7999    0.6130    2.0955    2.7956    0.4819    1.8932    2.1452    2.3834    2.6875    2.8310    3.1057    3.0223    3.0262    3.0306    2.9123    2.8766    3.7298   22.7202   29.4714    0.7872    0.8173 
 368.9000  215.9000  216.7224  112.1043    1.0166   13.0611    2.9402  523.0941   22.8689    0.6138    2.0800    2.7558    0.4871    2.0008    2.2093    2.4177    2.7820    2.9153    3.0511    2.9884    3.0060    3.0108    2.8882    2.8861    3.5806   23.1053   29.4668    0.6208    0.6783 
 369.0000  215.9000  216.2631  114.2614    1.1802   12.4686    2.9180  517.9675   22.9675    0.6148    2.0688    2.7188    0.4821    2.1846    2.4188    2.6737    3.0639    3.3042    3.6309    3.6017    3.6470    3.6489    3.4978    3.5433    4.1300   23.5808   29.4584    0.5560    0.6291 
 369.1000  215.9000  215.6877  117.7045    1.4422   12.1246    2.8608  510.2099   23.1201    0.6159    2.0709    2.6853    0.4625    2.4664    2.6452    2.9406    3.3320    3.6502    4.9886    5.0361    5.1572    5.1454    4.9193    5.0449    5.0432   24.1177   29.4463    0.7613    0.8693 
 369.2000  215.9000  215.4607  118.7551    1.3965   11.8781    2.8064  502.4434   23.2382    0.6168    2.0786    2.6550    0.4529    2.7046    3.1539    3.6276    4.0546    4.6922    4.7889    4.8512    4.9963    4.9442    4.7146    4.8591    4.7137   23.9345   29.4606    1.0452    1.1582 
 369.3000  215.9000  215.5158  118.5027    1.2907   11.7591    2.7811  493.0396   23.4777    0.6178    2.0900    2.6498    0.4494    2.6168    3.0933    3.6109    3.9420    4.6889    4.1246    4.1588    4.2732    4.2021    4.0053    4.1346    4.2662   23.9315   29.4745    1.1092    1.1767 
 369.4000  215.9000  215.8795  116.4943    1.1587   11.8501    2.8093  480.5975   23.9525    0.6191    2.1048    2.6781    0.4542    2.3374    2.8310    3.1726    3.4926    4.0809    3.7278    3.7551    3.8525    3.7621    3.5883    3.6873    4.1043   24.4627   29.4805    1.0131    1.0618 
 369.5000  215.9000  215.1297  117.2063    1.0336   12.1802    2.8589  478.3920   24.1292    0.6203    2.1152    2.7022    0.4796    2.1635    2.6348    2.8839    3.1461    3.4703    3.6252    3.6516    3.7113    3.6058    3.4407    3.4828    4.3135   24.7605   29.4717    1.0034    1.0376 
