~VERSION INFORMATION
 VERS.                 2.0:   CWLS LOG ASCII STANDARD - VERSION 2.0
 WRAP.                  NO:   SINGLE LINE PER DEPTH STEP
~WELL INFORMATION
#MNEM.UNIT       DATA           DESCRIPTION MNEMONIC
#---------    -------------   --------------------------
 STRT.M         0.0000                        : START DEPTH
 STOP.M         815.0000                      : STOP DEPTH
 STEP.M         0.1000                        : STEP VALUE
 NULL.          -999.0000                     : NULL VALUE
 SRVC.          SCH                           : Service Company/Logging company
 DATE.          08.11.2023                    : LAS file Creation Date
 WELL    .      Каратобе 337                  : Well Name
 COMP    .      LLP "KMG-Burenie"             : Company
 FLD     .      Каратобе                      : Field
 LATI    .      0                             : Latitude/Northing
 LONG    .      0                             : Longitude/Easting
 RWS     .      -999                          : Def_Rw
 WST     .      -999                          : Def_Rwt
~CURVE INFORMATION
#MNEM          UNIT     API CODE   Description
#---------- ---------- ----------  -----------
 DEPTH     .M                    : Depth Index
 BSC       .mm                   : Nominal Caliper
 CALI      .mm                   : Caliper
 GR        .gAPI                 : Gamma Ray
 URAN      .PPM                  : Uranium
 THOR      .PPM                  : Thorium
 POTA      .%                    : Potasium
 DT        .uSec/m               : Sonic travel time
 HAZIM     .deg                  : Hole Azimuth
 SDEVM     .deg                  : Hole Deviation
 RHOZ      .g/cm3                : Bulk Density
 PEFZ      .B/E                  : Formation Photoelectric Factor 
 TNPH      .v/v                  : Neutron porosity
 AT10      .ohm.m                : 10" Array Induction, two foot resolution Resistivity
 AT20      .ohm.m                : 20" Array Induction, two foot resolution Resistivity
 AT30      .ohm.m                : 30" Array Induction, two foot resolution Resistivity
 AT60      .ohm.m                : 60" Array Induction, two foot resolution Resistivity
 AT90      .ohm.m                : 90" Array Induction, two foot resolution Resistivity
 RLA1      .ohm.m                : HRLT Borehole Corrected Resistivity 1
 RLA2      .ohm.m                : HRLT Borehole Corrected Resistivity 2
 RLA3      .ohm.m                : HRLT Borehole Corrected Resistivity 3
 RLA4      .ohm.m                : HRLT Borehole Corrected Resisitivity 4
 RLA5      .ohm.m                : HRLT Borehole Corrected Resistivity 5 
 RT        .ohm.m                : Formation Resistivity
 RXO       .ohm.m                : Flushed zone resistivity
 SP        .mV                   : Spontaneous Potential
 MTEM      .degC                 : Formation Temperature
 HMIN      .ohm.m                : HIP Micro Inverse Resistivity
 HMNO      .ohm.m                : HIP Micro Normal Resistivity
~A Log data section
# ...
 677.6000  215.9000  212.9707   70.5497    0.5327    5.2106    2.2187  355.7973  140.9649    0.2931    2.2856    2.8525    0.3434    2.9049    3.5622    4.0294    4.7809    5.2559    4.7203    4.5815    4.5579    4.5195    4.5260    4.4675    5.4382   47.9728   33.2582    1.6875    1.8195 
 677.7000  215.9000  213.1151   69.8613    0.6349    5.2002    2.1856  367.1082  141.0774    0.2936    2.2768    2.8722    0.3486    2.8959    3.4326    3.9698    4.6878    5.1539    5.0361    4.8819    4.8894    4.8335    4.8307    4.7867    5.7171   48.1945   33.2462    1.1571    1.4022 
 677.8000  215.9000  213.1066   70.1662    0.6223    5.3108    2.1923  371.8584  141.3610    0.2952    2.2706    2.9027    0.3431    2.9417    3.3646    3.7937    4.4576    4.8936    5.0966    4.9369    4.9648    4.8982    4.8881    4.8606    5.6928   48.4948   33.2494    1.3317    1.5620 
 677.9000  215.9000  213.0554   70.9726    0.5696    5.4782    2.2269  373.1734  141.7297    0.2939    2.2748    2.9402    0.3341    2.9118    3.3229    3.6800    4.2498    4.6961    4.7593    4.6020    4.6299    4.5727    4.5524    4.5200    5.3596   48.8263   33.2534    2.1972    2.1249 
 678.0000  215.9000  212.9951   72.3928    0.4995    5.7076    2.3093  370.0621  142.2005    0.2828    2.2883    2.9803    0.3241    2.7882    3.2127    3.5281    4.0754    4.4599    4.4972    4.3520    4.3776    4.3453    4.3219    4.3048    4.9749   49.1817   33.2456    2.6219    2.3850 
 678.1000  215.9000  213.0331   73.9618    0.4301    5.9306    2.3817  367.8999  142.2806    0.2758    2.3089    3.0108    0.3088    2.6944    3.0667    3.3595    3.7581    4.1780    4.3716    4.2536    4.2453    4.2233    4.1892    4.1544    5.0072   49.4638   33.2478    2.6416    2.4093 
 678.2000  215.9000  213.2099   75.4663    0.4039    6.1487    2.4429  365.7342  142.2086    0.2702    2.3364    3.0392    0.2949    2.5437    3.0222    3.2181    3.4064    3.8046    4.5438    4.4642    4.4197    4.3931    4.3431    4.3075    5.3033   49.6694   33.2507    3.4206    3.0810 
 678.3000  215.9000  213.6520   76.4820    0.5490    6.3574    2.4750  362.0789  142.1362    0.2642    2.3615    3.0577    0.2947    2.4370    2.9016    3.1449    3.2492    3.6356    4.7863    4.7384    4.6914    4.6525    4.5950    4.6132    5.2936   49.6831   33.2410    3.2599    2.8930 
 678.4000  215.9000  213.8583   76.4265    0.6813    6.5169    2.4886  355.7588  142.0111    0.2747    2.3764    3.0603    0.2957    2.2623    2.7611    2.8794    3.0339    3.2787    4.0620    3.9722    3.9530    3.9064    3.8535    3.8099    4.7685   49.6875   33.2404    2.6257    2.3276 
 678.5000  215.9000  214.1658   76.1806    0.8335    6.6289    2.4925  348.5451  141.8203    0.2899    2.3830    3.0639    0.2977    2.1083    2.4593    2.7329    2.8614    3.1620    3.5305    3.3863    3.3917    3.3431    3.2963    3.1741    4.3968   49.6875   33.2425    2.3610    2.0922 
 678.6000  215.9000  215.0989   77.7114    1.1325    6.6040    2.4914  343.3741  141.3973    0.2879    2.3868    3.0706    0.3028    1.9873    2.3381    2.5435    2.6209    2.8435    3.4305    3.2741    3.2668    3.2153    3.1579    2.9837    4.4086   49.6875   33.2364    2.4341    2.1572 
 678.7000  215.9000  215.5428   77.8440    1.2389    6.7130    2.4497  348.6049  140.8350    0.2861    2.3886    3.0741    0.3096    1.8608    2.2731    2.2832    2.3467    2.4197    3.4945    3.3709    3.3360    3.2859    3.2103    3.0411    4.5066   49.6875   33.2418    2.5766    2.2840 
 678.8000  215.9000  215.9662   77.3181    1.2298    6.8880    2.3914  358.3562  140.2278    0.2846    2.3882    3.0923    0.3182    1.8294    2.3404    2.0822    2.1446    2.2166    3.3505    3.2716    3.2373    3.1981    3.1236    3.0409    4.1294   49.6875   33.2522    2.0316    1.7994 
 678.9000  215.9000  217.3815   78.2567    1.1994    6.9492    2.3971  353.8134  139.9514    0.2841    2.3787    3.0995    0.3337    1.7965    2.0596    2.0983    2.1704    2.1947    2.5623    2.4885    2.4563    2.4255    2.3565    2.2477    3.2958   49.6875   33.2483    1.1320    1.0802 
 679.0000  215.9000  217.5385   79.0194    1.2510    6.7727    2.4004  352.2303  139.8868    0.2843    2.3683    3.1021    0.3351    1.8098    1.9711    1.9993    2.0490    2.0227    2.4846    2.3918    2.3618    2.3322    2.2560    2.1028    3.3009   49.6875   33.2524    1.0498    1.0689 
 679.1000  215.9000  216.6831   79.8324    1.3594    6.4440    2.4066  353.5783  139.9471    0.2851    2.3512    3.0923    0.3272    1.8971    1.9652    2.0946    2.2120    2.1776    3.5920    3.4668    3.4240    3.3883    3.2647    3.0519    4.7631   49.6875   33.2629    2.3725    2.1424 
 679.2000  215.9000  214.5981   83.4283    1.4288    6.4309    2.4878  367.2708  139.5613    0.2870    2.3416    3.0864    0.3332    1.8749    2.1302    2.0959    2.1900    2.1632    3.8279    3.7222    3.6858    3.6504    3.5038    3.3749    4.8167   49.6875   33.2810    2.5819    2.2887 
 679.3000  215.9000  214.8261   84.8505    1.4622    6.4681    2.5568  370.1261  139.3807    0.2892    2.3477    3.0843    0.3367    1.7542    2.0243    2.0773    2.1814    2.1404    2.7466    2.6602    2.6471    2.6245    2.5219    2.4391    3.4267   49.6875   33.2776    1.3564    1.2413 
 679.4000  215.9000  216.6229   84.3485    1.4636    6.5472    2.6137  363.4370  139.3782    0.2918    2.3570    3.0741    0.3380    1.6251    1.8075    1.9105    2.0024    1.9806    2.2044    2.1359    2.1313    2.1106    2.0268    1.9557    2.7844   49.6874   33.2555    0.7978    0.7942 
 679.5000  215.9000  217.4704   84.1763    1.4690    6.3709    2.5411  363.2589  138.9998    0.2828    2.3663    3.0597    0.3393    1.5747    1.6861    1.7454    1.8180    1.8075    2.1246    2.0692    2.0716    2.0482    1.9666    1.9014    2.7198   49.6737   33.2718    0.7605    0.7964 
 679.6000  215.9000  217.8418   84.1699    1.5007    6.3672    2.4986  364.5120  138.6468    0.2777    2.3764    3.0489    0.3293    1.6824    1.7870    1.8166    1.8805    1.8671    2.7861    2.7352    2.7441    2.7151    2.6072    2.5565    3.4979   49.5605   33.2774    0.8728    0.9696 
 679.7000  215.9000  217.8156   84.3433    1.5609    6.5506    2.4889  367.3157  138.3215    0.2767    2.3837    3.0454    0.3070    1.7100    1.9042    1.9377    2.0385    2.0368    3.3787    3.2727    3.2810    3.2379    3.1078    2.9971    4.2825   49.3392   33.2713    1.1862    1.3375 
 679.8000  215.9000  216.1557   85.1820    1.5890    6.4568    2.4453  352.7761  137.8620    0.2756    2.3851    3.0509    0.3113    1.7633    1.9820    2.0580    2.1153    2.0951    3.1929    3.1179    3.1401    3.0981    2.9846    2.9603    3.7979   48.9770   33.2594    1.4125    1.3188 
 679.9000  215.9000  218.4506   85.9701    1.6009    6.4452    2.4171  346.7837  137.4472    0.2750    2.3804    3.0662    0.3108    1.7172    1.9358    1.9958    2.0751    2.0749    2.4872    2.4349    2.4472    2.4085    2.3228    2.2882    3.0426   48.7559   33.2553    0.9460    0.9337 
 680.0000  215.9000  224.5733   86.6588    1.5939    6.5529    2.4104  352.5893  137.0964    0.2752    2.3805    3.0747    0.3030    1.6681    1.9283    1.9284    2.0295    2.0589    2.5016    2.4749    2.4814    2.4441    2.3600    2.3401    3.0642   48.7218   33.2613    0.8977    0.9420 
 680.1000  215.9000  220.3252   84.8154    1.4928    6.3837    2.3894  358.3627  136.0057    0.2827    2.3745    3.0671    0.3117    1.6694    1.8863    1.9216    2.0329    2.0646    2.8420    2.8299    2.8201    2.7821    2.6793    2.6699    3.4335   48.6502   33.2618    0.8004    0.8902 
 680.2000  215.9000  219.7126   84.8343    1.3168    6.5248    2.4124  363.2324  135.1439    0.2872    2.3598    3.0601    0.3160    1.6565    1.8540    1.9014    1.9990    2.0136    2.5766    2.5139    2.4879    2.4598    2.3628    2.2639    3.3177   48.6860   33.2689    0.5302    0.6263 
 680.3000  215.9000  224.6775   88.1579    1.0382    7.1941    2.5066  366.6935  134.7542    0.2860    2.3560    3.0622    0.3108    1.6300    1.8167    1.8628    1.9505    1.9796    2.5573    2.4888    2.4629    2.4445    2.3516    2.2548    3.2826   48.8956   33.2870    0.5574    0.6554 
