~VERSION INFORMATION
 VERS.                 2.0:   CWLS LOG ASCII STANDARD - VERSION 2.0
 WRAP.                  NO:   SINGLE LINE PER DEPTH STEP
~WELL INFORMATION
#MNEM.UNIT       DATA           DESCRIPTION MNEMONIC
#---------    -------------   --------------------------
 STRT.M         0.0000                        : START DEPTH
 STOP.M         815.0000                      : STOP DEPTH
 STEP.M         0.1000                        : STEP VALUE
 NULL.          -999.0000                     : NULL VALUE
 SRVC.          SCH                           : Service Company/Logging company
 DATE.          08.11.2023                    : LAS file Creation Date
 WELL    .      Каратобе 337                  : Well Name
 COMP    .      LLP "KMG-Burenie"             : Company
 FLD     .      Каратобе                      : Field
 LATI    .      0                             : Latitude/Northing
 LONG    .      0                             : Longitude/Easting
 RWS     .      -999                          : Def_Rw
 WST     .      -999                          : Def_Rwt
~CURVE INFORMATION
#MNEM          UNIT     API CODE   Description
#---------- ---------- ----------  -----------
 DEPTH     .M                    : Depth Index
 BSC       .mm                   : Nominal Caliper
 CALI      .mm                   : Caliper
 GR        .gAPI                 : Gamma Ray
 URAN      .PPM                  : Uranium
 THOR      .PPM                  : Thorium
 POTA      .%                    : Potasium
 DT        .uSec/m               : Sonic travel time
 HAZIM     .deg                  : Hole Azimuth
 SDEVM     .deg                  : Hole Deviation
 RHOZ      .g/cm3                : Bulk Density
 PEFZ      .B/E                  : Formation Photoelectric Factor 
 TNPH      .v/v                  : Neutron porosity
 AT10      .ohm.m                : 10" Array Induction, two foot resolution Resistivity
 AT20      .ohm.m                : 20" Array Induction, two foot resolution Resistivity
 AT30      .ohm.m                : 30" Array Induction, two foot resolution Resistivity
 AT60      .ohm.m                : 60" Array Induction, two foot resolution Resistivity
 AT90      .ohm.m                : 90" Array Induction, two foot resolution Resistivity
 RLA1      .ohm.m                : HRLT Borehole Corrected Resistivity 1
 RLA2      .ohm.m                : HRLT Borehole Corrected Resistivity 2
 RLA3      .ohm.m                : HRLT Borehole Corrected Resistivity 3
 RLA4      .ohm.m                : HRLT Borehole Corrected Resisitivity 4
 RLA5      .ohm.m                : HRLT Borehole Corrected Resistivity 5 
 RT        .ohm.m                : Formation Resistivity
 RXO       .ohm.m                : Flushed zone resistivity
 SP        .mV                   : Spontaneous Potential
 MTEM      .degC                 : Formation Temperature
 HMIN      .ohm.m                : HIP Micro Inverse Resistivity
 HMNO      .ohm.m                : HIP Micro Normal Resistivity
~A Log data section
# ...
 632.8000  215.9000  212.3760   94.7778    1.6893    8.3954    2.4816  407.4654  155.0494    0.2304    2.1997    2.4802    0.4278    2.2585    2.5491    2.6566    2.7907    2.8183    3.8469    3.7854    3.7949    3.7542    3.5837    3.5390    4.7162   42.2169   32.8630    2.1251    1.8824 
 632.9000  215.9000  212.7086   94.2386    1.6075    8.5646    2.4652  410.4460  155.0759    0.2281    2.1994    2.4203    0.4122    2.1251    2.3667    2.4518    2.5477    2.5766    3.5341    3.4500    3.4723    3.4405    3.2662    3.2005    4.3956   42.5052   32.8570    2.0187    1.7878 
 633.0000  215.9000  213.0805   95.7941    1.4791    8.9780    2.4946  411.8265  154.9349    0.2271    2.1983    2.3819    0.4012    2.0160    2.2295    2.3220    2.4191    2.3997    3.3499    3.2493    3.2820    3.2549    3.0738    2.9977    4.1922   42.7185   32.8609    1.6975    1.5669 
 633.1000  215.9000  213.6508   96.8078    1.4244    9.2550    2.5163  412.0785  154.8972    0.2260    2.1988    2.3504    0.3968    1.9521    2.1625    2.2573    2.3411    2.3133    3.2260    3.1483    3.1814    3.1627    2.9770    2.9321    3.9888   42.9593   32.8633    1.0996    1.1913 
 633.2000  215.9000  214.5353   95.5562    1.5639    9.0968    2.4981  410.4624  155.1810    0.2242    2.2074    2.3598    0.4054    1.9624    2.1116    2.1980    2.2727    2.2385    3.1507    3.1006    3.1265    3.1109    2.9223    2.9018    3.8601   43.3000   32.8573    1.2225    1.2687 
 633.3000  215.9000  213.5947   93.4187    1.6821    9.0331    2.5432  400.8501  155.4385    0.2227    2.2268    2.4120    0.3915    2.0138    2.1022    2.1667    2.2431    2.1905    3.1269    3.0903    3.1113    3.0988    2.9040    2.8903    3.8347   43.5583   32.8559    1.7003    1.5571 
 633.4000  215.9000  212.7438   92.0064    1.7578    9.0836    2.5991  388.8836  155.3878    0.2215    2.2547    2.5205    0.3722    2.0518    2.1675    2.2305    2.3038    2.2375    3.2380    3.2270    3.2427    3.2327    3.0190    3.0175    3.9897   43.7217   32.8559    1.7512    1.6135 
 633.5000  215.9000  212.9059   93.3692    1.7300    9.3833    2.6344  376.6353  154.4809    0.2207    2.2902    2.6965    0.3554    2.0518    2.2540    2.3359    2.4198    2.3369    3.7581    3.7742    3.8057    3.8010    3.5441    3.5930    4.4772   43.6816   32.8559    2.0456    1.8788 
 633.6000  215.9000  212.8547   97.5039    1.6645    9.6206    2.6305  369.8380  154.4387    0.2204    2.3259    2.9168    0.3521    2.1170    2.3367    2.4574    2.5312    2.4289    4.1777    4.1943    4.2407    4.2328    3.9424    4.0204    4.8665   43.7849   32.8559    2.6131    2.3164 
 633.7000  215.9000  212.7569  102.2069    1.5905    9.8125    2.6331  365.6411  154.7229    0.2201    2.3419    3.0714    0.3598    2.1149    2.3455    2.4801    2.5897    2.4530    3.9473    3.9399    3.9912    3.9815    3.7078    3.7819    4.5630   43.8737   32.8559    2.4554    2.1760 
 633.8000  215.9000  212.7812  105.1908    1.5369    9.9211    2.7156  363.6423  155.0313    0.2195    2.3333    3.1538    0.3899    2.0458    2.2936    2.4178    2.5438    2.4425    3.5699    3.5557    3.6159    3.6086    3.3656    3.4398    4.0863   43.7090   32.8559    2.1095    1.8706 
 633.9000  215.9000  212.5402  106.1456    1.4525    9.9809    2.7858  366.6973  155.4957    0.2190    2.3107    3.1703    0.4183    2.0140    2.2316    2.3492    2.4799    2.4066    3.4479    3.4493    3.5213    3.5194    3.2924    3.3916    3.7976   43.5677   32.8559    1.9624    1.7535 
 634.0000  215.9000  212.2484  105.9477    1.3801    9.9523    2.8378  372.8244  156.0621    0.2185    2.2886    3.1057    0.4400    1.9771    2.2007    2.3185    2.4469    2.3789    3.3503    3.3275    3.4059    3.4014    3.1927    3.2799    3.6972   43.4456   32.8559    2.0085    1.7787 
 634.1000  215.9000  212.1200  104.7109    1.4466    9.5799    2.8237  382.5946  156.7784    0.2178    2.2727    3.0310    0.4306    1.9615    2.2039    2.3238    2.4491    2.4192    3.2701    3.2293    3.3078    3.2971    3.1049    3.1647    3.7121   43.3661   32.8559    1.9625    1.7379 
 634.2000  215.9000  212.0811  103.1883    1.4739    9.2442    2.7912  388.0056  157.8791    0.2175    2.2622    3.0325    0.4314    1.9916    2.2507    2.3760    2.4997    2.5086    3.5165    3.4735    3.5658    3.5514    3.3633    3.4390    3.8876   43.1664   32.8559    2.1176    1.8757 
 634.3000  215.9000  212.1221  101.5870    1.4776    8.9479    2.7457  390.3809  159.1448    0.2176    2.2577    3.0328    0.4375    2.0707    2.3410    2.4862    2.6256    2.6849    3.7769    3.7504    3.8541    3.8234    3.6423    3.7410    4.0260   42.9006   32.8566    2.0922    1.8865 
 634.4000  215.9000  212.3430  100.6483    1.4696    8.8034    2.6778  388.0333  159.9979    0.2186    2.2524    2.9979    0.4397    2.1439    2.4356    2.6081    2.7891    2.8803    3.8389    3.8405    3.9172    3.8697    3.7078    3.8036    4.1143   42.6460   32.8627    1.8486    1.7360 
 634.5000  215.9000  212.3553   99.4086    1.4936    8.5639    2.6301  385.2888  160.9320    0.2195    2.2366    2.9483    0.4395    2.2084    2.5523    2.7500    2.9826    3.0890    4.0377    4.1128    4.1675    4.1104    3.9688    4.0697    4.1818   42.3280   32.8652    1.6801    1.6450 
 634.6000  215.9000  212.2559   98.2128    1.5304    8.2728    2.6019  382.5537  161.9208    0.2203    2.2209    2.8450    0.4372    2.2552    2.6620    2.8821    3.1478    3.2842    4.2288    4.3530    4.3789    4.3097    4.1833    4.2842    4.3354   41.9631   32.8652    1.7772    1.6968 
 634.7000  215.9000  212.2315  100.9852    1.4177    8.2096    2.6576  384.2849  162.8834    0.2217    2.2095    2.7056    0.4306    2.2945    2.7789    3.0018    3.3067    3.4625    4.3093    4.4817    4.4673    4.3981    4.3064    4.4008    4.4423   41.5573   32.8652    1.9286    1.7713 
 634.8000  215.9000  212.2534  102.2216    1.3306    8.1832    2.7055  385.8204  163.9470    0.2239    2.1982    2.5914    0.4216    2.3266    2.8598    3.1349    3.4951    3.6486    4.4647    4.6411    4.5895    4.5127    4.4449    4.5374    4.5984   41.2937   32.8652    2.0870    1.8593 
 634.9000  215.9000  212.2650  102.1694    1.2652    8.1888    2.7481  387.1747  165.0859    0.2268    2.1889    2.5096    0.4108    2.4244    2.9615    3.2537    3.6789    3.8689    4.6326    4.7626    4.7002    4.6274    4.5888    4.6630    4.7782   41.1513   32.8650    2.0793    1.8417 
 635.0000  215.9000  212.0230  103.0873    1.1955    8.2327    2.8560  387.8099  165.6974    0.2280    2.1806    2.4849    0.4106    2.5907    3.1755    3.5425    4.1527    4.3787    4.8380    4.9196    4.8612    4.8049    4.7952    4.8424    4.9749   41.0097   32.8590    1.9795    1.7662 
 635.1000  215.9000  212.0860  101.4329    1.0957    8.1870    2.9183  390.2696  166.3707    0.2290    2.1747    2.5330    0.4002    2.7887    3.4471    3.9241    4.7224    4.9869    5.1559    5.1502    5.0987    5.0673    5.0781    5.1034    5.2539   40.9749   32.8649    1.8143    1.6586 
 635.2000  215.9000  212.4344   97.1011    0.9644    8.0483    2.9332  394.6282  167.1084    0.2299    2.1801    2.6407    0.3791    3.0335    3.8224    4.4123    5.3204    5.5636    5.3789    5.3169    5.2770    5.2813    5.3129    5.3113    5.3999   41.0513   32.8831    1.7209    1.6040 
 635.3000  215.9000  213.0273   93.8077    1.0198    7.4956    2.8707  370.5776  168.5622    0.2292    2.2057    2.7961    0.3641    3.3549    4.2371    4.9713    5.9177    6.1268    5.5274    5.4512    5.4422    5.4684    5.5151    5.4825    5.5426   41.1279   32.8661    1.6790    1.5998 
 635.4000  215.9000  214.0070   89.8126    1.0400    7.0280    2.7882  346.2655  169.5883    0.2287    2.2632    3.0235    0.3409    3.8206    4.9185    5.6768    6.7444    6.8908    5.8122    5.7547    5.7809    5.8293    5.8787    5.8111    5.8979   41.1692   32.8613    1.6268    1.6149 
 635.5000  215.9000  215.3168   84.8837    1.0081    6.6852    2.6834  322.7388  170.0420    0.2283    2.3508    3.2970    0.3072    4.4761    5.6716    7.2046    8.4703    8.5724    6.6882    6.6212    6.7207    6.7811    6.8422    6.7363    6.7296   41.1655   32.8734    1.4388    1.5703 
