~VERSION INFORMATION
 VERS.                 2.0:   CWLS LOG ASCII STANDARD - VERSION 2.0
 WRAP.                  NO:   SINGLE LINE PER DEPTH STEP
~WELL INFORMATION
#MNEM.UNIT       DATA           DESCRIPTION MNEMONIC
#---------    -------------   --------------------------
 STRT.M         0.0000                        : START DEPTH
 STOP.M         815.0000                      : STOP DEPTH
 STEP.M         0.1000                        : STEP VALUE
 NULL.          -999.0000                     : NULL VALUE
 SRVC.          SCH                           : Service Company/Logging company
 DATE.          08.11.2023                    : LAS file Creation Date
 WELL    .      Каратобе 337                  : Well Name
 COMP    .      LLP "KMG-Burenie"             : Company
 FLD     .      Каратобе                      : Field
 LATI    .      0                             : Latitude/Northing
 LONG    .      0                             : Longitude/Easting
 RWS     .      -999                          : Def_Rw
 WST     .      -999                          : Def_Rwt
~CURVE INFORMATION
#MNEM          UNIT     API CODE   Description
#---------- ---------- ----------  -----------
 DEPTH     .M                    : Depth Index
 BSC       .mm                   : Nominal Caliper
 CALI      .mm                   : Caliper
 GR        .gAPI                 : Gamma Ray
 URAN      .PPM                  : Uranium
 THOR      .PPM                  : Thorium
 POTA      .%                    : Potasium
 DT        .uSec/m               : Sonic travel time
 HAZIM     .deg                  : Hole Azimuth
 SDEVM     .deg                  : Hole Deviation
 RHOZ      .g/cm3                : Bulk Density
 PEFZ      .B/E                  : Formation Photoelectric Factor 
 TNPH      .v/v                  : Neutron porosity
 AT10      .ohm.m                : 10" Array Induction, two foot resolution Resistivity
 AT20      .ohm.m                : 20" Array Induction, two foot resolution Resistivity
 AT30      .ohm.m                : 30" Array Induction, two foot resolution Resistivity
 AT60      .ohm.m                : 60" Array Induction, two foot resolution Resistivity
 AT90      .ohm.m                : 90" Array Induction, two foot resolution Resistivity
 RLA1      .ohm.m                : HRLT Borehole Corrected Resistivity 1
 RLA2      .ohm.m                : HRLT Borehole Corrected Resistivity 2
 RLA3      .ohm.m                : HRLT Borehole Corrected Resistivity 3
 RLA4      .ohm.m                : HRLT Borehole Corrected Resisitivity 4
 RLA5      .ohm.m                : HRLT Borehole Corrected Resistivity 5 
 RT        .ohm.m                : Formation Resistivity
 RXO       .ohm.m                : Flushed zone resistivity
 SP        .mV                   : Spontaneous Potential
 MTEM      .degC                 : Formation Temperature
 HMIN      .ohm.m                : HIP Micro Inverse Resistivity
 HMNO      .ohm.m                : HIP Micro Normal Resistivity
~A Log data section
# ...
 498.4000  215.9000  213.5087  114.8620    1.9684   10.0220    3.0976  438.9536   14.0916    0.1304    2.1489    2.5566    0.3986    1.7027    1.9504    2.0503    2.1129    2.1715    2.5540    2.5649    2.5665    2.5104    2.5098    2.5379    2.5716   37.8143   31.1456    1.2230    1.0813 
 498.5000  215.9000  213.4957  114.3326    1.9503   10.2605    3.1616  441.3561   14.2552    0.1325    2.1473    2.5995    0.4138    1.6847    1.9561    2.0322    2.1128    2.1520    2.4470    2.4345    2.4636    2.4071    2.4034    2.4277    2.4931   37.6375   31.1374    1.1856    1.0482 
 498.6000  215.9000  213.3419  115.1311    1.9294   10.4758    3.1965  443.0729   15.6629    0.1318    2.1549    2.6477    0.4173    1.6903    1.9556    2.0263    2.1089    2.1292    2.4835    2.4633    2.5181    2.4674    2.4599    2.4784    2.5178   37.1065   31.1396    1.2044    1.0649 
 498.7000  215.9000  213.4771  115.0522    1.9245   10.5062    3.1995  445.2020   16.6620    0.1311    2.1673    2.7016    0.4200    1.7050    1.9725    2.0395    2.1216    2.1364    2.5977    2.5488    2.6102    2.5648    2.5484    2.5705    2.6618   36.7797   31.1378    1.2760    1.1283 
 498.8000  215.9000  213.8747  113.9838    1.9376   10.3279    3.1665  447.7959   17.2002    0.1304    2.1792    2.7675    0.4216    1.7188    1.9898    2.0683    2.1502    2.1700    2.6637    2.6134    2.6726    2.6337    2.6059    2.6344    2.7123   36.6834   31.1318    1.3320    1.1781 
 498.9000  215.9000  214.2383  111.7406    2.0147   10.2207    3.0511  448.6292   17.9451    0.1294    2.1906    2.8151    0.4276    1.7432    2.0108    2.1069    2.2138    2.2226    2.6734    2.6401    2.6942    2.6682    2.6341    2.6603    2.7346   36.8186   31.1352    1.3612    1.2039 
 499.0000  215.9000  215.0120  111.2790    2.0084   10.1782    3.0063  448.9686   18.5787    0.1284    2.2054    2.8400    0.4383    1.7557    2.0379    2.1555    2.2892    2.2826    2.8256    2.8047    2.8433    2.8201    2.7759    2.8101    2.8972   37.0429   31.1383    1.4201    1.2632 
 499.1000  215.9000  216.2154  113.3632    1.8822   10.2199    3.0648  448.7539   19.0434    0.1272    2.2149    2.8259    0.4554    1.7708    2.0697    2.2056    2.3317    2.3594    2.9463    2.9276    2.9526    2.9306    2.8792    2.9174    3.0637   37.3732   31.1405    1.4105    1.2887 
 499.2000  215.9000  216.2707  115.6425    1.7852    9.6799    3.0162  446.3472   19.6752    0.1255    2.2132    2.7627    0.4581    1.7822    2.0748    2.1967    2.3124    2.3457    2.9900    2.9868    2.9780    2.9634    2.9074    2.9460    3.1761   38.1797   31.1407    1.2487    1.2025 
 499.3000  215.9000  216.0749  116.1189    1.7504    9.0112    2.9358  443.2366   20.2780    0.1253    2.2007    2.6523    0.4587    1.7477    2.0405    2.1646    2.2820    2.3244    2.9733    2.9717    2.9403    2.9252    2.8744    2.9085    3.1995   38.9929   31.1442    0.9518    0.9844 
 499.4000  215.9000  215.7381  113.6179    1.8117    8.2378    2.8231  439.3747   20.8035    0.1274    2.1780    2.5191    0.4587    1.6792    1.9639    2.1009    2.1860    2.2376    2.9583    2.9728    2.9367    2.9241    2.8884    2.9266    3.0535   39.7310   31.1534    1.0038    1.0021 
 499.5000  215.9000  214.5780  108.1327    1.7015    7.8115    2.6119  433.7521   21.1460    0.1282    2.1458    2.3628    0.4525    1.6130    1.8605    1.9814    2.0712    2.1257    2.6512    2.6210    2.5897    2.5772    2.5540    2.5614    2.9009   39.8603   31.1624    1.0124    0.9321 
 499.6000  215.9000  213.8176  101.8117    1.5854    7.5954    2.4434  429.2266   20.8978    0.1293    2.1085    2.2284    0.4495    1.5519    1.7689    1.8629    1.9671    2.0236    2.2843    2.2177    2.1950    2.1878    2.1798    2.1440    2.6832   39.8750   31.1604    0.9592    0.8476 
 499.7000  215.9000  213.8163   94.8632    1.5185    7.6816    2.3971  427.5594   19.5160    0.1314    2.0639    2.1099    0.4554    1.5146    1.7199    1.8032    1.8933    1.9578    2.3142    2.2209    2.2039    2.1997    2.1977    2.1444    2.7410   39.8750   31.1363    0.9762    0.8632 
 499.8000  215.9000  213.7799   90.1273    1.3416    7.5849    2.2774  428.1638   19.1344    0.1341    1.9981    2.0014    0.4541    1.4936    1.7005    1.8045    1.8978    1.9331    2.3508    2.2572    2.2437    2.2439    2.2483    2.2157    2.6550   39.8750   31.1483    1.0191    0.9007 
 499.9000  215.9000  213.6886   85.7261    1.1871    7.3005    2.1491  431.8603   19.0746    0.1374    1.9015    1.8894    0.4642    1.5588    1.7412    1.8599    1.9508    1.9867    2.2679    2.1840    2.1780    2.1836    2.1930    2.1798    2.4176   39.8742   31.1593    1.0171    0.8988 
 500.0000  215.9000  213.5467   80.7634    1.1607    6.6514    2.0460  442.0475   19.1996    0.1422    1.7828    1.7632    0.5085    1.6392    1.7987    1.9000    2.0086    2.0274    2.2144    2.1507    2.1426    2.1455    2.1477    2.1375    2.4149   39.8712   31.1443    1.0068    0.9028 
 500.1000  215.9000  214.0216   78.7547    1.1638    6.5065    1.9692  452.8453   19.5062    0.1474    1.6703    1.6099    0.5458    1.7198    1.9799    2.0736    2.2111    2.2210    2.5031    2.4622    2.4627    2.4652    2.4636    2.4601    2.7134   39.3935   31.1520    1.0275    0.9942 
 500.2000  215.9000  214.9706   79.7154    1.2224    6.6004    1.9609  464.1812   19.8513    0.1526    1.6072    1.4766    0.5719    1.8749    2.2070    2.3647    2.4829    2.4859    3.4382    3.4590    3.4891    3.5007    3.4992    3.4792    3.5108   38.7954   31.1628    0.8985    1.0009 
 500.3000  215.9000  216.5775   87.4939    1.4353    6.9610    2.1534  476.6728   20.1336    0.1578    1.6229    1.4245    0.5679    2.0451    2.4800    2.7287    2.8323    2.8258    4.0896    4.1386    4.1971    4.2137    4.2079    4.2068    3.7555   38.2965   31.1599    0.6260    0.7616 
 500.4000  215.9000  216.4318   96.5740    1.4685    7.5884    2.4388  477.5665   20.4608    0.1638    1.7198    1.4957    0.5112    2.1071    2.5314    2.8422    2.9466    2.9780    3.5648    3.6009    3.6586    3.6742    3.6716    3.6782    3.1568   38.3463   31.1634    0.6175    0.7266 
 500.5000  215.9000  216.0217  105.7162    1.4087    8.3174    2.7467  472.5618   20.7670    0.1691    1.8622    1.6826    0.4430    1.9387    2.4133    2.6785    2.8095    2.8492    2.8682    2.9081    2.9669    2.9739    2.9845    2.9908    2.5410   38.7001   31.1678    0.6043    0.6878 
 500.6000  215.9000  216.5506  112.7197    1.2592    9.0125    2.9844  462.2667   20.8940    0.1698    1.9979    1.9329    0.4203    1.7791    2.2187    2.4136    2.5367    2.5553    2.7898    2.8324    2.9049    2.9082    2.9259    2.9465    2.3838   39.4183   31.1646    0.5231    0.6110 
 500.7000  215.9000  215.7824  111.9177    1.3595    9.0116    3.0422  451.5040   21.4162    0.1698    2.0941    2.1543    0.4024    1.6610    1.9887    2.1907    2.3040    2.3013    2.6325    2.6487    2.7270    2.7322    2.7581    2.7633    2.2939   39.7451   31.1696    0.6426    0.7020 
 500.8000  215.9000  214.6559  107.4251    1.5698    8.6914    3.0053  439.9112   22.0884    0.1690    2.1434    2.2941    0.3908    1.5512    1.8308    2.0104    2.1059    2.1182    2.3592    2.3319    2.3887    2.3920    2.4114    2.3840    2.2908   39.8547   31.1750    1.0296    0.9447 
 500.9000  215.9000  214.2692  104.9625    1.6648    8.6126    2.9547  424.6989   22.4313    0.1658    2.1454    2.3531    0.4014    1.4601    1.7148    1.8653    1.9341    1.9568    2.3943    2.3640    2.4096    2.4143    2.4348    2.4091    2.3106   39.8693   31.1570    1.0242    0.9284 
 501.0000  215.9000  213.7899  102.3725    1.6627    8.5934    2.9151  419.5721   22.6801    0.1623    2.1328    2.3667    0.4092    1.3615    1.6174    1.7018    1.7706    1.7836    2.2974    2.2992    2.3356    2.3431    2.3630    2.3483    2.1010   39.8750   31.1573    1.0022    0.8857 
 501.1000  215.9000  213.2585  100.3029    1.6058    8.6078    2.8863  421.0500   22.9454    0.1582    2.1236    2.3798    0.4137    1.2704    1.4997    1.6134    1.6844    1.6934    1.9796    2.0044    2.0211    2.0277    2.0416    2.0314    1.8419   39.8750   31.1678    0.8246    0.7284 
