~VERSION INFORMATION
 VERS.                 2.0:   CWLS LOG ASCII STANDARD - VERSION 2.0
 WRAP.                  NO:   SINGLE LINE PER DEPTH STEP
~WELL INFORMATION
#MNEM.UNIT       DATA           DESCRIPTION MNEMONIC
#---------    -------------   --------------------------
 STRT.M         0.0000                        : START DEPTH
 STOP.M         815.0000                      : STOP DEPTH
 STEP.M         0.1000                        : STEP VALUE
 NULL.          -999.0000                     : NULL VALUE
 SRVC.          SCH                           : Service Company/Logging company
 DATE.          08.11.2023                    : LAS file Creation Date
 WELL    .      Каратобе 337                  : Well Name
 COMP    .      LLP "KMG-Burenie"             : Company
 FLD     .      Каратобе                      : Field
 LATI    .      0                             : Latitude/Northing
 LONG    .      0                             : Longitude/Easting
 RWS     .      -999                          : Def_Rw
 WST     .      -999                          : Def_Rwt
~CURVE INFORMATION
#MNEM          UNIT     API CODE   Description
#---------- ---------- ----------  -----------
 DEPTH     .M                    : Depth Index
 BSC       .mm                   : Nominal Caliper
 CALI      .mm                   : Caliper
 GR        .gAPI                 : Gamma Ray
 URAN      .PPM                  : Uranium
 THOR      .PPM                  : Thorium
 POTA      .%                    : Potasium
 DT        .uSec/m               : Sonic travel time
 HAZIM     .deg                  : Hole Azimuth
 SDEVM     .deg                  : Hole Deviation
 RHOZ      .g/cm3                : Bulk Density
 PEFZ      .B/E                  : Formation Photoelectric Factor 
 TNPH      .v/v                  : Neutron porosity
 AT10      .ohm.m                : 10" Array Induction, two foot resolution Resistivity
 AT20      .ohm.m                : 20" Array Induction, two foot resolution Resistivity
 AT30      .ohm.m                : 30" Array Induction, two foot resolution Resistivity
 AT60      .ohm.m                : 60" Array Induction, two foot resolution Resistivity
 AT90      .ohm.m                : 90" Array Induction, two foot resolution Resistivity
 RLA1      .ohm.m                : HRLT Borehole Corrected Resistivity 1
 RLA2      .ohm.m                : HRLT Borehole Corrected Resistivity 2
 RLA3      .ohm.m                : HRLT Borehole Corrected Resistivity 3
 RLA4      .ohm.m                : HRLT Borehole Corrected Resisitivity 4
 RLA5      .ohm.m                : HRLT Borehole Corrected Resistivity 5 
 RT        .ohm.m                : Formation Resistivity
 RXO       .ohm.m                : Flushed zone resistivity
 SP        .mV                   : Spontaneous Potential
 MTEM      .degC                 : Formation Temperature
 HMIN      .ohm.m                : HIP Micro Inverse Resistivity
 HMNO      .ohm.m                : HIP Micro Normal Resistivity
~A Log data section
# ...
 764.4000  215.9000  223.9204   95.0395    1.8080    7.3208    2.8289  332.7866  148.5879    0.1445    2.3255    3.0569    0.3379    1.6663    1.9576    2.0718    2.2531    2.3610    2.5065    2.5078    2.5259    2.5464    2.6001    2.5702    2.2703   55.5458   33.5132    0.4813    0.5332 
 764.5000  215.9000  226.0345   89.9401    1.7428    6.9442    2.6995  346.1563  147.3799    0.1454    2.3253    3.1099    0.3336    1.6639    1.9260    2.0117    2.1766    2.2796    2.4038    2.4006    2.4104    2.4570    2.5059    2.4714    2.1801   55.7342   33.5221    0.3196    0.3879 
 764.6000  215.9000  228.1994   83.5829    1.6170    6.5334    2.5625  364.1907  145.7140    0.1449    2.3418    3.1729    0.3356    1.6426    1.8821    1.9536    2.0899    2.2210    2.3568    2.2935    2.3133    2.3666    2.4097    2.3578    2.2010   55.9039   33.5373    0.2792    0.3589 
 764.7000  215.9000  229.8821   77.4939    1.5830    6.2492    2.4114  368.0090  146.6636    0.1407    2.3628    3.2354    0.3285    1.6267    1.8615    1.9015    2.0064    2.0741    2.1564    2.0541    2.0854    2.1281    2.1645    2.1133    2.1149   56.0760   33.5223    0.2742    0.3552 
 764.8000  215.9000  227.8292   73.3792    1.5829    6.0535    2.3002  364.0892  146.6509    0.1394    2.3827    3.2913    0.3198    1.6754    1.9199    1.9243    1.9932    2.0141    2.2159    2.0974    2.1328    2.1719    2.2057    2.1580    2.2298   56.2754   33.5209    0.2725    0.3592 
 764.9000  215.9000  223.9074   70.7030    1.6034    5.9250    2.2204  354.4319  145.9002    0.1403    2.4292    3.3372    0.3097    1.7977    1.9873    2.0468    2.0983    2.1149    2.6117    2.4811    2.5360    2.5733    2.6122    2.5575    2.5970   56.4932   33.5286    0.4611    0.5878 
 765.0000  215.9000  222.6854   66.8041    1.5040    5.8087    2.1745  347.1752  144.8588    0.1408    2.4575    3.3833    0.2922    1.8152    2.1098    2.1427    2.1285    2.1220    2.7019    2.6246    2.6773    2.7063    2.7432    2.6952    2.5580   56.6577   33.5082    0.9665    1.1152 
 765.1000  215.9000  224.2780   64.8701    1.3359    5.7363    2.1711  328.6571  145.4905    0.1425    2.4573    3.4282    0.2742    1.8020    2.1557    2.1577    2.2366    2.2058    2.5393    2.5166    2.5399    2.5595    2.5876    2.5489    2.5741   56.8780   33.5059    0.5270    0.6299 
 765.2000  215.9000  226.9562   64.7497    1.1044    5.7046    2.2069  299.7440  147.6667    0.1454    2.4828    3.4778    0.2555    1.8188    2.1019    2.1390    2.2364    2.1960    3.0502    3.0463    3.0637    3.0827    3.1097    3.0667    3.1803   57.1500   33.5202    0.5959    0.6969 
 765.3000  215.9000  223.0795   65.0797    0.9766    5.6380    2.1620  293.7726  147.4291    0.1462    2.5038    3.5327    0.2357    1.9586    2.2640    2.2437    2.4703    2.3607    3.9732    3.9918    4.0180    4.0340    4.0623    4.0138    4.0991   57.3951   33.5141    1.2434    1.4240 
 765.4000  215.9000  220.3653   65.6529    0.8455    5.6981    2.1302  286.2622  145.9519    0.1478    2.5077    3.5593    0.2213    2.1128    2.4429    2.4204    2.5946    2.4823    5.1226    5.1729    5.2138    5.2204    5.2511    5.2146    5.0110   57.5739   33.5071    1.4356    1.7566 
 765.5000  215.9000  219.3329   66.5001    0.7107    5.9010    2.1131  277.0161  143.0769    0.1502    2.5076    3.5583    0.2130    2.2168    2.6509    2.5758    2.8319    2.6811    5.1639    5.1476    5.1919    5.1957    5.2281    5.1995    4.8392   57.6778   33.4989    2.4743    2.6872 
 765.6000  215.9000  219.1038   70.3584    0.7828    6.1628    2.1488  289.3546  143.3110    0.1491    2.4951    3.5569    0.2250    2.1093    2.7087    2.6847    2.9298    2.6862    4.1173    4.0508    4.1086    4.1248    4.1718    4.1295    3.7194   57.8410   33.5119    3.8038    3.4019 
 765.7000  215.9000  219.0871   73.5493    0.8584    6.4031    2.1673  301.9558  143.7730    0.1476    2.4559    3.5368    0.2468    1.9257    2.4738    2.5079    2.7539    2.5114    3.0417    2.9818    3.0323    3.0535    3.1046    3.0579    2.7921   57.9306   33.5190    2.5053    2.2206 
 765.8000  215.9000  219.2184   75.5997    0.9239    6.6096    2.1583  313.3511  144.3237    0.1458    2.4142    3.5106    0.2808    1.8724    2.2184    2.2381    2.4524    2.3330    2.4886    2.4290    2.4685    2.4850    2.5319    2.4850    2.3773   57.9141   33.5161    1.5781    1.4398 
 765.9000  215.9000  220.1798   78.4387    0.9668    6.9153    2.2025  327.1769  145.2532    0.1447    2.3953    3.4943    0.3045    1.7327    2.0819    2.1259    2.2888    2.2158    2.3225    2.2299    2.2634    2.2748    2.3208    2.2778    2.2894   57.8057   33.5129    0.7292    0.7959 
 766.0000  215.9000  222.0130   79.5445    1.0447    7.0332    2.2055  338.2002  145.7064    0.1434    2.3885    3.4633    0.3159    1.6764    1.8960    1.9488    2.0991    2.0524    2.3856    2.2429    2.2740    2.2778    2.3276    2.2849    2.3887   57.6993   33.5121    0.3727    0.4579 
 766.1000  215.9000  224.7781   77.6796    1.1841    6.8264    2.1314  344.2105  145.3139    0.1417    2.3908    3.4066    0.3089    1.8028    1.9414    1.9488    2.0696    2.0681    2.5355    2.3725    2.3885    2.3850    2.4338    2.3762    2.6972   57.6130   33.5153    0.3282    0.4155 
 766.2000  215.9000  224.7022   75.9270    1.0100    6.9987    2.1528  336.6138  145.2029    0.1398    2.4074    3.3533    0.2908    1.8988    2.0287    2.1061    2.1919    2.2153    2.8300    2.6625    2.6479    2.6372    2.6847    2.5787    3.3534   57.3926   33.5131    0.5973    0.6832 
 766.3000  215.9000  222.8359   74.1095    0.8626    7.1347    2.1607  327.7413  146.6556    0.1377    2.4202    3.3401    0.2760    1.9561    2.1158    2.2149    2.3408    2.3788    3.0279    2.9015    2.8398    2.8271    2.8742    2.7647    3.6856   57.1339   33.5139    1.9452    1.7427 
 766.4000  215.9000  219.0762   72.1200    0.8821    7.0612    2.1069  321.1537  151.1824    0.1356    2.4323    3.3552    0.2720    2.0107    2.1964    2.2963    2.4126    2.4869    3.0703    2.9984    2.8996    2.8789    2.9248    2.8377    3.7186   56.8452   33.5227    2.1557    1.9097 
 766.5000  215.9000  218.0726   71.3755    0.8428    7.0232    2.1123  316.2761  152.3060    0.1354    2.4459    3.4088    0.2687    2.0111    2.2037    2.2792    2.4073    2.5327    3.0657    3.0308    2.9203    2.8901    2.9352    2.8737    3.6559   56.4805   33.5174    1.8858    1.6699 
 766.6000  215.9000  217.5586   71.0434    0.7830    7.0077    2.1403  314.0128  152.4931    0.1359    2.4516    3.4919    0.2659    2.0108    2.2296    2.2835    2.4068    2.5868    3.1976    3.1480    3.0604    3.0159    3.0655    3.0040    3.8024   56.0975   33.5126    2.1377    1.8937 
 766.7000  215.9000  216.7836   70.9712    0.7084    7.0274    2.1888  317.3722  152.4603    0.1370    2.4573    3.5738    0.2640    2.0308    2.2591    2.3091    2.4356    2.6029    3.3244    3.2247    3.1670    3.1065    3.1581    3.0536    4.0735   55.7164   33.5187    2.5153    2.2295 
 766.8000  215.9000  217.1764   70.9540    0.7019    7.1510    2.1891  320.5887  149.9270    0.1386    2.4514    3.6123    0.2543    2.0412    2.2828    2.3225    2.4464    2.5511    3.2687    3.1277    3.0962    3.0257    3.0731    2.9322    4.0777   55.5401   33.5018    2.2967    2.0352 
 766.9000  215.9000  217.7897   70.5223    0.7347    7.2673    2.1679  324.1292  147.1362    0.1401    2.4379    3.6246    0.2472    1.9973    2.2384    2.2807    2.4058    2.4824    3.1648    3.0007    3.0030    2.9341    2.9849    2.8634    3.8584   55.4334   33.4869    1.2006    1.2056 
 767.0000  215.9000  218.1949   68.6450    0.8266    7.2497    2.1260  328.9054  146.1273    0.1408    2.4318    3.6660    0.2576    1.9987    2.1795    2.1893    2.3018    2.4347    2.9701    2.8009    2.8089    2.7571    2.7973    2.6800    3.6110   55.3431   33.5026    1.2974    1.2483 
 767.1000  215.9000  218.1142   67.5473    0.9970    6.6481    2.0282  319.8075  145.2396    0.1410    2.4295    3.7245    0.2617    1.9668    2.1485    2.1178    2.2151    2.2760    2.7842    2.6330    2.6273    2.5943    2.6163    2.4958    3.4533   55.3342   33.5046    1.8154    1.6073 
