~VERSION INFORMATION
 VERS.                 2.0:   CWLS LOG ASCII STANDARD - VERSION 2.0
 WRAP.                  NO:   SINGLE LINE PER DEPTH STEP
~WELL INFORMATION
#MNEM.UNIT       DATA           DESCRIPTION MNEMONIC
#---------    -------------   --------------------------
 STRT.M         0.0000                        : START DEPTH
 STOP.M         815.0000                      : STOP DEPTH
 STEP.M         0.1000                        : STEP VALUE
 NULL.          -999.0000                     : NULL VALUE
 SRVC.          SCH                           : Service Company/Logging company
 DATE.          08.11.2023                    : LAS file Creation Date
 WELL    .      Каратобе 337                  : Well Name
 COMP    .      LLP "KMG-Burenie"             : Company
 FLD     .      Каратобе                      : Field
 LATI    .      0                             : Latitude/Northing
 LONG    .      0                             : Longitude/Easting
 RWS     .      -999                          : Def_Rw
 WST     .      -999                          : Def_Rwt
~CURVE INFORMATION
#MNEM          UNIT     API CODE   Description
#---------- ---------- ----------  -----------
 DEPTH     .M                    : Depth Index
 BSC       .mm                   : Nominal Caliper
 CALI      .mm                   : Caliper
 GR        .gAPI                 : Gamma Ray
 URAN      .PPM                  : Uranium
 THOR      .PPM                  : Thorium
 POTA      .%                    : Potasium
 DT        .uSec/m               : Sonic travel time
 HAZIM     .deg                  : Hole Azimuth
 SDEVM     .deg                  : Hole Deviation
 RHOZ      .g/cm3                : Bulk Density
 PEFZ      .B/E                  : Formation Photoelectric Factor 
 TNPH      .v/v                  : Neutron porosity
 AT10      .ohm.m                : 10" Array Induction, two foot resolution Resistivity
 AT20      .ohm.m                : 20" Array Induction, two foot resolution Resistivity
 AT30      .ohm.m                : 30" Array Induction, two foot resolution Resistivity
 AT60      .ohm.m                : 60" Array Induction, two foot resolution Resistivity
 AT90      .ohm.m                : 90" Array Induction, two foot resolution Resistivity
 RLA1      .ohm.m                : HRLT Borehole Corrected Resistivity 1
 RLA2      .ohm.m                : HRLT Borehole Corrected Resistivity 2
 RLA3      .ohm.m                : HRLT Borehole Corrected Resistivity 3
 RLA4      .ohm.m                : HRLT Borehole Corrected Resisitivity 4
 RLA5      .ohm.m                : HRLT Borehole Corrected Resistivity 5 
 RT        .ohm.m                : Formation Resistivity
 RXO       .ohm.m                : Flushed zone resistivity
 SP        .mV                   : Spontaneous Potential
 MTEM      .degC                 : Formation Temperature
 HMIN      .ohm.m                : HIP Micro Inverse Resistivity
 HMNO      .ohm.m                : HIP Micro Normal Resistivity
~A Log data section
# ...
 588.0000  215.9000  213.0549  101.7651    1.5909   12.3165    2.2483  411.0515  134.9776    0.1634    2.1684    2.3250    0.4157    1.1542    1.2720    1.3221    1.3529    1.3701    1.7428    1.7063    1.6956    1.6713    1.6517    1.6345    2.0422   44.7472   32.3853    1.1519    1.0183 
 588.1000  215.9000  212.6684  102.3581    1.6005   11.7420    2.1535  413.6886  136.0067    0.1649    2.1600    2.3196    0.4228    1.0990    1.1958    1.2441    1.2920    1.2940    1.4673    1.4311    1.4213    1.4038    1.3912    1.3680    1.7532   44.9580   32.4020    0.9037    0.7985 
 588.2000  215.9000  212.5334  103.3101    1.5899   11.7464    2.1695  414.1228  136.9274    0.1662    2.1568    2.2901    0.4140    1.0645    1.1654    1.1963    1.2591    1.2583    1.4361    1.3918    1.3809    1.3648    1.3507    1.3054    1.8030   44.9723   32.3880    0.8650    0.7642 
 588.3000  215.9000  212.5869  104.2003    1.6097   11.5558    2.2002  414.8906  137.8336    0.1675    2.1549    2.2615    0.4054    1.0910    1.1836    1.2227    1.2698    1.2804    1.6905    1.6468    1.6373    1.6216    1.6075    1.5789    2.0298   44.9451   32.3807    1.0142    0.8963 
 588.4000  215.9000  212.8379  104.8937    1.6884   10.8783    2.2301  416.7857  138.7407    0.1691    2.1511    2.2459    0.4011    1.1076    1.2195    1.2729    1.2928    1.3130    1.8035    1.7513    1.7412    1.7239    1.7091    1.6795    2.1390   44.8919   32.3928    1.1153    0.9858 
 588.5000  215.9000  212.7165  104.6831    1.7187   10.9593    2.2690  417.7476  139.0096    0.1731    2.1473    2.2426    0.3895    1.1165    1.2160    1.2800    1.2912    1.3114    1.6809    1.6373    1.6291    1.6142    1.6031    1.5920    1.9073   44.8935   32.3998    1.0701    0.9458 
 588.6000  215.9000  212.6694  104.5862    1.7107   11.0668    2.3249  418.2107  139.1620    0.1772    2.1429    2.2547    0.3842    1.0743    1.1819    1.2323    1.2597    1.2734    1.4782    1.4396    1.4338    1.4235    1.4171    1.4124    1.6355   44.8921   32.4040    0.8921    0.7882 
 588.7000  215.9000  212.8406  105.1255    1.6381   10.9117    2.4151  417.9595  139.3255    0.1802    2.1393    2.2728    0.3960    1.0472    1.1427    1.1729    1.2183    1.2271    1.3352    1.3028    1.2983    1.2920    1.2888    1.2865    1.4623   44.8607   32.4040    0.8072    0.7131 
 588.8000  215.9000  212.6521  102.5792    1.3841   10.9985    2.5072  418.8005  139.2570    0.1831    2.1409    2.2769    0.4011    1.0212    1.1240    1.1451    1.1869    1.1908    1.3633    1.3399    1.3344    1.3283    1.3263    1.3274    1.4728   44.6529   32.3992    0.8053    0.7114 
 588.9000  215.9000  212.5579   99.5072    1.1572   10.9277    2.5431  420.1721  139.1640    0.1859    2.1385    2.2647    0.4055    1.0426    1.1379    1.1643    1.1954    1.1918    1.4600    1.4329    1.4254    1.4178    1.4141    1.4144    1.5928   44.3887   32.3949    0.9128    0.8066 
 589.0000  215.9000  212.8074   97.2740    1.1445   10.2252    2.4176  422.2272  139.1764    0.1886    2.1276    2.2348    0.4129    1.0470    1.1588    1.1952    1.2061    1.1996    1.5570    1.5240    1.5231    1.5180    1.5182    1.5215    1.6157   44.0979   32.3957    1.0756    0.9508 
 589.1000  215.9000  212.5867   91.9059    1.0892    9.5545    2.3258  425.1639  139.2564    0.1907    2.1134    2.1888    0.4055    1.0552    1.1722    1.2155    1.2191    1.2029    1.5486    1.5076    1.5109    1.5070    1.5086    1.5114    1.5818   43.8724   32.4043    1.0459    0.9244 
 589.2000  215.9000  212.4069   86.4389    1.0541    8.8221    2.2527  427.9379  139.6857    0.1930    2.0959    2.1289    0.3952    1.0534    1.1743    1.2102    1.2359    1.2071    1.4028    1.3705    1.3737    1.3716    1.3759    1.3760    1.4166   43.6355   32.4119    0.9460    0.8360 
 589.3000  215.9000  212.6474   84.5261    1.1438    7.8312    2.2039  429.0367  141.2688    0.1964    2.0824    2.0756    0.3926    1.0200    1.1574    1.1918    1.2200    1.1941    1.4304    1.4020    1.4032    1.4031    1.4091    1.4065    1.4295   43.2776   32.4059    0.9259    0.8181 
 589.4000  215.9000  212.5104   80.6385    1.1770    7.1738    2.2279  430.1527  141.6705    0.1986    2.0787    2.0504    0.3767    0.9844    1.1178    1.1583    1.1893    1.1649    1.4597    1.4288    1.4297    1.4313    1.4367    1.4360    1.4097   43.1680   32.4037    0.8988    0.7942 
 589.5000  215.9000  212.2895   76.4021    1.1960    6.6354    2.2813  430.8623  141.5535    0.2001    2.0843    2.0474    0.3601    0.9481    1.0535    1.0890    1.1196    1.0967    1.3111    1.2872    1.2926    1.2954    1.3053    1.2973    1.2738   43.1558   32.4024    0.7956    0.7028 
 589.6000  215.9000  212.2688   74.7954    1.2688    5.9461    2.3185  429.5503  141.4951    0.2007    2.0978    2.0630    0.3690    0.9092    1.0002    1.0277    1.0539    1.0320    1.2224    1.1928    1.2007    1.2051    1.2157    1.2058    1.2154   43.0741   32.3968    0.7727    0.6825 
 589.7000  215.9000  212.2582   73.3791    1.2591    5.5164    2.3555  427.6395  141.5541    0.2011    2.1109    2.0857    0.3642    0.8987    0.9788    1.0065    1.0262    1.0048    1.2717    1.2435    1.2554    1.2590    1.2718    1.2591    1.2667   43.0240   32.4142    0.8546    0.7550 
 589.8000  215.9000  212.2750   71.9422    1.1997    5.2405    2.3850  425.8181  141.8018    0.2010    2.1168    2.0974    0.3548    0.8883    0.9798    1.0163    1.0380    1.0195    1.3042    1.2877    1.3027    1.3062    1.3242    1.3068    1.2642   43.0192   32.4380    0.8853    0.7822 
 589.9000  215.9000  212.4102   69.5691    1.1159    5.0218    2.3590  427.1222  142.9501    0.1990    2.1154    2.0895    0.3682    0.8834    0.9764    1.0211    1.0413    1.0285    1.2188    1.1965    1.2086    1.2090    1.2248    1.2111    1.1894   43.2168   32.4137    0.8133    0.7185 
 590.0000  215.9000  212.4340   66.9968    0.9878    4.8134    2.3284  428.8253  143.7219    0.1978    2.1079    2.0646    0.3822    0.8467    0.9456    0.9870    1.0106    1.0054    1.1709    1.1490    1.1581    1.1617    1.1780    1.1634    1.1389   43.4197   32.4076    0.7459    0.6589 
 590.1000  215.9000  212.4179   64.3732    0.8439    4.5957    2.2927  430.9370  144.2253    0.1974    2.0938    2.0340    0.3959    0.7977    0.8936    0.9245    0.9466    0.9374    1.1235    1.1106    1.1223    1.1289    1.1493    1.1313    1.0693   43.6256   32.4128    0.7116    0.6286 
 590.2000  215.9000  212.5366   62.8329    0.8849    4.1614    2.2287  434.9432  144.4961    0.1974    2.0796    2.0004    0.3978    0.7658    0.8392    0.8678    0.8900    0.8869    1.0676    1.0580    1.0658    1.0731    1.0947    1.0765    1.0195   43.8253   32.4071    0.6794    0.6001 
 590.3000  215.9000  212.6823   62.4687    0.8930    3.9041    2.1875  437.8181  144.7933    0.1975    2.0704    1.9756    0.3930    0.7261    0.7929    0.8152    0.8330    0.8315    1.0336    1.0257    1.0294    1.0353    1.0542    1.0385    0.9970   44.0307   32.4147    0.6584    0.5815 
 590.4000  215.9000  212.8437   63.0891    0.8741    3.7886    2.1646  439.7527  145.0990    0.1975    2.0650    1.9616    0.3826    0.7025    0.7605    0.7824    0.8030    0.8041    1.0011    0.9996    1.0047    1.0120    1.0328    1.0176    0.9398   44.2417   32.4328    0.6772    0.5981 
 590.5000  215.9000  213.0679   64.8110    0.8567    3.5352    2.1359  440.9686  144.7663    0.1967    2.0620    1.9520    0.3702    0.6966    0.7541    0.7772    0.7985    0.7999    1.0044    1.0001    1.0096    1.0185    1.0412    1.0266    0.9163   44.4972   32.4313    0.6881    0.6078 
 590.6000  215.9000  213.2575   64.5552    0.7954    3.2145    2.1301  442.0455  144.6825    0.1966    2.0617    1.9368    0.3684    0.6961    0.7584    0.7800    0.8021    0.8040    0.9857    0.9812    0.9931    1.0018    1.0244    1.0091    0.9054   44.7497   32.4249    0.6727    0.5942 
 590.7000  215.9000  213.4011   62.3218    0.6901    2.8264    2.1472  442.9835  144.8476    0.1972    2.0646    1.9222    0.3772    0.6956    0.7613    0.7813    0.8030    0.8063    0.9863    0.9814    0.9918    0.9990    1.0196    1.0049    0.9133   44.9992   32.4134    0.6683    0.5903 
