~VERSION INFORMATION
 VERS.                 2.0:   CWLS LOG ASCII STANDARD - VERSION 2.0
 WRAP.                  NO:   SINGLE LINE PER DEPTH STEP
~WELL INFORMATION
#MNEM.UNIT       DATA           DESCRIPTION MNEMONIC
#---------    -------------   --------------------------
 STRT.M         0.0000                        : START DEPTH
 STOP.M         815.0000                      : STOP DEPTH
 STEP.M         0.1000                        : STEP VALUE
 NULL.          -999.0000                     : NULL VALUE
 SRVC.          SCH                           : Service Company/Logging company
 DATE.          08.11.2023                    : LAS file Creation Date
 WELL    .      Каратобе 337                  : Well Name
 COMP    .      LLP "KMG-Burenie"             : Company
 FLD     .      Каратобе                      : Field
 LATI    .      0                             : Latitude/Northing
 LONG    .      0                             : Longitude/Easting
 RWS     .      -999                          : Def_Rw
 WST     .      -999                          : Def_Rwt
~CURVE INFORMATION
#MNEM          UNIT     API CODE   Description
#---------- ---------- ----------  -----------
 DEPTH     .M                    : Depth Index
 BSC       .mm                   : Nominal Caliper
 CALI      .mm                   : Caliper
 GR        .gAPI                 : Gamma Ray
 URAN      .PPM                  : Uranium
 THOR      .PPM                  : Thorium
 POTA      .%                    : Potasium
 DT        .uSec/m               : Sonic travel time
 HAZIM     .deg                  : Hole Azimuth
 SDEVM     .deg                  : Hole Deviation
 RHOZ      .g/cm3                : Bulk Density
 PEFZ      .B/E                  : Formation Photoelectric Factor 
 TNPH      .v/v                  : Neutron porosity
 AT10      .ohm.m                : 10" Array Induction, two foot resolution Resistivity
 AT20      .ohm.m                : 20" Array Induction, two foot resolution Resistivity
 AT30      .ohm.m                : 30" Array Induction, two foot resolution Resistivity
 AT60      .ohm.m                : 60" Array Induction, two foot resolution Resistivity
 AT90      .ohm.m                : 90" Array Induction, two foot resolution Resistivity
 RLA1      .ohm.m                : HRLT Borehole Corrected Resistivity 1
 RLA2      .ohm.m                : HRLT Borehole Corrected Resistivity 2
 RLA3      .ohm.m                : HRLT Borehole Corrected Resistivity 3
 RLA4      .ohm.m                : HRLT Borehole Corrected Resisitivity 4
 RLA5      .ohm.m                : HRLT Borehole Corrected Resistivity 5 
 RT        .ohm.m                : Formation Resistivity
 RXO       .ohm.m                : Flushed zone resistivity
 SP        .mV                   : Spontaneous Potential
 MTEM      .degC                 : Formation Temperature
 HMIN      .ohm.m                : HIP Micro Inverse Resistivity
 HMNO      .ohm.m                : HIP Micro Normal Resistivity
~A Log data section
# ...
 809.2000  215.9000   79.0071   26.0239    5.5639   -2.2527    0.6786  182.0657  117.7850    0.2895 -999.0000 -999.0000 -999.0000 -999.0000 -999.0000 -999.0000 -999.0000 -999.0000   43.3122   40.1017   38.5694   37.2830   34.4143   32.4261   50.0074   66.0958   33.3295    0.2606    0.4035 
 809.3000  215.9000   78.9458   26.0239    5.5639   -2.2527    0.6786  179.1541  117.7850    0.2895 -999.0000 -999.0000 -999.0000 -999.0000 -999.0000 -999.0000 -999.0000 -999.0000   43.3122   40.1017   38.5694   37.2830   34.4143   32.4261   50.0074   65.8280   33.3295    0.2606    0.4035 
 809.4000  215.9000   78.9139   26.0239    5.5639   -2.2527    0.6786  177.9219  117.7850    0.2895 -999.0000 -999.0000 -999.0000 -999.0000 -999.0000 -999.0000 -999.0000 -999.0000   43.3122   40.1017   38.5694   37.2830   34.4143   32.4261   50.0074   65.5357   33.3295    0.2606    0.4035 
 809.5000  215.9000   78.9470   26.0239    5.5639   -2.2527    0.6786  177.6090  117.7850    0.2895 -999.0000 -999.0000 -999.0000 -999.0000 -999.0000 -999.0000 -999.0000 -999.0000   43.3122   40.1017   38.5694   37.2830   34.4143   32.4261   50.0074   65.1408   33.3295    0.2606    0.4035 
 809.6000  215.9000   78.9672   26.0239    5.5639   -2.2527    0.6786  178.8452  117.7850    0.2895 -999.0000 -999.0000 -999.0000 -999.0000 -999.0000 -999.0000 -999.0000 -999.0000   43.3122   40.1017   38.5694   37.2830   34.4143   32.4261   50.0074   64.7090   33.3295    0.2606    0.4035 
 809.7000  215.9000   78.9717   26.0239    5.5639   -2.2527    0.6786  181.5697  117.7850    0.2895 -999.0000 -999.0000 -999.0000 -999.0000 -999.0000 -999.0000 -999.0000 -999.0000   43.3122   40.1017   38.5694   37.2830   34.4143   32.4261   50.0074   64.2419   33.3295    0.2606    0.4035 
 809.8000  215.9000   78.9720   26.0239    5.5639   -2.2527    0.6786  182.2791  117.7850    0.2895 -999.0000 -999.0000 -999.0000 -999.0000 -999.0000 -999.0000 -999.0000 -999.0000   43.3122   40.1017   38.5694   37.2830   34.4143   32.4261   50.0074   63.1817   33.3295    0.2606    0.4035 
 809.9000  215.9000   78.8343   26.0239    5.5639   -2.2527    0.6786  182.3737  117.7850    0.2895 -999.0000 -999.0000 -999.0000 -999.0000 -999.0000 -999.0000 -999.0000 -999.0000   43.3122   40.1017   38.5694   37.2830   34.4143   32.4261   50.0074   62.5376   33.3295    0.2606    0.4035 
 810.0000  215.9000   78.5877   26.0239    5.5639   -2.2527    0.6786  181.7705  117.7850    0.2895 -999.0000 -999.0000 -999.0000 -999.0000 -999.0000 -999.0000 -999.0000 -999.0000   43.3122   40.1017   38.5694   37.2830   34.4143   32.4261   50.0074   62.3893   33.3295    0.2606    0.4035 
 810.1000  215.9000   78.6862   26.0239    5.5639   -2.2527    0.6786  181.8892  117.7850    0.2895 -999.0000 -999.0000 -999.0000 -999.0000 -999.0000 -999.0000 -999.0000 -999.0000   43.3122   40.1017   38.5694   37.2830   34.4143   32.4261   50.0074   62.1430   33.3295    0.2606    0.4035 
 810.2000  215.9000   78.8215   26.0239    5.5639   -2.2527    0.6786  181.9663  117.7850    0.2895 -999.0000 -999.0000 -999.0000 -999.0000 -999.0000 -999.0000 -999.0000 -999.0000   43.3122   40.1017   38.5694   37.2830   34.4143   32.4261   50.0074   61.9627   33.3295    0.2606    0.4035 
 810.3000  215.9000   78.9529   26.0239    5.5639   -2.2527    0.6786  181.9222  117.7850    0.2895 -999.0000 -999.0000 -999.0000 -999.0000 -999.0000 -999.0000 -999.0000 -999.0000   43.3122   40.1017   38.5694   37.2830   34.4143   32.4261   50.0074   61.8821   33.3295    0.2606    0.4035 
 810.4000  215.9000   79.0479   26.0239    5.5639   -2.2527    0.6786  181.9040  117.7850    0.2895 -999.0000 -999.0000 -999.0000 -999.0000 -999.0000 -999.0000 -999.0000 -999.0000   43.3122   40.1017   38.5694   37.2830   34.4143   32.4261   50.0074   62.3234   33.3295    0.2606    0.4035 
 810.5000  215.9000   79.0075   26.0239    5.5639   -2.2527    0.6786  181.8947  117.7850    0.2895 -999.0000 -999.0000 -999.0000 -999.0000 -999.0000 -999.0000 -999.0000 -999.0000   43.3122   40.1017   38.5694   37.2830   34.4143   32.4261   50.0074   62.3895   33.3295    0.2606    0.4035 
 810.6000  215.9000   78.8022   26.0239    5.5639   -2.2527    0.6786  181.8954  117.7850    0.2895 -999.0000 -999.0000 -999.0000 -999.0000 -999.0000 -999.0000 -999.0000 -999.0000   43.3122   40.1017   38.5694   37.2830   34.4143   32.4261   50.0074   61.7069   33.3295    0.2606    0.4035 
 810.7000  215.9000   78.9609   26.0239    5.5639   -2.2527    0.6786  181.8955  117.7850    0.2895 -999.0000 -999.0000 -999.0000 -999.0000 -999.0000 -999.0000 -999.0000 -999.0000   43.3122   40.1017   38.5694   37.2830   34.4143   32.4261   50.0074   60.2626   33.3295    0.2606    0.4035 
 810.8000  215.9000   79.0143   26.0239    5.5639   -2.2527    0.6786  181.8955  117.7850    0.2895 -999.0000 -999.0000 -999.0000 -999.0000 -999.0000 -999.0000 -999.0000 -999.0000   43.3122   40.1017   38.5694   37.2830   34.4143   32.4261   50.0074   55.7489   33.3295    0.2606    0.4035 
 810.9000  215.9000   78.8119   26.0239    5.5639   -2.2527    0.6786  181.8955  117.7850    0.2895 -999.0000 -999.0000 -999.0000 -999.0000 -999.0000 -999.0000 -999.0000 -999.0000   43.3122   40.1017   38.5694   37.2830   34.4143   32.4261   50.0074   45.0206   33.3295    0.2606    0.4035 
 811.0000  215.9000   78.8745 -999.0000 -999.0000 -999.0000 -999.0000  181.8955  117.7850    0.2895 -999.0000 -999.0000 -999.0000 -999.0000 -999.0000 -999.0000 -999.0000 -999.0000   43.3122   40.1017   38.5694   37.2830   34.4143   32.4261   50.0074 -999.0000 -999.0000    0.2606    0.4035 
 811.1000  215.9000   78.9146 -999.0000 -999.0000 -999.0000 -999.0000  181.8955  117.7850    0.2895 -999.0000 -999.0000 -999.0000 -999.0000 -999.0000 -999.0000 -999.0000 -999.0000   43.3122   40.1017   38.5694   37.2830   34.4143   32.4261   50.0074 -999.0000 -999.0000 -999.0000 -999.0000 
 811.2000  215.9000   78.7992 -999.0000 -999.0000 -999.0000 -999.0000  181.8955  117.7850    0.2895 -999.0000 -999.0000 -999.0000 -999.0000 -999.0000 -999.0000 -999.0000 -999.0000   43.3122   40.1017   38.5694   37.2830   34.4143   32.4261   50.0074 -999.0000 -999.0000 -999.0000 -999.0000 
 811.3000  215.9000   78.6636 -999.0000 -999.0000 -999.0000 -999.0000  181.8955  117.7850    0.2895 -999.0000 -999.0000 -999.0000 -999.0000 -999.0000 -999.0000 -999.0000 -999.0000   43.3122   40.1017   38.5694   37.2830   34.4143   32.4261   50.0074 -999.0000 -999.0000 -999.0000 -999.0000 
 811.4000  215.9000   78.6320 -999.0000 -999.0000 -999.0000 -999.0000  181.8955  117.7850    0.2895 -999.0000 -999.0000 -999.0000 -999.0000 -999.0000 -999.0000 -999.0000 -999.0000   43.3122   40.1017   38.5694   37.2830   34.4143   32.4261   50.0074 -999.0000 -999.0000 -999.0000 -999.0000 
 811.5000  215.9000   78.8379 -999.0000 -999.0000 -999.0000 -999.0000  181.8955  117.7850    0.2895 -999.0000 -999.0000 -999.0000 -999.0000 -999.0000 -999.0000 -999.0000 -999.0000   43.3122   40.1017   38.5694   37.2830   34.4143   32.4261   50.0074 -999.0000 -999.0000 -999.0000 -999.0000 
 811.6000  215.9000   78.9978 -999.0000 -999.0000 -999.0000 -999.0000  181.8955  117.7850    0.2895 -999.0000 -999.0000 -999.0000 -999.0000 -999.0000 -999.0000 -999.0000 -999.0000   43.3122   40.1017   38.5694   37.2830   34.4143   32.4261   50.0074 -999.0000 -999.0000 -999.0000 -999.0000 
 811.7000  215.9000   79.1210 -999.0000 -999.0000 -999.0000 -999.0000  181.8955  117.7850    0.2895 -999.0000 -999.0000 -999.0000 -999.0000 -999.0000 -999.0000 -999.0000 -999.0000   43.3122   40.1017   38.5694   37.2830   34.4143   32.4261   50.0074 -999.0000 -999.0000 -999.0000 -999.0000 
 811.8000  215.9000   79.2149 -999.0000 -999.0000 -999.0000 -999.0000  181.8955  117.7850    0.2895 -999.0000 -999.0000 -999.0000 -999.0000 -999.0000 -999.0000 -999.0000 -999.0000   43.3122   40.1017   38.5694   37.2830   34.4143   32.4261   50.0074 -999.0000 -999.0000 -999.0000 -999.0000 
 811.9000  215.9000   79.1853 -999.0000 -999.0000 -999.0000 -999.0000  181.8955  117.7850    0.2895 -999.0000 -999.0000 -999.0000 -999.0000 -999.0000 -999.0000 -999.0000 -999.0000   43.3122   40.1017   38.5694   37.2830   34.4143   32.4261   50.0074 -999.0000 -999.0000 -999.0000 -999.0000 
