~Version
 VERS              .         3.0                           : CWLS LOG ASCII STANDARD - VERSION 3.0
 WRAP              .         NO                            : ONE LINE PER DEPTH STEP
 DLM               .         SPACE                         : DELIMITING CHARACTER(SPACE TAB OR COMMA)
~Well Information
#_______________________________________________________________________________
#
#PARAMETER_NAME    .UNIT     VALUE                         : DESCRIPTION
#_______________________________________________________________________________
STRT               .м        0.1                           : First reference value
STOP               .м        937.7                         : Last reference value
STEP               .м        0.1                           : Step increment
NULL               .         -9999                         : Missing value
COMP               .                                       : Company
WELL               .         G-22                          : Well name
FLD                .         Каратобе                      : Field
LOC                .                                       : Location
SRVC               .                                       : Service Company
CTRY               .         KZ                            : Country
DATE               .         15.07.22                      : Service Date
X                  .                                       : X or East-West coordinate
Y                  .                                       : Y or North South coordinate
GDAT               .                                       : Geodetic Datum
HZCS               .                                       : Horizontal Co-ordinate System
CNTY               .         Казахстан                     : 
COUNTRY            .         KAZAKHSTAN                    : 
EREF               .m        139.4                         : 
ORIGINALWELLNAME   .         G-22_KARATYUBE_200            : 
PROV               .         AKTAU AREA                    : 
STAT               .                                       : 
UWI                .         Каратобе                      : 
~Parameter Information Block
#_______________________________________________________________________________
#
#PARAMETER_NAME    .UNIT     VALUE                         : DESCRIPTION
#_______________________________________________________________________________
SET                .         Las                           : 
GSDD               .         NPHI                          : NPHI,0,DEPT,,,,,0
TDD                .м        -999.250                      : Полная глубина по бурению
TDL                .м        896.5                         : Полная глубина по каротажу
TLFamily_GR        .         Russian Gamma Ray             : 
TLFamily_MD        .         Measured Depth                : 
TLFamily_NPHI      .         Neutron Porosity              : 
TLFamily_Resistivity .         Resistivity                   : 
TLFamily_VSH_GR    .         Shale Volume                  : 
~Curve Information
#_______________________________________________________________________________
#
#LOGNAME           .UNIT     LOG_ID                        : DESCRIPTION
#_______________________________________________________________________________
MD                 .м                                      : Колонка глубины {F}
GR                 .мкР/ч                                  : Гамма каротаж {F}
NPHI               .v/v                                    : Водородосодержание {F}
Resistivity        .OHMM                                   :  {F}
VSH_GR             .unitless                               : Shale volume fraction from Gamma Ray {F}
~Ascii
# ...
771.9      5.61       0.3119126  2.084      0.1072767 
772        5.702      0.3172186  2.125      0.1143644 
772.1      5.605      0.3242964  2.176      0.1068948 
772.2      5.444      0.3159576  2.233      0.09477273
772.3      5.342      0.2959378  2.263      0.08726758
772.4      5.423      0.2747279  2.287      0.09321658
772.5      5.72       0.2646135  2.258      0.1157645 
772.6      6.182      0.27121    2.238      0.1532504 
772.7      6.607      0.2803967  2.218      0.1905116 
772.8      6.831      0.2873276  2.199      0.211293  
772.9      6.755      0.2886902  2.189      0.2041509 
773        6.463      0.2848993  2.18       0.1775754 
773.1      6.106      0.2848993  2.18       0.146874  
773.2      5.915      0.2803967  2.184      0.1312181 
773.3      6.016      0.2749818  2.223      0.1394318 
773.4      6.369      0.2631802  2.254      0.1693049 
773.5      6.747      0.2554998  2.294      0.2034046 
773.6      6.917      0.2571009  2.336      0.2194902 
773.7      6.766      0.271459   2.395      0.2051787 
773.8      6.334      0.2854362  2.446      0.16626   
773.9      5.764      0.2925586  2.506      0.1192057 
774        5.231      0.278315   2.566      0.07925081
774.1      4.869      0.2684931  2.627      0.05416082
774.2      4.722      0.2670283  2.696      0.04441697
774.3      4.766      0.2931177  2.76       0.04730727
774.4      4.941      0.3207271  2.863      0.05902545
774.5      5.198      0.3364235  2.99       0.07689728
774.6      5.487      0.3181695  3.09       0.09797697
774.7      5.802      0.2920012  3.192      0.1221989 
774.8      6.153      0.2775404  3.314      0.1508073 
774.9      6.563      0.2747279  3.445      0.1865243 
775        6.991      0.2827668  3.483      0.226643  
775.1      7.344      0.2851675  3.409      0.2620659 
775.2      7.528      0.2878715  3.298      0.2814149 
775.3      7.508      0.2892381  3.172      0.2792815 
775.4      7.339      0.2945226  2.997      0.2615488 
775.5      7.09       0.2996665  2.872      0.236358  
775.6      6.838      0.2939594  2.807      0.2119557 
775.7      6.603      0.2851675  2.876      0.1901479 
775.8      6.399      0.2767691  2.92       0.1719297 
775.9      6.229      0.2702172  2.821      0.1572362 
776        6.13       0.2665427  2.747      0.1488784 
776.1      6.132      0.2665427  2.827      0.1490459 
776.2      6.242      0.2835637  2.997      0.1583445 
776.3      6.403      0.3058443  3.168      0.1722807 
776.4      6.521      0.3259394  3.356      0.1827467 
776.5      6.51       0.3333258  3.617      0.181762  
776.6      6.368      0.3312855  3.872      0.1692176 
776.7      6.144      0.3249521  3.973      0.1500516 
776.8      5.917      0.3116048  3.894      0.1313794 
776.9      5.712      0.3017043  3.731      0.1151417 
777        5.561      0.2999564  3.537      0.1035479 
777.1      5.469      0.3022904  3.302      0.09663273
777.2      5.453      0.2999564  3.022      0.09544141
777.3      5.497      0.2884169  2.75       0.09872562
777.4      5.573      0.2859746  2.553      0.1044582 
777.5      5.635      0.2920012  2.415      0.1091915 
777.6      5.628      0.309159   2.566      0.1086545 
777.7      5.535      0.3137695  2.725      0.1015824 
777.8      5.382      0.3079473  2.876      0.09019484
777.9      5.269      0.2908911  3.034      0.08197779
778        5.267      0.2777983  3.159      0.08183384
778.1      5.421      0.2680035  3.124      0.0930687 
778.2      5.664      0.2629424  2.863      0.1114231 
778.3      5.91       0.2523415  2.595      0.1308153 
778.4      6.066      0.2470597  2.364      0.1435519 
778.5      6.117      0.2400581  2.325      0.1477917 
778.6      6.123      0.2470597  2.475      0.1482929 
778.7      6.172      0.2534629  2.625      0.1524065 
778.8      6.323      0.2719581  2.778      0.1653069 
778.9      6.522      0.2906146  2.958      0.1828363 
779        6.696      0.3100727  3.138      0.1986713 
779.1      6.775      0.3112974  3.304      0.2060212 
779.2      6.757      0.2976499  3.331      0.2043376 
779.3      6.674      0.2822375  3.234      0.1966424 
779.4      6.588      0.28383    3.077      0.1887861 
779.5      6.574      0.2959378  2.948      0.1875182 
779.6      6.586      0.309159   2.833      0.1886048 
779.7      6.54       0.3097677  2.783      0.1844522 
779.8      6.312      0.3022904  2.912      0.1643555 
779.9      5.946      0.2953705  3.03       0.1337238 
780        5.508      0.2948048  3.116      0.09955061
780.1      5.133      0.3046526  3.075      0.07230105
780.2      4.894      0.3184875  3.023      0.055843  
780.3      4.872      0.3299361  2.952      0.05436231
780.4      5.051      0.3299361  2.874      0.06657671
780.5      5.343      0.3181695  2.809      0.08734051
780.6      5.622      0.3052475  2.702      0.1081947 
780.7      5.78       0.2962221  2.625      0.1204635 
780.8      5.788      0.2959378  2.575      0.1210938 
780.9      5.7        0.2865146  2.527      0.1142091 
781        5.67       0.2707129  2.495      0.1118862 
781.1      5.839      0.2577917  2.447      0.1251325 
781.2      6.23       0.2663004  2.427      0.1573214 
781.3      6.688      0.2920012  2.497      0.1979327 
781.4      7.001      0.3252807  2.568      0.2276167 
781.5      7.028      0.3357312  2.647      0.2302542 
781.6      6.825      0.3236429  2.714      0.2107257 
781.7      6.561      0.2959378  2.745      0.1863438 
781.8      6.423      0.2742211  2.694      0.1740394 
781.9      6.447      0.2605824  2.635      0.176158  
782        6.556      0.2554998  2.586      0.1858928 
782.1      6.607      0.2617584  2.553      0.1905116 
782.2      6.541      0.2739683  2.597      0.1845421 
782.3      6.397      0.2897875  2.766      0.1717542 
782.4      6.291      0.3031729  2.928      0.1625445 
782.5      6.28       0.3112974  3.119      0.1615985 
782.6      6.312      0.3159576  3.407      0.1643555 
782.7      6.283      0.3058443  3.673      0.1618563 
782.8      6.154      0.2897875  3.885      0.1508913 
782.9      5.958      0.277283   3.92       0.1346973 
783        5.787      0.2775404  3.819      0.121015  
783.1      5.699      0.2884169  3.702      0.1141315 
783.2      5.729      0.3005373  3.521      0.1164662 
783.3      5.816      0.3147044  3.327      0.1233067 
783.4      5.914      0.3266003  3.105      0.1311375 
783.5      5.972      0.3236429  2.966      0.1358357 
783.6      6.014      0.3125296  2.935      0.1392677 
783.7      6.072      0.2922797  2.988      0.1440487 
783.8      6.206      0.2843639  3.052      0.1552816 
783.9      6.408      0.2747279  2.965      0.1727198 
784        6.619      0.2744744  2.813      0.1916045 
784.1      6.767      0.2717083  2.643      0.2052723 
784.2      6.798      0.2830321  2.487      0.2081802 
784.3      6.679      0.2914454  2.473      0.1971028 
784.4      6.392      0.292838   2.606      0.171316  
784.5      6.041      0.2719581  2.764      0.1414873 
784.6      5.779      0.2514498  2.906      0.1203848 
784.7      5.73       0.2425702  3.068      0.1165443 
784.8      5.871      0.2527892  3.25       0.127685  
784.9      6.116      0.2717083  3.45       0.1477081 
785        6.361      0.2859746  3.635      0.1686072 
785.1      6.548      0.2848993  3.666      0.185172  
785.2      6.678      0.2719581  3.527      0.1970108 
785.3      6.804      0.2571009  3.391      0.2087448 
785.4      6.993      0.246411   3.201      0.2268376 
785.5      7.224      0.2449068  3.014      0.2497782 
785.6      7.4        0.2512276  2.855      0.267889  
785.7      7.404      0.2643738  2.703      0.2683071 
785.8      7.216      0.2809208  2.533      0.2489681 
785.9      6.867      0.2895126  2.379      0.2147095 
786        6.42       0.288144   2.386      0.1737752 
786.1      5.904      0.2747279  2.545      0.1303323 
786.2      5.391      0.2663004  2.692      0.09085628
786.3      4.988      0.2704649  2.798      0.06223413
786.4      4.852      0.2867852  2.769      0.05302116
