~Version
 VERS              .         3.0                           : CWLS LOG ASCII STANDARD - VERSION 3.0
 WRAP              .         NO                            : ONE LINE PER DEPTH STEP
 DLM               .         SPACE                         : DELIMITING CHARACTER(SPACE TAB OR COMMA)
~Well Information
#_______________________________________________________________________________
#
#PARAMETER_NAME    .UNIT     VALUE                         : DESCRIPTION
#_______________________________________________________________________________
STRT               .м        0.1                           : First reference value
STOP               .м        937.7                         : Last reference value
STEP               .м        0.1                           : Step increment
NULL               .         -9999                         : Missing value
COMP               .                                       : Company
WELL               .         G-22                          : Well name
FLD                .         Каратобе                      : Field
LOC                .                                       : Location
SRVC               .                                       : Service Company
CTRY               .         KZ                            : Country
DATE               .         15.07.22                      : Service Date
X                  .                                       : X or East-West coordinate
Y                  .                                       : Y or North South coordinate
GDAT               .                                       : Geodetic Datum
HZCS               .                                       : Horizontal Co-ordinate System
CNTY               .         Казахстан                     : 
COUNTRY            .         KAZAKHSTAN                    : 
EREF               .m        139.4                         : 
ORIGINALWELLNAME   .         G-22_KARATYUBE_200            : 
PROV               .         AKTAU AREA                    : 
STAT               .                                       : 
UWI                .         Каратобе                      : 
~Parameter Information Block
#_______________________________________________________________________________
#
#PARAMETER_NAME    .UNIT     VALUE                         : DESCRIPTION
#_______________________________________________________________________________
SET                .         Las                           : 
GSDD               .         NPHI                          : NPHI,0,DEPT,,,,,0
TDD                .м        -999.250                      : Полная глубина по бурению
TDL                .м        896.5                         : Полная глубина по каротажу
TLFamily_GR        .         Russian Gamma Ray             : 
TLFamily_MD        .         Measured Depth                : 
TLFamily_NPHI      .         Neutron Porosity              : 
TLFamily_Resistivity .         Resistivity                   : 
TLFamily_VSH_GR    .         Shale Volume                  : 
~Curve Information
#_______________________________________________________________________________
#
#LOGNAME           .UNIT     LOG_ID                        : DESCRIPTION
#_______________________________________________________________________________
MD                 .м                                      : Колонка глубины {F}
GR                 .мкР/ч                                  : Гамма каротаж {F}
NPHI               .v/v                                    : Водородосодержание {F}
Resistivity        .OHMM                                   :  {F}
VSH_GR             .unitless                               : Shale volume fraction from Gamma Ray {F}
~Ascii
# ...
538.3      9.435      0.2965068  2.375      0.3528062 
538.4      9.739      0.2936784  2.42       0.3914706 
538.5      9.947      0.2903385  2.42       0.4198634 
538.6      10.063     0.2906146  2.419      0.4364024 
538.7      10.153     0.3017043  2.409      0.4495935 
538.8      10.295     0.31533    2.399      0.4711239 
538.9      10.492     0.3140806  2.386      0.5024645 
539        10.766     0.2979367  2.348      0.549047  
539.1      11.112     0.2832977  2.33       0.613216  
539.2      11.475     0.2846314  2.332      0.6875474 
539.3      11.695     0.2948048  2.35       0.7363573 
539.4      11.659     0.2996665  2.353      0.7280346 
539.5      11.337     0.2979367  2.383      0.6580676 
539.6      10.798     0.2956539  2.413      0.554262  
539.7      10.201     0.2906146  2.443      0.4561879 
539.8      9.774      0.2892381  2.474      0.3954337 
539.9      9.697      0.2848993  2.515      0.3851908 
540        9.95       0.2931177  2.565      0.4194662 
540.1      10.308     0.2985116  2.615      0.4723151 
540.2      10.5       0.3085522  2.666      0.5028781 
540.3      10.365     0.3109905  2.726      0.4811076 
540.4      9.939      0.3116048  2.787      0.4177057 
540.5      9.412      0.3061434  2.849      0.3490615 
540.6      9.056      0.2942408  2.834      0.3080916 
540.7      9.052      0.2790929  2.775      0.307618  
540.8      9.386      0.2697229  2.724      0.3458048 
540.9      9.886      0.2660584  2.665      0.4100756 
541        10.355     0.2684931  2.618      0.4790786 
541.1      10.661     0.2722081  2.599      0.5291941 
541.2      10.72      0.2922797  2.595      0.539297  
541.3      10.539     0.3216945  2.652      0.5085316 
541.4      10.227     0.341333   2.764      0.4590798 
541.5      9.935      0.3269315  2.799      0.4165512 
541.6      9.745      0.3025841  2.783      0.3906722 
541.7      9.66       0.2892381  2.71       0.3795076 
541.8      9.684      0.291168   2.605      0.3825709 
541.9      9.819      0.2925586  2.456      0.4004138 
542        10.019     0.2867852  2.315      0.428135  
542.1      10.124     0.2732119  2.166      0.44329   
542.2      9.928      0.2653345  2.024      0.4151984 
542.3      9.293      0.2675153  1.864      0.3341915 
542.4      8.247      0.2835637  1.707      0.22848   
542.5      6.992      0.3005373  1.588      0.1363781 
542.6      5.793      0.3076455  1.571      0.07395163
542.7      4.891      0.2962221  1.582      0.03900306
542.8      4.351      0.282502   1.604      0.02192599
542.9      4.088      0.2819734  1.644      0.01449645
543        3.927      0.3011199  1.684      0.01021052
543.1      3.804      0.3306097  1.723      0.007063797
543.2      3.744      0.3481792  1.752      0.005567541
543.3      3.799      0.3441894  1.773      0.006937315
543.4      3.922      0.3312855  1.8        0.01007794
543.5      4.008      0.3262696  1.801      0.01233828
543.6      3.964      0.3299361  1.808      0.01117401
543.7      3.761      0.3275955  1.787      0.00598695
543.8      3.464      0.3137695  1.755      0         
543.9      3.179      0.2931177  1.706      0         
544        3.022      0.278574   1.667      0         
544.1      3.025      0.2665427  1.635      0         
544.2      3.176      0.2612871  1.588      0         
544.3      3.417      0.2655755  1.568      0         
544.4      3.683      0.2806585  1.552      0.004069255
544.5      3.904      0.292838   1.571      0.009604805
544.6      4.037      0.2945226  1.583      0.0131037 
544.7      4.075      0.288964   1.614      0.0141267 
544.8      4.038      0.2873276  1.652      0.01312881
544.9      3.949      0.2873276  1.669      0.01077167
545        3.845      0.291723   1.659      0.008090821
545.1      3.766      0.2939594  1.65       0.006105871
545.2      3.766      0.2976499  1.651      0.006105491
545.3      3.884      0.3011199  1.663      0.009085061
545.4      4.15       0.3119126  1.693      0.01617218
545.5      4.556      0.3242964  1.725      0.02805416
545.6      5.073      0.3378148  1.783      0.04526569
545.7      5.662      0.3467199  1.909      0.068145  
545.8      6.306      0.3560026  2          0.09785292
545.9      7.037      0.3537391  2.1        0.138706  
546        7.903      0.3392152  2.201      0.1991997 
546.1      8.924      0.3169026  2.313      0.2920424 
546.2      10.031     0.2987997  2.441      0.4275004 
546.3      11.09      0.2900628  2.552      0.6026265 
546.4      11.968     0.2873276  2.668      0.7925158 
546.5      12.588     0.292838   2.736      0.9574316 
546.6      12.95      0.2973635  2.697      1         
546.7      13.104     0.2993772  2.668      1         
546.8      13.077     0.2922797  2.659      1         
546.9      12.857     0.2892381  2.748      1         
547        12.411     0.288964   2.83       0.9066369 
547.1      11.813     0.2931177  2.904      0.7546989 
547.2      11.221     0.2914454  2.755      0.6272879 
547.3      10.892     0.2959378  2.715      0.5650276 
547.4      10.966     0.3067429  2.755      0.5784361 
547.5      11.407     0.3256098  2.696      0.66475   
547.6      11.895     0.3406247  2.556      0.7734481 
547.7      12.091     0.3388642  2.404      0.8213492 
547.8      11.823     0.3312855  2.156      0.7562187 
547.9      11.206     0.3220179  2.016      0.6236911 
548        10.489     0.3285954  1.883      0.4957691 
548.1      9.917      0.3326435  1.814      0.4105345 
548.2      9.648      0.3279283  1.759      0.374888  
548.3      9.67       0.3031729  1.748      0.3776526 
548.4      9.866      0.2809208  1.731      0.403424  
548.5      10.068     0.2617584  1.745      0.4314921 
548.6      10.238     0.2481466  1.812      0.4563526 
548.7      10.366     0.2361574  2.042      0.4758428 
548.8      10.457     0.2333418  2.372      0.4901054 
548.9      10.431     0.2384044  2.805      0.4859094 
549        10.298     0.2499003  3.341      0.4651836 
549.1      10.1       0.2636567  3.741      0.4357513 
549.2      9.92       0.2830321  4.009      0.4103661 
549.3      9.748      0.3052475  3.889      0.3872712 
549.4      9.584      0.3220179  3.679      0.3662581 
549.5      9.409      0.3285954  3.471      0.3448759 
549.6      9.267      0.3242964  3.276      0.32827   
549.7      9.212      0.3188059  3.038      0.3219897 
549.8      9.353      0.3162721  2.806      0.3381413 
549.9      9.713      0.3204057  2.48       0.3824271 
550        10.217     0.3197643  2.279      0.4523718 
550.1      10.707     0.3156435  2.069      0.5304256 
550.2      11.086     0.3103782  1.863      0.5984934 
550.3      11.339     0.3116048  1.703      0.6480488 
550.4      11.555     0.309159   1.64       0.6931787 
550.5      11.859     0.3037634  1.64       0.7614909 
550.6      12.342     0.3019971  1.649      0.8826659 
550.7      12.944     0.3052475  1.736      1         
550.8      13.482     0.3049498  1.796      1         
550.9      13.718     0.2942408  1.856      1         
551        13.518     0.2819734  1.916      1         
551.1      12.847     0.2843639  1.959      1         
551.2      11.834     0.2939594  1.851      0.7548308 
551.3      10.676     0.3052475  1.762      0.5242923 
551.4      9.62       0.3017043  1.685      0.3698563 
551.5      8.82       0.2959378  1.638      0.2795916 
551.6      8.312      0.2945226  1.618      0.2318521 
551.7      8.023      0.3002466  1.599      0.2075467 
551.8      7.858      0.3082495  1.592      0.1945134 
551.9      7.756      0.3100727  1.612      0.1867442 
552        7.709      0.3076455  1.634      0.1832281 
552.1      7.759      0.3014119  1.675      0.1869309 
552.2      7.945      0.2878715  1.722      0.2012159 
552.3      8.307      0.277283   1.734      0.2312397 
552.4      8.839      0.2722081  1.675      0.2812196 
552.5      9.477      0.2827668  1.627      0.3517469 
552.6      10.082     0.2945226  1.598      0.4311887 
552.7      10.504     0.3005373  1.579      0.4950183 
552.8      10.669     0.2976499  1.571      0.5220321 
