~Version
 VERS              .         3.0                           : CWLS LOG ASCII STANDARD - VERSION 3.0
 WRAP              .         NO                            : ONE LINE PER DEPTH STEP
 DLM               .         SPACE                         : DELIMITING CHARACTER(SPACE TAB OR COMMA)
~Well Information
#_______________________________________________________________________________
#
#PARAMETER_NAME    .UNIT     VALUE                         : DESCRIPTION
#_______________________________________________________________________________
STRT               .м        0.1                           : First reference value
STOP               .м        937.7                         : Last reference value
STEP               .м        0.1                           : Step increment
NULL               .         -9999                         : Missing value
COMP               .                                       : Company
WELL               .         G-22                          : Well name
FLD                .         Каратобе                      : Field
LOC                .                                       : Location
SRVC               .                                       : Service Company
CTRY               .         KZ                            : Country
DATE               .         15.07.22                      : Service Date
X                  .                                       : X or East-West coordinate
Y                  .                                       : Y or North South coordinate
GDAT               .                                       : Geodetic Datum
HZCS               .                                       : Horizontal Co-ordinate System
CNTY               .         Казахстан                     : 
COUNTRY            .         KAZAKHSTAN                    : 
EREF               .m        139.4                         : 
ORIGINALWELLNAME   .         G-22_KARATYUBE_200            : 
PROV               .         AKTAU AREA                    : 
STAT               .                                       : 
UWI                .         Каратобе                      : 
~Parameter Information Block
#_______________________________________________________________________________
#
#PARAMETER_NAME    .UNIT     VALUE                         : DESCRIPTION
#_______________________________________________________________________________
SET                .         Las                           : 
GSDD               .         NPHI                          : NPHI,0,DEPT,,,,,0
TDD                .м        -999.250                      : Полная глубина по бурению
TDL                .м        896.5                         : Полная глубина по каротажу
TLFamily_GR        .         Russian Gamma Ray             : 
TLFamily_MD        .         Measured Depth                : 
TLFamily_NPHI      .         Neutron Porosity              : 
TLFamily_Resistivity .         Resistivity                   : 
TLFamily_VSH_GR    .         Shale Volume                  : 
~Curve Information
#_______________________________________________________________________________
#
#LOGNAME           .UNIT     LOG_ID                        : DESCRIPTION
#_______________________________________________________________________________
MD                 .м                                      : Колонка глубины {F}
GR                 .мкР/ч                                  : Гамма каротаж {F}
NPHI               .v/v                                    : Водородосодержание {F}
Resistivity        .OHMM                                   :  {F}
VSH_GR             .unitless                               : Shale volume fraction from Gamma Ray {F}
~Ascii
# ...
479.9      10.844     0.4391766  2.384      0.61391   
480        10.689     0.469601   2.324      0.5831715 
480.1      10.716     0.4196663  2.267      0.5883232 
480.2      10.922     0.3541147  2.243      0.6295764 
480.3      11.256     0.3011199  2.275      0.701974  
480.4      11.605     0.2900628  2.327      0.7854874 
480.5      11.947     0.2840967  2.397      0.8759249 
480.6      12.256     0.2859746  2.467      0.9656802 
480.7      12.563     0.2875993  2.538      1         
480.8      12.885     0.3031729  2.607      1         
480.9      13.248     0.3150169  2.578      1         
481        13.627     0.3172186  2.555      1         
481.1      13.925     0.3150169  2.509      1         
481.2      14.065     0.3172186  2.5        1         
481.3      14         0.3229913  2.501      1         
481.4      13.793     0.3162721  2.513      1         
481.5      13.489     0.3125296  2.546      1         
481.6      13.131     0.3200847  2.611      1         
481.7      12.732     0.3392152  2.723      1         
481.8      12.33      0.3474483  2.86       0.98638   
481.9      11.938     0.3336678  3.052      0.8713816 
482        11.544     0.3326435  3.173      0.7682689 
482.1      11.151     0.341333   3.302      0.6765275 
482.2      10.805     0.3529896  3.421      0.6039751 
482.3      10.531     0.3388642  3.526      0.5514601 
482.4      10.281     0.3272632  3.57       0.5070541 
482.5      10.023     0.3223419  3.468      0.4644906 
482.6      9.784      0.3262696  3.348      0.4278061 
482.7      9.628      0.3210491  3.228      0.4051812 
482.8      9.538      0.3207271  3.108      0.3925664 
482.9      9.517      0.3236429  2.988      0.3896311 
483        9.565      0.3285954  2.873      0.3961953 
483.1      9.74       0.3236429  2.814      0.4210522 
483.2      9.994      0.3178521  2.856      0.4594646 
483.3      10.318     0.3147044  2.917      0.512753  
483.4      10.66      0.3172186  2.986      0.5746874 
483.5      11.029     0.324624   3.046      0.6487499 
483.6      11.376     0.3343533  3.106      0.7259725 
483.7      11.708     0.3309473  3.165      0.8074579 
483.8      12.004     0.3119126  3.21       0.8869783 
483.9      12.219     0.2906146  3.193      0.9491038 
484        12.223     0.2775404  3.026      0.950137  
484.1      11.903     0.2717083  2.889      0.858601  
484.2      11.229     0.2697229  2.789      0.6916176 
484.3      10.336     0.2819734  2.789      0.5151286 
484.4      9.5        0.3082495  2.884      0.3865468 
484.5      9.048      0.3485455  3.024      0.3289377 
484.6      9.131      0.3816611  3.171      0.3389079 
484.7      9.636      0.4080647  3.378      0.4052321 
484.8      10.222     0.4216523  3.55       0.4953675 
484.9      10.527     0.4349467  3.626      0.5486398 
485        10.3       0.429753   3.485      0.5084221 
485.1      9.529      0.4142828  3.33       0.3901441 
485.2      8.419      0.3868031  3.128      0.2601779 
485.3      7.296      0.369277   2.918      0.1649877 
485.4      6.462      0.3625428  2.809      0.1118297 
485.5      6.103      0.3598268  2.806      0.09260894
485.6      6.277      0.353364   2.865      0.1016617 
485.7      6.875      0.3388642  2.913      0.136506  
485.8      7.701      0.3350411  2.94       0.1956987 
485.9      8.541      0.3420436  2.933      0.272278  
486        9.244      0.354868   2.853      0.3522997 
486.1      9.713      0.3526158  2.69       0.4154499 
486.2      9.952      0.3357312  2.594      0.4510414 
486.3      10.031     0.3184875  2.534      0.4633123 
486.4      10.071     0.3079473  2.478      0.4695996 
486.5      10.141     0.3031729  2.464      0.4808257 
486.6      10.287     0.2979367  2.506      0.5050523 
486.7      10.495     0.2965068  2.561      0.5414036 
486.8      10.726     0.3022904  2.566      0.5844176 
486.9      10.949     0.3159576  2.518      0.6287422 
487        11.187     0.3275955  2.408      0.6793004 
487.1      11.479     0.3326435  2.386      0.7462791 
487.2      11.82      0.3385138  2.347      0.8319933 
487.3      12.165     0.3449094  2.318      0.9277222 
487.4      12.429     0.3503864  2.302      1         
487.5      12.533     0.3399188  2.323      1         
487.6      12.459     0.3266003  2.354      1         
487.7      12.287     0.3172186  2.398      0.9633138 
487.8      12.141     0.3204057  2.476      0.919961  
487.9      12.096     0.3229913  2.539      0.9068602 
488        12.19      0.31533    2.631      0.9339359 
488.1      12.415     0.3043557  2.741      1         
488.2      12.677     0.3052475  2.858      1         
488.3      12.828     0.3236429  3.028      1         
488.4      12.765     0.3357312  3.106      1         
488.5      12.531     0.336077   3.163      1         
488.6      12.229     0.3312855  3.181      0.9444855 
488.7      12.018     0.3319634  3.088      0.8836335 
488.8      11.973     0.3326435  2.964      0.8710161 
488.9      12.126     0.3336678  2.804      0.9139282 
489        12.325     0.3269315  2.643      0.9726838 
489.1      12.397     0.3223419  2.483      0.9946733 
489.2      12.223     0.3147044  2.423      0.9417458 
489.3      11.87      0.3106841  2.454      0.8423823 
489.4      11.434     0.3116048  2.495      0.7328933 
489.5      10.974     0.3204057  2.539      0.6314068 
489.6      10.51      0.3275955  2.528      0.5418332 
489.7      10.089     0.3200847  2.509      0.4703192 
489.8      9.774      0.3028783  2.5        0.4222087 
489.9      9.566      0.2884169  2.503      0.392742  
490        9.454      0.2835637  2.536      0.3775727 
490.1      9.416      0.288964   2.601      0.3725051 
490.2      9.457      0.2979367  2.713      0.3778729 
490.3      9.572      0.3125296  2.853      0.3933589 
490.4      9.746      0.3316242  3.075      0.4178095 
490.5      9.963      0.3556237  3.223      0.450079  
490.6      10.175     0.3762139  3.355      0.4836061 
490.7      10.267     0.3978823  3.503      0.4987629 
490.8      10.08      0.4226512  3.633      0.4681708 
490.9      9.526      0.4445602  3.762      0.3867792 
491        8.601      0.4483939  3.882      0.2768129 
491.1      7.432      0.4386441  4.002      0.1738844 
491.2      6.184      0.4287265  4.091      0.09627949
491.3      5.107      0.4266855  3.904      0.04844401
491.4      4.375      0.418679   3.741      0.0234477 
491.5      4.101      0.4033843  3.553      0.01536649
491.6      4.188      0.3889786  3.385      0.01786192
491.7      4.486      0.3889786  3.235      0.02690122
491.8      4.833      0.400618   3.085      0.03845151
491.9      5.247      0.4109155  2.933      0.05382916
492        5.831      0.3987907  2.768      0.07888681
492.1      6.686      0.3664801  2.652      0.124076  
492.2      7.751      0.3323032  2.571      0.1983831 
492.3      8.812      0.3125296  2.484      0.2988999 
492.4      9.619      0.3112974  2.423      0.3987507 
492.5      10.08      0.3213715  2.359      0.4670708 
492.6      10.307     0.3364235  2.349      0.5041514 
492.7      10.467     0.341688   2.34       0.531754  
492.8      10.615     0.3434718  2.341      0.5584309 
492.9      10.709     0.3378148  2.351      0.5759396 
493        10.702     0.3279283  2.361      0.5745289 
493.1      10.632     0.3191249  2.372      0.5613317 
493.2      10.594     0.3181695  2.391      0.5542426 
493.3      10.731     0.336077   2.401      0.5797839 
493.4      11.077     0.3590567  2.41       0.6490753 
493.5      11.508     0.375387   2.411      0.7456217 
493.6      11.772     0.3594414  2.42       0.8108865 
493.7      11.75      0.3188059  2.419      0.8051157 
493.8      11.524     0.2862445  2.409      0.7490882 
493.9      11.282     0.2840967  2.397      0.6930212 
494        11.158     0.3103782  2.368      0.6657259 
494.1      11.19      0.3445491  2.346      0.6725461 
494.2      11.377     0.3541147  2.306      0.7141855 
494.3      11.666     0.3463566  2.265      0.7831538 
494.4      11.998     0.3329844  2.216      0.8697883 
