~Version
 VERS              .         3.0                           : CWLS LOG ASCII STANDARD - VERSION 3.0
 WRAP              .         NO                            : ONE LINE PER DEPTH STEP
 DLM               .         SPACE                         : DELIMITING CHARACTER(SPACE TAB OR COMMA)
~Well Information
#_______________________________________________________________________________
#
#PARAMETER_NAME    .UNIT     VALUE                         : DESCRIPTION
#_______________________________________________________________________________
STRT               .м        0.1                           : First reference value
STOP               .м        937.7                         : Last reference value
STEP               .м        0.1                           : Step increment
NULL               .         -9999                         : Missing value
COMP               .                                       : Company
WELL               .         G-22                          : Well name
FLD                .         Каратобе                      : Field
LOC                .                                       : Location
SRVC               .                                       : Service Company
CTRY               .         KZ                            : Country
DATE               .         15.07.22                      : Service Date
X                  .                                       : X or East-West coordinate
Y                  .                                       : Y or North South coordinate
GDAT               .                                       : Geodetic Datum
HZCS               .                                       : Horizontal Co-ordinate System
CNTY               .         Казахстан                     : 
COUNTRY            .         KAZAKHSTAN                    : 
EREF               .m        139.4                         : 
ORIGINALWELLNAME   .         G-22_KARATYUBE_200            : 
PROV               .         AKTAU AREA                    : 
STAT               .                                       : 
UWI                .         Каратобе                      : 
~Parameter Information Block
#_______________________________________________________________________________
#
#PARAMETER_NAME    .UNIT     VALUE                         : DESCRIPTION
#_______________________________________________________________________________
SET                .         Las                           : 
GSDD               .         NPHI                          : NPHI,0,DEPT,,,,,0
TDD                .м        -999.250                      : Полная глубина по бурению
TDL                .м        896.5                         : Полная глубина по каротажу
TLFamily_GR        .         Russian Gamma Ray             : 
TLFamily_MD        .         Measured Depth                : 
TLFamily_NPHI      .         Neutron Porosity              : 
TLFamily_Resistivity .         Resistivity                   : 
TLFamily_VSH_GR    .         Shale Volume                  : 
~Curve Information
#_______________________________________________________________________________
#
#LOGNAME           .UNIT     LOG_ID                        : DESCRIPTION
#_______________________________________________________________________________
MD                 .м                                      : Колонка глубины {F}
GR                 .мкР/ч                                  : Гамма каротаж {F}
NPHI               .v/v                                    : Водородосодержание {F}
Resistivity        .OHMM                                   :  {F}
VSH_GR             .unitless                               : Shale volume fraction from Gamma Ray {F}
~Ascii
# ...
596.7      11.11      0.3137695  1.958      0.5648766 
596.8      11.143     0.3357312  1.933      0.5706055 
596.9      11.255     0.3470838  1.863      0.5906212 
597        11.464     0.3385138  1.794      0.6296961 
597.1      11.761     0.3143922  1.735      0.6891878 
597.2      12.076     0.2967919  1.692      0.7577186 
597.3      12.328     0.2875993  1.713      0.816866  
597.4      12.377     0.282502   1.738      0.8287376 
597.5      12.146     0.2760009  1.717      0.7734308 
597.6      11.664     0.2749818  1.686      0.6687173 
597.7      11.054     0.2777983  1.649      0.5543813 
597.8      10.457     0.2925586  1.639      0.4593482 
597.9      9.985      0.3100727  1.631      0.3943485 
598        9.77       0.3279283  1.643      0.3673601 
598.1      9.858      0.3336678  1.673      0.3781516 
598.2      10.254     0.3272632  1.706      0.4301777 
598.3      10.858     0.3200847  1.766      0.5210768 
598.4      11.583     0.3140806  1.826      0.6516915 
598.5      12.229     0.3049498  1.886      0.7916607 
598.6      12.593     0.2848993  1.945      0.8819007 
598.7      12.525     0.2634183  1.995      0.8642041 
598.8      12.097     0.2554998  2.041      0.7606789 
598.9      11.553     0.2573309  2.045      0.6453004 
599        11.166     0.2598805  1.995      0.5729421 
599.1      11.122     0.2550451  1.944      0.565116  
599.2      11.413     0.2534629  1.884      0.6180153 
599.3      11.939     0.2598805  1.822      0.7248969 
599.4      12.487     0.2747279  1.745      0.8536062 
599.5      12.916     0.2914454  1.695      0.9684711 
599.6      13.072     0.3106841  1.648      1         
599.7      12.939     0.338164   1.63       0.9747072 
599.8      12.499     0.3816611  1.635      0.8561145 
599.9      11.863     0.4302678  1.687      0.7078639 
600        11.134     0.4478429  1.765      0.5665192 
600.1      10.478     0.4226512  1.916      0.4610624 
600.2      9.894      0.3842182  2.077      0.3816792 
600.3      9.287      0.3641095  2.247      0.3114301 
600.4      8.481      0.3621528  2.418      0.2343029 
600.5      7.468      0.3652917  2.597      0.158397  
600.6      6.398      0.354491   2.748      0.09785235
600.7      5.566      0.3357312  2.72       0.06148338
600.8      5.278      0.3197643  2.616      0.05067816
600.9      5.723      0.3140806  2.47       0.06772444
601        6.851      0.3052475  2.281      0.1213218 
601.1      8.373      0.2922797  2.191      0.2250247 
601.2      9.901      0.2777983  2.103      0.3820913 
601.3      11.108     0.2770258  2.033      0.5609782 
601.4      11.824     0.2832977  1.963      0.6980523 
601.5      12.068     0.2892381  1.895      0.7510652 
601.6      12.003     0.2775404  1.848      0.7364635 
601.7      11.856     0.2571009  1.829      0.7045128 
601.8      11.796     0.2365636  1.822      0.691774  
601.9      11.875     0.2335413  1.842      0.7083502 
602        12.045     0.2455498  1.861      0.745354  
602.1      12.251     0.2665427  1.87       0.7925392 
602.2      12.46      0.2754907  1.868      0.8431547 
602.3      12.616     0.2747279  1.846      0.8827939 
602.4      12.646     0.2767691  1.805      0.8904958 
602.5      12.496     0.2840967  1.758      0.8517913 
602.6      12.2       0.2793529  1.737      0.7799966 
602.7      11.828     0.2638954  1.709      0.697572  
602.8      11.519     0.256642   1.701      0.6351158 
602.9      11.457     0.2684931  1.715      0.6231302 
603        11.761     0.2950874  1.764      0.6833079 
603.1      12.355     0.3094631  1.805      0.816187  
603.2      12.942     0.3022904  1.855      0.9701002 
603.3      13.21      0.2840967  1.905      1         
603.4      12.992     0.275236   1.956      0.9840648 
603.5      12.369     0.2848993  2.011      0.8190852 
603.6      11.595     0.3017043  2.02       0.6492331 
603.7      10.976     0.3097677  2.015      0.5367144 
603.8      10.706     0.3025841  1.965      0.4931846 
603.9      10.765     0.2906146  1.914      0.5023465 
604        10.967     0.2830321  1.855      0.534998  
604.1      11.096     0.2801352  1.805      0.5567667 
604.2      11.065     0.275236   1.757      0.5513739 
604.3      10.945     0.2722081  1.726      0.5311335 
604.4      10.868     0.2732119  1.697      0.5184639 
604.5      10.887     0.2870562  1.782      0.5214788 
604.6      10.97      0.3150169  2.005      0.5350652 
604.7      11.031     0.3378148  2.253      0.545224  
604.8      11.031     0.3326435  2.486      0.5451502 
604.9      10.909     0.3049498  2.745      0.5247885 
605        10.663     0.2848993  2.995      0.4857874 
605.1      10.282     0.2884169  3.25       0.4303021 
605.2      9.859      0.3025841  3.51       0.3750291 
605.3      9.476      0.3073442  3.398      0.3301361 
605.4      9.301      0.2973635  3.175      0.3110974 
605.5      9.464      0.2798741  2.921      0.3287277 
605.6      10.063     0.2677592  2.641      0.4006777 
605.7      10.988     0.2617584  2.465      0.5372702 
605.8      11.977     0.2643738  2.425      0.7262264 
605.9      12.68      0.2670283  2.476      0.894543  
606        12.876     0.2680035  2.536      0.9473122 
606.1      12.543     0.2665427  2.591      0.85891   
606.2      11.856     0.2646135  2.579      0.6999034 
606.3      11.065     0.260817   2.37       0.549805  
606.4      10.433     0.2534629  2.176      0.4508401 
606.5      10.124     0.2545915  2.035      0.4082246 
606.6      10.204     0.2636567  1.89       0.4188536 
606.7      10.599     0.2817097  1.798      0.4750247 
606.8      11.161     0.2900628  1.786      0.5659677 
606.9      11.657     0.2873276  1.846      0.6584458 
607        11.871     0.2707129  1.906      0.7022491 
607.1      11.664     0.2552723  1.957      0.6596538 
607.2      11.093     0.240266   1.917      0.5539106 
607.3      10.348     0.2379935  1.787      0.4382764 
607.4      9.673      0.2496801  1.663      0.3517487 
607.5      9.199      0.271459   1.595      0.2997157 
607.6      8.942      0.2827668  1.548      0.2741454 
607.7      8.795      0.2729604  1.53       0.2602843 
607.8      8.662      0.2589491  1.531      0.2482062 
607.9      8.517      0.2568713  1.541      0.2355259 
608        8.45       0.262705   1.553      0.2298194 
608.1      8.558      0.2680035  1.581      0.2390034 
608.2      8.865      0.2663004  1.591      0.2666566 
608.3      9.316      0.2702172  1.6        0.3116548 
608.4      9.845      0.2827668  1.6        0.3718681 
608.5      10.41      0.2982239  1.598      0.4463532 
608.6      10.972     0.2962221  1.576      0.5325284 
608.7      11.49      0.2798741  1.537      0.6243126 
608.8      11.903     0.2665427  1.509      0.7071734 
608.9      12.149     0.2770258  1.505      0.7610208 
609        12.2       0.2962221  1.556      0.772543  
609.1      12.096     0.3040594  1.616      0.7488723 
609.2      11.974     0.2931177  1.678      0.7219597 
609.3      11.974     0.28383    1.759      0.7218539 
609.4      12.152     0.2925586  1.852      0.7611341 
609.5      12.414     0.3011199  1.965      0.822515  
609.6      12.618     0.3043557  2.014      0.8733469 
609.7      12.632     0.2942408  2.052      0.8768114 
609.8      12.428     0.2848993  2.07       0.8255469 
609.9      12.073     0.2806585  2.07       0.7428718 
610        11.728     0.2767691  2.069      0.6697459 
610.1      11.559     0.2707129  2.06       0.6362813 
610.2      11.641     0.260817   2.059      0.6521901 
610.3      11.939     0.2584852  2.048      0.7132841 
610.4      12.303     0.2737158  2.028      0.7948542 
610.5      12.549     0.3005373  2.007      0.8546138 
610.6      12.473     0.3220179  1.978      0.8355631 
610.7      12.006     0.3137695  1.959      0.7273001 
610.8      11.221     0.2900628  1.948      0.5733665 
610.9      10.411     0.2770258  1.93       0.4451357 
611        9.902      0.2846314  1.931      0.3776954 
611.1      9.931      0.2979367  1.944      0.3812462 
611.2      10.407     0.2982239  1.985      0.4444    
