~Version
 VERS              .         3.0                           : CWLS LOG ASCII STANDARD - VERSION 3.0
 WRAP              .         NO                            : ONE LINE PER DEPTH STEP
 DLM               .         SPACE                         : DELIMITING CHARACTER(SPACE TAB OR COMMA)
~Well Information
#_______________________________________________________________________________
#
#PARAMETER_NAME    .UNIT     VALUE                         : DESCRIPTION
#_______________________________________________________________________________
STRT               .м        0.1                           : First reference value
STOP               .м        937.7                         : Last reference value
STEP               .м        0.1                           : Step increment
NULL               .         -9999                         : Missing value
COMP               .                                       : Company
WELL               .         G-22                          : Well name
FLD                .         Каратобе                      : Field
LOC                .                                       : Location
SRVC               .                                       : Service Company
CTRY               .         KZ                            : Country
DATE               .         15.07.22                      : Service Date
X                  .                                       : X or East-West coordinate
Y                  .                                       : Y or North South coordinate
GDAT               .                                       : Geodetic Datum
HZCS               .                                       : Horizontal Co-ordinate System
CNTY               .         Казахстан                     : 
COUNTRY            .         KAZAKHSTAN                    : 
EREF               .m        139.4                         : 
ORIGINALWELLNAME   .         G-22_KARATYUBE_200            : 
PROV               .         AKTAU AREA                    : 
STAT               .                                       : 
UWI                .         Каратобе                      : 
~Parameter Information Block
#_______________________________________________________________________________
#
#PARAMETER_NAME    .UNIT     VALUE                         : DESCRIPTION
#_______________________________________________________________________________
SET                .         Las                           : 
GSDD               .         NPHI                          : NPHI,0,DEPT,,,,,0
TDD                .м        -999.250                      : Полная глубина по бурению
TDL                .м        896.5                         : Полная глубина по каротажу
TLFamily_GR        .         Russian Gamma Ray             : 
TLFamily_MD        .         Measured Depth                : 
TLFamily_NPHI      .         Neutron Porosity              : 
TLFamily_Resistivity .         Resistivity                   : 
TLFamily_VSH_GR    .         Shale Volume                  : 
~Curve Information
#_______________________________________________________________________________
#
#LOGNAME           .UNIT     LOG_ID                        : DESCRIPTION
#_______________________________________________________________________________
MD                 .м                                      : Колонка глубины {F}
GR                 .мкР/ч                                  : Гамма каротаж {F}
NPHI               .v/v                                    : Водородосодержание {F}
Resistivity        .OHMM                                   :  {F}
VSH_GR             .unitless                               : Shale volume fraction from Gamma Ray {F}
~Ascii
# ...
421.5      13.686     0.2914454  -9999      1         
421.6      14.677     0.3100727  -9999      1         
421.7      15.451     0.3292647  -9999      1         
421.8      15.575     0.3302727  -9999      1         
421.9      14.979     0.3019971  -9999      1         
422        13.968     0.2739683  -9999      1         
422.1      13.156     0.256642   -9999      1         
422.2      13.027     0.2523415  -9999      1         
422.3      13.663     0.2527892  -9999      1         
422.4      14.65      0.2589491  -9999      1         
422.5      15.395     0.2727093  -9999      1         
422.6      15.451     0.2884169  -9999      1         
422.7      14.793     0.2959378  -9999      1         
422.8      13.759     0.2942408  -9999      1         
422.9      12.802     0.2897875  -9999      1         
423        12.195     0.2931177  -9999      1         
423.1      11.945     0.3046526  -9999      0.9667586 
423.2      11.898     0.3275955  -9999      0.9518487 
423.3      11.9       0.3474483  -9999      0.9523024 
423.4      11.922     0.3660832  -9999      0.9590062 
423.5      12.035     0.3749746  -9999      0.9948565 
423.6      12.304     0.3770438  -9999      1         
423.7      12.658     0.3680741  -9999      1         
423.8      12.951     0.3560026  -9999      1         
423.9      13.089     0.3385138  -9999      1         
424        13.058     0.3188059  -9999      1         
424.1      12.891     0.3031729  -9999      1         
424.2      12.592     0.3070433  -9999      1         
424.3      12.225     0.3223419  -9999      1         
424.4      11.826     0.3353859  -9999      0.9277051 
424.5      11.492     0.334697   -9999      0.8310083 
424.6      11.295     0.3233169  -9999      0.7783228 
424.7      11.326     0.3103782  -9999      0.7862539 
424.8      11.493     0.3094631  -9999      0.830857  
424.9      11.631     0.3262696  -9999      0.8694057 
425        11.552     0.3518702  -9999      0.8469153 
425.1      11.248     0.3556237  -9999      0.7656005 
425.2      10.801     0.3350411  -9999      0.6588364 
425.3      10.376     0.3169026  -9999      0.5698169 
425.4      10.098     0.3147044  -9999      0.5174285 
425.5      10.038     0.3319634  -9999      0.5066274 
425.6      10.158     0.3567622  -9999      0.5281917 
425.7      10.446     0.3684744  -9999      0.5833322 
425.8      10.908     0.3641095  -9999      0.682413  
425.9      11.542     0.350017   -9999      0.842822  
426        12.173     0.3470838  -9999      1         
426.1      12.584     0.3388642  -9999      1         
426.2      12.626     0.3306097  -9999      1         
426.3      12.367     0.3236429  -9999      1         
426.4      11.99      0.3194443  -9999      0.9752865 
426.5      11.729     0.3082495  -9999      0.8953677 
426.6      11.699     0.2990882  -9999      0.8864415 
426.7      11.82      0.3049498  -9999      0.9221399 
426.8      11.832     0.3226664  -9999      0.9256043 
426.9      11.504     0.3296002  -9999      0.8308955 
427        10.835     0.3289298  -9999      0.6645358 
427.1      10.085     0.341333   -9999      0.5137905 
427.2      9.608      0.3791314  -9999      0.4341334 
427.3      9.626      0.413799   -9999      0.4368725 
427.4      10.074     0.4167157  -9999      0.5115964 
427.5      10.674     0.3816611  -9999      0.6287793 
427.6      11.105     0.3463566  -9999      0.7269152 
427.7      11.204     0.3194443  -9999      0.7512062 
427.8      11.002     0.3088554  -9999      0.7020432 
427.9      10.686     0.3049498  -9999      0.630949  
428        10.473     0.3061434  -9999      0.5866723 
428.1      10.469     0.3150169  -9999      0.5857791 
428.2      10.631     0.3194443  -9999      0.6189768 
428.3      10.868     0.3112974  -9999      0.6705765 
428.4      11.162     0.2908911  -9999      0.7399066 
428.5      11.553     0.2777983  -9999      0.8421231 
428.6      12.046     0.2801352  -9999      0.989316  
428.7      12.532     0.2895126  -9999      1         
428.8      12.855     0.2950874  -9999      1         
428.9      12.925     0.2933979  -9999      1         
429        12.785     0.2922797  -9999      1         
429.1      12.582     0.3034679  -9999      1         
429.2      12.45      0.3134588  -9999      1         
429.3      12.408     0.3134588  -9999      1         
429.4      12.353     0.2996665  -9999      1         
429.5      12.151     0.2900628  -9999      1         
429.6      11.762     0.291723   -9999      0.9002199 
429.7      11.261     0.3052475  -9999      0.7630483 
429.8      10.797     0.3184875  -9999      0.6531425 
429.9      10.513     0.3216945  -9999      0.5930107 
430        10.478     0.3058443  -9999      0.5858698 
430.1      10.659     0.2814464  -9999      0.6230371 
430.2      10.978     0.2598805  -9999      0.6937115 
430.3      11.375     0.244693   -9999      0.7916446 
430.4      11.831     0.2474937  -9999      0.9194669 
430.5      12.287     0.2653345  -9999      1         
430.6      12.638     0.3005373  -9999      1         
430.7      12.762     0.3165871  -9999      1         
430.8      12.628     0.3025841  -9999      1         
430.9      12.276     0.2788333  -9999      1         
431        11.821     0.2770258  -9999      0.9155069 
431.1      11.401     0.3034679  -9999      0.7974069 
431.2      11.165     0.3388642  -9999      0.7372392 
431.3      11.185     0.3641095  -9999      0.7420419 
431.4      11.381     0.3594414  -9999      0.7917532 
431.5      11.564     0.3399188  -9999      0.8408523 
431.6      11.571     0.3143922  -9999      0.8426455 
431.7      11.398     0.3049498  -9999      0.7958135 
431.8      11.183     0.3106841  -9999      0.7409377 
431.9      11.075     0.3279283  -9999      0.7146235 
432        11.174     0.3357312  -9999      0.7384791 
432.1      11.45      0.337118   -9999      0.8090472 
432.2      11.815     0.334697   -9999      0.9117996 
432.3      12.09      0.336077   -9999      0.9969085 
432.4      12.197     0.3233169  -9999      1         
432.5      12.117     0.3109905  -9999      1         
432.6      11.942     0.2979367  -9999      0.9496447 
432.7      11.675     0.3005373  -9999      0.8702516 
432.8      11.321     0.3025841  -9999      0.7743765 
432.9      10.832     0.3085522  -9999      0.657649  
433        10.269     0.3082495  -9999      0.5428264 
433.1      9.733      0.3112974  -9999      0.4501015 
433.2      9.438      0.3106841  -9999      0.4050467 
433.3      9.52       0.3119126  -9999      0.4170994 
433.4      10.039     0.3088554  -9999      0.5009466 
433.5      10.87      0.3094631  -9999      0.6654748 
433.6      11.827     0.3103782  -9999      0.9131395 
433.7      12.653     0.3150169  -9999      1         
433.8      13.158     0.31533    -9999      1         
433.9      13.28      0.3116048  -9999      1         
434        13.092     0.3052475  -9999      1         
434.1      12.757     0.2987997  -9999      1         
434.2      12.442     0.3002466  -9999      1         
434.3      12.344     0.2962221  -9999      1         
434.4      12.524     0.2884169  -9999      1         
434.5      12.895     0.2699699  -9999      1         
434.6      13.183     0.2598805  -9999      1         
434.7      13.167     0.260817   -9999      1         
434.8      12.739     0.2707129  -9999      1         
434.9      12.01      0.2801352  -9999      0.9669    
435        11.202     0.2870562  -9999      0.741717  
435.1      10.558     0.3046526  -9999      0.5973614 
435.2      10.167     0.3282616  -9999      0.5223228 
435.3      9.941      0.3452703  -9999      0.4827599 
435.4      9.727      0.3485455  -9999      0.4476848 
435.5      9.414      0.3474483  -9999      0.4002942 
435.6      9.018      0.354868   -9999      0.3463719 
435.7      8.655      0.3560026  -9999      0.3022469 
435.8      8.509      0.3526158  -9999      0.2857861 
435.9      8.688      0.3478134  -9999      0.3059825 
436        9.177      0.3441894  2.29       0.3670429 
