~Version
 VERS              .         3.0                           : CWLS LOG ASCII STANDARD - VERSION 3.0
 WRAP              .         NO                            : ONE LINE PER DEPTH STEP
 DLM               .         SPACE                         : DELIMITING CHARACTER(SPACE TAB OR COMMA)
~Well Information
#_______________________________________________________________________________
#
#PARAMETER_NAME    .UNIT     VALUE                         : DESCRIPTION
#_______________________________________________________________________________
STRT               .м        0.1                           : First reference value
STOP               .м        937.7                         : Last reference value
STEP               .м        0.1                           : Step increment
NULL               .         -9999                         : Missing value
COMP               .                                       : Company
WELL               .         G-22                          : Well name
FLD                .         Каратобе                      : Field
LOC                .                                       : Location
SRVC               .                                       : Service Company
CTRY               .         KZ                            : Country
DATE               .         15.07.22                      : Service Date
X                  .                                       : X or East-West coordinate
Y                  .                                       : Y or North South coordinate
GDAT               .                                       : Geodetic Datum
HZCS               .                                       : Horizontal Co-ordinate System
CNTY               .         Казахстан                     : 
COUNTRY            .         KAZAKHSTAN                    : 
EREF               .m        139.4                         : 
ORIGINALWELLNAME   .         G-22_KARATYUBE_200            : 
PROV               .         AKTAU AREA                    : 
STAT               .                                       : 
UWI                .         Каратобе                      : 
~Parameter Information Block
#_______________________________________________________________________________
#
#PARAMETER_NAME    .UNIT     VALUE                         : DESCRIPTION
#_______________________________________________________________________________
SET                .         Las                           : 
GSDD               .         NPHI                          : NPHI,0,DEPT,,,,,0
TDD                .м        -999.250                      : Полная глубина по бурению
TDL                .м        896.5                         : Полная глубина по каротажу
TLFamily_GR        .         Russian Gamma Ray             : 
TLFamily_MD        .         Measured Depth                : 
TLFamily_NPHI      .         Neutron Porosity              : 
TLFamily_Resistivity .         Resistivity                   : 
TLFamily_VSH_GR    .         Shale Volume                  : 
~Curve Information
#_______________________________________________________________________________
#
#LOGNAME           .UNIT     LOG_ID                        : DESCRIPTION
#_______________________________________________________________________________
MD                 .м                                      : Колонка глубины {F}
GR                 .мкР/ч                                  : Гамма каротаж {F}
NPHI               .v/v                                    : Водородосодержание {F}
Resistivity        .OHMM                                   :  {F}
VSH_GR             .unitless                               : Shale volume fraction from Gamma Ray {F}
~Ascii
# ...
246.3      6.158      0.277283   -9999      0.1210342 
246.4      5.937      0.2848993  -9999      0.1062597 
246.5      5.704      0.3055457  -9999      0.09184261
246.6      5.406      0.3256098  -9999      0.07499737
246.7      5.013      0.3392152  -9999      0.05524247
246.8      4.539      0.3326435  -9999      0.03467677
246.9      4.059      0.3233169  -9999      0.01696893
247        3.682      0.3076455  -9999      0.0049517 
247.1      3.509      0.2990882  -9999      0         
247.2      3.566      0.2970775  -9999      0.001553343
247.3      3.775      0.3070433  -9999      0.00777265
247.4      4.009      0.3204057  -9999      0.0152792 
247.5      4.201      0.3323032  -9999      0.0218986 
247.6      4.36       0.3357312  -9999      0.02771528
247.7      4.531      0.3282616  -9999      0.03433061
247.8      4.693      0.3162721  -9999      0.04096083
247.9      4.79       0.3125296  -9999      0.04510666
248        4.771      0.3279283  -9999      0.04427909
248.1      4.661      0.353364   -9999      0.03961099
248.2      4.537      0.3684744  -9999      0.03455488
248.3      4.498      0.3474483  -9999      0.03300636
248.4      4.591      0.3150169  -9999      0.03672268
248.5      4.785      0.2931177  -9999      0.04486514
248.6      4.983      0.3008284  -9999      0.05374552
248.7      5.139      0.3266003  -9999      0.06117227
248.8      5.279      0.354491   -9999      0.06817839
248.9      5.504      0.3652917  -9999      0.08016106
249        5.891      0.3637169  -9999      0.103038  
249.1      6.462      0.3503864  -9999      0.1427774 
249.2      7.094      0.3266003  -9999      0.1967248 
249.3      7.616      0.3061434  -9999      0.2508629 
249.4      7.911      0.3052475  -9999      0.2859486 
249.5      8.039      0.3223419  -9999      0.3022711 
249.6      8.156      0.3388642  -9999      0.3178158 
249.7      8.37       0.3388642  -9999      0.347925  
249.8      8.68       0.3333258  -9999      0.3956157 
249.9      8.985      0.3378148  -9999      0.447676  
250        9.237      0.3605995  -9999      0.4949151 
250.1      9.485      0.3960753  -9999      0.5454987 
250.2      9.863      0.4167157  -9999      0.6312861 
250.3      10.415     0.4090114  -9999      0.77807   
250.4      11.061     0.3787124  -9999      0.9885814 
250.5      11.619     0.3474483  -9999      1         
250.6      11.935     0.3312855  -9999      1         
250.7      11.939     0.3269315  -9999      1         
250.8      11.731     0.3445491  -9999      1         
250.9      11.476     0.354491   -9999      1         
251        11.273     0.3507564  -9999      1         
251.1      11.056     0.3223419  -9999      0.9853708 
251.2      10.74      0.2993772  -9999      0.8767713 
251.3      10.352     0.2936784  -9999      0.7584577 
251.4      9.994      0.3100727  -9999      0.662275  
251.5      9.758      0.3374661  -9999      0.6049337 
251.6      9.655      0.3537391  -9999      0.5812567 
251.7      9.673      0.3594414  -9999      0.5852153 
251.8      9.768      0.3637169  -9999      0.6069468 
251.9      9.917      0.3791314  -9999      0.6425214 
252        10.118     0.3889786  -9999      0.6934703 
252.1      10.398     0.3820854  -9999      0.7705045 
252.2      10.739     0.3712958  -9999      0.8747348 
252.3      11.052     0.3629335  -9999      0.9815423 
252.4      11.24      0.3613748  -9999      1         
252.5      11.265     0.3567622  -9999      1         
252.6      11.201     0.3507564  -9999      1         
252.7      11.145     0.3489124  -9999      1         
252.8      11.154     0.3478134  -9999      1         
252.9      11.183     0.353364   -9999      1         
253        11.158     0.3609868  -9999      1         
253.1      11.024     0.3680741  -9999      0.9699423 
253.2      10.821     0.3680741  -9999      0.8999083 
253.3      10.609     0.3586727  -9999      0.8317538 
253.4      10.45      0.3438303  -9999      0.7837263 
253.5      10.349     0.3367704  -9999      0.7544885 
253.6      10.28      0.3378148  -9999      0.7350423 
253.7      10.23      0.3503864  -9999      0.7211986 
253.8      10.235     0.3459939  -9999      0.7224256 
253.9      10.372     0.3431138  -9999      0.7604555 
254        10.657     0.3470838  -9999      0.845576  
254.1      11.01      0.3737419  -9999      0.9630349 
254.2      11.244     0.3983361  -9999      1         
254.3      11.229     0.4071215  -9999      1         
254.4      10.975     0.4047792  -9999      0.9501669 
254.5      10.671     0.3920578  -9999      0.8491579 
254.6      10.528     0.374563   -9999      0.8050442 
254.7      10.64      0.353364   -9999      0.8391238 
254.8      10.922     0.3388642  -9999      0.9310918 
254.9      11.202     0.3262696  -9999      1         
255        11.358     0.3156435  -9999      1         
255.1      11.37      0.3052475  -9999      1         
255.2      11.339     0.2996665  -9999      1         
255.3      11.354     0.2987997  -9999      1         
255.4      11.454     0.3017043  -9999      1         
255.5      11.496     0.3064429  -9999      1         
255.6      11.365     0.3070433  -9999      1         
255.7      11.019     0.3064429  -9999      0.9631267 
255.8      10.604     0.3052475  -9999      0.8262337 
255.9      10.217     0.3103782  -9999      0.7147734 
256        9.924      0.3140806  -9999      0.6395496 
256.1      9.722      0.3159576  -9999      0.5918351 
256.2      9.615      0.3150169  -9999      0.5678074 
256.3      9.581      0.3252807  -9999      0.5602884 
256.4      9.629      0.3388642  -9999      0.5706925 
256.5      9.805      0.3456318  -9999      0.6105735 
256.6      10.12      0.3350411  -9999      0.6882048 
256.7      10.483     0.3188059  -9999      0.7885076 
256.8      10.779     0.2999564  -9999      0.8798347 
256.9      10.966     0.2830321  -9999      0.9423256 
257        11.116     0.2806585  -9999      0.9953249 
257.1      11.27      0.3017043  -9999      1         
257.2      11.466     0.3420436  -9999      1         
257.3      11.627     0.3696794  -9999      1         
257.4      11.69      0.3737419  -9999      1         
257.5      11.508     0.3621528  -9999      1         
257.6      11.087     0.3537391  -9999      0.9836427 
257.7      10.509     0.3485455  -9999      0.7946775 
257.8      10.015     0.3445491  -9999      0.6599467 
257.9      9.739      0.3399188  -9999      0.5938548 
258        9.722      0.334697   -9999      0.589886  
258.1      9.839      0.3259394  -9999      0.6168357 
258.2      9.935      0.3220179  -9999      0.6397291 
258.3      9.897      0.3213715  -9999      0.6304238 
258.4      9.722      0.3319634  -9999      0.5894771 
258.5      9.531      0.3431138  -9999      0.5474791 
258.6      9.441      0.3481792  -9999      0.5285637 
258.7      9.485      0.3459939  -9999      0.5376037 
258.8      9.531      0.3343533  -9999      0.5472007 
258.9      9.421      0.3216945  -9999      0.5241945 
259        9.118      0.3103782  -9999      0.4652215 
259.1      8.793      0.3088554  -9999      0.4083306 
259.2      8.714      0.3200847  -9999      0.3953732 
259.3      9.026      0.3279283  -9999      0.4482843 
259.4      9.709      0.336077   -9999      0.5855248 
259.5      10.54      0.3378148  -9999      0.8011556 
259.6      11.24      0.3474483  -9999      1         
259.7      11.518     0.3518702  -9999      1         
259.8      11.316     0.3449094  -9999      1         
259.9      10.764     0.3343533  -9999      0.8697211 
260        10.141     0.3292647  -9999      0.6894153 
260.1      9.647      0.3438303  -9999      0.571031  
260.2      9.399      0.357143   -9999      0.5185874 
260.3      9.367      0.3688754  -9999      0.5120606 
260.4      9.46       0.3668776  -9999      0.5308825 
260.5      9.525      0.3656872  -9999      0.5443602 
260.6      9.472      0.3594414  -9999      0.5331861 
260.7      9.264      0.3481792  -9999      0.4914729 
260.8      8.994      0.3438303  -9999      0.4415378 
