~Version
 VERS              .         3.0                           : CWLS LOG ASCII STANDARD - VERSION 3.0
 WRAP              .         NO                            : ONE LINE PER DEPTH STEP
 DLM               .         SPACE                         : DELIMITING CHARACTER(SPACE TAB OR COMMA)
~Well Information
#_______________________________________________________________________________
#
#PARAMETER_NAME    .UNIT     VALUE                         : DESCRIPTION
#_______________________________________________________________________________
STRT               .м        0.1                           : First reference value
STOP               .м        937.7                         : Last reference value
STEP               .м        0.1                           : Step increment
NULL               .         -9999                         : Missing value
COMP               .                                       : Company
WELL               .         G-22                          : Well name
FLD                .         Каратобе                      : Field
LOC                .                                       : Location
SRVC               .                                       : Service Company
CTRY               .         KZ                            : Country
DATE               .         15.07.22                      : Service Date
X                  .                                       : X or East-West coordinate
Y                  .                                       : Y or North South coordinate
GDAT               .                                       : Geodetic Datum
HZCS               .                                       : Horizontal Co-ordinate System
CNTY               .         Казахстан                     : 
COUNTRY            .         KAZAKHSTAN                    : 
EREF               .m        139.4                         : 
ORIGINALWELLNAME   .         G-22_KARATYUBE_200            : 
PROV               .         AKTAU AREA                    : 
STAT               .                                       : 
UWI                .         Каратобе                      : 
~Parameter Information Block
#_______________________________________________________________________________
#
#PARAMETER_NAME    .UNIT     VALUE                         : DESCRIPTION
#_______________________________________________________________________________
SET                .         Las                           : 
GSDD               .         NPHI                          : NPHI,0,DEPT,,,,,0
TDD                .м        -999.250                      : Полная глубина по бурению
TDL                .м        896.5                         : Полная глубина по каротажу
TLFamily_GR        .         Russian Gamma Ray             : 
TLFamily_MD        .         Measured Depth                : 
TLFamily_NPHI      .         Neutron Porosity              : 
TLFamily_Resistivity .         Resistivity                   : 
TLFamily_VSH_GR    .         Shale Volume                  : 
~Curve Information
#_______________________________________________________________________________
#
#LOGNAME           .UNIT     LOG_ID                        : DESCRIPTION
#_______________________________________________________________________________
MD                 .м                                      : Колонка глубины {F}
GR                 .мкР/ч                                  : Гамма каротаж {F}
NPHI               .v/v                                    : Водородосодержание {F}
Resistivity        .OHMM                                   :  {F}
VSH_GR             .unitless                               : Shale volume fraction from Gamma Ray {F}
~Ascii
# ...
304.7      10.588     0.3605995  -9999      0.7500936 
304.8      11.078     0.3378148  -9999      0.8941759 
304.9      11.564     0.3122209  -9999      1         
305        11.918     0.2987997  -9999      1         
305.1      12.069     0.2942408  -9999      1         
305.2      12.035     0.2892381  -9999      1         
305.3      11.937     0.2765127  -9999      1         
305.4      11.88      0.2665427  -9999      1         
305.5      11.865     0.2634183  -9999      1         
305.6      11.77      0.2653345  -9999      1         
305.7      11.487     0.2704649  -9999      1         
305.8      10.995     0.2765127  -9999      0.866472  
305.9      10.35      0.288964   -9999      0.6864708 
306        9.641      0.3061434  -9999      0.5277513 
306.1      8.993      0.3316242  -9999      0.4115114 
306.2      8.571      0.3633248  -9999      0.3479781 
306.3      8.454      0.391174   -9999      0.3318238 
306.4      8.562      0.4019972  -9999      0.346618  
306.5      8.732      0.3907334  -9999      0.3710082 
306.6      8.863      0.3721083  -9999      0.3907277 
306.7      8.967      0.3594414  -9999      0.4069765 
306.8      9.09       0.3586727  -9999      0.4269232 
306.9      9.289      0.3594414  -9999      0.4609665 
307        9.594      0.3478134  -9999      0.5176407 
307.1      9.996      0.3204057  -9999      0.6014748 
307.2      10.426     0.2973635  -9999      0.7041333 
307.3      10.801     0.292838   -9999      0.8061196 
307.4      11.083     0.3037634  -9999      0.891376  
307.5      11.262     0.324624   -9999      0.9496123 
307.6      11.327     0.3420436  -9999      0.9714885 
307.7      11.259     0.3594414  -9999      0.9482407 
307.8      11.056     0.3688754  -9999      0.8821911 
307.9      10.772     0.3721083  -9999      0.7968967 
308        10.5       0.3664801  -9999      0.722286  
308.1      10.411     0.34928    -9999      0.6991934 
308.2      10.581     0.3326435  -9999      0.7435105 
308.3      10.994     0.3197643  -9999      0.8621193 
308.4      11.434     0.3156435  -9999      1         
308.5      11.766     0.3150169  -9999      1         
308.6      11.84      0.3134588  -9999      1         
308.7      11.622     0.3178521  -9999      1         
308.8      11.078     0.3262696  -9999      0.8874469 
308.9      10.395     0.3445491  -9999      0.6941595 
309        9.818      0.3641095  -9999      0.5611987 
309.1      9.573      0.3729237  -9999      0.5118224 
309.2      9.663      0.3688754  -9999      0.5293868 
309.3      9.963      0.354868   -9999      0.5919787 
309.4      10.265     0.3503864  -9999      0.6614413 
309.5      10.388     0.3441894  -9999      0.6916659 
309.6      10.242     0.3388642  -9999      0.6556739 
309.7      9.916      0.3374661  -9999      0.581364  
309.8      9.599      0.3445491  -9999      0.5162872 
309.9      9.44       0.354491   -9999      0.4860522 
310        9.432      0.341688   -9999      0.4844996 
310.1      9.464      0.3236429  -9999      0.4903491 
310.2      9.467      0.3103782  -9999      0.4908303 
310.3      9.494      0.3236429  -9999      0.4958037 
310.4      9.694      0.341333   -9999      0.534543  
310.5      10.179     0.3481792  -9999      0.6397266 
310.6      10.939     0.3326435  -9999      0.8417707 
310.7      11.808     0.3162721  -9999      1         
310.8      12.546     0.3128389  -9999      1         
310.9      12.981     0.3207271  -9999      1         
311        13.107     0.3302727  -9999      1         
311.1      13.054     0.3275955  -9999      1         
311.2      12.988     0.3156435  -9999      1         
311.3      13.009     0.2990882  -9999      1         
311.4      13.117     0.2873276  -9999      1         
311.5      13.168     0.2851675  -9999      1         
311.6      12.999     0.2982239  -9999      1         
311.7      12.527     0.3249521  -9999      1         
311.8      11.888     0.3503864  -9999      1         
311.9      11.284     0.3605995  -9999      0.9489722 
312        10.895     0.3485455  -9999      0.8265228 
312.1      10.76      0.3392152  -9999      0.7874262 
312.2      10.87      0.3319634  -9999      0.818879  
312.3      11.151     0.3445491  -9999      0.9047276 
312.4      11.533     0.357143   -9999      1         
312.5      11.974     0.3704862  -9999      1         
312.6      12.593     0.3556237  -9999      1         
312.7      13.586     0.3374661  -9999      1         
312.8      15.022     0.3239694  -9999      1         
312.9      16.731     0.3296002  -9999      1         
313        18.417     0.3406247  -9999      1         
313.1      19.869     0.3594414  -9999      1         
313.2      20.97      0.3708907  -9999      1         
313.3      21.737     0.3733324  -9999      1         
313.4      22.248     0.3579066  -9999      1         
313.5      22.615     0.3353859  -9999      1         
313.6      22.757     0.3109905  -9999      1         
313.7      22.535     0.2925586  -9999      1         
313.8      21.908     0.2840967  -9999      1         
313.9      21.11      0.2840967  -9999      1         
314        20.428     0.2851675  -9999      1         
314.1      20.065     0.2870562  -9999      1         
314.2      19.993     0.2832977  -9999      1         
314.3      20.044     0.2811834  -9999      1         
314.4      19.924     0.2757457  -9999      1         
314.5      19.429     0.2765127  -9999      1         
314.6      18.478     0.2809208  -9999      1         
314.7      17.238     0.2892381  -9999      1         
314.8      15.963     0.2996665  -9999      1         
314.9      14.974     0.3150169  -9999      1         
315        14.487     0.3275955  -9999      1         
315.1      14.621     0.3279283  -9999      1         
315.2      15.303     0.3040594  -9999      1         
315.3      16.294     0.278315   -9999      1         
315.4      17.187     0.2624679  -9999      1         
315.5      17.611     0.2682481  -9999      1         
315.6      17.328     0.28383    -9999      1         
315.7      16.354     0.2965068  -9999      1         
315.8      14.901     0.3076455  -9999      1         
315.9      13.363     0.3249521  -9999      1         
316        12.168     0.353364   -9999      1         
316.1      11.595     0.3672757  -9999      1         
316.2      11.706     0.3725156  -9999      1         
316.3      12.32      0.3668776  -9999      1         
316.4      13.193     0.3602127  -9999      1         
316.5      14.013     0.3402715  -9999      1         
316.6      14.61      0.3252807  -9999      1         
316.7      14.86      0.3266003  -9999      1         
316.8      14.829     0.338164   -9999      1         
316.9      14.592     0.3388642  -9999      1         
317        14.29      0.3259394  -9999      1         
317.1      13.973     0.3175351  -9999      1         
317.2      13.698     0.3242964  -9999      1         
317.3      13.417     0.3409786  -9999      1         
317.4      13.071     0.3514983  -9999      1         
317.5      12.578     0.3556237  -9999      1         
317.6      12.032     0.3503864  -9999      1         
317.7      11.551     0.3474483  -9999      1         
317.8      11.234     0.3434718  -9999      0.9219847 
317.9      11.022     0.3463566  -9999      0.8553256 
318        10.88      0.3445491  -9999      0.813123  
318.1      10.731     0.3364235  -9999      0.7708921 
318.2      10.58      0.3191249  -9999      0.730132  
318.3      10.451     0.3052475  -9999      0.6968414 
318.4      10.481     0.3058443  -9999      0.7043072 
318.5      10.77      0.3200847  -9999      0.7811486 
318.6      11.364     0.3420436  -9999      0.9635952 
318.7      12.164     0.353364   -9999      1         
318.8      12.974     0.3514983  -9999      1         
318.9      13.564     0.3427565  -9999      1         
319        13.814     0.337118   -9999      1         
319.1      13.771     0.3340102  -9999      1         
319.2      13.566     0.3329844  -9999      1         
