~Version
 VERS              .         3.0                           : CWLS LOG ASCII STANDARD - VERSION 3.0
 WRAP              .         NO                            : ONE LINE PER DEPTH STEP
 DLM               .         SPACE                         : DELIMITING CHARACTER(SPACE TAB OR COMMA)
~Well Information
#_______________________________________________________________________________
#
#PARAMETER_NAME    .UNIT     VALUE                         : DESCRIPTION
#_______________________________________________________________________________
STRT               .м        0.1                           : First reference value
STOP               .м        937.7                         : Last reference value
STEP               .м        0.1                           : Step increment
NULL               .         -9999                         : Missing value
COMP               .                                       : Company
WELL               .         G-22                          : Well name
FLD                .         Каратобе                      : Field
LOC                .                                       : Location
SRVC               .                                       : Service Company
CTRY               .         KZ                            : Country
DATE               .         15.07.22                      : Service Date
X                  .                                       : X or East-West coordinate
Y                  .                                       : Y or North South coordinate
GDAT               .                                       : Geodetic Datum
HZCS               .                                       : Horizontal Co-ordinate System
CNTY               .         Казахстан                     : 
COUNTRY            .         KAZAKHSTAN                    : 
EREF               .m        139.4                         : 
ORIGINALWELLNAME   .         G-22_KARATYUBE_200            : 
PROV               .         AKTAU AREA                    : 
STAT               .                                       : 
UWI                .         Каратобе                      : 
~Parameter Information Block
#_______________________________________________________________________________
#
#PARAMETER_NAME    .UNIT     VALUE                         : DESCRIPTION
#_______________________________________________________________________________
SET                .         Las                           : 
GSDD               .         NPHI                          : NPHI,0,DEPT,,,,,0
TDD                .м        -999.250                      : Полная глубина по бурению
TDL                .м        896.5                         : Полная глубина по каротажу
TLFamily_GR        .         Russian Gamma Ray             : 
TLFamily_MD        .         Measured Depth                : 
TLFamily_NPHI      .         Neutron Porosity              : 
TLFamily_Resistivity .         Resistivity                   : 
TLFamily_VSH_GR    .         Shale Volume                  : 
~Curve Information
#_______________________________________________________________________________
#
#LOGNAME           .UNIT     LOG_ID                        : DESCRIPTION
#_______________________________________________________________________________
MD                 .м                                      : Колонка глубины {F}
GR                 .мкР/ч                                  : Гамма каротаж {F}
NPHI               .v/v                                    : Водородосодержание {F}
Resistivity        .OHMM                                   :  {F}
VSH_GR             .unitless                               : Shale volume fraction from Gamma Ray {F}
~Ascii
# ...
830.3      7.437      0.3150169  2.407      0.2717678 
830.4      7.604      0.3058443  2.375      0.2895902 
830.5      7.662      0.2948048  2.325      0.2959028 
830.6      7.63       0.3019971  2.273      0.2924121 
830.7      7.608      0.3262696  2.205      0.2900235 
830.8      7.636      0.3541147  2.157      0.2930651 
830.9      7.749      0.3586727  2.128      0.3054924 
831        7.875      0.3503864  2.115      0.3196418 
831.1      7.955      0.3452703  2.164      0.3287887 
831.2      7.918      0.3511271  2.205      0.3245423 
831.3      7.791      0.3507564  2.256      0.3101743 
831.4      7.632      0.3333258  2.316      0.2926297 
831.5      7.519      0.3140806  2.376      0.280454  
831.6      7.479      0.3055457  2.427      0.2762012 
831.7      7.474      0.3184875  2.392      0.2756717 
831.8      7.478      0.3423997  2.316      0.2760953 
831.9      7.484      0.3489124  2.276      0.2767312 
832        7.546      0.3200847  2.235      0.2833414 
832.1      7.685      0.2822375  2.185      0.2984238 
832.2      7.927      0.2663004  2.136      0.3255727 
832.3      8.216      0.2790929  2.095      0.3595352 
832.4      8.455      0.2976499  2.05       0.3889472 
832.5      8.5        0.3067429  2.057      0.3946238 
832.6      8.32       0.3088554  2.128      0.3721829 
832.7      7.989      0.3162721  2.212      0.3327149 
832.8      7.659      0.3249521  2.329      0.2955747 
832.9      7.433      0.3275955  2.416      0.2713473 
833        7.37       0.3306097  2.469      0.2647624 
833.1      7.457      0.3364235  2.444      0.2738749 
833.2      7.645      0.3399188  2.287      0.2940459 
833.3      7.845      0.3306097  2.176      0.3162445 
833.4      7.986      0.3181695  2.24       0.3323675 
833.5      8.002      0.3112974  2.339      0.3342223 
833.6      7.857      0.31533    2.425      0.3176013 
833.7      7.546      0.3223419  2.46       0.2833414 
833.8      7.115      0.3220179  2.361      0.2388379 
833.9      6.645      0.3137695  2.27       0.19398   
834        6.23       0.3034679  2.17       0.1573214 
834.1      5.96       0.2942408  2.071      0.1348598 
834.2      5.899      0.2840967  1.98       0.1299303 
834.3      6.077      0.2722081  1.884      0.1444631 
834.4      6.467      0.2615226  1.836      0.1779304 
834.5      6.96       0.2638954  1.898      0.2236353 
834.6      7.41       0.2724586  1.98       0.2689348 
834.7      7.664      0.2798741  2.08       0.2961216 
834.8      7.699      0.2814464  2.179      0.2999632 
834.9      7.536      0.2870562  2.277      0.2822703 
835        7.303      0.2990882  2.433      0.2578386 
835.1      7.041      0.3055457  2.454      0.2315286 
835.2      6.786      0.3076455  2.394      0.2070526 
835.3      6.468      0.3103782  2.336      0.1780192 
835.4      6.099      0.3213715  2.303      0.1462909 
835.5      5.759      0.3200847  2.34       0.1188133 
835.6      5.617      0.3097677  2.438      0.107812  
835.7      5.752      0.2925586  2.518      0.1182645 
835.8      6.081      0.291168   2.594      0.1447949 
835.9      6.413      0.2982239  2.621      0.1731593 
836        6.563      0.3122209  2.536      0.1865243 
836.1      6.447      0.3165871  2.495      0.176158  
836.2      6.069      0.3150169  2.445      0.1438002 
836.3      5.539      0.3116048  2.396      0.1018842 
836.4      5.027      0.31533    2.355      0.06491676
836.5      4.674      0.3275955  2.306      0.0412891 
836.6      4.564      0.3319634  2.265      0.03421937
836.7      4.698      0.3175351  2.215      0.04284977
836.8      5.062      0.291168   2.165      0.06733985
836.9      5.561      0.2729604  2.117      0.1035479 
837        6.087      0.2742211  2.087      0.1452931 
837.1      6.504      0.2878715  2.058      0.1812256 
837.2      6.745      0.3058443  2.036      0.2032181 
837.3      6.792      0.3169026  1.998      0.2076161 
837.4      6.681      0.3223419  1.978      0.1972872 
837.5      6.478      0.3216945  1.958      0.1789078 
837.6      6.269      0.3256098  1.939      0.1606544 
837.7      6.156      0.3266003  1.929      0.1510595 
837.8      6.21       0.3279283  1.923      0.155621  
837.9      6.453      0.3223419  1.952      0.1766891 
838        6.864      0.31533    1.972      0.214424  
838.1      7.368      0.3055457  1.995      0.2645546 
838.2      7.87       0.2843639  2.045      0.3190743 
838.3      8.252      0.2612871  2.095      0.3638873 
838.4      8.449      0.2427813  2.145      0.3881938 
838.5      8.44       0.2417286  2.192      0.3870649 
838.6      8.285      0.2525652  2.206      0.3679008 
838.7      8.104      0.2665427  2.163      0.3461693 
838.8      8.055      0.2722081  2.094      0.3404035 
838.9      8.217      0.2717083  2.049      0.3596558 
839        8.524      0.2754907  2.144      0.3976696 
839.1      8.799      0.282502   2.295      0.4334968 
839.2      8.854      0.2920012  2.534      0.4408712 
839.3      8.58       0.3028783  2.673      0.4048264 
839.4      7.99       0.3119126  2.802      0.3328308 
839.5      7.217      0.3134588  2.918      0.2490693 
839.6      6.477      0.3028783  2.983      0.1788189 
839.7      5.943      0.2897875  2.911      0.1334807 
839.8      5.707      0.2780565  2.821      0.1147529 
839.9      5.759      0.2780565  2.73       0.1188133 
840        6.044      0.2914454  2.63       0.1417346 
840.1      6.462      0.2908911  2.532      0.1774867 
840.2      6.861      0.2827668  2.453      0.2141386 
840.3      7.096      0.2788333  2.38       0.2369522 
840.4      7.116      0.2914454  2.279      0.2389374 
840.5      7.007      0.3064429  2.176      0.2282017 
840.6      6.899      0.3236429  2.144      0.2177644 
840.7      6.895      0.3204057  2.185      0.2173816 
840.8      6.974      0.3040594  2.238      0.2249916 
840.9      7.034      0.2757457  2.316      0.230842  
841        6.923      0.2554998  2.376      0.2200668 
841.1      6.578      0.2461952  2.437      0.1878802 
841.2      6.058      0.2496801  2.498      0.1428903 
841.3      5.54       0.2568713  2.467      0.1019597 
841.4      5.185      0.2622311  2.337      0.07597384
841.5      5.08       0.2577917  2.213      0.06859179
841.6      5.195      0.2496801  2.16       0.07668401
841.7      5.432      0.2461952  2.259      0.09388281
841.8      5.694      0.2539134  2.348      0.1137435 
841.9      5.94       0.2737158  2.414      0.1332377 
842        6.195      0.2908911  2.35       0.1543495 
842.1      6.483      0.291168   2.25       0.1793527 
842.2      6.811      0.2832977  2.149      0.2094043 
842.3      7.153      0.2854362  2.041      0.2426284 
842.4      7.493      0.3046526  1.969      0.2776863 
842.5      7.809      0.3178521  2.059      0.3121913 
842.6      8.081      0.3178521  2.149      0.3434568 
842.7      8.299      0.3156435  2.24       0.3696105 
842.8      8.442      0.3242964  2.339      0.3873157 
842.9      8.451      0.3392152  2.429      0.3884448 
843        8.251      0.3445491  2.519      0.3637661 
843.1      7.842      0.3333258  2.596      0.3159058 
843.2      7.331      0.3122209  2.552      0.2607223 
843.3      6.922      0.2933979  2.472      0.2199706 
843.4      6.793      0.2848993  2.393      0.2077101 
843.5      7.03       0.2827668  2.334      0.2304501 
843.6      7.544      0.2830321  2.38       0.283127  
843.7      8.172      0.2806585  2.479      0.3542531 
843.8      8.711      0.2806585  2.568      0.4218443 
843.9      9.036      0.2775404  2.648      0.4657855 
844        9.028      0.2754907  2.727      0.4646736 
844.1      8.677      0.2697229  2.789      0.4173899 
844.2      8.044      0.2737158  2.765      0.3391159 
844.3      7.33       0.2867852  2.62       0.2606191 
844.4      6.735      0.3040594  2.52       0.202287  
844.5      6.476      0.3128389  2.421      0.1787299 
844.6      6.615      0.3188059  2.332      0.1912399 
844.7      7.1        0.3159576  2.254      0.2373487 
844.8      7.667      0.3064429  2.197      0.2964499 
