~Version
 VERS              .         3.0                           : CWLS LOG ASCII STANDARD - VERSION 3.0
 WRAP              .         NO                            : ONE LINE PER DEPTH STEP
 DLM               .         SPACE                         : DELIMITING CHARACTER(SPACE TAB OR COMMA)
~Well Information
#_______________________________________________________________________________
#
#PARAMETER_NAME    .UNIT     VALUE                         : DESCRIPTION
#_______________________________________________________________________________
STRT               .м        0.1                           : First reference value
STOP               .м        937.7                         : Last reference value
STEP               .м        0.1                           : Step increment
NULL               .         -9999                         : Missing value
COMP               .                                       : Company
WELL               .         G-22                          : Well name
FLD                .         Каратобе                      : Field
LOC                .                                       : Location
SRVC               .                                       : Service Company
CTRY               .         KZ                            : Country
DATE               .         15.07.22                      : Service Date
X                  .                                       : X or East-West coordinate
Y                  .                                       : Y or North South coordinate
GDAT               .                                       : Geodetic Datum
HZCS               .                                       : Horizontal Co-ordinate System
CNTY               .         Казахстан                     : 
COUNTRY            .         KAZAKHSTAN                    : 
EREF               .m        139.4                         : 
ORIGINALWELLNAME   .         G-22_KARATYUBE_200            : 
PROV               .         AKTAU AREA                    : 
STAT               .                                       : 
UWI                .         Каратобе                      : 
~Parameter Information Block
#_______________________________________________________________________________
#
#PARAMETER_NAME    .UNIT     VALUE                         : DESCRIPTION
#_______________________________________________________________________________
SET                .         Las                           : 
GSDD               .         NPHI                          : NPHI,0,DEPT,,,,,0
TDD                .м        -999.250                      : Полная глубина по бурению
TDL                .м        896.5                         : Полная глубина по каротажу
TLFamily_GR        .         Russian Gamma Ray             : 
TLFamily_MD        .         Measured Depth                : 
TLFamily_NPHI      .         Neutron Porosity              : 
TLFamily_Resistivity .         Resistivity                   : 
TLFamily_VSH_GR    .         Shale Volume                  : 
~Curve Information
#_______________________________________________________________________________
#
#LOGNAME           .UNIT     LOG_ID                        : DESCRIPTION
#_______________________________________________________________________________
MD                 .м                                      : Колонка глубины {F}
GR                 .мкР/ч                                  : Гамма каротаж {F}
NPHI               .v/v                                    : Водородосодержание {F}
Resistivity        .OHMM                                   :  {F}
VSH_GR             .unitless                               : Shale volume fraction from Gamma Ray {F}
~Ascii
# ...
713.5      6.224      0.2840967  1.649      0.08194826
713.6      6.468      0.2814464  1.536      0.09245251
713.7      6.978      0.2744744  1.399      0.1166246 
713.8      7.624      0.271459   1.292      0.1520791 
713.9      8.22       0.2675153  1.216      0.190344  
714        8.512      0.2670283  1.178      0.2112931 
714.1      8.409      0.2552723  1.159      0.2037004 
714.2      7.982      0.2459798  1.149      0.1743149 
714.3      7.479      0.2451209  1.141      0.1435446 
714.4      7.123      0.2594142  1.15       0.1240162 
714.5      7.06       0.275236   1.152      0.120732  
714.6      7.282      0.2814464  1.172      0.1324933 
714.7      7.675      0.2729604  1.193      0.1550105 
714.8      8.059      0.2603481  1.223      0.1792798 
714.9      8.28       0.2468432  1.255      0.1943445 
715        8.289      0.2411001  1.304      0.1949584 
715.1      8.134      0.2390226  1.345      0.1842531 
715.2      7.927      0.2449068  1.396      0.1706033 
715.3      7.736      0.2541392  1.455      0.158628  
715.4      7.575      0.2717083  1.506      0.1489729 
715.5      7.389      0.2843639  1.554      0.1383009 
715.6      7.145      0.2878715  1.492      0.1250468 
715.7      6.851      0.278574   1.407      0.1101304 
715.8      6.562      0.2699699  1.281      0.09651168
715.9      6.333      0.2697229  1.192      0.08640541
716        6.209      0.2767691  1.114      0.08117015
716.1      6.216      0.2806585  1.057      0.08145484
716.2      6.363      0.2742211  1.031      0.0876752 
716.3      6.625      0.2610519  1.044      0.09935522
716.4      6.962      0.2514498  1.083      0.1155623 
716.5      7.323      0.2481466  1.113      0.1345233 
716.6      7.653      0.253688   1.137      0.1534327 
716.7      7.877      0.2641344  1.107      0.1671902 
716.8      7.964      0.2749818  1.075      0.1727368 
716.9      7.967      0.2801352  1.026      0.1729151 
717        8.035      0.2835637  0.989      0.1773347 
717.1      8.259      0.2846314  0.981      0.1924781 
717.2      8.62       0.2737158  0.995      0.2187681 
717.3      8.983      0.2573309  1.045      0.2477308 
717.4      9.242      0.2451209  1.096      0.2700697 
717.5      9.339      0.2490212  1.154      0.2788002 
717.6      9.269      0.258717   1.196      0.2724301 
717.7      9.052      0.2641344  1.255      0.2534446 
717.8      8.741      0.2605824  1.305      0.2280025 
717.9      8.404      0.2554998  1.351      0.202605  
718        8.053      0.253238   1.353      0.1783582 
718.1      7.672      0.2523415  1.283      0.1543669 
718.2      7.28       0.2525652  1.212      0.1319821 
718.3      6.963      0.2494602  1.133      0.1154333 
718.4      6.782      0.2466269  1.064      0.1065591 
718.5      6.699      0.2432042  1.018      0.1026195 
718.6      6.655      0.2516723  1.099      0.1005608 
718.7      6.649      0.2684931  1.188      0.100275  
718.8      6.754      0.2801352  1.264      0.1051901 
718.9      6.982      0.2724586  1.289      0.1163306 
719        7.292      0.2550451  1.18       0.132545  
719.1      7.599      0.2488021  1.079      0.1498999 
719.2      7.821      0.2573309  0.988      0.1633088 
719.3      7.856      0.271459   1.07       0.1654795 
719.4      7.63       0.2803967  1.169      0.1516897 
719.5      7.166      0.2851675  1.251      0.1257449 
719.6      6.559      0.2933979  1.256      0.09609003
719.7      5.923      0.3028783  1.216      0.06953036
719.8      5.377      0.3043557  1.175      0.0498957 
719.9      5.049      0.2962221  1.126      0.03933743
720        5.016      0.2886902  1.085      0.03832057
720.1      5.222      0.2854362  1.044      0.04478957
720.2      5.538      0.2843639  1.085      0.05539013
720.3      5.822      0.2803967  1.136      0.06566386
720.4      6.002      0.2707129  1.195      0.07256421
720.5      6.012      0.2672716  1.246      0.07295177
720.6      5.862      0.2631802  1.306      0.06715696
720.7      5.584      0.260817   1.355      0.05698548
720.8      5.253      0.2530135  1.302      0.04577134
720.9      4.896      0.2490212  1.223      0.03468253
721        4.585      0.2545915  1.165      0.02580439
721.1      4.388      0.2591814  1.216      0.02053042
721.2      4.392      0.2648535  1.275      0.02063364
721.3      4.555      0.2646135  1.325      0.0249798 
721.4      4.804      0.2717083  1.376      0.0319736 
721.5      5.003      0.2790929  1.432      0.03788622
721.6      5.075      0.2859746  1.445      0.04009772
721.7      4.924      0.291723   1.394      0.03549803
721.8      4.584      0.2897875  1.334      0.02576418
721.9      4.146      0.2809208  1.274      0.0143953 
722        3.784      0.2589491  1.214      0.005902404
722.1      3.572      0.2400581  1.152      0.001277155
722.2      3.522      0.2280469  1.076      0.0002218995
722.3      3.54       0.2253692  1.044      0.0006002017
722.4      3.539      0.2242354  1.087      0.0005791085
722.5      3.464      0.2212515  1.16       0         
722.6      3.357      0.2165219  1.259      0         
722.7      3.282      0.2165219  1.348      0         
722.8      3.281      0.2163429  1.43       0         
722.9      3.339      0.2136824  1.528      0         
723        3.427      0.2096917  1.596      0         
723.1      3.491      0.2168806  1.551      0         
723.2      3.481      0.2396431  1.459      0         
723.3      3.392      0.260817   1.35       0         
723.4      3.26       0.2643738  1.251      0         
723.5      3.147      0.2492405  1.16       0         
723.6      3.078      0.2438406  1.062      0         
723.7      3.079      0.2434161  0.995      0         
723.8      3.123      0.2481466  1.046      0         
723.9      3.183      0.2457647  1.106      0         
724        3.202      0.2474937  1.156      0         
724.1      3.198      0.2530135  1.115      0         
724.2      3.216      0.2589491  1.069      0         
724.3      3.339      0.2596472  1.07       0         
724.4      3.582      0.247711   1.165      0.001487927
724.5      3.873      0.2315573  1.208      0.007907729
724.6      4.099      0.2145641  1.183      0.01322754
724.7      4.147      0.208838   1.113      0.01439615
724.8      3.996      0.2128058  1.043      0.01076403
724.9      3.67       0.2197808  0.98       0.003379161
725        3.293      0.2197808  0.984      0         
725.1      2.964      0.2172402  1.028      0         
725.2      2.765      0.2359546  1.109      0         
725.3      2.708      0.2610519  1.198      0         
725.4      2.845      0.2878715  1.267      0         
725.5      3.153      0.2962221  1.229      0         
725.6      3.604      0.3058443  1.12       0.001955761
725.7      4.152      0.3259394  1.022      0.01451025
725.8      4.812      0.353364   0.947      0.03211564
725.9      5.53       0.3625428  0.922      0.05489396
726        6.207      0.3420436  0.942      0.080482  
726.1      6.762      0.3181695  0.965      0.1049591 
726.2      7.188      0.3052475  1.015      0.1262009 
726.3      7.497      0.3040594  1.063      0.1430908 
726.4      7.695      0.3049498  1.09       0.299523  
726.5      7.809      0.2959378  1.09       0.3121913 
726.6      7.876      0.2878715  1.09       0.3197553 
726.7      7.92       0.2931177  1.09       0.3247711 
726.8      7.928      0.3125296  1.09       0.3256873 
726.9      7.882      0.3242964  1.091      0.320437  
727        7.795      0.31533    1.104      0.3106219 
727.1      7.688      0.2922797  1.145      0.2987534 
727.2      7.569      0.2765127  1.193      0.2858118 
727.3      7.402      0.2699699  1.228      0.2680981 
727.4      7.12       0.275236   1.307      0.2393352 
727.5      6.676      0.2811834  1.378      0.1968266 
727.6      6.067      0.2777983  1.447      0.1436346 
727.7      5.369      0.2704649  1.412      0.08924123
727.8      4.697      0.2684931  1.331      0.04278461
727.9      4.2        0.2790929  1.243      0.01177063
728        3.971      0.2865146  1.173      0         
