~Version
 VERS              .         3.0                           : CWLS LOG ASCII STANDARD - VERSION 3.0
 WRAP              .         NO                            : ONE LINE PER DEPTH STEP
 DLM               .         SPACE                         : DELIMITING CHARACTER(SPACE TAB OR COMMA)
~Well Information
#_______________________________________________________________________________
#
#PARAMETER_NAME    .UNIT     VALUE                         : DESCRIPTION
#_______________________________________________________________________________
STRT               .м        0.1                           : First reference value
STOP               .м        937.7                         : Last reference value
STEP               .м        0.1                           : Step increment
NULL               .         -9999                         : Missing value
COMP               .                                       : Company
WELL               .         G-22                          : Well name
FLD                .         Каратобе                      : Field
LOC                .                                       : Location
SRVC               .                                       : Service Company
CTRY               .         KZ                            : Country
DATE               .         15.07.22                      : Service Date
X                  .                                       : X or East-West coordinate
Y                  .                                       : Y or North South coordinate
GDAT               .                                       : Geodetic Datum
HZCS               .                                       : Horizontal Co-ordinate System
CNTY               .         Казахстан                     : 
COUNTRY            .         KAZAKHSTAN                    : 
EREF               .m        139.4                         : 
ORIGINALWELLNAME   .         G-22_KARATYUBE_200            : 
PROV               .         AKTAU AREA                    : 
STAT               .                                       : 
UWI                .         Каратобе                      : 
~Parameter Information Block
#_______________________________________________________________________________
#
#PARAMETER_NAME    .UNIT     VALUE                         : DESCRIPTION
#_______________________________________________________________________________
SET                .         Las                           : 
GSDD               .         NPHI                          : NPHI,0,DEPT,,,,,0
TDD                .м        -999.250                      : Полная глубина по бурению
TDL                .м        896.5                         : Полная глубина по каротажу
TLFamily_GR        .         Russian Gamma Ray             : 
TLFamily_MD        .         Measured Depth                : 
TLFamily_NPHI      .         Neutron Porosity              : 
TLFamily_Resistivity .         Resistivity                   : 
TLFamily_VSH_GR    .         Shale Volume                  : 
~Curve Information
#_______________________________________________________________________________
#
#LOGNAME           .UNIT     LOG_ID                        : DESCRIPTION
#_______________________________________________________________________________
MD                 .м                                      : Колонка глубины {F}
GR                 .мкР/ч                                  : Гамма каротаж {F}
NPHI               .v/v                                    : Водородосодержание {F}
Resistivity        .OHMM                                   :  {F}
VSH_GR             .unitless                               : Shale volume fraction from Gamma Ray {F}
~Ascii
# ...
655.1      7.499      0.3392152  1.164      0.1524941 
655.2      7.093      0.3259394  1.202      0.1287603 
655.3      6.742      0.3109905  1.218      0.1101792 
655.4      6.681      0.2933979  1.199      0.1071134 
655.5      7.008      0.2770258  1.188      0.1240731 
655.6      7.624      0.2646135  1.17       0.160246  
655.7      8.23       0.2559558  1.172      0.2019863 
655.8      8.563      0.2530135  1.191      0.2278854 
655.9      8.492      0.262705   1.203      0.222146  
656        8.119      0.2765127  1.235      0.1937788 
656.1      7.657      0.2892381  1.284      0.1622788 
656.2      7.324      0.2897875  1.317      0.1418203 
656.3      7.189      0.2870562  1.285      0.1340144 
656.4      7.183      0.2809208  1.236      0.1336627 
656.5      7.194      0.2790929  1.204      0.1342746 
656.6      7.144      0.2803967  1.25       0.1314427 
656.7      7.027      0.2859746  1.351      0.1249752 
656.8      6.873      0.2886902  1.463      0.1167629 
656.9      6.725      0.2857052  1.592      0.1091768 
657        6.642      0.2793529  1.686      0.1050457 
657.1      6.668      0.2717083  1.547      0.1063185 
657.2      6.835      0.271459   1.417      0.1147507 
657.3      7.104      0.2667854  1.289      0.1291345 
657.4      7.407      0.2631802  1.181      0.1465926 
657.5      7.66       0.2525652  1.093      0.1622615 
657.6      7.806      0.2396431  1.026      0.171778  
657.7      7.8        0.2199638  0.999      0.171363  
657.8      7.632      0.1973791  1.091      0.1604302 
657.9      7.315      0.1821761  1.202      0.1410788 
658        6.894      0.1750305  1.322      0.1177421 
658.1      6.423      0.1802145  1.443      0.09450559
658.2      5.974      0.1931913  1.556      0.07486505
658.3      5.604      0.2179618  1.506      0.0603251 
658.4      5.36       0.2472765  1.376      0.05147682
658.5      5.244      0.277283   1.344      0.04746253
658.6      5.255      0.2908911  1.385      0.04783431
658.7      5.333      0.2906146  1.43       0.05052165
658.8      5.428      0.2886902  1.417      0.05386974
658.9      5.46       0.2962221  1.291      0.05501362
659        5.428      0.2993772  1.199      0.05386204
659.1      5.327      0.2865146  1.093      0.0502985 
659.2      5.269      0.2694763  1.025      0.04829293
659.3      5.348      0.2704649  0.976      0.0510237 
659.4      5.708      0.288144   0.939      0.06421736
659.5      6.355      0.3134588  0.93       0.09128016
659.6      7.264      0.3262696  0.935      0.1379076 
659.7      8.249      0.3242964  0.986      0.2026087 
659.8      9.15       0.3131486  1.045      0.278247  
659.9      9.795      0.2987997  1.097      0.3443938 
660        10.174     0.2936784  1.162      0.388754  
660.1      10.345     0.2900628  1.178      0.4102198 
660.2      10.464     0.2873276  1.157      0.4257142 
660.3      10.666     0.2667854  1.127      0.4531735 
660.4      11.039     0.2438406  1.099      0.5078781 
660.5      11.524     0.2373792  1.089      0.5874527 
660.6      11.957     0.2575611  1.08       0.6674889 
660.7      12.153     0.2950874  1.081      0.7067354 
660.8      12.041     0.3191249  1.091      0.6839142 
660.9      11.689     0.3175351  1.101      0.6165897 
661        11.277     0.3085522  1.113      0.545279  
661.1      11.015     0.2993772  1.144      0.5037405 
661.2      11.047     0.2897875  1.188      0.5085893 
661.3      11.366     0.278574   1.267      0.5598025 
661.4      11.793     0.278574   1.336      0.6353789 
661.5      12.123     0.2948048  1.389      0.699793  
661.6      12.206     0.3175351  1.377      0.7168061 
661.7      12.08      0.3302727  1.346      0.6908764 
661.8      11.876     0.3233169  1.302      0.6507272 
661.9      11.777     0.3188059  1.228      0.6319574 
662        11.823     0.3252807  1.21       0.6404889 
662.1      11.953     0.3441894  1.217      0.665318  
662.2      12.043     0.3575245  1.306      0.6829735 
662.3      12.065     0.3474483  1.579      0.6872792 
662.4      12.045     0.3172186  1.96       0.6831816 
662.5      12.028     0.282502   2.253      0.6797016 
662.6      11.998     0.2672716  2.491      0.673672  
662.7      11.901     0.2744744  2.782      0.6547065 
662.8      11.696     0.2973635  2.89       0.6162744 
662.9      11.415     0.3134588  2.872      0.5668603 
663        11.196     0.3143922  2.695      0.5307714 
663.1      11.183     0.3052475  2.54       0.5286288 
663.2      11.426     0.2962221  2.339      0.5684982 
663.3      11.788     0.2848993  2.133      0.6327955 
663.4      12.062     0.2742211  1.966      0.6856203 
663.5      12.039     0.2684931  1.827      0.6809371 
663.6      11.744     0.2684931  1.7        0.6243885 
663.7      11.327     0.2737158  1.601      0.5515593 
663.8      11.051     0.2857052  1.511      0.5075113 
663.9      11.001     0.3094631  1.422      0.4998136 
664        11.218     0.3340102  1.341      0.5336028 
664.1      11.594     0.3445491  1.254      0.5969017 
664.2      12.01      0.336077   1.198      0.674534  
664.3      12.248     0.3197643  1.177      0.7228243 
664.4      12.223     0.3134588  1.151      0.7174979 
664.5      11.93      0.3181695  1.162      0.6586556 
664.6      11.462     0.3279283  1.183      0.5735649 
664.7      10.874     0.3191249  1.213      0.4803822 
664.8      10.29      0.3014119  1.242      0.4009359 
664.9      9.824      0.2851675  1.263      0.3456557 
665        9.552      0.2840967  1.292      0.3163438 
665.1      9.437      0.2809208  1.315      0.3045436 
665.2      9.43       0.2757457  1.364      0.3038053 
665.3      9.508      0.27121    1.402      0.3116966 
665.4      9.705      0.2780565  1.422      0.3324044 
665.5      10.107     0.2970775  1.442      0.3781306 
665.6      10.8       0.3165871  1.46       0.4691134 
665.7      11.713     0.3299361  1.46       0.616943  
665.8      12.554     0.3188059  1.457      0.787877  
665.9      12.907     0.2996665  1.427      0.8714427 
666        12.537     0.2835637  1.398      0.7838088 
666.1      11.537     0.2851675  1.381      0.5853263 
666.2      10.363     0.2967919  1.39       0.4095234 
666.3      9.554      0.3088554  1.39       0.3160945 
666.4      9.551      0.3175351  1.392      0.3157484 
666.5      10.349     0.3200847  1.411      0.4075881 
666.6      11.582     0.3188059  1.42       0.5927919 
666.7      12.618     0.3128389  1.423      0.8014309 
666.8      13.016     0.309159   1.456      0.8976499 
666.9      12.606     0.2967919  1.517      0.7984444 
667        11.596     0.2870562  1.588      0.5949356 
667.1      10.357     0.282502   1.671      0.4083152 
667.2      9.365      0.3046526  1.781      0.2966744 
667.3      8.95       0.3259394  1.891      0.2578487 
667.4      9.223      0.334697   1.998      0.2828645 
667.5      9.989      0.3239694  2.076      0.3633555 
667.6      10.926     0.3184875  2.115      0.4862689 
667.7      11.729     0.3220179  1.967      0.6181812 
667.8      12.229     0.3256098  1.837      0.7152952 
667.9      12.354     0.3285954  1.716      0.7415253 
668        12.112     0.3312855  1.683      0.6912139 
668.1      11.6       0.3329844  1.719      0.5947631 
668.2      10.977     0.3326435  1.809      0.4934832 
668.3      10.422     0.336077   1.9        0.4160793 
668.4      10.059     0.3350411  1.997      0.3711551 
668.5      9.972      0.3266003  2.067      0.3609721 
668.6      10.128     0.3112974  2.137      0.3792738 
668.7      10.4       0.3076455  2.195      0.4130386 
668.8      10.626     0.3252807  2.139      0.4429494 
668.9      10.738     0.3441894  2.029      0.4584041 
669        10.778     0.3438303  1.921      0.4639956 
669.1      10.816     0.31533    1.835      0.4693574 
669.2      10.923     0.2931177  1.786      0.4848467 
669.3      11.125     0.2848993  1.746      0.5153356 
669.4      11.447     0.2942408  1.705      0.5673938 
669.5      11.843     0.3028783  1.656      0.6376775 
669.6      12.22      0.3076455  1.616      0.7116212 
