~Version
 VERS              .         3.0                           : CWLS LOG ASCII STANDARD - VERSION 3.0
 WRAP              .         NO                            : ONE LINE PER DEPTH STEP
 DLM               .         SPACE                         : DELIMITING CHARACTER(SPACE TAB OR COMMA)
~Well Information
#_______________________________________________________________________________
#
#PARAMETER_NAME    .UNIT     VALUE                         : DESCRIPTION
#_______________________________________________________________________________
STRT               .м        0.1                           : First reference value
STOP               .м        937.7                         : Last reference value
STEP               .м        0.1                           : Step increment
NULL               .         -9999                         : Missing value
COMP               .                                       : Company
WELL               .         G-22                          : Well name
FLD                .         Каратобе                      : Field
LOC                .                                       : Location
SRVC               .                                       : Service Company
CTRY               .         KZ                            : Country
DATE               .         15.07.22                      : Service Date
X                  .                                       : X or East-West coordinate
Y                  .                                       : Y or North South coordinate
GDAT               .                                       : Geodetic Datum
HZCS               .                                       : Horizontal Co-ordinate System
CNTY               .         Казахстан                     : 
COUNTRY            .         KAZAKHSTAN                    : 
EREF               .m        139.4                         : 
ORIGINALWELLNAME   .         G-22_KARATYUBE_200            : 
PROV               .         AKTAU AREA                    : 
STAT               .                                       : 
UWI                .         Каратобе                      : 
~Parameter Information Block
#_______________________________________________________________________________
#
#PARAMETER_NAME    .UNIT     VALUE                         : DESCRIPTION
#_______________________________________________________________________________
SET                .         Las                           : 
GSDD               .         NPHI                          : NPHI,0,DEPT,,,,,0
TDD                .м        -999.250                      : Полная глубина по бурению
TDL                .м        896.5                         : Полная глубина по каротажу
TLFamily_GR        .         Russian Gamma Ray             : 
TLFamily_MD        .         Measured Depth                : 
TLFamily_NPHI      .         Neutron Porosity              : 
TLFamily_Resistivity .         Resistivity                   : 
TLFamily_VSH_GR    .         Shale Volume                  : 
~Curve Information
#_______________________________________________________________________________
#
#LOGNAME           .UNIT     LOG_ID                        : DESCRIPTION
#_______________________________________________________________________________
MD                 .м                                      : Колонка глубины {F}
GR                 .мкР/ч                                  : Гамма каротаж {F}
NPHI               .v/v                                    : Водородосодержание {F}
Resistivity        .OHMM                                   :  {F}
VSH_GR             .unitless                               : Shale volume fraction from Gamma Ray {F}
~Ascii
# ...
14.5       8.404      -0.006454772 -9999      0.5320745 
14.6       7.826      -0.00641604 -9999      0.402398  
14.7       7.395      -0.006801741 -9999      0.3238335 
14.8       7.005      -0.006686415 -9999      0.2637659 
14.9       6.571      -0.005435562 -9999      0.207301  
15         6.111      0.002575502 -9999      0.157466  
15.1       5.722      0.02309473 -9999      0.1220641 
15.2       5.461      0.06677757 -9999      0.101281  
15.3       5.305      0.1420216  -9999      0.08987594
15.4       5.18       0.2353479  -9999      0.08124814
15.5       5.043      0.3147044  -9999      0.07228831
15.6       4.867      0.3656872  -9999      0.06149547
15.7       4.674      0.3833628  -9999      0.05052297
15.8       4.482      0.4033843  -9999      0.04043588
15.9       4.33       0.4162273  -9999      0.03299404
16         4.209      0.4152532  -9999      0.02739232
16.1       4.09       0.4221513  -9999      0.02214797
16.2       3.939      0.4375825  -9999      0.0158521 
16.3       3.777      0.4478429  -9999      0.00951733
16.4       3.667      0.4318182  -9999      0.005449402
16.5       3.647      0.3907334  -9999      0.004728959
16.6       3.743      0.3333258  -9999      0.008238261
16.7       3.937      0.2744744  -9999      0.01576377
16.8       4.192      0.233741   -9999      0.02660625
16.9       4.392      0.2172402  -9999      0.03593437
17         4.459      0.2251797  -9999      0.03923038
17.1       4.344      0.2381988  -9999      0.03361796
17.2       4.074      0.2415189  -9999      0.02143921
17.3       3.689      0.2307705  -9999      0.00624311
17.4       3.285      0.2172402  -9999      0         
17.5       2.959      0.2131559  -9999      0         
17.6       2.782      0.2156289  -9999      0         
17.7       2.742      0.2267024  -9999      0         
17.8       2.786      0.2333418  -9999      0         
17.9       2.858      0.2371749  -9999      0         
18         2.931      0.2321499  -9999      0         
18.1       3.003      0.2248013  -9999      0         
18.2       3.092      0.2170603  -9999      0         
18.3       3.202      0.214741   -9999      0         
18.4       3.317      0.2179618  -9999      0         
18.5       3.387      0.2152731  -9999      0         
18.6       3.351      0.2048074  -9999      0         
18.7       3.181      0.1912184  -9999      0         
18.8       2.884      0.1833099  -9999      0         
18.9       2.522      0.1824587  -9999      0         
19         2.159      0.180493   -9999      0         
19.1       1.869      0.1789684  -9999      0         
19.2       1.692      0.1730387  -9999      0         
19.3       1.654      0.1682519  -9999      0         
19.4       1.761      0.1672399  -9999      0         
19.5       2.015      0.1761052  -9999      0         
19.6       2.385      0.1970646  -9999      0         
19.7       2.774      0.2276616  -9999      0         
19.8       3.053      0.2449068  -9999      0         
19.9       3.13       0.2499003  -9999      0         
20         3.036      0.2525652  -9999      0         
20.1       2.862      0.2490212  -9999      0         
20.2       2.727      0.2499003  -9999      0         
20.3       2.689      0.2575611  -9999      0         
20.4       2.744      0.2660584  -9999      0         
20.5       2.796      0.2619946  -9999      0         
20.6       2.757      0.2496801  -9999      0         
20.7       2.627      0.2449068  -9999      0         
20.8       2.494      0.2589491  -9999      0         
20.9       2.425      0.2851675  -9999      0         
21         2.414      0.3137695  -9999      0         
21.1       2.438      0.3210491  -9999      0         
21.2       2.525      0.3131486  -9999      0         
21.3       2.756      0.2936784  -9999      0         
21.4       3.195      0.2819734  -9999      0         
21.5       3.798      0.271459   -9999      0.01026501
21.6       4.417      0.2617584  -9999      0.03697211
21.7       4.839      0.2539134  -9999      0.05943594
21.8       4.916      0.246411   -9999      0.06396067
21.9       4.634      0.2514498  -9999      0.04802922
22         4.148      0.2512276  -9999      0.02452599
22.1       3.665      0.2527892  -9999      0.005349421
22.2       3.32       0.2379935  -9999      0         
22.3       3.129      0.2265112  -9999      0         
22.4       3.035      0.2186868  -9999      0         
22.5       2.995      0.2242354  -9999      0         
22.6       3.009      0.240266   -9999      0         
22.7       3.133      0.2580225  -9999      0         
22.8       3.398      0.2747279  -9999      0         
22.9       3.783      0.2827668  -9999      0.00968499
23         4.178      0.2892381  -9999      0.02582005
23.1       4.474      0.2897875  -9999      0.03972352
23.2       4.594      0.2862445  -9999      0.04585018
23.3       4.557      0.2827668  -9999      0.04392315
23.4       4.444      0.2819734  -9999      0.03822468
23.5       4.385      0.2892381  -9999      0.03535043
23.6       4.465      0.3025841  -9999      0.03925485
23.7       4.68       0.3207271  -9999      0.05040377
23.8       4.932      0.3388642  -9999      0.06477065
23.9       5.092      0.3409786  -9999      0.07468067
24         5.082      0.3406247  -9999      0.074033  
24.1       4.923      0.3357312  -9999      0.06420945
24.2       4.739      0.3474483  -9999      0.05360873
24.3       4.712      0.3629335  -9999      0.05211401
24.4       4.954      0.3846471  -9999      0.06605075
24.5       5.442      0.392501   -9999      0.09868285
24.6       6.01       0.3885419  -9999      0.1457579 
24.7       6.511      0.3808149  -9999      0.1972949 
24.8       6.839      0.3787124  -9999      0.2371537 
24.9       6.997      0.3770438  -9999      0.2583049 
25         6.991      0.3729237  -9999      0.2574331 
25.1       6.865      0.3700824  -9999      0.240433  
25.2       6.592      0.3721083  -9999      0.2065012 
25.3       6.159      0.3733324  -9999      0.1598551 
25.4       5.595      0.375387   -9999      0.1101919 
25.5       5.029      0.3885419  -9999      0.07056621
25.6       4.597      0.4246605  -9999      0.04588803
25.7       4.392      0.457936   -9999      0.0356058 
25.8       4.432      0.4596548  -9999      0.03754069
25.9       4.644      0.418679   -9999      0.04835159
26         4.913      0.3842182  -9999      0.06347471
26.1       5.124      0.3708907  -9999      0.07654177
26.2       5.228      0.3833628  -9999      0.08339902
26.3       5.199      0.4024588  -9999      0.08144535
26.4       5.053      0.4109155  -9999      0.07199161
26.5       4.838      0.4047792  -9999      0.05905629
26.6       4.631      0.400618   -9999      0.04762511
26.7       4.464      0.3978823  -9999      0.03907732
26.8       4.322      0.400618   -9999      0.03225119
26.9       4.168      0.3960753  -9999      0.02528041
27         4.006      0.4075927  -9999      0.01840333
27.1       3.895      0.423152   -9999      0.01394536
27.2       3.932      0.4418548  -9999      0.01540711
27.3       4.157      0.4402446  -9999      0.02478931
27.4       4.525      0.4241567  -9999      0.04209953
27.5       4.903      0.4157398  -9999      0.06277466
27.6       5.175      0.413799   -9999      0.07972965
27.7       5.272      0.4328569  -9999      0.08623416
27.8       5.185      0.4500537  -9999      0.08037022
27.9       4.954      0.4602301  -9999      0.06578459
28         4.637      0.4489461  -9999      0.04787008
28.1       4.302      0.4287265  -9999      0.03127998
28.2       3.979      0.4162273  -9999      0.01728091
28.3       3.726      0.4057135  -9999      0.007525657
28.4       3.569      0.3997026  -9999      0.001955947
28.5       3.555      0.4033843  -9999      0.001476181
28.6       3.65       0.425671   -9999      0.004784117
28.7       3.824      0.4506093  -9999      0.01118164
28.8       3.991      0.4590807  -9999      0.01775861
28.9       4.109      0.4528428  -9999      0.02267949
29         4.116      0.457936   -9999      0.02297668
