~Version
 VERS              .         3.0                           : CWLS LOG ASCII STANDARD - VERSION 3.0
 WRAP              .         NO                            : ONE LINE PER DEPTH STEP
 DLM               .         SPACE                         : DELIMITING CHARACTER(SPACE TAB OR COMMA)
~Well Information
#_______________________________________________________________________________
#
#PARAMETER_NAME    .UNIT     VALUE                         : DESCRIPTION
#_______________________________________________________________________________
STRT               .м        0.1                           : First reference value
STOP               .м        937.7                         : Last reference value
STEP               .м        0.1                           : Step increment
NULL               .         -9999                         : Missing value
COMP               .                                       : Company
WELL               .         G-22                          : Well name
FLD                .         Каратобе                      : Field
LOC                .                                       : Location
SRVC               .                                       : Service Company
CTRY               .         KZ                            : Country
DATE               .         15.07.22                      : Service Date
X                  .                                       : X or East-West coordinate
Y                  .                                       : Y or North South coordinate
GDAT               .                                       : Geodetic Datum
HZCS               .                                       : Horizontal Co-ordinate System
CNTY               .         Казахстан                     : 
COUNTRY            .         KAZAKHSTAN                    : 
EREF               .m        139.4                         : 
ORIGINALWELLNAME   .         G-22_KARATYUBE_200            : 
PROV               .         AKTAU AREA                    : 
STAT               .                                       : 
UWI                .         Каратобе                      : 
~Parameter Information Block
#_______________________________________________________________________________
#
#PARAMETER_NAME    .UNIT     VALUE                         : DESCRIPTION
#_______________________________________________________________________________
SET                .         Las                           : 
GSDD               .         NPHI                          : NPHI,0,DEPT,,,,,0
TDD                .м        -999.250                      : Полная глубина по бурению
TDL                .м        896.5                         : Полная глубина по каротажу
TLFamily_GR        .         Russian Gamma Ray             : 
TLFamily_MD        .         Measured Depth                : 
TLFamily_NPHI      .         Neutron Porosity              : 
TLFamily_Resistivity .         Resistivity                   : 
TLFamily_VSH_GR    .         Shale Volume                  : 
~Curve Information
#_______________________________________________________________________________
#
#LOGNAME           .UNIT     LOG_ID                        : DESCRIPTION
#_______________________________________________________________________________
MD                 .м                                      : Колонка глубины {F}
GR                 .мкР/ч                                  : Гамма каротаж {F}
NPHI               .v/v                                    : Водородосодержание {F}
Resistivity        .OHMM                                   :  {F}
VSH_GR             .unitless                               : Shale volume fraction from Gamma Ray {F}
~Ascii
# ...
72.5       4.091      0.3960753  -9999      0.0210174 
72.59999999999999 4.067      0.4292392  -9999      0.02004785
72.7       4.09       0.4494994  -9999      0.02097297
72.8       4.192      0.4287265  -9999      0.02518307
72.90000000000001 4.367      0.3855071  -9999      0.03280778
73         4.589      0.3575245  -9999      0.04325747
73.09999999999999 4.801      0.357143   -9999      0.05411331
73.2       4.977      0.3688754  -9999      0.06382874
73.3       5.1        0.3774598  -9999      0.07102084
73.40000000000001 5.186      0.3842182  -9999      0.07625434
73.5       5.219      0.3889786  -9999      0.07830365
73.59999999999999 5.211      0.3902935  -9999      0.07779339
73.7       5.172      0.3820854  -9999      0.07536332
73.8       5.156      0.3721083  -9999      0.07437217
73.90000000000001 5.167      0.3721083  -9999      0.07503848
74         5.19       0.3787124  -9999      0.07645003
74.09999999999999 5.173      0.4001599  -9999      0.07539059
74.2       5.086      0.4162273  -9999      0.07011312
74.3       4.955      0.427704   -9999      0.06250144
74.40000000000001 4.866      0.4292392  -9999      0.05754589
74.5       4.939      0.4402446  -9999      0.06158555
74.59999999999999 5.184      0.4562277  -9999      0.07602631
74.7       5.524      0.4738012  -9999      0.0984864 
74.8       5.79       0.4817699  -9999      0.1182417 
74.90000000000001 5.871      0.4768398  -9999      0.1246623 
75         5.703      0.4556606  -9999      0.1115225 
75.09999999999999 5.364      0.4226512  -9999      0.08750145
75.2       4.991      0.4001599  -9999      0.06448862
75.3       4.732      0.3842182  -9999      0.05036294
75.40000000000001 4.642      0.3894161  -9999      0.04577547
75.5       4.696      0.3956256  -9999      0.04850047
75.59999999999999 4.819      0.3992463  -9999      0.05493031
75.7       4.894      0.3855071  -9999      0.05900124
75.8       4.804      0.3766285  -9999      0.05411747
75.90000000000001 4.494      0.3846471  -9999      0.03856065
76         4.029      0.4075927  -9999      0.01847599
76.09999999999999 3.564      0.4287265  -9999      0.001712358
76.2       3.252      0.4391766  -9999      0         
76.3       3.186      0.4333778  -9999      0         
76.40000000000001 3.315      0.4142828  -9999      0         
76.5       3.528      0.3820854  -9999      0.0005363538
76.59999999999999 3.687      0.354868   -9999      0.005853586
76.7       3.748      0.3438303  -9999      0.00798152
76.8       3.716      0.353364   -9999      0.006858084
76.90000000000001 3.668      0.3795511  -9999      0.005199437
77         3.661      0.4109155  -9999      0.00495978
77.09999999999999 3.727      0.4261778  -9999      0.007240559
77.2       3.823      0.4128342  -9999      0.01066376
77.3       3.904      0.3898544  -9999      0.01365223
77.40000000000001 3.959      0.3696794  -9999      0.01573485
77.5       4.024      0.3633248  -9999      0.0182539 
77.59999999999999 4.13       0.3625428  -9999      0.02250088
77.7       4.267      0.3762139  -9999      0.02825454
77.8       4.413      0.405246   -9999      0.03473102
77.90000000000001 4.547      0.4478429  -9999      0.04100508
78         4.69       0.4613844  -9999      0.04806889
78.09999999999999 4.857      0.436525   -9999      0.05682854
78.2       5.063      0.3997026  -9999      0.06844402
78.3       5.271      0.4010769  -9999      0.08114935
78.40000000000001 5.424      0.4181868  -9999      0.09116625
78.5       5.425      0.4236539  -9999      0.09122301
78.59999999999999 5.227      0.3997026  -9999      0.07834709
78.7       4.851      0.3876709  -9999      0.05646743
78.8       4.415      0.4157398  -9999      0.03478787
78.90000000000001 4.054      0.469601   -9999      0.0194136 
79         3.867      0.5118552  -9999      0.01225638
79.09999999999999 3.872      0.491247   -9999      0.01243993
79.2       4.015      0.4467443  -9999      0.01787313
79.3       4.206      0.4104381  -9999      0.02561485
79.40000000000001 4.358      0.3997026  -9999      0.03219653
79.5       4.407      0.3938351  -9999      0.0343996 
79.59999999999999 4.32       0.3898544  -9999      0.03050809
79.7       4.108      0.3876709  -9999      0.02156224
79.8       3.834      0.3920578  -9999      0.01103874
79.90000000000001 3.579      0.3974292  -9999      0.002200074
80         3.437      0.3916155  -9999      0         
80.09999999999999 3.484      0.3898544  -9999      0         
80.2       3.774      0.3956256  -9999      0.008876828
80.3       4.259      0.4123532  -9999      0.02784025
80.40000000000001 4.824      0.4181868  -9999      0.05491667
80.5       5.306      0.4172052  -9999      0.08317892
80.59999999999999 5.593      0.4113939  -9999      0.1026794 
80.7       5.628      0.4176955  -9999      0.1051974 
80.8       5.439      0.423152   -9999      0.09191997
80.90000000000001 5.105      0.432337   -9999      0.07071563
81         4.737      0.4344227  -9999      0.05032029
81.09999999999999 4.423      0.4287265  -9999      0.0350735 
81.2       4.222      0.4236539  -9999      0.02624228
81.3       4.148      0.4302678  -9999      0.023159  
81.40000000000001 4.189      0.4440169  -9999      0.02485268
81.5       4.304      0.4539664  -9999      0.02975237
81.59999999999999 4.464      0.4423937  -9999      0.03694179
81.7       4.63       0.4109155  -9999      0.04488449
81.8       4.813      0.3787124  -9999      0.05425037
81.90000000000001 5.02       0.3637169  -9999      0.06567277
82         5.287      0.3855071  -9999      0.08182049
82.09999999999999 5.577      0.427704   -9999      0.1013497 
82.2       5.849      0.4725948  -9999      0.1217603 
82.3       6.027      0.491247   -9999      0.1363173 
82.40000000000001 6.094      0.4823922  -9999      0.1420484 
82.5       6.019      0.4585077  -9999      0.1356054 
82.59999999999999 5.841      0.4307835  -9999      0.1210673 
82.7       5.594      0.4221513  -9999      0.1024898 
82.8       5.336      0.4236539  -9999      0.08489168
82.90000000000001 5.054      0.4206574  -9999      0.06756409
83         4.768      0.3974292  -9999      0.05181897
83.09999999999999 4.492      0.3816611  -9999      0.03818946
83.2       4.277      0.3951767  -9999      0.02853511
83.3       4.118      0.4402446  -9999      0.021894  
83.40000000000001 4.007      0.4713935  -9999      0.0174937 
83.5       3.917      0.441317   -9999      0.01406203
83.59999999999999 3.833      0.3829362  -9999      0.01096537
83.7       3.722      0.3503864  -9999      0.0070253 
83.8       3.557      0.3496481  -9999      0.001472866
83.90000000000001 3.331      0.3696794  -9999      0         
84         3.093      0.3829362  -9999      0         
84.09999999999999 2.914      0.3889786  -9999      0         
84.2       2.883      0.374563   -9999      0         
84.3       3.034      0.353364   -9999      0         
84.40000000000001 3.363      0.3364235  -9999      0         
84.5       3.784      0.3374661  -9999      0.009198258
84.59999999999999 4.2        0.3613748  -9999      0.02523558
84.7       4.499      0.3889786  -9999      0.03845578
84.8       4.654      0.4123532  -9999      0.04592938
84.90000000000001 4.657      0.418679   -9999      0.04607383
85         4.555      0.4236539  -9999      0.04109376
85.09999999999999 4.359      0.4349467  -9999      0.03206221
85.2       4.123      0.44565    -9999      0.02205747
85.3       3.876      0.4429337  -9999      0.0125184 
85.40000000000001 3.692      0.4338998  -9999      0.005980573
85.5       3.62       0.4338998  -9999      0.003545933
85.59999999999999 3.722      0.4550948  -9999      0.00701376
85.7       4.011      0.4562277  -9999      0.0176119 
85.8       4.453      0.432337   -9999      0.03628149
85.90000000000001 4.948      0.3947287  -9999      0.06132739
86         5.364      0.3863703  -9999      0.08639439
86.09999999999999 5.579      0.3863703  -9999      0.1010035 
86.2       5.539      0.3859383  -9999      0.09817952
86.3       5.283      0.3625428  -9999      0.08116446
