~Version
 VERS              .         3.0                           : CWLS LOG ASCII STANDARD - VERSION 3.0
 WRAP              .         NO                            : ONE LINE PER DEPTH STEP
 DLM               .         SPACE                         : DELIMITING CHARACTER(SPACE TAB OR COMMA)
~Well Information
#_______________________________________________________________________________
#
#PARAMETER_NAME    .UNIT     VALUE                         : DESCRIPTION
#_______________________________________________________________________________
STRT               .м        0.1                           : First reference value
STOP               .м        937.7                         : Last reference value
STEP               .м        0.1                           : Step increment
NULL               .         -9999                         : Missing value
COMP               .                                       : Company
WELL               .         G-22                          : Well name
FLD                .         Каратобе                      : Field
LOC                .                                       : Location
SRVC               .                                       : Service Company
CTRY               .         KZ                            : Country
DATE               .         15.07.22                      : Service Date
X                  .                                       : X or East-West coordinate
Y                  .                                       : Y or North South coordinate
GDAT               .                                       : Geodetic Datum
HZCS               .                                       : Horizontal Co-ordinate System
CNTY               .         Казахстан                     : 
COUNTRY            .         KAZAKHSTAN                    : 
EREF               .m        139.4                         : 
ORIGINALWELLNAME   .         G-22_KARATYUBE_200            : 
PROV               .         AKTAU AREA                    : 
STAT               .                                       : 
UWI                .         Каратобе                      : 
~Parameter Information Block
#_______________________________________________________________________________
#
#PARAMETER_NAME    .UNIT     VALUE                         : DESCRIPTION
#_______________________________________________________________________________
SET                .         Las                           : 
GSDD               .         NPHI                          : NPHI,0,DEPT,,,,,0
TDD                .м        -999.250                      : Полная глубина по бурению
TDL                .м        896.5                         : Полная глубина по каротажу
TLFamily_GR        .         Russian Gamma Ray             : 
TLFamily_MD        .         Measured Depth                : 
TLFamily_NPHI      .         Neutron Porosity              : 
TLFamily_Resistivity .         Resistivity                   : 
TLFamily_VSH_GR    .         Shale Volume                  : 
~Curve Information
#_______________________________________________________________________________
#
#LOGNAME           .UNIT     LOG_ID                        : DESCRIPTION
#_______________________________________________________________________________
MD                 .м                                      : Колонка глубины {F}
GR                 .мкР/ч                                  : Гамма каротаж {F}
NPHI               .v/v                                    : Водородосодержание {F}
Resistivity        .OHMM                                   :  {F}
VSH_GR             .unitless                               : Shale volume fraction from Gamma Ray {F}
~Ascii
# ...
187.9      8.721      0.3323032  -9999      0.4446664 
188        8.809      0.3336678  -9999      0.4613346 
188.1      9.078      0.337118   -9999      0.5157905 
188.2      9.327      0.337118   -9999      0.5710251 
188.3      9.438      0.3329844  -9999      0.597199  
188.4      9.398      0.3292647  -9999      0.587503  
188.5      9.246      0.3309473  -9999      0.5521917 
188.6      9.043      0.3402715  -9999      0.5079528 
188.7      8.849      0.3621528  -9999      0.4685597 
188.8      8.748      0.3652917  -9999      0.4490677 
188.9      8.798      0.3485455  -9999      0.458513  
189        9.021      0.3191249  -9999      0.5030068 
189.1      9.359      0.3037634  -9999      0.577552  
189.2      9.686      0.3022904  -9999      0.6586671 
189.3      9.88       0.3109905  -9999      0.7113606 
189.4      9.874      0.3299361  -9999      0.7095352 
189.5      9.725      0.3529896  -9999      0.6686179 
189.6      9.515      0.3787124  -9999      0.6145664 
189.7      9.312      0.3929449  -9999      0.5660182 
189.8      9.117      0.400618   -9999      0.5225704 
189.9      8.973      0.406182   -9999      0.4923455 
190        8.96       0.4123532  -9999      0.4896159 
190.1      9.168      0.3969771  -9999      0.5333358 
190.2      9.589      0.3522427  -9999      0.6324048 
190.3      10.134     0.3070433  -9999      0.7846835 
190.4      10.627     0.2862445  -9999      0.9501307 
190.5      10.88      0.2950874  -9999      1         
190.6      10.772     0.3194443  -9999      1         
190.7      10.352     0.3431138  -9999      0.8536817 
190.8      9.755      0.353364   -9999      0.6749884 
190.9      9.113      0.3605995  -9999      0.5207043 
191        8.49       0.3541147  -9999      0.4010874 
191.1      7.924      0.3438303  -9999      0.3131006 
191.2      7.451      0.3279283  -9999      0.2519688 
191.3      7.14       0.3262696  -9999      0.2170051 
191.4      7.106      0.3323032  -9999      0.2133858 
191.5      7.391      0.3378148  -9999      0.244823  
191.6      7.902      0.3406247  -9999      0.3097931 
191.7      8.418      0.3459939  -9999      0.3884602 
191.8      8.77       0.3590567  -9999      0.4509515 
191.9      8.918      0.3708907  -9999      0.4795886 
192        8.956      0.3829362  -9999      0.487123  
192.1      9.013      0.3907334  -9999      0.4986549 
192.2      9.175      0.3965257  -9999      0.532883  
192.3      9.433      0.3842182  -9999      0.5916522 
192.4      9.684      0.364897   -9999      0.6541912 
192.5      9.785      0.3427565  -9999      0.6808823 
192.6      9.636      0.3216945  -9999      0.6415372 
192.7      9.267      0.3040594  -9999      0.5527703 
192.8      8.832      0.2967919  -9999      0.4620164 
192.9      8.534      0.3040594  -9999      0.4074255 
193        8.496      0.3172186  -9999      0.4008131 
193.1      8.709      0.3194443  -9999      0.4385933 
193.2      9.044      0.3128389  -9999      0.5041067 
193.3      9.356      0.3116048  -9999      0.5724844 
193.4      9.613      0.3279283  -9999      0.6347205 
193.5      9.869      0.3605995  -9999      0.7025772 
193.6      10.18      0.3916155  -9999      0.7937182 
193.7      10.473     0.3885419  -9999      0.8892114 
193.8      10.598     0.3556237  -9999      0.9329369 
193.9      10.386     0.3226664  -9999      0.8594201 
194        9.811      0.3109905  -9999      0.6859805 
194.1      9.045      0.3147044  -9999      0.5035269 
194.2      8.405      0.3125296  -9999      0.3847497 
194.3      8.165      0.3116048  -9999      0.3466655 
194.4      8.397      0.3159576  -9999      0.3833069 
194.5      9.001      0.3392152  -9999      0.4941371 
194.6      9.767      0.3582893  -9999      0.6733518 
194.7      10.477     0.3625428  -9999      0.8887635 
194.8      10.966     0.3579066  -9999      1         
194.9      11.159     0.3537391  -9999      1         
195        11.086     0.3459939  -9999      1         
195.1      10.835     0.3156435  -9999      1         
195.2      10.531     0.2859746  -9999      0.9065419 
195.3      10.26      0.2749818  -9999      0.8160864 
195.4      10.045     0.291723   -9999      0.7502214 
195.5      9.863      0.3178521  -9999      0.698238  
195.6      9.705      0.3306097  -9999      0.6557366 
195.7      9.605      0.3326435  -9999      0.6300001 
195.8      9.631      0.3350411  -9999      0.6364548 
195.9      9.833      0.3481792  -9999      0.6894841 
196        10.18      0.3617635  -9999      0.7899533 
196.1      10.557     0.3725156  -9999      0.9139683 
196.2      10.804     0.3696794  -9999      1         
196.3      10.793     0.3563821  -9999      1         
196.4      10.457     0.3388642  -9999      0.8788679 
196.5      9.876      0.336077   -9999      0.7004918 
196.6      9.233      0.3438303  -9999      0.5414104 
196.7      8.749      0.3563821  -9999      0.4433488 
196.8      8.487      0.34928    -9999      0.3968302 
196.9      8.383      0.3340102  -9999      0.3794911 
197        8.279      0.3106841  -9999      0.362781  
197.1      8.039      0.3031729  -9999      0.3265608 
197.2      7.599      0.2976499  -9999      0.2676716 
197.3      7.022      0.3028783  -9999      0.203101  
197.4      6.487      0.3100727  -9999      0.1539087 
197.5      6.163      0.3319634  -9999      0.1283257 
197.6      6.173      0.3526158  -9999      0.1290567 
197.7      6.541      0.3621528  -9999      0.1584024 
197.8      7.228      0.3529896  -9999      0.2244964 
197.9      8.066      0.3333258  -9999      0.3300749 
198        8.833      0.3191249  -9999      0.458171  
198.1      9.325      0.3097677  -9999      0.5604987 
198.2      9.5        0.3200847  -9999      0.6013098 
198.3      9.467      0.3409786  -9999      0.5932933 
198.4      9.448      0.3680741  -9999      0.5886757 
198.5      9.624      0.3795511  -9999      0.6315129 
198.6      10.018     0.3741521  -9999      0.7377248 
198.7      10.483     0.354491   -9999      0.883571  
198.8      10.794     0.334697   -9999      0.9952264 
198.9      10.846     0.3184875  -9999      1         
199        10.663     0.3165871  -9999      0.9462286 
199.1      10.395     0.3296002  -9999      0.8533897 
199.2      10.147     0.354868   -9999      0.7749556 
199.3      9.986      0.3749746  -9999      0.7275457 
199.4      9.892      0.3708907  -9999      0.7010339 
199.5      9.847      0.354491   -9999      0.688584  
199.6      9.83       0.3378148  -9999      0.6838523 
199.7      9.828      0.3292647  -9999      0.6831836 
199.8      9.831      0.3292647  -9999      0.6838636 
199.9      9.781      0.334697   -9999      0.670365  
200        9.668      0.3441894  -9999      0.6408836 
200.1      9.493      0.3507564  -9999      0.5975552 
200.2      9.379      0.3575245  -9999      0.5707024 
200.3      9.412      0.3688754  -9999      0.57823   
200.4      9.649      0.3774598  -9999      0.6355909 
200.5      10.009     0.375387   -9999      0.7324357 
200.6      10.393     0.364897   -9999      0.8501565 
200.7      10.686     0.3590567  -9999      0.9512247 
200.8      10.83      0.3633248  -9999      1         
200.9      10.804     0.374563   -9999      0.9946168 
201        10.63      0.3837901  -9999      0.9304839 
201.1      10.383     0.3965257  -9999      0.8460302 
201.2      10.141     0.4019972  -9999      0.7701232 
201.3      9.996      0.392501   -9999      0.7275954 
201.4      9.927      0.3582893  -9999      0.7080405 
201.5      9.869      0.3249521  -9999      0.6919496 
201.6      9.717      0.3076455  -9999      0.6515239 
201.7      9.465      0.3150169  -9999      0.5891773 
201.8      9.153      0.3282616  -9999      0.5193006 
201.9      8.89       0.338164   -9999      0.4660671 
202        8.761      0.3329844  -9999      0.4416682 
202.1      8.804      0.3275955  -9999      0.4495779 
202.2      8.944      0.3236429  -9999      0.4763392 
202.3      9.084      0.3188059  -9999      0.5044407 
202.4      9.185      0.3116048  -9999      0.5255586 
