~Version
 VERS              .         3.0                           : CWLS LOG ASCII STANDARD - VERSION 3.0
 WRAP              .         NO                            : ONE LINE PER DEPTH STEP
 DLM               .         SPACE                         : DELIMITING CHARACTER(SPACE TAB OR COMMA)
~Well Information
#_______________________________________________________________________________
#
#PARAMETER_NAME    .UNIT     VALUE                         : DESCRIPTION
#_______________________________________________________________________________
STRT               .м        0.1                           : First reference value
STOP               .м        937.7                         : Last reference value
STEP               .м        0.1                           : Step increment
NULL               .         -9999                         : Missing value
COMP               .                                       : Company
WELL               .         G-22                          : Well name
FLD                .         Каратобе                      : Field
LOC                .                                       : Location
SRVC               .                                       : Service Company
CTRY               .         KZ                            : Country
DATE               .         15.07.22                      : Service Date
X                  .                                       : X or East-West coordinate
Y                  .                                       : Y or North South coordinate
GDAT               .                                       : Geodetic Datum
HZCS               .                                       : Horizontal Co-ordinate System
CNTY               .         Казахстан                     : 
COUNTRY            .         KAZAKHSTAN                    : 
EREF               .m        139.4                         : 
ORIGINALWELLNAME   .         G-22_KARATYUBE_200            : 
PROV               .         AKTAU AREA                    : 
STAT               .                                       : 
UWI                .         Каратобе                      : 
~Parameter Information Block
#_______________________________________________________________________________
#
#PARAMETER_NAME    .UNIT     VALUE                         : DESCRIPTION
#_______________________________________________________________________________
SET                .         Las                           : 
GSDD               .         NPHI                          : NPHI,0,DEPT,,,,,0
TDD                .м        -999.250                      : Полная глубина по бурению
TDL                .м        896.5                         : Полная глубина по каротажу
TLFamily_GR        .         Russian Gamma Ray             : 
TLFamily_MD        .         Measured Depth                : 
TLFamily_NPHI      .         Neutron Porosity              : 
TLFamily_Resistivity .         Resistivity                   : 
TLFamily_VSH_GR    .         Shale Volume                  : 
~Curve Information
#_______________________________________________________________________________
#
#LOGNAME           .UNIT     LOG_ID                        : DESCRIPTION
#_______________________________________________________________________________
MD                 .м                                      : Колонка глубины {F}
GR                 .мкР/ч                                  : Гамма каротаж {F}
NPHI               .v/v                                    : Водородосодержание {F}
Resistivity        .OHMM                                   :  {F}
VSH_GR             .unitless                               : Shale volume fraction from Gamma Ray {F}
~Ascii
# ...
363.1      10.056     0.3169026  -9999      0.5609984 
363.2      10.302     0.3165871  -9999      0.6124547 
363.3      10.388     0.3200847  -9999      0.6313279 
363.4      10.213     0.3116048  -9999      0.5931551 
363.5      9.827      0.3005373  -9999      0.516126  
363.6      9.397      0.2936784  -9999      0.4406209 
363.7      9.13       0.2987997  -9999      0.3985886 
363.8      9.085      0.3082495  -9999      0.3917986 
363.9      9.185      0.3112974  -9999      0.4068318 
364        9.299      0.3119126  -9999      0.4245572 
364.1      9.325      0.3131486  -9999      0.4286402 
364.2      9.265      0.3242964  -9999      0.4190648 
364.3      9.196      0.3329844  -9999      0.4082849 
364.4      9.303      0.3434718  -9999      0.4249446 
364.5      9.709      0.3423997  -9999      0.4936484 
364.6      10.473     0.3431138  -9999      0.6491888 
364.7      11.451     0.3456318  -9999      0.9109977 
364.8      12.444     0.354491   -9999      1         
364.9      13.201     0.3676746  -9999      1         
365        13.612     0.3721083  -9999      1         
365.1      13.645     0.3721083  -9999      1         
365.2      13.404     0.3696794  -9999      1         
365.3      13.06      0.3700824  -9999      1         
365.4      12.795     0.3733324  -9999      1         
365.5      12.716     0.3696794  -9999      1         
365.6      12.842     0.3766285  -9999      1         
365.7      13.213     0.3902935  -9999      1         
365.8      13.822     0.4085376  -9999      1         
365.9      14.596     0.3997026  -9999      1         
366        15.306     0.3778766  -9999      1         
366.1      15.707     0.3481792  -9999      1         
366.2      15.59      0.3259394  -9999      1         
366.3      14.886     0.3088554  -9999      1         
366.4      13.714     0.3052475  -9999      1         
366.5      12.342     0.3188059  -9999      1         
366.6      11.098     0.3385138  -9999      0.8044112 
366.7      10.204     0.3529896  -9999      0.5881223 
366.8      9.799      0.3452703  -9999      0.5083078 
366.9      9.904      0.3279283  -9999      0.5279359 
367        10.446     0.3088554  -9999      0.6404931 
367.1      11.231     0.3002466  -9999      0.8412996 
367.2      12.046     0.2959378  -9999      1         
367.3      12.712     0.2967919  -9999      1         
367.4      13.102     0.3022904  -9999      1         
367.5      13.187     0.3175351  -9999      1         
367.6      13.063     0.334697   -9999      1         
367.7      12.872     0.3449094  -9999      1         
367.8      12.675     0.3445491  -9999      1         
367.9      12.422     0.3445491  -9999      1         
368        12.076     0.3395667  -9999      1         
368.1      11.673     0.3316242  -9999      0.9762568 
368.2      11.312     0.3256098  -9999      0.8632664 
368.3      11.104     0.3340102  -9999      0.8036688 
368.4      11.125     0.354491   -9999      0.8093541 
368.5      11.394     0.3729237  -9999      0.8873053 
368.6      11.831     0.3799716  -9999      1         
368.7      12.293     0.3770438  -9999      1         
368.8      12.602     0.3708907  -9999      1         
368.9      12.632     0.3617635  -9999      1         
369        12.362     0.3423997  -9999      1         
369.1      11.912     0.3175351  -9999      1         
369.2      11.5       0.2900628  -9999      0.9187486 
369.3      11.321     0.2737158  -9999      0.8642194 
369.4      11.499     0.2684931  -9999      0.918101  
369.5      11.955     0.2744744  -9999      1         
369.6      12.483     0.2822375  -9999      1         
369.7      12.797     0.291723   -9999      1         
369.8      12.77      0.3073442  -9999      1         
369.9      12.416     0.3312855  -9999      1         
370        11.88      0.3434718  -9999      1         
370.1      11.326     0.3353859  -9999      0.8644559 
370.2      10.948     0.3249521  -9999      0.7590539 
370.3      10.906     0.3259394  -9999      0.7479782 
370.4      11.207     0.3181695  -9999      0.8295274 
370.5      11.76      0.2936784  -9999      1         
370.6      12.378     0.2809208  -9999      1         
370.7      12.979     0.3008284  -9999      1         
370.8      13.424     0.3441894  -9999      1         
370.9      13.692     0.3672757  -9999      1         
371        13.727     0.3609868  -9999      1         
371.1      13.658     0.3485455  -9999      1         
371.2      13.575     0.357143   -9999      1         
371.3      13.654     0.3721083  -9999      1         
371.4      13.958     0.3855071  -9999      1         
371.5      14.502     0.3770438  -9999      1         
371.6      15.149     0.3664801  -9999      1         
371.7      15.676     0.3652917  -9999      1         
371.8      15.868     0.3762139  -9999      1         
371.9      15.618     0.4029211  -9999      1         
372        15.02      0.4123532  -9999      1         
372.1      14.264     0.3951767  -9999      1         
372.2      13.552     0.3712958  -9999      1         
372.3      12.981     0.3503864  -9999      1         
372.4      12.565     0.3353859  -9999      1         
372.5      12.267     0.3223419  -9999      1         
372.6      12.008     0.3064429  -9999      1         
372.7      11.753     0.2982239  -9999      0.9944491 
372.8      11.504     0.3028783  -9999      0.9139836 
372.9      11.34      0.3143922  -9999      0.8642502 
373        11.252     0.3302727  -9999      0.8385282 
373.1      11.197     0.3438303  -9999      0.8227553 
373.2      11.078     0.3526158  -9999      0.7897131 
373.3      10.846     0.3474483  -9999      0.7288499 
373.4      10.463     0.341688   -9999      0.6376031 
373.5      9.969      0.3431138  -9999      0.5349264 
373.6      9.482      0.3590567  -9999      0.4480452 
373.7      9.113      0.3774598  -9999      0.3904393 
373.8      8.899      0.3829362  -9999      0.3599215 
373.9      8.788      0.3664801  -9999      0.344854  
374        8.761      0.3420436  -9999      0.3412323 
374.1      8.804      0.3374661  -9999      0.3468921 
374.2      8.899      0.3575245  -9999      0.3597229 
374.3      8.983      0.3803929  -9999      0.3713789 
374.4      9.018      0.3850767  -9999      0.3762946 
374.5      9.024      0.3672757  -9999      0.3770989 
374.6      9.095      0.3560026  -9999      0.3873057 
374.7      9.358      0.3567622  -9999      0.4272811 
374.8      9.886      0.3637169  -9999      0.5181481 
374.9      10.601     0.3656872  -9999      0.6675293 
375        11.279     0.3478134  -9999      0.8432977 
375.1      11.681     0.3269315  -9999      0.9662945 
375.2      11.696     0.3043557  -9999      0.9710143 
375.3      11.388     0.2922797  -9999      0.8747202 
375.4      10.927     0.2830321  -9999      0.7468619 
375.5      10.467     0.28383    -9999      0.6363101 
375.6      10.058     0.2870562  -9999      0.5504475 
375.7      9.67       0.2948048  -9999      0.4784922 
375.8      9.291      0.2982239  -9999      0.416111  
375.9      8.997      0.3022904  -9999      0.3725277 
376        8.859      0.3034679  -9999      0.3533799 
376.1      8.878      0.2976499  -9999      0.3559119 
376.2      8.969      0.2870562  -9999      0.3684325 
376.3      9.019      0.2760009  -9999      0.3754392 
376.4      8.937      0.2749818  -9999      0.3638714 
376.5      8.71       0.278574   -9999      0.333435  
376.6      8.421      0.2875993  -9999      0.297682  
376.7      8.164      0.2965068  -9999      0.2684747 
376.8      7.991      0.3067429  -9999      0.2500785 
376.9      7.88       0.3252807  -9999      0.2387762 
377        7.888      0.350017   -9999      0.2395463 
377.1      8.094      0.3721083  -9999      0.260794  
377.2      8.625      0.364897   -9999      0.3222954 
377.3      9.474      0.3427565  -9999      0.4443031 
377.4      10.554     0.3269315  -9999      0.6539542 
377.5      11.585     0.3181695  -9999      0.9313862 
377.6      12.314     0.3143922  -9999      1         
