~Version
 VERS              .         3.0                           : CWLS LOG ASCII STANDARD - VERSION 3.0
 WRAP              .         NO                            : ONE LINE PER DEPTH STEP
 DLM               .         SPACE                         : DELIMITING CHARACTER(SPACE TAB OR COMMA)
~Well Information
#_______________________________________________________________________________
#
#PARAMETER_NAME    .UNIT     VALUE                         : DESCRIPTION
#_______________________________________________________________________________
STRT               .м        0.1                           : First reference value
STOP               .м        937.7                         : Last reference value
STEP               .м        0.1                           : Step increment
NULL               .         -9999                         : Missing value
COMP               .                                       : Company
WELL               .         G-22                          : Well name
FLD                .         Каратобе                      : Field
LOC                .                                       : Location
SRVC               .                                       : Service Company
CTRY               .         KZ                            : Country
DATE               .         15.07.22                      : Service Date
X                  .                                       : X or East-West coordinate
Y                  .                                       : Y or North South coordinate
GDAT               .                                       : Geodetic Datum
HZCS               .                                       : Horizontal Co-ordinate System
CNTY               .         Казахстан                     : 
COUNTRY            .         KAZAKHSTAN                    : 
EREF               .m        139.4                         : 
ORIGINALWELLNAME   .         G-22_KARATYUBE_200            : 
PROV               .         AKTAU AREA                    : 
STAT               .                                       : 
UWI                .         Каратобе                      : 
~Parameter Information Block
#_______________________________________________________________________________
#
#PARAMETER_NAME    .UNIT     VALUE                         : DESCRIPTION
#_______________________________________________________________________________
SET                .         Las                           : 
GSDD               .         NPHI                          : NPHI,0,DEPT,,,,,0
TDD                .м        -999.250                      : Полная глубина по бурению
TDL                .м        896.5                         : Полная глубина по каротажу
TLFamily_GR        .         Russian Gamma Ray             : 
TLFamily_MD        .         Measured Depth                : 
TLFamily_NPHI      .         Neutron Porosity              : 
TLFamily_Resistivity .         Resistivity                   : 
TLFamily_VSH_GR    .         Shale Volume                  : 
~Curve Information
#_______________________________________________________________________________
#
#LOGNAME           .UNIT     LOG_ID                        : DESCRIPTION
#_______________________________________________________________________________
MD                 .м                                      : Колонка глубины {F}
GR                 .мкР/ч                                  : Гамма каротаж {F}
NPHI               .v/v                                    : Водородосодержание {F}
Resistivity        .OHMM                                   :  {F}
VSH_GR             .unitless                               : Shale volume fraction from Gamma Ray {F}
~Ascii
# ...
129.5      8.167      0.3503864  -9999      0.3853021 
129.6      8.37       0.3664801  -9999      0.4219275 
129.7      8.551      0.3609868  -9999      0.4569782 
129.8      8.535      0.3343533  -9999      0.453697  
129.9      8.256      0.3131486  -9999      0.4007779 
130        7.834      0.3073442  -9999      0.3305215 
130.1      7.508      0.3210491  -9999      0.2833098 
130.2      7.486      0.3388642  -9999      0.2802854 
130.3      7.828      0.3567622  -9999      0.3294418 
130.4      8.407      0.354868   -9999      0.428322  
130.5      8.971      0.3470838  -9999      0.5473651 
130.6      9.275      0.341688   -9999      0.6225802 
130.7      9.237      0.3452703  -9999      0.6125759 
130.8      8.969      0.354491   -9999      0.5465907 
130.9      8.671      0.3602127  -9999      0.4805628 
131        8.469      0.3688754  -9999      0.4397699 
131.1      8.358      0.3741521  -9999      0.4185952 
131.2      8.264      0.3758001  -9999      0.4013277 
131.3      8.121      0.3712958  -9999      0.3762296 
131.4      7.92       0.3602127  -9999      0.3431641 
131.5      7.714      0.3445491  -9999      0.3117511 
131.6      7.586      0.3306097  -9999      0.2933948 
131.7      7.539      0.3289298  -9999      0.2868438 
131.8      7.513      0.3388642  -9999      0.2832499 
131.9      7.43       0.3526158  -9999      0.2721035 
132        7.311      0.3605995  -9999      0.2567311 
132.1      7.182      0.3625428  -9999      0.2408233 
132.2      7.089      0.3579066  -9999      0.2298113 
132.3      7.032      0.354491   -9999      0.2232363 
132.4      7.024      0.3522427  -9999      0.2222974 
132.5      7.029      0.3590567  -9999      0.222832  
132.6      7.033      0.3672757  -9999      0.2232539 
132.7      7.043      0.3749746  -9999      0.2243593 
132.8      7.093      0.3725156  -9999      0.2300761 
132.9      7.19       0.3609868  -9999      0.2415024 
133        7.349      0.3478134  -9999      0.2611617 
133.1      7.604      0.3420436  -9999      0.2952281 
133.2      7.966      0.3445491  -9999      0.349472  
133.3      8.392      0.3522427  -9999      0.423351  
133.4      8.827      0.3445491  -9999      0.5118158 
133.5      9.235      0.3252807  -9999      0.608764  
133.6      9.555      0.2987997  -9999      0.6956922 
133.7      9.697      0.2832977  -9999      0.7375993 
133.8      9.589      0.2814464  -9999      0.7052782 
133.9      9.233      0.2920012  -9999      0.6077839 
134        8.701      0.3140806  -9999      0.4841639 
134.1      8.118      0.3323032  -9999      0.3739691 
134.2      7.623      0.3423997  -9999      0.2973915 
134.3      7.303      0.341688   -9999      0.2548512 
134.4      7.145      0.3452703  -9999      0.2356208 
134.5      7.037      0.3503864  -9999      0.2231012 
134.6      6.872      0.354868   -9999      0.204936  
134.7      6.641      0.3605995  -9999      0.1813154 
134.8      6.427      0.3770438  -9999      0.1611671 
134.9      6.33       0.3956256  -9999      0.1525379 
135        6.359      0.3894161  -9999      0.1550591 
135.1      6.47       0.3579066  -9999      0.1650187 
135.2      6.561      0.3333258  -9999      0.1734885 
135.3      6.6        0.3329844  -9999      0.1771924 
135.4      6.607      0.350017   -9999      0.1778432 
135.5      6.716      0.3575245  -9999      0.1885496 
135.6      7.052      0.3575245  -9999      0.224452  
135.7      7.686      0.3556237  -9999      0.3056498 
135.8      8.533      0.3560026  -9999      0.4485333 
135.9      9.411      0.3353859  -9999      0.6522909 
136        10.082     0.3079473  -9999      0.859165  
136.1      10.391     0.2843639  -9999      0.9729792 
136.2      10.295     0.2848993  -9999      0.9359549 
136.3      9.893      0.2985116  -9999      0.7950798 
136.4      9.317      0.3236429  -9999      0.6265661 
136.5      8.725      0.3392152  -9999      0.4870307 
136.6      8.213      0.3423997  -9999      0.3886919 
136.7      7.851      0.341688   -9999      0.3295758 
136.8      7.611      0.3441894  -9999      0.2945164 
136.9      7.468      0.3474483  -9999      0.2750455 
137        7.42       0.3459939  -9999      0.2687113 
137.1      7.52       0.3441894  -9999      0.2819047 
137.2      7.763      0.3441894  -9999      0.3161257 
137.3      8.05       0.3445491  -9999      0.3607023 
137.4      8.23       0.3474483  -9999      0.3911375 
137.5      8.193      0.353364   -9999      0.3846383 
137.6      7.953      0.3625428  -9999      0.3449197 
137.7      7.626      0.3688754  -9999      0.2962013 
137.8      7.393      0.3787124  -9999      0.2649027 
137.9      7.377      0.3894161  -9999      0.2628144 
138        7.595      0.3983361  -9999      0.2917507 
138.1      7.94       0.3978823  -9999      0.3425934 
138.2      8.301      0.3803929  -9999      0.4031868 
138.3      8.622      0.3594414  -9999      0.4642569 
138.4      8.948      0.3374661  -9999      0.5341238 
138.5      9.299      0.3279283  -9999      0.6193465 
138.6      9.62       0.3302727  -9999      0.7075229 
138.7      9.766      0.3423997  -9999      0.7511221 
138.8      9.635      0.3575245  -9999      0.7116246 
138.9      9.22       0.3652917  -9999      0.5987116 
139        8.601      0.3664801  -9999      0.4594645 
139.1      7.899      0.3729237  -9999      0.3356618 
139.2      7.248      0.3787124  -9999      0.2462619 
139.3      6.759      0.3787124  -9999      0.1919037 
139.4      6.482      0.3721083  -9999      0.1651882 
139.5      6.401      0.3717017  -9999      0.1578648 
139.6      6.461      0.3696794  -9999      0.1632313 
139.7      6.598      0.3503864  -9999      0.1759639 
139.8      6.752      0.3220179  -9999      0.1910648 
139.9      6.891      0.3011199  -9999      0.2054445 
140        7.024      0.2987997  -9999      0.2199057 
140.1      7.205      0.3052475  -9999      0.2407662 
140.2      7.466      0.3076455  -9999      0.2734132 
140.3      7.773      0.3002466  -9999      0.316053  
140.4      8.017      0.2843639  -9999      0.3535348 
140.5      8.129      0.278574   -9999      0.3718637 
140.6      8.119      0.288964   -9999      0.37013   
140.7      8.087      0.3137695  -9999      0.3647599 
140.8      8.124      0.3336678  -9999      0.3708428 
140.9      8.261      0.3319634  -9999      0.394265  
141        8.448      0.3200847  -9999      0.4282189 
141.1      8.565      0.3128389  -9999      0.4506481 
141.2      8.498      0.3073442  -9999      0.4375675 
141.3      8.204      0.3014119  -9999      0.3840942 
141.4      7.791      0.291168   -9999      0.3181558 
141.5      7.414      0.2886902  -9999      0.2661304 
141.6      7.241      0.2953705  -9999      0.2445539 
141.7      7.32       0.3100727  -9999      0.254181  
141.8      7.609      0.3285954  -9999      0.2919785 
141.9      7.908      0.336077   -9999      0.3355434 
142        8.029      0.3319634  -9999      0.3545439 
142.1      7.864      0.3194443  -9999      0.3287164 
142.2      7.531      0.3061434  -9999      0.2811965 
142.3      7.206      0.2962221  -9999      0.240117  
142.4      7.054      0.2936784  -9999      0.2225133 
142.5      7.075      0.3076455  -9999      0.2248504 
142.6      7.199      0.3216945  -9999      0.239182  
142.7      7.291      0.3259394  -9999      0.2502335 
142.8      7.288      0.3061434  -9999      0.2498294 
142.9      7.196      0.2931177  -9999      0.238723  
143        7.111      0.2840967  -9999      0.2287903 
143.1      7.091      0.2859746  -9999      0.2264737 
143.2      7.133      0.2846314  -9999      0.2312562 
143.3      7.192      0.2933979  -9999      0.2381123 
143.4      7.247      0.3131486  -9999      0.244635  
143.5      7.295      0.3406247  -9999      0.2504299 
143.6      7.323      0.3537391  -9999      0.2538415 
143.7      7.297      0.3474483  -9999      0.2506015 
143.8      7.164      0.350017   -9999      0.2346553 
143.9      6.885      0.3518702  -9999      0.2036758 
144        6.499      0.354491   -9999      0.1657485 
