~Version
 VERS              .         3.0                           : CWLS LOG ASCII STANDARD - VERSION 3.0
 WRAP              .         NO                            : ONE LINE PER DEPTH STEP
 DLM               .         SPACE                         : DELIMITING CHARACTER(SPACE TAB OR COMMA)
~Well Information
#_______________________________________________________________________________
#
#PARAMETER_NAME    .UNIT     VALUE                         : DESCRIPTION
#_______________________________________________________________________________
STRT               .м        0.1                           : First reference value
STOP               .м        937.7                         : Last reference value
STEP               .м        0.1                           : Step increment
NULL               .         -9999                         : Missing value
COMP               .                                       : Company
WELL               .         G-22                          : Well name
FLD                .         Каратобе                      : Field
LOC                .                                       : Location
SRVC               .                                       : Service Company
CTRY               .         KZ                            : Country
DATE               .         15.07.22                      : Service Date
X                  .                                       : X or East-West coordinate
Y                  .                                       : Y or North South coordinate
GDAT               .                                       : Geodetic Datum
HZCS               .                                       : Horizontal Co-ordinate System
CNTY               .         Казахстан                     : 
COUNTRY            .         KAZAKHSTAN                    : 
EREF               .m        139.4                         : 
ORIGINALWELLNAME   .         G-22_KARATYUBE_200            : 
PROV               .         AKTAU AREA                    : 
STAT               .                                       : 
UWI                .         Каратобе                      : 
~Parameter Information Block
#_______________________________________________________________________________
#
#PARAMETER_NAME    .UNIT     VALUE                         : DESCRIPTION
#_______________________________________________________________________________
SET                .         Las                           : 
GSDD               .         NPHI                          : NPHI,0,DEPT,,,,,0
TDD                .м        -999.250                      : Полная глубина по бурению
TDL                .м        896.5                         : Полная глубина по каротажу
TLFamily_GR        .         Russian Gamma Ray             : 
TLFamily_MD        .         Measured Depth                : 
TLFamily_NPHI      .         Neutron Porosity              : 
TLFamily_Resistivity .         Resistivity                   : 
TLFamily_VSH_GR    .         Shale Volume                  : 
~Curve Information
#_______________________________________________________________________________
#
#LOGNAME           .UNIT     LOG_ID                        : DESCRIPTION
#_______________________________________________________________________________
MD                 .м                                      : Колонка глубины {F}
GR                 .мкР/ч                                  : Гамма каротаж {F}
NPHI               .v/v                                    : Водородосодержание {F}
Resistivity        .OHMM                                   :  {F}
VSH_GR             .unitless                               : Shale volume fraction from Gamma Ray {F}
~Ascii
# ...
888.7      8.503      0.2819734  1.466      0.3950039 
888.8      8.68       0.2765127  1.526      0.4177819 
888.9      8.84       0.2765127  1.586      0.4389874 
889        8.917      0.2848993  1.637      0.4494058 
889.1      8.906      0.3046526  1.604      0.4479089 
889.2      8.869      0.3223419  1.544      0.4428948 
889.3      8.915      0.3165871  1.485      0.4491334 
889.4      9.088      0.2914454  1.436      0.4730506 
889.5      9.344      0.2719581  1.394      0.5097958 
889.6      9.534      0.2653345  1.335      0.5381507 
889.7      9.503      0.2675153  1.285      0.5334598 
889.8      9.148      0.2687384  1.235      0.4815158 
889.9      8.527      0.2672716  1.185      0.3980513 
890        7.842      0.2624679  1.135      0.3159058 
890.1      7.364      0.2545915  1.087      0.2641391 
890.2      7.286      0.2505626  1.055      0.2560947 
890.3      7.597      0.2580225  1.005      0.2888327 
890.4      8.111      0.2729604  0.965      0.3469971 
890.5      8.57       0.2892381  1.016      0.4035432 
890.6      8.848      0.2875993  1.074      0.4400632 
890.7      8.966      0.2734636  1.116      0.456109  
890.8      9.05       0.2557276  1.177      0.4677349 
890.9      9.185      0.2501208  1.246      0.4867805 
891        9.366      0.2573309  1.306      0.5130311 
891.1      9.518      0.2672716  1.358      0.5357264 
891.2      9.578      0.2670283  1.332      0.5448524 
891.3      9.518      0.260817   1.252      0.5357264 
891.4      9.372      0.2571009  1.173      0.5139155 
891.5      9.113      0.2634183  1.107      0.4765669 
891.6      8.724      0.2707129  1.082      0.4235543 
891.7      8.165      0.2780565  1.106      0.3534165 
891.8      7.545      0.2790929  1.167      0.2832342 
891.9      6.971      0.2739683  1.237      0.2247007 
892        6.607      0.2665427  1.307      0.1905116 
892.1      6.518      0.2617584  1.371      0.182478  
892.2      6.756      0.2655755  1.373      0.2042442 
892.3      7.26       0.2757457  1.302      0.2534375 
892.4      7.909      0.2830321  1.232      0.3235136 
892.5      8.54       0.2892381  1.257      0.3997072 
892.6      9.024      0.2873276  1.328      0.4641182 
892.7      9.31       0.28383    1.396      0.5048205 
892.8      9.446      0.2744744  1.349      0.5249008 
892.9      9.541      0.2631802  1.239      0.5392135 
893        9.732      0.2584852  1.149      0.5687184 
893.1      10.027     0.2539134  1.239      0.6162692 
893.2      10.335     0.2501208  1.329      0.668602  
893.3      10.448     0.2411001  1.418      0.6885195 
893.4      10.268     0.2349447  1.499      0.6569769 
893.5      9.792      0.2361574  1.59       0.5781921 
893.6      9.202      0.2429926  1.69       0.4892108 
893.7      8.662      0.2615226  1.79       0.415433  
893.8      8.316      0.2822375  1.869      0.3716922 
893.9      8.152      0.2982239  1.759      0.3518656 
894        8.125      0.2956539  1.648      0.3486556 
894.1      8.143      0.2851675  1.529      0.3507939 
894.2      8.153      0.2862445  1.421      0.3519848 
894.3      8.125      0.2953705  1.334      0.3486556 
894.4      8.085      0.3014119  1.28       0.3439278 
894.5      8.097      0.2936784  1.284      0.3453426 
894.6      8.239      0.2809208  1.328      0.3623126 
894.7      8.53       0.2680035  1.408      0.398433  
894.8      8.89       0.2571009  1.487      0.4457367 
894.9      9.21       0.2496801  1.546      0.490357  
895        9.448      0.2539134  1.504      0.5251997 
895.1      9.666      0.2610519  1.444      0.5584115 
895.2      9.925      0.2624679  1.383      0.5995498 
895.3      10.208     0.2571009  1.323      0.6466814 
895.4      10.449     0.2516723  1.356      0.6886976 
895.5      10.565     0.2601142  1.416      0.7095606 
895.6      10.49      0.2757457  1.476      0.6960232 
895.7      10.199     0.2931177  1.536      0.6451464 
895.8      9.768      0.3028783  1.592      0.5743907 
895.9      9.351      0.3008284  1.598      0.5108238 
896        9.06       0.291723   1.477      0.4691304 
896.1      8.905      0.2684931  1.353      0.4477729 
896.2      8.837      0.2442663  1.292      0.4385843 
896.3      8.847      0.2268938  1.312      0.4399287 
896.4      8.955      0.2201471  1.332      0.4545993 
896.5      9.123      0.2168806  1.351      0.4779778 
896.6      9.263      0.2192328  1.361      0.4979911 
896.7      9.291      0.2276616  1.371      0.502053  
896.8      9.214      0.2413094  1.381      0.4909306 
896.9      9.04       0.2468432  1.391      0.4663419 
897        8.814      0.2438406  1.4        0.435501  
897.1      8.579      0.2438406  1.401      0.404698  
897.2      8.405      0.2550451  1.411      0.382692  
897.3      8.283      0.2775404  1.418      0.3676569 
897.4      8.158      -9999      1.398      0.3525809 
897.5      7.976      -9999      1.378      0.3312109 
897.6      7.75       -9999      1.359      0.3056034 
897.7      7.495      -9999      1.348      0.2778988 
897.8      7.193      -9999      1.328      0.2466455 
897.9      -9999      -9999      1.308      -9999     
898        -9999      -9999      1.288      -9999     
898.1      -9999      -9999      1.274      -9999     
898.2      -9999      -9999      1.32       -9999     
898.3      -9999      -9999      1.421      -9999     
898.4      -9999      -9999      1.535      -9999     
898.5      -9999      -9999      1.685      -9999     
898.6      -9999      -9999      1.832      -9999     
898.7      -9999      -9999      1.953      -9999     
898.8      -9999      -9999      2.075      -9999     
898.9      -9999      -9999      2.116      -9999     
899        -9999      -9999      2.067      -9999     
899.1      -9999      -9999      1.939      -9999     
899.2      -9999      -9999      1.83       -9999     
899.3      -9999      -9999      1.73       -9999     
899.4      -9999      -9999      1.63       -9999     
899.5      -9999      -9999      1.532      -9999     
899.6      -9999      -9999      1.451      -9999     
899.7      -9999      -9999      1.366      -9999     
899.8      -9999      -9999      1.326      -9999     
899.9      -9999      -9999      1.286      -9999     
900        -9999      -9999      1.25       -9999     
900.1      -9999      -9999      1.252      -9999     
900.2      -9999      -9999      1.273      -9999     
900.3      -9999      -9999      1.303      -9999     
900.4      -9999      -9999      1.334      -9999     
900.5      -9999      -9999      1.375      -9999     
900.6      -9999      -9999      1.424      -9999     
900.7      -9999      -9999      1.458      -9999     
900.8      -9999      -9999      1.437      -9999     
900.9      -9999      -9999      1.407      -9999     
901        -9999      -9999      1.377      -9999     
901.1      -9999      -9999      1.346      -9999     
901.2      -9999      -9999      1.311      -9999     
901.3      -9999      -9999      1.321      -9999     
901.4      -9999      -9999      1.334      -9999     
901.5      -9999      -9999      1.376      -9999     
901.6      -9999      -9999      1.435      -9999     
901.7      -9999      -9999      1.478      -9999     
901.8      -9999      -9999      1.459      -9999     
901.9      -9999      -9999      1.449      -9999     
902        -9999      -9999      1.438      -9999     
902.1      -9999      -9999      1.418      -9999     
902.2      -9999      -9999      1.398      -9999     
902.3      -9999      -9999      1.38       -9999     
902.4      -9999      -9999      1.382      -9999     
902.5      -9999      -9999      1.406      -9999     
902.6      -9999      -9999      1.465      -9999     
902.7      -9999      -9999      1.516      -9999     
902.8      -9999      -9999      1.575      -9999     
902.9      -9999      -9999      1.625      -9999     
903        -9999      -9999      1.679      -9999     
903.1      -9999      -9999      1.768      -9999     
903.2      -9999      -9999      1.849      -9999     
