~VERSION INFORMATION
 VERS.                  2.0:   CWLS Log Ascii Standard
 WRAP.                   NO:   One line per depth step
~WELL INFORMATION
#MNEM.UNIT        DATA TYPE:   INFORMATION
#---------    -------------   --------------------------
 STRT.M                1.12:   Top Depth
 STOP.M              835.52:   Bottom Depth
 STEP.M                0.10:   Increment
 NULL.              -999.25:   Null Value
 SRVC.                  KPG:   Service Company/Logging company
 DATE.           06/15/2024:   LAS file Creation Date
 WELL.               342HRL:   Well Name
 COMP.  ТОО"Казактуркмунай":   Company
 FLD .             Каратюбе:   Field
 STATE.                    :   State
 COUNT.                    :   Country
 LOC .                     :   Location
 LATI.                     :   Latitude/Northing
 LONG.                     :   Longitude/Easting
 PDAT.                     :   Permanent Datum
 EPDAT.                    :   Elevation of Permanent Datum
 LGMEA.                    :   Log Measured from
 APDAT.                    :   Elevation Above Permanent Datum
 KB  .                     :   KB Elevation
 DF  .                     :   DF Elevation
 GL  .                     :   GL Elevation
 RWS .                     :   Def_Rw
 WST .                     :   Def_Rwt
 RIGN.                     :   Rig Name
 CNTY.                     :   County
 PROV.                     :   Province
~PARAMETER INFORMATION
#MNEM  .UNIT          Value:   Description
#---------    -------------   --------------------------
~CURVE INFORMATION
#MNEM  .UNIT           API Code:   Curve Description
#---------       -------------- -------------------------- 
 DEPTH .m                      :   1 (WLWorkflow)            (6in)                   Depth Index
 HGR   .GAPI                   :   2 High Resolution Gamma Ray {F13.4}
 HMIN  .Ohmm                   :   3 HIP Micro Inverse Resistivity
 HMNO  .Ohmm                   :   4 HIP Micro Normal Resistivity
 PEFZ  .B/E                    :   5 Formation Photoelectric Factor
 RHOZ  .g/cm3                  :   6 Bulk Density
 RXOZ  .ohm.m                  :   7 (HDRS-H)                (2in)                   Invaded Formation Resistivity filtered at 18 inches
 CFTC  .                       :   8 
 CNTC  .                       :   9 
 ГК    .уе                     :   10 ГК(у.е)
 MTEM_FILT.degC                :   11 Filtered Mud Temperature
 TNPH  .V/V                    :   12 Neutron porosity
 HCAL  .MM                     :   13 HRCC Caliper Calibrated {F13.4}
 AHT10 .ohm.m                  :   14 Array Induction Two Foot Resistivity A10
 AHT20 .ohm.m                  :   15 Array Induction Two Foot Resistivity A20
 AHT30 .ohm.m                  :   16 Array Induction Two Foot Resistivity A30
 AHT60 .ohm.m                  :   17 Array Induction Two Foot Resistivity A60
 AHT90 .ohm.m                  :   18 Array Induction Two Foot Resistivity A90
 SP    .mV                     :   19 Spontaneous Potential
 AHMF  .ohm.m                  :   20 Array Induction Mud Resistivity Fully Calibrated
 HFK   .                       :   21 
 HSGR  .                       :   22 
 HTHO  .                       :   23 
 HTPR  .                       :   24 
 HTUR  .                       :   25 
 HUPR  .                       :   26 
 HURA  .                       :   27 
 PURA  .PPM                    :   28 Upper Limit of Formation Uranium Concentration {F13.4}
 RLA1  .ohm.m                  :   29 HRLT Borehole Corrected Resistivity 1
 RLA2  .ohm.m                  :   30 HRLT Borehole Corrected Resistivity 2
 RLA3  .ohm.m                  :   31 HRLT Borehole Corrected Resistivity 3
 RLA4  .ohm.m                  :   32 HRLT Borehole Corrected Resisitivity 4
 RLA5  .ohm.m                  :   33 HRLT Borehole Corrected Resistivity 5
 RT_HRLT.                      :   34 
 RXO_HRLT.                     :   35 
 ГК    .уе                     :   36 ГК(у.е)
 C1    .mm                     :   37 CALIPER DIAMETER 1
 C2    .mm                     :   38 CALIPER DIAMETER 2
 CALI  .mm                     :   39 Caliper
 BSC   .mm                     :   40 Nominal Caliper
 Incl  .                       :   41 НИ-М3 - Inclin
 AZIM  .                       :   42 Azimut
~A Log Data Section - Number of Curves = 42
# ...
830.52  21.1226 139.4411 126.0043  5.1331  2.9572  530.8041  9632.9600 6217.9460  23.1652 37.4347 -0.0147 214.2459  775.6239    5.8036    8.8930   21.3994   5.5278  67.3019  0.1199  0.8802  16.1285  0.1508  0.1713  0.3016  0.0828  0.0729  0.3994  -999.25   -999.25   -999.25   -999.25   -999.25   -999.25   -999.25  23.1652 219.1953 219.3930 219.2943 215.9000 -999.25  -999.25
830.62  21.1226 133.4593 120.7186  5.0361  2.9163  534.5355  9632.9600 6217.9460  23.1652 37.4347 -0.0147 213.7800  146.5474    6.4657    9.1918   41.5049   6.9138  66.9467  0.1197  0.8798  16.1210  0.1501  0.1705  0.3001  0.0833  0.0733  0.4011  -999.25   -999.25   -999.25   -999.25   -999.25   -999.25   -999.25  23.1652 219.1104 219.3930 219.2519 215.9000 -999.25  -999.25
830.72  21.1226   3.0838   4.4825  4.8179  2.7874  180.2031  9632.9600 6217.9460  23.1652 37.4347 -0.0147 213.6892   43.5078    9.7465    9.3860   34.6108   9.6735  66.5463  0.1194  0.8798  16.1210  0.1501  0.1705  0.3001  0.0833  0.0733  0.4011  -999.25   -999.25   -999.25   -999.25   -999.25   -999.25   -999.25  23.1652 218.8410 219.3495 219.0949 215.9000 -999.25  -999.25
830.82  21.1226   2.3083   3.2768  4.4790  2.5939    1.0815  9632.9600 6217.9460  23.1652 37.4347 -0.0147 213.7025   -999.25   -999.25   -999.25   -999.25  -999.25  66.0962  0.1190  0.8798  16.1210  0.1501  0.1705  0.3001  0.0833  0.0733  0.4011  -999.25   -999.25   -999.25   -999.25   -999.25   -999.25   -999.25  23.1652 218.3880 219.1637 218.7757 215.9000 -999.25  -999.25
830.92  21.1226   0.4481   0.4090  4.0803  2.3625    0.4687  9632.9600 6217.9460  23.1652 37.4347 -0.0147 213.1614   -999.25   -999.25   -999.25   -999.25  -999.25  65.6824  0.1186  0.8798  16.1210  0.1501  0.1705  0.3001  0.0833  0.0733  0.4011  -999.25   -999.25   -999.25   -999.25   -999.25   -999.25   -999.25  23.1652 218.1239 218.7735 218.4485 215.9000 -999.25  -999.25
831.02  21.1226   0.2034   0.1816  3.6930  2.1339    0.3441  9632.9600 6217.9460  23.1652 37.4347 -0.0147 215.8822   -999.25   -999.25   -999.25   -999.25  -999.25  65.2180  0.1196  0.8798  16.1210  0.1501  0.1705  0.3001  0.0833  0.0733  0.4011  -999.25   -999.25   -999.25   -999.25   -999.25   -999.25   -999.25  23.1652 218.1015 218.0874 218.0948 215.9000 -999.25  -999.25
831.12  21.1226   0.1941   0.1751  3.4258  1.9750    0.2501  9632.9600 6217.9460  23.1652 37.4347 -0.0147 243.4151   -999.25   -999.25   -999.25   -999.25  -999.25  64.6505  0.1233  0.8798  16.1210  0.1501  0.1705  0.3001  0.0833  0.0733  0.4011  -999.25   -999.25   -999.25   -999.25   -999.25   -999.25   -999.25  23.1652 217.4736 217.2994 217.3865 215.9000 -999.25  -999.25
831.22  21.1226   0.2062   0.1862  3.2682  1.8943    0.2119  9632.9600 6217.9460  23.1652 37.4347 -0.0147 282.5805   -999.25   -999.25   -999.25   -999.25  -999.25  79.9784  0.1271  0.8798  16.1210  0.1501  0.1705  0.3001  0.0833  0.0733  0.4011  -999.25   -999.25   -999.25   -999.25   -999.25   -999.25   -999.25  23.1652 216.8660 216.6729 216.7696 215.9000 -999.25  -999.25
831.32  21.1226   0.1664   0.1496  3.2505  1.8879    0.2467  9632.9600 6217.9460  23.1652 37.4347 -0.0147 342.2272   -999.25   -999.25   -999.25   -999.25  -999.25  94.7368  0.1299  0.8798  16.1210  0.1501  0.1705  0.3001  0.0833  0.0733  0.4011  -999.25   -999.25   -999.25   -999.25   -999.25   -999.25   -999.25  23.1652 225.5639 220.6733 223.0810 215.9000 -999.25  -999.25
831.42  21.1226   0.1996   0.1752  3.3620  1.9317    0.3054  9632.9600 6217.9460  23.1652 37.4347 -0.0147 354.5553   -999.25   -999.25   -999.25   -999.25  -999.25 100.5696  0.1305  0.8798  16.1210  0.1501  0.1705  0.3001  0.0833  0.0733  0.4011  -999.25   -999.25   -999.25   -999.25   -999.25   -999.25   -999.25  23.1652 260.5593 237.9418 248.9520 215.9000 -999.25  -999.25
831.52  21.1226   0.3344   0.3502  3.5810  1.9744    0.4380  9632.9600 6217.9460  23.1652 37.4347 -0.0147 358.4847   -999.25   -999.25   -999.25   -999.25  -999.25  98.9145  0.1312  0.8798  16.1210  0.1501  0.1705  0.3001  0.0833  0.0733  0.4011  -999.25   -999.25   -999.25   -999.25   -999.25   -999.25   -999.25  23.1652 303.9458 270.3100 286.5872 215.9000 -999.25  -999.25
831.62  21.1226   0.5672   0.8989 -999.25 -999.25    1.0767  9632.9600 6217.9460  23.1652 37.4347 -0.0147 322.2332   -999.25   -999.25   -999.25   -999.25  -999.25  95.5613  0.1315  0.8798  16.1210  0.1501  0.1705  0.3001  0.0833  0.0733  0.4011  -999.25   -999.25   -999.25   -999.25   -999.25   -999.25   -999.25  23.1652 335.8332 316.4933 326.0160 215.9000 -999.25  -999.25
831.72  21.1226   0.9836   1.4945 -999.25 -999.25   12.9014  9632.9600 6217.9460  23.1652 37.4347 -0.0147 315.5263   -999.25   -999.25   -999.25   -999.25  -999.25  93.3858  0.1308  0.8798  16.1210  0.1501  0.1705  0.3001  0.0833  0.0733  0.4011  -999.25   -999.25   -999.25   -999.25   -999.25   -999.25   -999.25  23.1652 372.8777 353.7999 363.2099 215.9000 -999.25  -999.25
831.82  21.1226   1.7411   2.4440 -999.25 -999.25   10.1399  9632.9600 6217.9460  23.1652 37.4347 -0.0147 317.2985   -999.25   -999.25   -999.25   -999.25  -999.25  83.9426  0.1300  0.8798  16.1210  0.1501  0.1705  0.3001  0.0833  0.0733  0.4011  -999.25   -999.25   -999.25   -999.25   -999.25   -999.25   -999.25  23.1652 403.3178 380.8915 391.9378 215.9000 -999.25  -999.25
831.92  21.1226   1.2097   1.5958 -999.25 -999.25    1.6400  9632.9600 6217.9460  23.1652 37.4347 -0.0147 312.5944   -999.25   -999.25   -999.25   -999.25  -999.25  73.8933  0.1295  0.8798  16.1210  0.1501  0.1705  0.3001  0.0833  0.0733  0.4011  -999.25   -999.25   -999.25   -999.25   -999.25   -999.25   -999.25  23.1652 403.6580 389.8503 396.6915 215.9000 -999.25  -999.25
832.02  21.1226   0.5781   0.5673 -999.25 -999.25    0.6830  9632.9600 6217.9460  23.1652 37.4347 -0.0147 314.5113   -999.25   -999.25   -999.25   -999.25  -999.25  71.6760  0.1298  0.8798  16.1210  0.1501  0.1705  0.3001  0.0833  0.0733  0.4011  -999.25   -999.25   -999.25   -999.25   -999.25   -999.25   -999.25  23.1652 380.2332 372.8215 376.5084 215.9000 -999.25  -999.25
832.12  21.1226   0.3068   0.2732 -999.25 -999.25    0.3930  9632.9600 6217.9460  23.1652 37.4347 -0.0147 325.9582   -999.25   -999.25   -999.25   -999.25  -999.25  67.5455  0.1302  0.8798  16.1210  0.1501  0.1705  0.3001  0.0833  0.0733  0.4011  -999.25   -999.25   -999.25   -999.25   -999.25   -999.25   -999.25  23.1652 346.9159 340.8886 343.8853 215.9000 -999.25  -999.25
832.22  21.1226   0.2069   0.1869 -999.25 -999.25    0.2792  9632.9600 6217.9460  23.1652 37.4347 -0.0147 328.6339   -999.25   -999.25   -999.25   -999.25  -999.25  63.1728  0.1304  0.8798  16.1210  0.1501  0.1705  0.3001  0.0833  0.0733  0.4011  -999.25   -999.25   -999.25   -999.25   -999.25   -999.25   -999.25  23.1652 331.3964 318.6020 324.9303 215.9000 -999.25  -999.25
832.32  21.1226   0.1825   0.1651 -999.25 -999.25    0.2206  9632.9600 6217.9460  23.1652 37.4347 -0.0147 304.0144   -999.25   -999.25   -999.25   -999.25  -999.25  62.2560  0.1302  0.8798  16.1210  0.1501  0.1705  0.3001  0.0833  0.0733  0.4011  -999.25   -999.25   -999.25   -999.25   -999.25   -999.25   -999.25  23.1652 314.9312 294.4718 304.5215 215.9000 -999.25  -999.25
832.42  21.1226   0.1600   0.1444 -999.25 -999.25    0.1991  9632.9600 6217.9460  23.1652 37.4347 -0.0147 283.7898   -999.25   -999.25   -999.25   -999.25  -999.25  61.5293  0.1300  0.8798  16.1210  0.1501  0.1705  0.3001  0.0833  0.0733  0.4011  -999.25   -999.25   -999.25   -999.25   -999.25   -999.25   -999.25  23.1652 298.9147 272.7769 285.5470 215.9000 -999.25  -999.25
832.52  21.1226   0.1511   0.1373 -999.25 -999.25    0.1992  9632.9600 6217.9460  23.1652 37.4347 -0.0147 260.4179   -999.25   -999.25   -999.25   -999.25  -999.25  60.9770  0.1308  0.8798  16.1210  0.1501  0.1705  0.3001  0.0833  0.0733  0.4011  -999.25   -999.25   -999.25   -999.25   -999.25   -999.25   -999.25  23.1652 284.1016 256.5286 269.9573 215.9000 -999.25  -999.25
832.62  21.1226   0.1673   0.1519 -999.25 -999.25    0.2058  9632.9600 6217.9460  23.1652 37.4347 -0.0147  99.3713   -999.25   -999.25   -999.25   -999.25  -999.25  60.9699  0.1401  0.8798  16.1210  0.1501  0.1705  0.3001  0.0833  0.0733  0.4011  -999.25   -999.25   -999.25   -999.25   -999.25   -999.25   -999.25  23.1652 256.3685 220.9379 237.9372 215.9000 -999.25  -999.25
