~VERSION INFORMATION
 VERS.                  2.0:   CWLS Log Ascii Standard
 WRAP.                   NO:   One line per depth step
~WELL INFORMATION
#MNEM.UNIT        DATA TYPE:   INFORMATION
#---------    -------------   --------------------------
 STRT.M                1.12:   Top Depth
 STOP.M              835.52:   Bottom Depth
 STEP.M                0.10:   Increment
 NULL.              -999.25:   Null Value
 SRVC.                  KPG:   Service Company/Logging company
 DATE.           06/15/2024:   LAS file Creation Date
 WELL.               342HRL:   Well Name
 COMP.  ТОО"Казактуркмунай":   Company
 FLD .             Каратюбе:   Field
 STATE.                    :   State
 COUNT.                    :   Country
 LOC .                     :   Location
 LATI.                     :   Latitude/Northing
 LONG.                     :   Longitude/Easting
 PDAT.                     :   Permanent Datum
 EPDAT.                    :   Elevation of Permanent Datum
 LGMEA.                    :   Log Measured from
 APDAT.                    :   Elevation Above Permanent Datum
 KB  .                     :   KB Elevation
 DF  .                     :   DF Elevation
 GL  .                     :   GL Elevation
 RWS .                     :   Def_Rw
 WST .                     :   Def_Rwt
 RIGN.                     :   Rig Name
 CNTY.                     :   County
 PROV.                     :   Province
~PARAMETER INFORMATION
#MNEM  .UNIT          Value:   Description
#---------    -------------   --------------------------
~CURVE INFORMATION
#MNEM  .UNIT           API Code:   Curve Description
#---------       -------------- -------------------------- 
 DEPTH .m                      :   1 (WLWorkflow)            (6in)                   Depth Index
 HGR   .GAPI                   :   2 High Resolution Gamma Ray {F13.4}
 HMIN  .Ohmm                   :   3 HIP Micro Inverse Resistivity
 HMNO  .Ohmm                   :   4 HIP Micro Normal Resistivity
 PEFZ  .B/E                    :   5 Formation Photoelectric Factor
 RHOZ  .g/cm3                  :   6 Bulk Density
 RXOZ  .ohm.m                  :   7 (HDRS-H)                (2in)                   Invaded Formation Resistivity filtered at 18 inches
 CFTC  .                       :   8 
 CNTC  .                       :   9 
 ГК    .уе                     :   10 ГК(у.е)
 MTEM_FILT.degC                :   11 Filtered Mud Temperature
 TNPH  .V/V                    :   12 Neutron porosity
 HCAL  .MM                     :   13 HRCC Caliper Calibrated {F13.4}
 AHT10 .ohm.m                  :   14 Array Induction Two Foot Resistivity A10
 AHT20 .ohm.m                  :   15 Array Induction Two Foot Resistivity A20
 AHT30 .ohm.m                  :   16 Array Induction Two Foot Resistivity A30
 AHT60 .ohm.m                  :   17 Array Induction Two Foot Resistivity A60
 AHT90 .ohm.m                  :   18 Array Induction Two Foot Resistivity A90
 SP    .mV                     :   19 Spontaneous Potential
 AHMF  .ohm.m                  :   20 Array Induction Mud Resistivity Fully Calibrated
 HFK   .                       :   21 
 HSGR  .                       :   22 
 HTHO  .                       :   23 
 HTPR  .                       :   24 
 HTUR  .                       :   25 
 HUPR  .                       :   26 
 HURA  .                       :   27 
 PURA  .PPM                    :   28 Upper Limit of Formation Uranium Concentration {F13.4}
 RLA1  .ohm.m                  :   29 HRLT Borehole Corrected Resistivity 1
 RLA2  .ohm.m                  :   30 HRLT Borehole Corrected Resistivity 2
 RLA3  .ohm.m                  :   31 HRLT Borehole Corrected Resistivity 3
 RLA4  .ohm.m                  :   32 HRLT Borehole Corrected Resisitivity 4
 RLA5  .ohm.m                  :   33 HRLT Borehole Corrected Resistivity 5
 RT_HRLT.                      :   34 
 RXO_HRLT.                     :   35 
 ГК    .уе                     :   36 ГК(у.е)
 C1    .mm                     :   37 CALIPER DIAMETER 1
 C2    .mm                     :   38 CALIPER DIAMETER 2
 CALI  .mm                     :   39 Caliper
 BSC   .mm                     :   40 Nominal Caliper
 Incl  .                       :   41 НИ-М3 - Inclin
 AZIM  .                       :   42 Azimut
~A Log Data Section - Number of Curves = 42
# ...
738.12  78.1022   1.0819   1.0025  2.6430  2.1922    1.4868   640.4979 1932.9249  88.6889 37.6832  0.3484 215.0560    1.3939    2.7467    2.7004    3.0817   3.1683  92.6839  0.1298  2.6788  78.3495  9.5423  3.5575 16.1480  0.2202  0.5906  0.9353   2.5203    2.6273    2.6936    2.7362    2.8198    2.9737    1.7684  88.6889 212.4800 212.9130 212.6960 215.9000  0.3989  23.2375
738.22  93.5751   1.1965   1.1115  2.7561  2.2298    1.3466   648.9574 1899.9608  92.0296 37.6832  0.3313 214.8350    1.3054    2.4824    2.4334    2.7296   2.7748  91.7673  0.1298  2.7732  82.8366 10.3225  3.7205 15.1367  0.2491  0.6926  1.0576   2.3168    2.3939    2.4485    2.4798    2.5514    2.6534    1.6698  92.0296 212.4800 212.7905 212.6349 215.9000  0.3942  23.2168
738.32 105.2597   0.5553   0.6374  2.8560  2.2717    1.2394   620.9581 1869.5022  93.6210 37.6853  0.3481 215.2628    1.2076    2.2045    2.1722    2.3619   2.4130  90.7570  0.1297  2.8473  86.9097 10.9294  3.8384 13.0312  0.2947  0.8391  1.2220   1.9503    1.9711    2.0077    2.0296    2.0766    2.0910    1.5844  93.6210 212.4926 212.9297 212.7110 215.9000  0.3891  23.3030
738.42  93.0001   0.3662   0.4504  2.9353  2.3059    1.1784   599.9793 1851.1686  92.5426 37.6866  0.3618 217.1771    1.1547    2.0247    1.9853    2.1291   2.1544  89.8185  0.1297  2.8586  86.7785 11.0249  3.8567 13.9725  0.2767  0.7909  1.1724   1.7614    1.7562    1.7867    1.8004    1.8352    1.8148    1.5928  92.5426 212.5793 213.1484 212.8635 215.9000  0.3835  23.5086
738.52  85.3187   0.3547   0.4472  2.9538  2.3326    1.1580   591.9092 1849.3581  87.9315 37.6866  0.3680 220.8008    1.1517    2.0106    1.9438    2.0972   2.0970  89.0301  0.1297  2.8231  85.7530 10.9439  3.8769 14.1628  0.2741  0.7732  1.1497   1.8260    1.8165    1.8487    1.8591    1.8961    1.8672    1.7143  87.9315 213.2554 213.6382 213.4468 215.9000  0.3773  23.9391
738.62  86.8419   0.4110   0.5373  2.9472  2.3474    1.2757   592.0703 1835.6758  85.4259 37.6883  0.3604 232.9338    1.1817    2.1208    2.0247    2.1811   2.1689  88.4427  0.1297  2.7357  83.7669 10.6695  3.9002 13.4716  0.2896  0.7921  1.1597   2.1126    2.1139    2.1462    2.1546    2.1902    2.1648    1.9769  85.4259 215.7678 214.8510 215.3082 215.9000  0.3714  24.3599
738.72  77.3230   0.4304   0.5834  2.9427  2.3491    1.4316   599.0547 1829.2317  83.9947 37.6903  0.3506 234.4116    1.2151    2.2253    2.1207    2.2570   2.2646  88.1305  0.1298  2.6294  80.6054  9.9715  3.7896 11.7659  0.3251  0.8527  1.2064   2.2617    2.2714    2.3105    2.3134    2.3444    2.3266    2.0884  83.9947 222.2986 216.1060 219.1665 215.9000  0.3657  24.7474
738.82  90.6744   0.3779   0.5148  2.9477  2.3570    1.6148   616.0996 1837.3581  83.9947 37.6923  0.3394 223.6732    1.2361    2.2686    2.1737    2.3348   2.3126  87.9754  0.1298  2.5461  78.2618  9.6012  3.7720 11.2406  0.3367  0.8578  1.2009   2.2438    2.2594    2.3002    2.3067    2.3266    2.3141    2.0743  83.9947 233.7712 216.3463 224.8763 215.9000  0.3613  25.5107
738.92  85.4992   0.3765   0.5152  2.9811  2.3689    1.5570   625.4696 1868.2853  86.9637 37.6926  0.3385 232.1136    1.2543    2.3001    2.2111    2.3644   2.2844  88.0356  0.1298  2.4961  77.1513  9.7204  3.8947 12.4347  0.3135  0.7827  1.1202   2.3497    2.3881    2.4358    2.4441    2.4648    2.4738    2.0588  86.9637 242.8564 214.8734 228.4288 215.9000  0.3586  26.3141
739.02  93.7680   0.3777   0.5187  3.0496  2.3736    1.5018   631.1393 1899.6779  89.1605 37.6929  0.3419 231.8078    1.2758    2.3524    2.2676    2.4060   2.2927  88.3423  0.1298  2.4805  76.1961  9.9684  4.0190 15.7278  0.2624  0.6513  0.9856   2.4534    2.5166    2.5667    2.5794    2.5977    2.6355    2.0440  89.1605 244.8557 213.6417 228.7070 215.9000  0.3587  27.1145
739.12  94.0561   0.3712   0.5007  3.1296  2.3763    1.5911   631.8245 1923.5088  88.6032 37.6938  0.3504 229.8776    1.2886    2.3754    2.2923    2.4383   2.3319  88.6868  0.1298  2.4606  75.0760 10.1132  4.1102 18.4727  0.2129  0.5245  0.8556   2.4203    2.4827    2.5428    2.5618    2.5756    2.6232    1.9829  88.6032 239.0929 214.1033 226.2532 215.9000  0.3594  27.7817
739.22  82.4914   0.3764   0.5154  3.2148  2.3740    1.5195   642.6433 1915.6129  87.3080 37.6940  0.3390 220.7566    1.2889    2.3459    2.2705    2.4346   2.3734  89.0194  0.1298  2.4268  73.6459 10.0581  4.1447 19.8875  0.1713  0.4160  0.7432   2.3666    2.3823    2.4559    2.4775    2.4893    2.5069    1.9983  87.3080 242.9984 213.9729 228.0175 215.9000  0.3612  28.3909
739.32  94.7518   0.3769   0.5169  3.3044  2.3680    1.4608   657.6031 1898.2675  86.0182 37.6942  0.3208 223.5353    1.2775    2.2850    2.2246    2.3783   2.3430  89.4730  0.1298  2.3852  73.5281 10.1948  4.2757 20.3896  0.1693  0.4036  0.7322   2.2605    2.2523    2.3413    2.3603    2.3768    2.3877    1.8957  86.0182 244.4227 213.5365 228.4401 215.9000  0.3651  28.9266
739.42  80.5610   0.3690   0.4934  3.3736  2.3631    1.4228   676.6964 1877.0191  85.2164 37.6950  0.2981 227.2637    1.2461    2.1982    2.1617    2.3193   2.2967  89.8966  0.1298  2.3520  73.7218 10.1294  4.3063 18.9076  0.2045  0.4804  0.8111   2.1313    2.1137    2.2037    2.2164    2.2364    2.2405    1.7971  85.2164 232.6379 213.3166 222.7625 215.9000  0.3641  29.1087
739.52  75.1550   0.3625   0.4740  3.4186  2.3567    1.3714   668.5624 1853.3068  84.3242 37.6951  0.2969 236.8173    1.2299    2.1276    2.1037    2.2587   2.2793  90.1650  0.1298  2.3394  74.0852  9.5626  4.0874 13.5513  0.3041  0.7110  1.0432   2.0122    1.9832    2.0687    2.0873    2.1066    2.0983    1.7406  84.3242 227.7201 213.7651 220.6316 215.9000  0.3637  29.1586
739.62  89.1016   0.3946   0.5155  3.4343  2.3637    1.2090   651.6645 1838.1238  83.9829 37.6954  0.3058 238.3335    1.2121    2.1009    2.0953    2.2367   2.2338  90.5009  0.1298  2.4207  75.1892  9.1782  3.7992 12.3710  0.3070  0.7418  1.0792   2.1219    2.0996    2.1762    2.2013    2.2281    2.2210    1.8182  83.9829 227.4265 214.1329 220.6793 215.9000  0.3684  29.0957
739.72  92.0202   0.4089   0.5118  3.4220  2.3748    1.1179   635.8103 1854.2447  85.5865 37.6966  0.3242 231.1874    1.2038    2.0652    2.0727    2.2064   2.1928  90.9442  0.1298  2.4926  75.8516  8.8417  3.5469 12.3875  0.2865  0.7143  1.0539   2.0775    2.0599    2.1103    2.1374    2.1649    2.1438    1.8689  85.5865 228.9897 213.6573 221.1893 215.9000  0.3722  29.1875
739.82  85.5912   0.3768   0.4602  3.3962  2.3800    1.1268   629.1748 1874.4064  85.3147 37.6970  0.3326 240.4215    1.2106    2.0417    2.0448    2.1785   2.1454  91.6722  0.1298  2.4802  74.9026  8.5107  3.4313 12.7971  0.2683  0.6656  0.9972   2.0055    1.9875    2.0121    2.0394    2.0681    2.0349    1.9117  85.3147 233.2466 214.0197 223.4236 215.9000  0.3749  29.2951
739.92  80.4441   0.3864   0.4744  3.3572  2.3998    1.0645   628.7974 1896.8361  83.9000 37.6973  0.3371 252.1444    1.2580    2.1399    2.1347    2.2663   2.2140  92.3892  0.1298  2.4730  73.6676  8.4444  3.4147 14.8846  0.2000  0.4949  0.8200   2.2299    2.2339    2.2545    2.2889    2.3256    2.3007    2.0300  83.9000 241.3050 214.2403 227.3500 215.9000  0.3748  29.2825
740.02  73.9470   0.4252   0.5248  3.3107  2.4139    1.1609   638.9308 1921.7092  80.9408 37.6991  0.3435 229.5099    1.2934    2.2319    2.1997    2.3420   2.3233  93.0737  0.1297  2.4623  72.7142  8.4795  3.4439 16.9591  0.1417  0.3487  0.6699   2.4369    2.4489    2.4668    2.5059    2.5482    2.5302    2.1554  80.9408 253.4813 213.1309 232.4195 215.9000  0.3774  29.3892
740.12  81.1339   0.4402   0.5652  3.2674  2.3996    1.3630   648.3883 1942.3691  78.7000 37.6997  0.3438 216.5363    1.3215    2.2803    2.2618    2.4049   2.3675  93.6317  0.1297  2.4343  73.0224  8.5588  3.5162 17.1176  0.1726  0.4197  0.7453   2.3987    2.4235    2.4351    2.4720    2.5207    2.5080    2.0990  78.7000 264.3517 213.3534 237.4816 215.9000  0.3804  29.4706
740.22  74.4674   0.3894   0.5305  3.2239  2.3882    1.5444   655.7620 1962.0560  77.0801 37.7000  0.3428 215.6304    1.3170    2.3215    2.3118    2.4547   2.4088  94.3452  0.1297  2.4276  73.0401  8.5549  3.5240 17.1099  0.1928  0.4682  0.7972   2.4034    2.4099    2.4206    2.4646    2.5161    2.4922    2.1211  77.0801 265.7862 214.2430 238.5984 215.9000  0.3802  29.2035
