~VERSION INFORMATION
 VERS.                  2.0:   CWLS Log Ascii Standard
 WRAP.                   NO:   One line per depth step
~WELL INFORMATION
#MNEM.UNIT        DATA TYPE:   INFORMATION
#---------    -------------   --------------------------
 STRT.M                1.12:   Top Depth
 STOP.M              835.52:   Bottom Depth
 STEP.M                0.10:   Increment
 NULL.              -999.25:   Null Value
 SRVC.                  KPG:   Service Company/Logging company
 DATE.           06/15/2024:   LAS file Creation Date
 WELL.               342HRL:   Well Name
 COMP.  ТОО"Казактуркмунай":   Company
 FLD .             Каратюбе:   Field
 STATE.                    :   State
 COUNT.                    :   Country
 LOC .                     :   Location
 LATI.                     :   Latitude/Northing
 LONG.                     :   Longitude/Easting
 PDAT.                     :   Permanent Datum
 EPDAT.                    :   Elevation of Permanent Datum
 LGMEA.                    :   Log Measured from
 APDAT.                    :   Elevation Above Permanent Datum
 KB  .                     :   KB Elevation
 DF  .                     :   DF Elevation
 GL  .                     :   GL Elevation
 RWS .                     :   Def_Rw
 WST .                     :   Def_Rwt
 RIGN.                     :   Rig Name
 CNTY.                     :   County
 PROV.                     :   Province
~PARAMETER INFORMATION
#MNEM  .UNIT          Value:   Description
#---------    -------------   --------------------------
~CURVE INFORMATION
#MNEM  .UNIT           API Code:   Curve Description
#---------       -------------- -------------------------- 
 DEPTH .m                      :   1 (WLWorkflow)            (6in)                   Depth Index
 HGR   .GAPI                   :   2 High Resolution Gamma Ray {F13.4}
 HMIN  .Ohmm                   :   3 HIP Micro Inverse Resistivity
 HMNO  .Ohmm                   :   4 HIP Micro Normal Resistivity
 PEFZ  .B/E                    :   5 Formation Photoelectric Factor
 RHOZ  .g/cm3                  :   6 Bulk Density
 RXOZ  .ohm.m                  :   7 (HDRS-H)                (2in)                   Invaded Formation Resistivity filtered at 18 inches
 CFTC  .                       :   8 
 CNTC  .                       :   9 
 ГК    .уе                     :   10 ГК(у.е)
 MTEM_FILT.degC                :   11 Filtered Mud Temperature
 TNPH  .V/V                    :   12 Neutron porosity
 HCAL  .MM                     :   13 HRCC Caliper Calibrated {F13.4}
 AHT10 .ohm.m                  :   14 Array Induction Two Foot Resistivity A10
 AHT20 .ohm.m                  :   15 Array Induction Two Foot Resistivity A20
 AHT30 .ohm.m                  :   16 Array Induction Two Foot Resistivity A30
 AHT60 .ohm.m                  :   17 Array Induction Two Foot Resistivity A60
 AHT90 .ohm.m                  :   18 Array Induction Two Foot Resistivity A90
 SP    .mV                     :   19 Spontaneous Potential
 AHMF  .ohm.m                  :   20 Array Induction Mud Resistivity Fully Calibrated
 HFK   .                       :   21 
 HSGR  .                       :   22 
 HTHO  .                       :   23 
 HTPR  .                       :   24 
 HTUR  .                       :   25 
 HUPR  .                       :   26 
 HURA  .                       :   27 
 PURA  .PPM                    :   28 Upper Limit of Formation Uranium Concentration {F13.4}
 RLA1  .ohm.m                  :   29 HRLT Borehole Corrected Resistivity 1
 RLA2  .ohm.m                  :   30 HRLT Borehole Corrected Resistivity 2
 RLA3  .ohm.m                  :   31 HRLT Borehole Corrected Resistivity 3
 RLA4  .ohm.m                  :   32 HRLT Borehole Corrected Resisitivity 4
 RLA5  .ohm.m                  :   33 HRLT Borehole Corrected Resistivity 5
 RT_HRLT.                      :   34 
 RXO_HRLT.                     :   35 
 ГК    .уе                     :   36 ГК(у.е)
 C1    .mm                     :   37 CALIPER DIAMETER 1
 C2    .mm                     :   38 CALIPER DIAMETER 2
 CALI  .mm                     :   39 Caliper
 BSC   .mm                     :   40 Nominal Caliper
 Incl  .                       :   41 НИ-М3 - Inclin
 AZIM  .                       :   42 Azimut
~A Log Data Section - Number of Curves = 42
# ...
784.32  71.8072   0.7909   0.8759  3.4073  2.4439    1.9985   911.4238 2292.5263  68.4314 37.6222  0.2509 219.4971    1.3338    2.2803    2.2721    2.4379   2.4302  97.5625  0.1290  2.3697  69.3412  5.5944  2.3613  4.4803  0.5280  1.2502  1.6630   2.1601    2.2076    2.2296    2.2406    2.2984    2.3111    1.8032  68.4314 215.3729 220.1081 217.7231 215.9000  0.6622 334.9392
784.42  65.9646   0.8554   0.9633  3.1510  2.4214    1.9734   921.8975 2288.3298  67.9136 37.6219  0.2449 220.2263    1.3366    2.3116    2.2762    2.4511   2.4369  97.5625  0.1290  2.3691  68.8958  5.5669  2.3498  4.8127  0.4897  1.1607  1.5715   2.2811    2.3217    2.3616    2.3723    2.4291    2.4516    1.8617  67.9136 214.7085 223.1072 218.8671 215.9000  0.6662 334.5462
784.52  64.1045   1.2673   1.3111  2.9847  2.4007    1.9470   915.9945 2275.0107  69.5276 37.6219  0.2454 220.0053    1.3295    2.3038    2.2724    2.4374   2.4322  97.5625  0.1290  2.3273  67.5702  5.3930  2.3151  4.8641  0.4810  1.1168  1.5205   2.2328    2.2778    2.3276    2.3440    2.3976    2.4420    1.7458  69.5276 216.4318 221.9588 219.1763 215.9000  0.6686 334.2209
784.62  70.6837   1.7112   1.5115  2.8994  2.3819    1.9835   918.0703 2301.0558  69.8321 37.6207  0.2491 219.7782    1.3227    2.2813    2.2436    2.3998   2.3917  97.5625  0.1290  2.2208  64.9178  4.7829  2.1508  3.8566  0.5658  1.2532  1.6423   2.0790    2.1091    2.1560    2.1719    2.2212    2.2468    1.6700  69.8321 219.0506 220.5456 219.7940 215.9000  0.6702 333.9653
784.72  81.0012   1.3887   1.2340  2.8798  2.3711    1.9722   923.6790 2349.0722  69.4610 37.6192  0.2551 219.8011    1.3311    2.3039    2.2443    2.3939   2.3837  97.5625  0.1290  2.1152  61.7185  4.4726  2.1151  3.7720  0.5627  1.1927  1.5651   2.1111    2.1458    2.1951    2.2141    2.2620    2.2927    1.6897  69.4610 220.7440 220.2221 220.4806 215.9000  0.6709 333.9089
784.82  75.4518   1.3214   1.1977  2.8845  2.3706    1.9417   923.6891 2402.7742  69.3074 37.6192  0.2648 220.4694    1.3598    2.4273    2.3464    2.4753   2.4641  97.5625  0.1290  2.0087  58.2955  4.2630  2.1215  4.0134  0.5286  1.0618  1.4163   2.3003    2.3473    2.4074    2.4324    2.4821    2.5333    1.7983  69.3074 218.7548 222.2396 220.4898 215.9000  0.6730 333.8355
784.92  59.4882   1.6190   1.4625  2.8763  2.3716    2.1290   928.5041 2449.2059  64.9689 37.6182  0.2708 220.5940    1.4000    2.5645    2.4628    2.6025   2.5976  97.5625  0.1290  1.8966  54.9250  3.9167  2.0637  3.9163  0.5269  0.9995  1.3351   2.5201    2.5576    2.6354    2.6656    2.7217    2.7794    1.9477  64.9689 217.2470 222.3003 219.7591 215.9000  0.6754 333.7740
785.02  61.5666   2.2312   1.9717  2.8799  2.3679    2.3947   937.9496 2489.9189  58.3038 37.6168  0.2735 220.8008    1.4293    2.6678    2.5435    2.7066   2.6702  97.5132  0.1290  1.8250  53.2988  3.7941  2.0798  3.8033  0.5474  0.9981  1.3244   2.5992    2.6407    2.7220    2.7518    2.8055    2.8713    1.9925  58.3038 216.7761 224.3509 220.5172 215.9000  0.6741 333.8674
785.12  52.0317   2.1961   1.9496  2.8995  2.3614    2.7728   963.8077 2520.6052  56.9675 37.6168  0.2664 220.8697    1.4374    2.6849    2.5560    2.7233   2.6692  97.3838  0.1290  1.7797  52.6251  3.7851  2.1268  3.6896  0.5765  1.0259  1.3482   2.5934    2.6519    2.7359    2.7663    2.8169    2.9010    1.9603  56.9675 217.1318 234.9551 225.8613 215.9000  0.6760 333.9821
785.22  48.9674   2.0946   1.8836  2.9820  2.3520    2.7614   999.3852 2542.5565  54.6752 37.6153  0.2541 221.1340    1.4178    2.6340    2.5231    2.7028   2.6361  96.7127  0.1290  1.7664  52.0482  3.7271  2.1099  3.6332  0.5808  1.0258  1.3466   2.5850    2.6332    2.7147    2.7360    2.7960    2.8591    2.0036  54.6752 217.9432 241.1855 229.2699 215.9000  0.6795 334.1083
785.32  61.3306   2.0708   1.8801  3.1682  2.3418    2.6866  1041.0005 2555.6799  51.7572 37.6128  0.2382 220.8008    1.4074    2.5982    2.4597    2.6476   2.5491  96.1813  0.1290  1.7575  51.3639  3.7296  2.1222  3.9635  0.5411  0.9512  1.2691   2.5310    2.5662    2.6294    2.6527    2.7161    2.7529    2.0169  51.7572 218.7356 241.5966 229.8818 215.9000  0.6799 334.2015
785.42  51.1972   1.9180   1.7649  3.4376  2.3283    2.5383  1020.7155 2514.4420  53.8949 37.6128  0.2400 220.5250    1.4026    2.5586    2.4439    2.6312   2.5263  95.7495  0.1290  1.7497  50.6708  3.7565  2.1469  4.4520  0.4835  0.8457  1.1604   2.5010    2.5343    2.5871    2.6123    2.6755    2.6986    2.0398  53.8949 218.6220 242.3420 230.1764 215.9000  0.6797 334.3167
785.52  55.3337   1.5152   1.4579  3.7078  2.3305    2.3990   987.1141 2464.8112  56.8468 37.6120  0.2466 220.2263    1.3911    2.5063    2.4207    2.6041   2.4849  94.8384  0.1290  1.7214  50.7002  3.6011  2.0916  3.7941  0.5575  0.9587  1.2739   2.5218    2.5263    2.5819    2.6093    2.6873    2.6892    2.0763  56.8468 218.6298 242.9817 230.4846 215.9000  0.6790 334.4502
785.62  57.2097   1.5381   1.4425  3.8986  2.3633    1.9835   940.1963 2406.7875  60.6128 37.6104  0.2579 219.1003    1.3837    2.4630    2.3888    2.5732   2.4651  94.0572  0.1290  1.7344  51.7723  3.5966  2.0735  3.3465  0.6221  1.0804  1.4025   2.5172    2.5164    2.5747    2.6054    2.6880    2.6983    2.0141  60.6128 218.8708 241.0530 229.6890 215.9000  0.6773 334.5935
785.72  68.1292   1.1429   1.1075  3.9191  2.3862    1.6774   880.8470 2309.0944  66.5066 37.6104  0.2702 218.0168    1.3677    2.4383    2.3736    2.5704   2.4501  93.4059  0.1290  1.7811  53.7255  3.7170  2.0869  3.0679  0.6809  1.2129  1.5470   2.3691    2.3731    2.4281    2.4543    2.5413    2.5559    1.8739  66.5066 218.7587 233.6326 226.0678 215.9000  0.6757 334.7008
785.82  75.4196   0.5371   0.6420  3.7739  2.3815    1.4574   821.3376 2227.5718  69.7568 37.6100  0.2877 218.5028    1.3360    2.3551    2.2873    2.5076   2.3883  93.1338  0.1290  1.8202  56.5860  3.8801  2.1312  2.6905  0.8008  1.4600  1.8094   2.1325    2.1198    2.1607    2.1870    2.2702    2.2588    1.7469  69.7568 218.5592 228.2581 223.3560 215.9000  0.6742 334.7721
785.92  73.9447   0.4330   0.5378  3.5624  2.3774    1.4257   761.9381 2165.9823  69.8525 37.6092  0.3116 218.5028    1.3122    2.2743    2.2336    2.4280   2.3204  92.9209  0.1291  1.8479  58.7712  4.0247  2.1777  2.4671  0.8833  1.6327  1.9930   1.9978    1.9848    2.0121    2.0370    2.1203    2.0994    1.6666  69.8525 218.4904 227.7485 223.0713 215.9000  0.6703 334.9198
786.02  65.5179   0.6633   0.7447  3.3793  2.3665    1.3500   760.2505 2151.6545  67.4824 37.6092  0.3092 219.0773    1.3024    2.2670    2.2115    2.3878   2.2861  92.7685  0.1291  1.8643  60.2812  4.1507  2.2264  2.3979  0.9285  1.7311  2.0979   2.0558    2.0613    2.0916    2.1205    2.2132    2.2190    1.6219  67.4824 219.1597 227.6266 223.3528 215.9000  0.6681 335.0580
786.12  63.8653   0.7647   0.8301  3.2721  2.3480    1.2675   763.3551 2173.8202  64.7144 37.6088  0.3119 218.5028    1.3077    2.2856    2.2334    2.3871   2.2956  92.9115  0.1291  1.8772  60.5649  4.1425  2.2068  2.3018  0.9594  1.8012  2.1708   2.0811    2.1044    2.1389    2.1716    2.2688    2.2996    1.5805  64.7144 222.4361 227.6283 225.0114 215.9000  0.6678 335.1832
786.22  64.9534   0.4627   0.5596  3.2240  2.3454    1.4668   767.1049 2243.3816  61.6410 37.6080  0.3250 221.1101    1.3224    2.3042    2.2614    2.4027   2.3250  93.1357  0.1291  1.8981  60.9274  4.1825  2.2034  2.2894  0.9630  1.8274  2.2008   2.0523    2.0744    2.1109    2.1344    2.2341    2.2530    1.6011  61.6410 226.8314 227.7172 227.2732 215.9000  0.6658 335.1750
786.32  64.2481   0.5368   0.6399  3.1992  2.3725    1.5927   851.0458 2330.0473  64.7382 37.6079  0.2931 217.9284    1.3261    2.3540    2.3124    2.4316   2.3685  93.4450  0.1291  1.9283  61.4116  4.2823  2.2208  2.3760  0.9348  1.8024  2.1813   2.2187    2.2365    2.2768    2.2993    2.4098    2.4285    1.7252  64.7382 224.4238 227.5639 225.9873 215.9000  0.6638 335.1828
786.42  61.8757   1.5755   1.4895  3.1462  2.3942    1.8057   945.0841 2434.0106  68.1791 37.6074  0.2617 218.1714    1.3353    2.4047    2.3405    2.4810   2.4108  93.6476  0.1291  2.0255  63.7479  4.6058  2.2724  2.5833  0.8822  1.7838  2.1763   2.3734    2.4252    2.4716    2.5012    2.6201    2.6899    1.7446  68.1791 222.0821 223.8007 222.9224 215.9000  0.6618 335.2281
