~VERSION INFORMATION
 VERS.                  2.0:   CWLS Log Ascii Standard
 WRAP.                   NO:   One line per depth step
~WELL INFORMATION
#MNEM.UNIT        DATA TYPE:   INFORMATION
#---------    -------------   --------------------------
 STRT.M                1.12:   Top Depth
 STOP.M              835.52:   Bottom Depth
 STEP.M                0.10:   Increment
 NULL.              -999.25:   Null Value
 SRVC.                  KPG:   Service Company/Logging company
 DATE.           06/15/2024:   LAS file Creation Date
 WELL.               342HRL:   Well Name
 COMP.  ТОО"Казактуркмунай":   Company
 FLD .             Каратюбе:   Field
 STATE.                    :   State
 COUNT.                    :   Country
 LOC .                     :   Location
 LATI.                     :   Latitude/Northing
 LONG.                     :   Longitude/Easting
 PDAT.                     :   Permanent Datum
 EPDAT.                    :   Elevation of Permanent Datum
 LGMEA.                    :   Log Measured from
 APDAT.                    :   Elevation Above Permanent Datum
 KB  .                     :   KB Elevation
 DF  .                     :   DF Elevation
 GL  .                     :   GL Elevation
 RWS .                     :   Def_Rw
 WST .                     :   Def_Rwt
 RIGN.                     :   Rig Name
 CNTY.                     :   County
 PROV.                     :   Province
~PARAMETER INFORMATION
#MNEM  .UNIT          Value:   Description
#---------    -------------   --------------------------
~CURVE INFORMATION
#MNEM  .UNIT           API Code:   Curve Description
#---------       -------------- -------------------------- 
 DEPTH .m                      :   1 (WLWorkflow)            (6in)                   Depth Index
 HGR   .GAPI                   :   2 High Resolution Gamma Ray {F13.4}
 HMIN  .Ohmm                   :   3 HIP Micro Inverse Resistivity
 HMNO  .Ohmm                   :   4 HIP Micro Normal Resistivity
 PEFZ  .B/E                    :   5 Formation Photoelectric Factor
 RHOZ  .g/cm3                  :   6 Bulk Density
 RXOZ  .ohm.m                  :   7 (HDRS-H)                (2in)                   Invaded Formation Resistivity filtered at 18 inches
 CFTC  .                       :   8 
 CNTC  .                       :   9 
 ГК    .уе                     :   10 ГК(у.е)
 MTEM_FILT.degC                :   11 Filtered Mud Temperature
 TNPH  .V/V                    :   12 Neutron porosity
 HCAL  .MM                     :   13 HRCC Caliper Calibrated {F13.4}
 AHT10 .ohm.m                  :   14 Array Induction Two Foot Resistivity A10
 AHT20 .ohm.m                  :   15 Array Induction Two Foot Resistivity A20
 AHT30 .ohm.m                  :   16 Array Induction Two Foot Resistivity A30
 AHT60 .ohm.m                  :   17 Array Induction Two Foot Resistivity A60
 AHT90 .ohm.m                  :   18 Array Induction Two Foot Resistivity A90
 SP    .mV                     :   19 Spontaneous Potential
 AHMF  .ohm.m                  :   20 Array Induction Mud Resistivity Fully Calibrated
 HFK   .                       :   21 
 HSGR  .                       :   22 
 HTHO  .                       :   23 
 HTPR  .                       :   24 
 HTUR  .                       :   25 
 HUPR  .                       :   26 
 HURA  .                       :   27 
 PURA  .PPM                    :   28 Upper Limit of Formation Uranium Concentration {F13.4}
 RLA1  .ohm.m                  :   29 HRLT Borehole Corrected Resistivity 1
 RLA2  .ohm.m                  :   30 HRLT Borehole Corrected Resistivity 2
 RLA3  .ohm.m                  :   31 HRLT Borehole Corrected Resistivity 3
 RLA4  .ohm.m                  :   32 HRLT Borehole Corrected Resisitivity 4
 RLA5  .ohm.m                  :   33 HRLT Borehole Corrected Resistivity 5
 RT_HRLT.                      :   34 
 RXO_HRLT.                     :   35 
 ГК    .уе                     :   36 ГК(у.е)
 C1    .mm                     :   37 CALIPER DIAMETER 1
 C2    .mm                     :   38 CALIPER DIAMETER 2
 CALI  .mm                     :   39 Caliper
 BSC   .mm                     :   40 Nominal Caliper
 Incl  .                       :   41 НИ-М3 - Inclin
 AZIM  .                       :   42 Azimut
~A Log Data Section - Number of Curves = 42
# ...
227.72 100.9204   0.4655   0.5343  2.8276  2.0405    0.9981   334.2288 1296.2571  91.3267 32.7979  0.5397 211.6091    1.3496    2.5467    2.7499    3.2531   3.3146  82.3662  0.1517  3.1858  93.4666 12.7573  4.0052 25.5147 -0.0528 -0.1675  0.2053   2.7109    2.8955    3.0281    3.1090    3.1918    3.5484    1.9023  91.3267 216.0240 216.6445 216.3339 215.9000  0.8089 222.6067
227.82  91.3460   0.3946   0.4661  2.7879  2.0283    0.9893   336.5780 1294.9723  99.6656 32.8039  0.5318 211.3563    1.3645    2.5786    2.7998    3.3015   3.3345  82.0390  0.1517  3.1495  93.0041 12.2236  3.8805 24.4472  0.0182  0.0508  0.4225   2.7399    2.9230    3.0536    3.1312    3.2228    3.5725    1.9266  99.6656 215.8440 215.9324 215.8882 215.9000  0.8067 222.5028
227.92  94.5055   0.3989   0.4767  2.7445  2.0263    0.9753   340.0309 1294.1244 100.3947 32.8050  0.5226 215.5863    1.3802    2.6173    2.8260    3.3256   3.3533  81.7336  0.1517  3.0184  91.4154 11.6093  3.8459 23.2187  0.1299  0.3895  0.7548   2.7762    2.9694    3.0994    3.1765    3.2809    3.6449    1.9706 100.3947 215.1759 215.7294 215.4525 215.9000  0.8030 222.3725
228.02 115.0469   0.4387   0.5181  2.6940  2.0313    0.9928   342.7749 1295.3815 100.4688 32.8068  0.5170 209.8856    1.3928    2.6677    2.8823    3.3800   3.4650  81.7605  0.1517  3.0643  92.7137 11.2410  3.6710 18.6814  0.1934  0.5950  0.9629   2.8145    3.0150    3.1427    3.2253    3.3337    3.7089    2.0080 100.4688 214.7713 216.1262 215.4478 215.9000  0.7970 222.1859
228.12 102.4541   0.4692   0.5410  2.6615  2.0386    1.0304   343.2994 1301.3266 102.9124 32.8129  0.5201 209.4990    1.4037    2.6843    2.8789    3.3942   3.4494  81.8759  0.1518  3.1465  94.5015 11.2208  3.5652 17.2526  0.2100  0.6583  1.0312   2.8453    3.0556    3.1823    3.2552    3.3732    3.7542    2.0399 102.9124 216.1074 217.0699 216.5871 215.9000  0.7935 222.2256
228.22  87.2592   0.5157   0.5746  2.6483  2.0473    1.0514   340.1649 1284.8837  98.3998 32.8143  0.5174 209.3111    1.4096    2.7138    2.8803    3.4014   3.3900  82.0276  0.1519  3.2477  96.4018 11.8047  3.6343 22.8179  0.1495  0.4841  0.8639   2.8312    3.0338    3.1644    3.2359    3.3557    3.7303    2.0241  98.3998 219.6737 217.5789 218.6216 215.9000  0.7902 222.3138
228.32 101.4540   0.5683   0.6165  2.6456  2.0516    1.0835   334.4907 1263.7809  93.3902 32.8152  0.5186 209.3111    1.4220    2.7218    2.9188    3.4409   3.3805  82.2434  0.1520  3.1840  96.1905 12.2358  3.8473 24.4715  0.1286  0.4103  0.7860   2.8552    3.0539    3.1903    3.2618    3.3817    3.7579    2.0448  93.3902 221.8913 218.5840 220.2272 215.9000  0.7862 222.3992
228.42  92.4211   0.5880   0.6376  2.6554  2.0509    1.1308   324.4762 1248.7607  93.1229 32.8191  0.5366 207.0592    1.4291    2.7427    2.9570    3.4785   3.4143  82.5261  0.1521  3.1073  95.3240 12.3509  3.9744 24.6034  0.1291  0.4009  0.7710   2.8894    3.0938    3.2273    3.2999    3.4320    3.8152    2.0841  93.1229 218.9244 220.3523 219.6366 215.9000  0.7837 222.6025
228.52  89.8403   0.5896   0.6482  2.6705  2.0491    1.1428   318.6239 1236.6156  92.3839 32.8201  0.5443 209.3111    1.4369    2.7305    2.9586    3.4722   3.4043  82.9521  0.1521  3.0850  94.0103 11.8074  3.8270 23.1881  0.1590  0.4904  0.8567   2.8886    3.0873    3.2139    3.2861    3.4233    3.7909    2.0810  92.3839 217.6255 219.3479 218.4841 215.9000  0.7814 222.8429
228.62  90.7381   0.5986   0.6490  2.6919  2.0457    1.1512   313.9010 1227.5529  92.4261 32.8210  0.5525 209.6558    1.4362    2.7151    2.9651    3.4651   3.3881  83.0038  0.1521  3.0012  92.7723 11.5911  3.8640 18.6849  0.2182  0.6508  1.0131   2.8370    3.0379    3.1635    3.2405    3.3774    3.7601    2.0837  92.4261 217.0846 218.2728 217.6752 215.9000  0.7785 223.0883
228.72  95.2179   0.5933   0.6397  2.7188  2.0404    1.1380   307.2205 1226.3477  96.3264 32.8250  0.5785 207.5418    1.4351    2.6939    2.9391    3.4412   3.3613  82.9565  0.1521  2.9458  92.4259 11.6750  3.9622 16.1352  0.2532  0.7442  1.1057   2.8228    3.0151    3.1441    3.2151    3.3633    3.7374    2.0753  96.3264 215.5710 220.6962 218.1174 215.9000  0.7750 223.3801
228.82  94.2215   0.5427   0.6057  2.7350  2.0314    1.1511   312.6035 1224.2233  95.3028 32.8263  0.5603 203.8647    1.4376    2.6778    2.9468    3.4513   3.3819  83.0960  0.1521  3.0307  94.6869 12.3659  4.0790 22.2131  0.1897  0.5731  0.9440   2.8363    3.0128    3.1420    3.2149    3.3748    3.7291    2.0671  95.3028 213.4832 220.9993 217.2086 215.9000  0.7715 223.6972
228.92 101.9608   0.4479   0.5455  2.7409  2.0200    1.1389   322.0833 1223.5466  92.2326 32.8268  0.5282 202.0727    1.4395    2.6585    2.9679    3.4444   3.3958  83.8797  0.1522  3.0562  96.2243 12.2413  4.0054 17.7490  0.2595  0.7931  1.1711   2.8167    2.9782    3.1007    3.1806    3.3401    3.6681    2.0282  92.2326 211.4021 220.1250 215.7198 215.9000  0.7684 224.0433
229.02  85.8154   0.3923   0.4943  2.7372  2.0085    1.0007   322.6088 1233.5243  90.6956 32.8305  0.5357 198.3960    1.4407    2.6416    2.9680    3.4063   3.3437  84.8265  0.1522  3.0417  96.9178 11.9204  3.9202 11.1880  0.3513  1.0692  1.4509   2.8506    3.0049    3.1295    3.2062    3.3755    3.6953    2.0550  90.6956 210.2589 219.6818 214.9189 215.9000  0.7645 224.4137
229.12  72.7314   0.3659   0.4346  2.7203  2.0048    0.8901   326.9798 1235.4528  89.8745 32.8318  0.5258 197.2471    1.4497    2.6393    2.9444    3.4032   3.3033  84.9792  0.1522  2.9593  95.3611 12.0836  4.0851 12.6380  0.3244  0.9609  1.3359   2.8893    3.0478    3.1745    3.2559    3.4325    3.7666    2.0944  89.8745 208.7109 217.0408 212.8342 215.9000  0.7603 224.7832
229.22  88.8616   0.3502   0.3920  2.7057  2.0160    0.7908   332.1512 1234.6445  89.6753 32.8322  0.5116 197.7066    1.4568    2.6335    2.9447    3.4144   3.3221  85.1864  0.1522  2.8995  93.7113 11.8902  4.1002 12.3988  0.3318  0.9615  1.3312   2.8445    3.0030    3.1215    3.2016    3.3785    3.7051    2.0776  89.6753 208.7085 213.6867 211.1800 215.9000  0.7559 225.0822
229.32 106.3709   0.3461   0.3822  2.7010  2.0351    0.7581   324.2000 1251.7491  91.2893 32.8356  0.5494 195.9987    1.4690    2.6714    2.9624    3.4481   3.3379  85.4500  0.1522  2.8484  91.8885 11.5993  4.0728 12.1208  0.3410  0.9721  1.3363   2.8279    2.9874    3.1050    3.1847    3.3706    3.7003    2.0890  91.2893 213.1889 213.4387 213.3114 215.9000  0.7516 225.4349
229.42  94.4900   0.3534   0.4053  2.7053  2.0511    0.8152   329.4767 1259.7904  93.4605 32.8371  0.5409 194.9491    1.4821    2.7128    3.0068    3.5105   3.3985  85.9316  0.1521  2.7855  89.3334 11.7070  4.2041 16.1272  0.2684  0.7495  1.1034   2.9798    3.1556    3.2829    3.3688    3.5805    3.9136    2.0954  93.4605 217.0997 213.8095 215.4474 215.9000  0.7472 225.7958
229.52  85.7031   0.3827   0.4642  2.7248  2.0589    0.9306   343.5490 1260.9351  95.8808 32.8373  0.5010 194.5956    1.4788    2.6935    2.9536    3.4447   3.3498  85.9427  0.1521  2.7521  88.3237 12.0035  4.3622 20.5457  0.2033  0.5600  0.9097   3.0744    3.2625    3.4023    3.4957    3.7216    4.1014    2.2160  95.8808 218.9971 214.4096 216.6912 215.9000  0.7426 225.9468
229.62  93.3351   0.4325   0.5312  2.7369  2.0534    1.0298   345.3504 1256.8541  95.8808 32.8409  0.4940 194.6159    1.4586    2.6208    2.9074    3.3905   3.2910  85.6833  0.1521  2.7424  88.3436 12.3812  4.5149 24.7623  0.1475  0.4044  0.7540   2.9371    3.1004    3.2329    3.3086    3.5227    3.8937    2.2520  95.8808 218.4706 214.8714 216.6635 215.9000  0.7403 226.2049
229.72 105.8380   0.4321   0.5233  2.7248  2.0367    1.1354   345.3710 1256.0187  95.9217 32.8426  0.4928 195.0410    1.4452    2.6169    2.8498    3.2956   3.2377  86.5243  0.1520  2.7899  89.4617 12.4913  4.4776 24.9827  0.1355  0.3777  0.7341   2.8175    2.9610    3.0813    3.1461    3.3537    3.6602    2.0834  95.9217 217.7139 215.3085 216.5078 215.9000  0.7395 226.5293
229.82 103.2609   0.4022   0.4992  2.6916  2.0149    1.1304   343.6173 1258.1144  96.0260 32.8426  0.4976 197.8436    1.4357    2.6222    2.8203    3.2550   3.1846  87.2061  0.1520  2.8027  90.5536 12.4185  4.4308 22.8548  0.1674  0.4689  0.8309   2.7778    2.9226    3.0447    3.1133    3.3131    3.6307    2.0751  96.0260 215.6469 215.4288 215.5345 215.9000  0.7366 226.6770
