~VERSION INFORMATION
 VERS.                  2.0:   CWLS Log Ascii Standard
 WRAP.                   NO:   One line per depth step
~WELL INFORMATION
#MNEM.UNIT        DATA TYPE:   INFORMATION
#---------    -------------   --------------------------
 STRT.M                1.12:   Top Depth
 STOP.M              835.52:   Bottom Depth
 STEP.M                0.10:   Increment
 NULL.              -999.25:   Null Value
 SRVC.                  KPG:   Service Company/Logging company
 DATE.           06/15/2024:   LAS file Creation Date
 WELL.               342HRL:   Well Name
 COMP.  ТОО"Казактуркмунай":   Company
 FLD .             Каратюбе:   Field
 STATE.                    :   State
 COUNT.                    :   Country
 LOC .                     :   Location
 LATI.                     :   Latitude/Northing
 LONG.                     :   Longitude/Easting
 PDAT.                     :   Permanent Datum
 EPDAT.                    :   Elevation of Permanent Datum
 LGMEA.                    :   Log Measured from
 APDAT.                    :   Elevation Above Permanent Datum
 KB  .                     :   KB Elevation
 DF  .                     :   DF Elevation
 GL  .                     :   GL Elevation
 RWS .                     :   Def_Rw
 WST .                     :   Def_Rwt
 RIGN.                     :   Rig Name
 CNTY.                     :   County
 PROV.                     :   Province
~PARAMETER INFORMATION
#MNEM  .UNIT          Value:   Description
#---------    -------------   --------------------------
~CURVE INFORMATION
#MNEM  .UNIT           API Code:   Curve Description
#---------       -------------- -------------------------- 
 DEPTH .m                      :   1 (WLWorkflow)            (6in)                   Depth Index
 HGR   .GAPI                   :   2 High Resolution Gamma Ray {F13.4}
 HMIN  .Ohmm                   :   3 HIP Micro Inverse Resistivity
 HMNO  .Ohmm                   :   4 HIP Micro Normal Resistivity
 PEFZ  .B/E                    :   5 Formation Photoelectric Factor
 RHOZ  .g/cm3                  :   6 Bulk Density
 RXOZ  .ohm.m                  :   7 (HDRS-H)                (2in)                   Invaded Formation Resistivity filtered at 18 inches
 CFTC  .                       :   8 
 CNTC  .                       :   9 
 ГК    .уе                     :   10 ГК(у.е)
 MTEM_FILT.degC                :   11 Filtered Mud Temperature
 TNPH  .V/V                    :   12 Neutron porosity
 HCAL  .MM                     :   13 HRCC Caliper Calibrated {F13.4}
 AHT10 .ohm.m                  :   14 Array Induction Two Foot Resistivity A10
 AHT20 .ohm.m                  :   15 Array Induction Two Foot Resistivity A20
 AHT30 .ohm.m                  :   16 Array Induction Two Foot Resistivity A30
 AHT60 .ohm.m                  :   17 Array Induction Two Foot Resistivity A60
 AHT90 .ohm.m                  :   18 Array Induction Two Foot Resistivity A90
 SP    .mV                     :   19 Spontaneous Potential
 AHMF  .ohm.m                  :   20 Array Induction Mud Resistivity Fully Calibrated
 HFK   .                       :   21 
 HSGR  .                       :   22 
 HTHO  .                       :   23 
 HTPR  .                       :   24 
 HTUR  .                       :   25 
 HUPR  .                       :   26 
 HURA  .                       :   27 
 PURA  .PPM                    :   28 Upper Limit of Formation Uranium Concentration {F13.4}
 RLA1  .ohm.m                  :   29 HRLT Borehole Corrected Resistivity 1
 RLA2  .ohm.m                  :   30 HRLT Borehole Corrected Resistivity 2
 RLA3  .ohm.m                  :   31 HRLT Borehole Corrected Resistivity 3
 RLA4  .ohm.m                  :   32 HRLT Borehole Corrected Resisitivity 4
 RLA5  .ohm.m                  :   33 HRLT Borehole Corrected Resistivity 5
 RT_HRLT.                      :   34 
 RXO_HRLT.                     :   35 
 ГК    .уе                     :   36 ГК(у.е)
 C1    .mm                     :   37 CALIPER DIAMETER 1
 C2    .mm                     :   38 CALIPER DIAMETER 2
 CALI  .mm                     :   39 Caliper
 BSC   .mm                     :   40 Nominal Caliper
 Incl  .                       :   41 НИ-М3 - Inclin
 AZIM  .                       :   42 Azimut
~A Log Data Section - Number of Curves = 42
# ...
599.52  42.8916   0.4218   0.3743  1.8577  2.0656    0.5174   559.8812 1863.3448  55.5615 36.7175  0.4112 212.7580    0.5503    0.6954    0.7153    0.7587   0.7520  97.5269  0.1341  2.2126  47.1269  3.8018  1.7181  7.6037 -0.2657 -0.5880 -0.3081   0.6499    0.6730    0.6948    0.7069    0.7271    0.7628    0.4494  55.5615 211.5884 212.0350 211.8117 215.9000  0.3880 158.6092
599.62  57.2053   0.4217   0.3742  1.8818  2.0641    0.5139   566.9060 1868.2045  54.9474 36.7183  0.4045 212.7580    0.5486    0.6925    0.7095    0.7535   0.7482  97.5561  0.1341  2.2322  47.4496  3.9352  1.7628  7.8703 -0.2880 -0.6431 -0.3629   0.6433    0.6644    0.6870    0.6977    0.7164    0.7503    0.4444  54.9474 211.5825 212.0350 211.8086 215.9000  0.3876 158.4998
599.72  61.7430   0.4133   0.3668  1.8855  2.0668    0.5107   582.1328 1871.8185  54.1155 36.7193  0.3884 212.7580    0.5484    0.6929    0.7100    0.7540   0.7479  97.5625  0.1341  2.2383  47.5264  3.8886  1.7373  7.7771 -0.2607 -0.5834 -0.3046   0.6229    0.6449    0.6667    0.6770    0.6952    0.7289    0.4315  54.1155 211.5156 212.0350 211.7748 215.9000  0.3868 158.3064
599.82  49.3265   0.4054   0.3598  1.8812  2.0672    0.5162   603.2744 1862.8125  57.4779 36.7229  0.3630 212.7580    0.5595    0.7112    0.7303    0.7724   0.7646  97.5625  0.1341  2.2286  47.1583  3.7658  1.6893  7.5316 -0.2251 -0.5020 -0.2269   0.6291    0.6521    0.6734    0.6839    0.7022    0.7360    0.4376  57.4779 211.3576 212.0350 211.6958 215.9000  0.3861 158.1967
599.92  58.9848   0.4199   0.3727  1.8679  2.0683    0.5158   621.4233 1859.5187  55.8377 36.7239  0.3442 212.7580    0.5703    0.7315    0.7525    0.7945   0.7876  97.5625  0.1341  2.1900  45.9120  3.5555  1.6232  7.1111 -0.1936 -0.4244 -0.1577   0.6693    0.6958    0.7190    0.7306    0.7499    0.7890    0.4637  55.8377 211.2954 212.0356 211.6650 215.9000  0.3855 158.1130
600.02  53.9067   0.4317   0.3830  1.8525  2.0690    0.5141   635.7485 1859.0125  52.6046 36.7244  0.3307 212.7580    0.5802    0.7491    0.7718    0.8150   0.8073  97.5625  0.1341  2.1928  45.8787  3.4532  1.5749  6.9063 -0.1864 -0.4088 -0.1439   0.6931    0.7205    0.7430    0.7562    0.7749    0.8154    0.4782  52.6046 211.2355 212.1021 211.6683 215.9000  0.3848 158.0360
600.12  51.6943   0.4159   0.3691  1.8523  2.0638    0.5197   639.6447 1861.4434  49.9916 36.7270  0.3280 212.8906    0.5831    0.7541    0.7751    0.8214   0.8118  97.5625  0.1340  2.2115  46.2389  3.3826  1.5298  6.7651 -0.1912 -0.4230 -0.1576   0.6817    0.7084    0.7300    0.7434    0.7601    0.7986    0.4730  49.9916 211.0969 212.2882 211.6919 215.9000  0.3842 157.9638
600.22  48.6799   0.4100   0.3639  1.8607  2.0604    0.5160   635.7608 1859.4541  46.9163 36.7278  0.3309 213.3325    0.5774    0.7487    0.7680    0.8155   0.8034  97.5625  0.1340  2.2416  46.7451  3.3159  1.4795  6.6318 -0.2108 -0.4728 -0.2050   0.6806    0.7023    0.7253    0.7394    0.7536    0.7884    0.4735  46.9163 211.1508 212.3683 211.7587 215.9000  0.3836 157.8952
600.32  40.3100   0.4176   0.3706  1.8718  2.0623    0.5135   628.4923 1857.7001  44.0603 36.7283  0.3368 213.3325    0.5709    0.7378    0.7565    0.8049   0.7912  97.5625  0.1340  2.3097  48.0180  3.2394  1.4043  6.4788 -0.1959 -0.4512 -0.1755   0.6702    0.6936    0.7161    0.7311    0.7446    0.7815    0.4630  44.0603 211.2904 212.3687 211.8289 215.9000  0.3833 157.8341
600.42  41.3209   0.4234   0.3757  1.8877  2.0647    0.5122   621.8048 1867.6066  43.4456 36.7316  0.3460 213.9070    0.5683    0.7297    0.7469    0.7933   0.7796  97.5625  0.1340  2.3892  49.3370  3.1660  1.3256  6.3319 -0.1821 -0.4357 -0.1518   0.6588    0.6809    0.7047    0.7202    0.7333    0.7707    0.4525  43.4456 211.3215 212.3680 211.8436 215.9000  0.3829 157.7735
600.52  40.6793   0.4131   0.3666  1.8922  2.0686    0.5126   612.6147 1867.6463  45.4869 36.7327  0.3549 213.3325    0.5649    0.7255    0.7424    0.7898   0.7722  97.5625  0.1339  2.4612  49.8157  3.1170  1.2671  6.2340 -0.2178 -0.5369 -0.2512   0.6514    0.6715    0.6958    0.7119    0.7234    0.7593    0.4481  45.4869 211.4383 212.3680 211.9018 215.9000  0.3825 157.7130
600.62  48.8565   0.4078   0.3619  1.8935  2.0712    0.5098   603.6672 1862.8836  48.8316 36.7332  0.3622 213.3325    0.5663    0.7284    0.7459    0.7913   0.7736  97.4460  0.1339  2.4292  49.6395  3.0504  1.2559  6.1008 -0.1868 -0.4567 -0.1731   0.6540    0.6753    0.6999    0.7168    0.7264    0.7632    0.4512  48.8316 211.6299 212.3080 211.9681 215.9000  0.3824 157.6524
600.72  56.6439   0.4112   0.3649  1.8931  2.0723    0.5096   606.8219 1863.6052  50.7784 36.7368  0.3593 213.5623    0.5708    0.7334    0.7535    0.7997   0.7834  97.2192  0.1339  2.3601  49.1412  2.9730  1.2597  5.9461 -0.1390 -0.3280 -0.0484   0.6717    0.6921    0.7181    0.7349    0.7429    0.7798    0.4634  50.7784 211.7776 212.1536 211.9651 215.9000  0.3822 157.5820
600.82  50.7988   0.4190   0.3718  1.8816  2.0757    0.5152   599.7055 1862.2164  52.3019 36.7383  0.3662 213.3325    0.5749    0.7441    0.7640    0.8106   0.7924  96.6648  0.1339  2.3413  48.4963  2.8808  1.2303  5.7616 -0.1594 -0.3731 -0.0978   0.6795    0.7039    0.7306    0.7480    0.7551    0.7971    0.4645  52.3019 211.7497 212.1851 211.9669 215.9000  0.3820 157.5076
600.92  52.8484   0.4238   0.3761  1.8680  2.0789    0.5213   588.3621 1859.9685  53.3396 36.7386  0.3774 213.3325    0.5759    0.7442    0.7647    0.8092   0.7934  96.1403  0.1340  2.3165  48.4094  2.8963  1.2506  5.7926 -0.1264 -0.2938 -0.0190   0.6804    0.7078    0.7337    0.7501    0.7555    0.7989    0.4655  53.3396 211.6079 212.2896 211.9484 215.9000  0.3821 157.4444
601.02  51.0147   0.4265   0.3784  1.8605  2.0790    0.5207   615.6910 1865.7901  51.8316 36.7433  0.3519 213.3325    0.5705    0.7351    0.7553    0.7974   0.7853  95.5954  0.1340  2.2877  48.6198  2.9476  1.2883  5.8951 -0.0640 -0.1467  0.1295   0.6805    0.7088    0.7328    0.7480    0.7518    0.7933    0.4694  51.8316 211.6088 212.1580 211.8834 215.9000  0.3820 157.3600
601.12  49.1928   0.4196   0.3724  1.8450  2.0771    0.5184   632.0100 1857.2214  51.3248 36.7455  0.3336 213.3325    0.5620    0.7221    0.7407    0.7825   0.7722  94.5027  0.1340  2.2542  48.7088  2.8163  1.2491  5.6326 -0.0067 -0.0160  0.2594   0.6692    0.6979    0.7212    0.7351    0.7383    0.7789    0.4631  51.3248 211.7126 212.1747 211.9438 215.9000  0.3818 157.2609
601.22  48.5842   0.4144   0.3678  1.8271  2.0699    0.5133   639.0957 1836.9434  51.6260 36.7456  0.3214 213.3325    0.5549    0.7111    0.7306    0.7757   0.7648  93.8168  0.1340  2.2350  48.2105  2.8022  1.2538  5.6044 -0.0041 -0.0090  0.2631   0.6579    0.6848    0.7107    0.7220    0.7249    0.7644    0.4562  51.6260 211.7633 212.2863 212.0250 215.9000  0.3816 157.1638
601.32  51.2456   0.4111   0.3648  1.8123  2.0606    0.5074   653.3133 1843.5638  49.7241 36.7484  0.3115 213.3325    0.5482    0.7009    0.7199    0.7655   0.7552  93.4788  0.1340  2.2265  47.3436  2.8780  1.2926  5.7559 -0.0407 -0.0907  0.1766   0.6547    0.6817    0.7098    0.7183    0.7198    0.7592    0.4560  49.7241 211.5032 212.1617 211.8321 215.9000  0.3815 157.0587
601.42  45.9116   0.4073   0.3615  1.8062  2.0536    0.4983   659.9820 1852.0622  49.2217 36.7498  0.3084 213.3555    0.5438    0.6903    0.7094    0.7551   0.7457  93.2013  0.1340  2.2266  47.0023  3.0656  1.3768  6.1312 -0.0945 -0.2105  0.0553   0.6434    0.6676    0.6958    0.7032    0.7046    0.7405    0.4524  49.2217 211.4099 212.1637 211.7868 215.9000  0.3812 156.9462
601.52  47.7662   0.3983   0.3536  1.8049  2.0520    0.4961   659.1019 1862.4387  50.1187 36.7498  0.3119 213.3325    0.5406    0.6831    0.7020    0.7513   0.7414  92.8072  0.1339  2.2299  46.8567  3.2617  1.4626  6.5235 -0.1410 -0.3145 -0.0496   0.6417    0.6661    0.6910    0.6985    0.6986    0.7310    0.4612  50.1187 211.5582 212.3323 211.9451 215.9000  0.3807 156.8132
601.62  46.1102   0.3967   0.3522  1.8090  2.0559    0.4937   630.6682 1849.0998  49.4186 36.7531  0.3330 213.8151    0.5393    0.6800    0.6985    0.7488   0.7385  92.2966  0.1339  2.2359  46.9095  3.4550  1.5452  6.9099 -0.1778 -0.3974 -0.1328   0.6380    0.6685    0.6898    0.6976    0.6991    0.7353    0.4530  49.4186 211.5890 212.3680 211.9780 215.9000  0.3803 156.6887
