~VERSION INFORMATION
 VERS.                  2.0:   CWLS Log Ascii Standard
 WRAP.                   NO:   One line per depth step
~WELL INFORMATION
#MNEM.UNIT        DATA TYPE:   INFORMATION
#---------    -------------   --------------------------
 STRT.M                1.12:   Top Depth
 STOP.M              835.52:   Bottom Depth
 STEP.M                0.10:   Increment
 NULL.              -999.25:   Null Value
 SRVC.                  KPG:   Service Company/Logging company
 DATE.           06/15/2024:   LAS file Creation Date
 WELL.               342HRL:   Well Name
 COMP.  ТОО"Казактуркмунай":   Company
 FLD .             Каратюбе:   Field
 STATE.                    :   State
 COUNT.                    :   Country
 LOC .                     :   Location
 LATI.                     :   Latitude/Northing
 LONG.                     :   Longitude/Easting
 PDAT.                     :   Permanent Datum
 EPDAT.                    :   Elevation of Permanent Datum
 LGMEA.                    :   Log Measured from
 APDAT.                    :   Elevation Above Permanent Datum
 KB  .                     :   KB Elevation
 DF  .                     :   DF Elevation
 GL  .                     :   GL Elevation
 RWS .                     :   Def_Rw
 WST .                     :   Def_Rwt
 RIGN.                     :   Rig Name
 CNTY.                     :   County
 PROV.                     :   Province
~PARAMETER INFORMATION
#MNEM  .UNIT          Value:   Description
#---------    -------------   --------------------------
~CURVE INFORMATION
#MNEM  .UNIT           API Code:   Curve Description
#---------       -------------- -------------------------- 
 DEPTH .m                      :   1 (WLWorkflow)            (6in)                   Depth Index
 HGR   .GAPI                   :   2 High Resolution Gamma Ray {F13.4}
 HMIN  .Ohmm                   :   3 HIP Micro Inverse Resistivity
 HMNO  .Ohmm                   :   4 HIP Micro Normal Resistivity
 PEFZ  .B/E                    :   5 Formation Photoelectric Factor
 RHOZ  .g/cm3                  :   6 Bulk Density
 RXOZ  .ohm.m                  :   7 (HDRS-H)                (2in)                   Invaded Formation Resistivity filtered at 18 inches
 CFTC  .                       :   8 
 CNTC  .                       :   9 
 ГК    .уе                     :   10 ГК(у.е)
 MTEM_FILT.degC                :   11 Filtered Mud Temperature
 TNPH  .V/V                    :   12 Neutron porosity
 HCAL  .MM                     :   13 HRCC Caliper Calibrated {F13.4}
 AHT10 .ohm.m                  :   14 Array Induction Two Foot Resistivity A10
 AHT20 .ohm.m                  :   15 Array Induction Two Foot Resistivity A20
 AHT30 .ohm.m                  :   16 Array Induction Two Foot Resistivity A30
 AHT60 .ohm.m                  :   17 Array Induction Two Foot Resistivity A60
 AHT90 .ohm.m                  :   18 Array Induction Two Foot Resistivity A90
 SP    .mV                     :   19 Spontaneous Potential
 AHMF  .ohm.m                  :   20 Array Induction Mud Resistivity Fully Calibrated
 HFK   .                       :   21 
 HSGR  .                       :   22 
 HTHO  .                       :   23 
 HTPR  .                       :   24 
 HTUR  .                       :   25 
 HUPR  .                       :   26 
 HURA  .                       :   27 
 PURA  .PPM                    :   28 Upper Limit of Formation Uranium Concentration {F13.4}
 RLA1  .ohm.m                  :   29 HRLT Borehole Corrected Resistivity 1
 RLA2  .ohm.m                  :   30 HRLT Borehole Corrected Resistivity 2
 RLA3  .ohm.m                  :   31 HRLT Borehole Corrected Resistivity 3
 RLA4  .ohm.m                  :   32 HRLT Borehole Corrected Resisitivity 4
 RLA5  .ohm.m                  :   33 HRLT Borehole Corrected Resistivity 5
 RT_HRLT.                      :   34 
 RXO_HRLT.                     :   35 
 ГК    .уе                     :   36 ГК(у.е)
 C1    .mm                     :   37 CALIPER DIAMETER 1
 C2    .mm                     :   38 CALIPER DIAMETER 2
 CALI  .mm                     :   39 Caliper
 BSC   .mm                     :   40 Nominal Caliper
 Incl  .                       :   41 НИ-М3 - Inclin
 AZIM  .                       :   42 Azimut
~A Log Data Section - Number of Curves = 42
# ...
553.32  79.8326   0.4623   0.4100  2.1521  2.0459    0.5849   510.5061 1750.3101  83.6734 35.9567  0.4336 213.3325    0.6904    0.9368    0.9656    1.0180   1.0152  88.5674  0.1359  3.0125  81.8801  7.8169  2.5954  8.6806  0.2990  0.9005  1.2449   0.8653    0.9194    0.9573    0.9933    1.0292    1.1353    0.6318  83.6734 211.6672 211.8235 211.7455 215.9000  0.3939 193.3854
553.42  76.2589   0.5213   0.4619  2.1822  2.0499    0.6030   515.8773 1748.6603  84.9654 35.9567  0.4261 212.8133    0.7135    0.9765    1.0035    1.0582   1.0604  88.0432  0.1359  3.0913  82.9585  7.6629  2.4802  8.5458  0.2902  0.8967  1.2430   0.9099    0.9675    1.0077    1.0457    1.0859    1.2055    0.6841  84.9654 211.6315 211.8440 211.7378 215.9000  0.3926 193.1266
553.52  93.3203   0.5191   0.4600  2.2026  2.0579    0.6248   540.7513 1739.6290  83.4912 35.9567  0.3896 213.0108    0.7311    1.0107    1.0365    1.0914   1.1000  87.8125  0.1359  3.1366  84.1430  8.1276  2.5901 11.4434  0.2434  0.7626  1.1104   0.8749    0.9256    0.9656    1.0024    1.0440    1.1537    0.6504  83.4912 211.4313 211.9911 211.7105 215.9000  0.3910 192.7356
553.62  84.4150   0.4954   0.4392  2.2254  2.0647    0.6559   532.2281 1761.2612  86.1816 35.9567  0.4082 212.7580    0.7525    1.0522    1.0751    1.1280   1.1457  87.8125  0.1359  3.1590  85.3781  8.9353  2.8286 15.9358  0.1775  0.5608  0.9097   0.8719    0.9256    0.9678    1.0023    1.0450    1.1568    0.6430  86.1816 211.6530 211.9666 211.8098 215.9000  0.3894 192.2853
553.72  90.7706   0.5299   0.4695  2.2467  2.0730    0.6674   528.0574 1770.1037  87.3633 35.9567  0.4167 213.3325    0.7696    1.0958    1.1215    1.1719   1.1929  87.8125  0.1359  3.1744  86.3796  8.9442  2.8177 15.5208  0.1816  0.5765  0.9275   0.9793    1.0400    1.0911    1.1275    1.1810    1.3018    0.6950  87.3633 211.7429 211.9686 211.8556 215.9000  0.3879 191.7873
553.82  86.5372   0.5899   0.5224  2.2678  2.0812    0.6854   528.0683 1766.6579  87.0957 35.9567  0.4154 213.3325    0.7844    1.1404    1.1619    1.2153   1.2305  87.8125  0.1360  3.1645  86.5477  8.9993  2.8441 15.7979  0.1802  0.5703  0.9201   1.0007    1.0566    1.1109    1.1457    1.2036    1.3308    0.7450  87.0957 211.5699 212.0751 211.8220 215.9000  0.3865 191.2470
553.92  92.7740   0.5884   0.5210  2.2957  2.0862    0.7461   509.8306 1776.1395  88.5400 35.9567  0.4447 213.2980    0.8033    1.1721    1.1850    1.2474   1.2442  87.8125  0.1360  3.1353  86.0927  9.0884  2.8987 16.5507  0.1752  0.5493  0.8955   0.9975    1.0480    1.1062    1.1387    1.1951    1.3267    0.7667  88.5400 211.4261 212.2375 211.8313 215.9000  0.3851 190.6830
554.02  99.4765   0.6121   0.5419  2.3181  2.0934    0.7817   503.9432 1775.1853  89.5246 35.9567  0.4523 212.8685    0.8313    1.2024    1.2143    1.2820   1.2668  87.8125  0.1360  3.1257  86.6568  9.1051  2.9130 15.1040  0.1938  0.6055  0.9525   1.0486    1.0947    1.1561    1.1906    1.2510    1.3738    0.7778  89.5246 211.5109 212.2459 211.8779 215.9000  0.3837 190.0962
554.12  91.0324   0.6724   0.5950  2.3339  2.1005    0.7999   512.9909 1761.6709  89.9283 35.9567  0.4338 213.3325    0.8471    1.2291    1.2431    1.3177   1.2848  87.8125  0.1360  3.0867  86.4192  9.0143  2.9204 12.8105  0.2362  0.7269  1.0732   1.0928    1.1315    1.1958    1.2342    1.2976    1.4111    0.7868  89.9283 211.7676 212.1243 211.9456 215.9000  0.3828 189.6059
554.22  90.5619   0.6855   0.6065  2.3405  2.1057    0.8432   533.9206 1781.0245  89.6653 35.9567  0.4137 213.3325    0.8603    1.2435    1.2600    1.3392   1.2917  87.8125  0.1360  3.0195  85.4115  8.8201  2.9211  9.7032  0.3017  0.9108  1.2552   1.1107    1.1501    1.2068    1.2468    1.3109    1.4148    0.7966  89.6653 211.7074 212.2331 211.9701 215.9000  0.3820 189.1282
554.32  91.0584   0.6881   0.6088  2.3347  2.1072    0.8389   559.1511 1784.8169  89.8159 35.9567  0.3852 213.3325    0.8705    1.2517    1.2671    1.3497   1.2979  87.8180  0.1360  2.9912  84.9960  8.8703  2.9657  9.7054  0.3056  0.9140  1.2520   1.1745    1.2267    1.2786    1.3203    1.3870    1.5014    0.8432  89.8159 211.6866 212.2566 211.9711 215.9000  0.3814 188.6629
554.42  92.1156   0.6693   0.5923  2.3210  2.1057    0.8262   589.4793 1763.1972  90.6228 35.9567  0.3448 213.3325    0.8793    1.2564    1.2703    1.3568   1.3107  88.0003  0.1359  2.9981  85.0653  9.0071  3.0041 10.6434  0.2863  0.8573  1.1922   1.1487    1.2011    1.2446    1.2850    1.3510    1.4561    0.8229  90.6228 211.7607 212.1280 211.9440 215.9000  0.3807 188.3480
554.52  98.3639   0.6492   0.5746  2.3050  2.1041    0.8530   596.5801 1740.9743  91.5099 35.9567  0.3306 213.3325    0.8893    1.2676    1.2810    1.3716   1.3246  88.4364  0.1359  3.0452  85.6893  9.2395  3.0341 12.6054  0.2413  0.7347  1.0703   1.1351    1.1860    1.2266    1.2646    1.3304    1.4284    0.8133  91.5099 211.5414 212.2287 211.8849 215.9000  0.3803 188.1407
554.62  88.7095   0.6879   0.6086  2.2912  2.1029    0.8377   588.5541 1722.4475  93.0663 35.9567  0.3330 213.3325    0.9036    1.2884    1.3004    1.3900   1.3540  89.0025  0.1359  3.0397  87.5556  9.4484  3.1085 10.3942  0.3090  0.9387  1.2790   1.1463    1.1866    1.2277    1.2594    1.3272    1.4074    0.8160  93.0663 211.4735 212.2673 211.8699 215.9000  0.3803 188.0743
554.72  89.5577   0.7118   0.6296  2.2782  2.1032    0.9134   558.7398 1710.6238  95.7948 35.9567  0.3592 213.4359    0.9070    1.3079    1.3188    1.4128   1.3746  89.6526  0.1359  3.0570  89.9865  9.7413  3.1860  8.5280  0.3766  1.1527  1.5004   1.2044    1.2319    1.2724    1.3023    1.3722    1.4321    0.8562  95.7948 211.7481 212.1320 211.9397 215.9000  0.3801 187.9956
554.82 103.4055   0.7837   0.6930  2.2659  2.1055    0.9142   544.5860 1709.6958  97.2479 35.9571  0.3745 213.8186    0.9017    1.2834    1.2943    1.3860   1.3555  90.4235  0.1359  3.1119  93.1158 10.1574  3.2638  7.5417  0.4339  1.3509  1.7098   1.3070    1.3416    1.3811    1.4122    1.4896    1.5588    0.9224  97.2479 211.7150 212.2322 211.9736 215.9000  0.3798 188.0360
554.92 103.5057   0.7620   0.6738  2.2636  2.1046    0.8401   539.0288 1700.6765  98.6816 35.9574  0.3777 213.3325    0.8810    1.2300    1.2422    1.3295   1.3083  91.0779  0.1359  3.1056  93.9443 10.2949  3.3151  7.6302  0.4346  1.3497  1.7085   1.1884    1.2143    1.2441    1.2637    1.3327    1.3776    0.8436  98.6816 211.6679 212.3680 212.0178 215.9000  0.3794 188.2907
555.02  95.5468   0.6186   0.5476  2.2632  2.1020    0.8258   545.4009 1670.0529 100.5904 35.9574  0.3597 212.7580    0.8713    1.2084    1.2256    1.3025   1.2811  91.2279  0.1359  3.0983  95.0708 10.4626  3.3768  7.7038  0.4386  1.3588  1.7193   1.0571    1.0784    1.1034    1.1182    1.1777    1.2091    0.7644 100.5904 211.8267 212.3680 212.0970 215.9000  0.3797 188.4403
555.12  99.2629   0.5814   0.5149  2.2683  2.1029    0.7807   566.9336 1657.4938 102.7217 35.9574  0.3336 212.7925    0.8865    1.2507    1.2700    1.3531   1.3316  90.3533  0.1359  3.1030  97.2327 10.7451  3.4627  7.5148  0.4609  1.4302  1.7978   1.0768    1.1004    1.1259    1.1397    1.1998    1.2299    0.7899 102.7217 211.8751 212.3680 212.1214 215.9000  0.3796 188.5982
555.22 104.8490   0.6318   0.5593  2.2919  2.1044    0.8265   576.2118 1652.6061 105.1146 35.9574  0.3229 212.7810    0.9252    1.3354    1.3555    1.4414   1.4199  89.5293  0.1359  3.1715  99.6470 10.2105  3.2238  5.9994  0.5556  1.7671  2.1442   1.2209    1.2508    1.2811    1.2946    1.3542    1.3908    0.8993 105.1146 211.7420 212.3680 212.0545 215.9000  0.3787 188.8162
555.32 112.0048   0.7726   0.6832  2.3238  2.1056    0.9497   541.4610 1655.4766 108.0544 35.9574  0.3599 212.7580    0.9597    1.4291    1.4497    1.5383   1.5207  88.9899  0.1359  3.2379 102.0551 10.0257  3.0954  5.0299  0.6175  1.9988  2.3832   1.3888    1.4335    1.4671    1.4890    1.5509    1.6093    1.0014 108.0544 211.4159 212.3680 211.8913 215.9000  0.3785 188.9998
555.42 114.0352   0.9673   0.8548  2.3339  2.1130    1.0573   521.3292 1649.1755 110.2119 35.9584  0.3804 212.7580    0.9649    1.4367    1.4609    1.5679   1.5465  89.1839  0.1359  3.2740 104.3478 10.9152  3.3332  5.7574  0.5802  1.8993  2.2854   1.4868    1.5407    1.5770    1.6041    1.6561    1.7320    1.0463 110.2119 211.2911 212.3665 211.8278 215.9000  0.3785 189.1854
