~VERSION INFORMATION
 VERS.                  2.0:   CWLS Log Ascii Standard
 WRAP.                   NO:   One line per depth step
~WELL INFORMATION
#MNEM.UNIT        DATA TYPE:   INFORMATION
#---------    -------------   --------------------------
 STRT.M                1.12:   Top Depth
 STOP.M              835.52:   Bottom Depth
 STEP.M                0.10:   Increment
 NULL.              -999.25:   Null Value
 SRVC.                  KPG:   Service Company/Logging company
 DATE.           06/15/2024:   LAS file Creation Date
 WELL.               342HRL:   Well Name
 COMP.  ТОО"Казактуркмунай":   Company
 FLD .             Каратюбе:   Field
 STATE.                    :   State
 COUNT.                    :   Country
 LOC .                     :   Location
 LATI.                     :   Latitude/Northing
 LONG.                     :   Longitude/Easting
 PDAT.                     :   Permanent Datum
 EPDAT.                    :   Elevation of Permanent Datum
 LGMEA.                    :   Log Measured from
 APDAT.                    :   Elevation Above Permanent Datum
 KB  .                     :   KB Elevation
 DF  .                     :   DF Elevation
 GL  .                     :   GL Elevation
 RWS .                     :   Def_Rw
 WST .                     :   Def_Rwt
 RIGN.                     :   Rig Name
 CNTY.                     :   County
 PROV.                     :   Province
~PARAMETER INFORMATION
#MNEM  .UNIT          Value:   Description
#---------    -------------   --------------------------
~CURVE INFORMATION
#MNEM  .UNIT           API Code:   Curve Description
#---------       -------------- -------------------------- 
 DEPTH .m                      :   1 (WLWorkflow)            (6in)                   Depth Index
 HGR   .GAPI                   :   2 High Resolution Gamma Ray {F13.4}
 HMIN  .Ohmm                   :   3 HIP Micro Inverse Resistivity
 HMNO  .Ohmm                   :   4 HIP Micro Normal Resistivity
 PEFZ  .B/E                    :   5 Formation Photoelectric Factor
 RHOZ  .g/cm3                  :   6 Bulk Density
 RXOZ  .ohm.m                  :   7 (HDRS-H)                (2in)                   Invaded Formation Resistivity filtered at 18 inches
 CFTC  .                       :   8 
 CNTC  .                       :   9 
 ГК    .уе                     :   10 ГК(у.е)
 MTEM_FILT.degC                :   11 Filtered Mud Temperature
 TNPH  .V/V                    :   12 Neutron porosity
 HCAL  .MM                     :   13 HRCC Caliper Calibrated {F13.4}
 AHT10 .ohm.m                  :   14 Array Induction Two Foot Resistivity A10
 AHT20 .ohm.m                  :   15 Array Induction Two Foot Resistivity A20
 AHT30 .ohm.m                  :   16 Array Induction Two Foot Resistivity A30
 AHT60 .ohm.m                  :   17 Array Induction Two Foot Resistivity A60
 AHT90 .ohm.m                  :   18 Array Induction Two Foot Resistivity A90
 SP    .mV                     :   19 Spontaneous Potential
 AHMF  .ohm.m                  :   20 Array Induction Mud Resistivity Fully Calibrated
 HFK   .                       :   21 
 HSGR  .                       :   22 
 HTHO  .                       :   23 
 HTPR  .                       :   24 
 HTUR  .                       :   25 
 HUPR  .                       :   26 
 HURA  .                       :   27 
 PURA  .PPM                    :   28 Upper Limit of Formation Uranium Concentration {F13.4}
 RLA1  .ohm.m                  :   29 HRLT Borehole Corrected Resistivity 1
 RLA2  .ohm.m                  :   30 HRLT Borehole Corrected Resistivity 2
 RLA3  .ohm.m                  :   31 HRLT Borehole Corrected Resistivity 3
 RLA4  .ohm.m                  :   32 HRLT Borehole Corrected Resisitivity 4
 RLA5  .ohm.m                  :   33 HRLT Borehole Corrected Resistivity 5
 RT_HRLT.                      :   34 
 RXO_HRLT.                     :   35 
 ГК    .уе                     :   36 ГК(у.е)
 C1    .mm                     :   37 CALIPER DIAMETER 1
 C2    .mm                     :   38 CALIPER DIAMETER 2
 CALI  .mm                     :   39 Caliper
 BSC   .mm                     :   40 Nominal Caliper
 Incl  .                       :   41 НИ-М3 - Inclin
 AZIM  .                       :   42 Azimut
~A Log Data Section - Number of Curves = 42
# ...
320.12  92.9600   1.0798   0.9691  2.6132  2.2041    1.4667   589.1639 1765.4482  93.8759 33.7672  0.3447 213.9070    1.3839    2.6822    2.7851    3.3658   3.2151  73.4302  0.1463  3.0235  92.6068 10.3329  3.4175  8.9841  0.3804  1.1501  1.5195   2.3719    2.6139    2.8442    2.9611    3.1874    3.7051    1.5514  93.8759 228.5000 213.0005 220.6131 215.9000  0.6322 215.2374
320.22  95.0034   1.0891   0.9759  2.6252  2.1948    1.4153   574.2853 1755.7559  94.8969 33.7698  0.3563 214.4815    1.3738    2.5826    2.6801    3.2318   3.0435  72.7112  0.1462  2.9433  91.0082 10.4819  3.5643  9.9609  0.3595  1.0596  1.4229   2.3687    2.5914    2.8082    2.9229    3.1433    3.6296    1.5620  94.8969 225.8265 213.8637 219.7609 215.9000  0.6330 215.2447
320.32  94.1220   1.0958   0.9890  2.6350  2.1882    1.4558   569.5127 1732.1840  94.0955 33.7698  0.3535 214.4815    1.3511    2.5158    2.6137    3.1256   2.9934  72.5297  0.1462  2.9056  90.2788 10.5371  3.6281 10.4211  0.3489  1.0145  1.3749   2.3064    2.4901    2.6799    2.7908    2.9995    3.4211    1.5439  94.0955 221.2155 214.0027 217.5772 215.9000  0.6343 215.3604
320.42  95.6446   1.0535   0.9856  2.6395  2.1921    1.5289   559.9250 1694.1343  93.4628 33.7732  0.3507 216.1475    1.3143    2.5342    2.6504    3.1467   3.0815  73.5845  0.1462  2.9895  91.9949 10.3954  3.4784  9.4201  0.3698  1.1061  1.4732   2.2570    2.4417    2.5989    2.7059    2.9061    3.2926    1.5207  93.4628 216.1454 213.2065 214.6693 215.9000  0.6358 215.5105
320.52  91.9727   1.0764   1.0370  2.6540  2.1969    1.5064   542.6977 1646.0376  93.1506 33.7777  0.3526 217.2876    1.2998    2.6283    2.6706    3.1306   3.0882  74.2800  0.1462  3.0848  92.2516 10.0788  3.2713  9.7766  0.3365  1.0355  1.4031   2.2486    2.4381    2.5743    2.6846    2.8734    3.2438    1.5123  93.1506 212.4488 212.3523 212.4004 215.9000  0.6376 215.6789
320.62  95.8848   0.7040   0.7906  2.6785  2.1922    1.6247   505.2675 1580.4617  93.7230 33.7824  0.3699 222.8229    1.3109    2.5720    2.6872    3.1968   3.1711  74.7308  0.1462  3.1721  92.5329  9.8924  3.1184 10.5496  0.2963  0.9395  1.3078   2.2597    2.4700    2.5809    2.6880    2.8668    3.2292    1.5171  93.7230 212.5285 212.8299 212.6787 215.9000  0.6398 215.8909
320.72  93.1699   0.7109   0.8132  2.7133  2.1899    1.5777   464.9994 1545.5101  96.7193 33.7838  0.4133 226.7223    1.3305    2.6129    2.7364    3.2322   3.2088  74.7636  0.1462  3.2314  93.8155 10.1532  3.1419 11.5203  0.2733  0.8829  1.2555   2.4030    2.6436    2.7509    2.8589    3.0613    3.4400    1.5743  96.7193 212.7875 213.9295 213.3574 215.9000  0.6428 216.0804
320.82 100.9838   0.8049   0.8770  2.7727  2.1839    1.4493   425.5281 1523.3775 100.4395 33.7848  0.4666 219.0773    1.3363    2.5772    2.6852    3.1123   3.1356  75.7043  0.1462  3.2472  93.4176 10.0374  3.0911 12.0588  0.2566  0.8333  1.2041   2.4743    2.6967    2.8065    2.9028    3.1081    3.4578    1.6023 100.4395 214.7046 215.8434 215.2721 215.9000  0.6483 216.1463
320.92 108.6621   0.6670   0.7324  2.8300  2.1730    1.4114   395.2280 1499.8525 102.7255 33.7900  0.5148 218.1352    1.3189    2.5003    2.7380    3.0824   3.1400  76.8211  0.1462  3.2540  93.1888 10.1113  3.1066 13.9854  0.2302  0.7485  1.1180   2.3623    2.5205    2.6417    2.7144    2.9123    3.1949    1.5569 102.7255 220.5113 218.6798 219.5919 215.9000  0.6531 216.1844
321.02  99.6358   0.6027   0.6652  2.8656  2.1706    1.3130   383.5775 1480.1836 105.9217 33.7918  0.5262 218.4366    1.2889    2.4815    2.5940    2.9476   2.9851  76.9679  0.1462  3.2793  95.4015 11.2405  3.4268 21.0417  0.1642  0.5379  0.9151   2.2820    2.3959    2.5131    2.5764    2.7551    2.9944    1.5464 105.9217 227.3985 221.6433 224.5000 215.9000  0.6578 216.2106
321.12 107.3796   0.6725   0.7156  2.8848  2.1708    1.2688   383.7743 1464.2130 109.1628 33.7926  0.5153 229.4640    1.2628    2.4472    2.5915    2.9717   2.9883  77.3000  0.1462  3.3801  97.9491 11.9730  3.5416 23.9460  0.1074  0.3591  0.7457   2.1708    2.2930    2.4165    2.4681    2.6399    2.8919    1.4736 109.1628 236.4330 222.6333 229.4017 215.9000  0.6627 216.2370
321.22 116.3602   0.7508   0.7729  2.8918  2.1691    1.3434   398.9619 1459.6979 109.5664 33.7987  0.4824 224.8221    1.2754    2.5197    2.6824    3.0964   3.1108  77.6999  0.1462  3.4871 100.3225 12.4272  3.5638 24.4580  0.0763  0.2658  0.6611   2.1321    2.2789    2.4030    2.4577    2.6205    2.9012    1.4523 109.5664 245.7511 219.7221 232.3714 215.9000  0.6687 216.0600
321.32 119.0225   0.8668   0.8661  2.8641  2.1734    1.4302   413.9019 1473.4697 108.8275 33.8010  0.4609 226.3158    1.3282    2.6524    2.8019    3.2812   3.2761  77.9158  0.1462  3.4755 101.2485 12.3883  3.5645 22.1778  0.1436  0.4989  0.8975   2.1903    2.3597    2.4866    2.5520    2.7063    3.0231    1.5002 108.8275 244.0248 220.5227 231.9462 215.9000  0.6744 215.7354
321.42 106.9075   0.9973   0.9816  2.8358  2.1815    1.5160   428.4784 1497.2192 107.1561 33.8015  0.4465 222.7770    1.3731    2.8987    3.0501    3.6113   3.6519  78.0071  0.1462  3.4438 101.2171 12.6061  3.6615 23.3087  0.1540  0.5308  0.9303   2.3814    2.5817    2.7192    2.7972    2.9595    3.3279    1.6298 107.1561 234.8787 223.9227 229.3335 215.9000  0.6739 215.1237
321.52  97.5472   0.9867   0.9920  2.8100  2.1937    1.7304   440.6953 1501.2593 103.1597 33.8071  0.4298 218.2708    1.4246    3.2300    3.4799    4.1272   4.1978  78.0527  0.1462  3.3984 100.5645 12.8609  3.7842 25.7218  0.1368  0.4650  0.8636   2.6123    2.8389    2.9892    3.0867    3.2569    3.6806    1.7967 103.1597 233.3924 224.3184 228.8098 215.9000  0.6771 214.7939
321.62 100.5135   1.0547   1.0856  2.7829  2.2033    1.8012   448.4490 1490.1471  99.2061 33.8096  0.4129 218.1582    1.4194    3.2016    3.5391    4.4082   4.3631  78.4881  0.1462  3.3297  99.0554 12.4775  3.7470 24.9550  0.1321  0.4400  0.8321   3.0042    3.2987    3.4957    3.6126    3.8097    4.3578    2.0152  99.2061 235.0920 223.3689 229.1514 215.9000  0.6828 214.6468
321.72  98.2910   1.0104   1.0795  2.7661  2.2042    1.7873   451.6603 1467.1753  95.4804 33.8099  0.3975 219.9169    1.3753    2.9492    3.2659    4.1822   4.0607  79.2451  0.1463  3.2848  98.0400 12.7243  3.8748 25.4485  0.0742  0.2451  0.6309   2.9784    3.2799    3.4885    3.6114    3.8102    4.3799    1.9673  95.4804 236.3196 221.2002 228.6341 215.9000  0.6897 214.5272
321.82  91.1613   0.8053   0.9064  2.7790  2.1907    1.5840   430.0186 1445.3087  96.4155 33.8163  0.4197 231.8078    1.3588    2.7397    3.0223    3.6457   3.5997  80.2248  0.1463  3.2575  97.3926 13.2995  4.0828 26.5990 -0.0087 -0.0282  0.3519   2.6880    2.9649    3.1627    3.2770    3.4540    3.9827    1.7597  96.4155 230.4464 218.7527 224.5201 215.9000  0.6978 214.3224
321.92 102.7635   0.6069   0.6903  2.7959  2.1639    1.3953   408.3150 1421.4340  96.1876 33.8195  0.4460 224.8221    1.3304    2.5879    2.8194    3.4359   3.3224  80.4882  0.1463  3.2564  97.3478 13.0191  3.9980 26.0381  0.0143  0.0467  0.4258   2.2925    2.5179    2.6913    2.7875    2.9384    3.3815    1.5204  96.1876 222.8458 217.4941 220.1453 215.9000  0.7069 214.0529
322.02  99.0692   0.5566   0.6145  2.8364  2.1354    1.2900   386.5520 1395.6300  94.8421 33.8195  0.4760 215.0330    1.3503    2.6680    2.8919    3.4394   3.3297  80.2453  0.1463  3.2569  97.6469 12.9008  3.9611 25.8016  0.0430  0.1401  0.5188   2.1825    2.3929    2.5600    2.6577    2.8011    3.2226    1.4602  94.8421 218.0725 218.4263 218.2489 215.9000  0.7145 213.8350
322.12  89.7097   0.7379   0.7467  2.9083  2.1125    1.2048   370.2276 1377.2984  99.3642 33.8258  0.5005 218.8784    1.3781    2.7185    3.0575    3.5889   3.5477  79.5162  0.1464  3.2559  98.1811 12.9126  3.9661 25.8253  0.0758  0.2467  0.6254   2.3126    2.5234    2.6985    2.8060    2.9537    3.3909    1.5506  99.3642 222.3359 220.7183 221.5215 215.9000  0.7220 213.6475
322.22 101.7486   0.8460   0.8252  2.9724  2.0986    1.2726   369.0165 1359.7901 102.6427 33.8293  0.4928 216.1130    1.3974    2.7859    3.0131    3.6067   3.6272  78.5614  0.1464  3.1917  97.8716 12.9874  4.0702 25.9748  0.1003  0.3192  0.6964   2.4144    2.6221    2.7993    2.9122    3.0620    3.5023    1.6234 102.6427 230.9944 220.8364 225.8340 215.9000  0.7294 213.4890
