~VERSION INFORMATION
 VERS.                  2.0:   CWLS Log Ascii Standard
 WRAP.                   NO:   One line per depth step
~WELL INFORMATION
#MNEM.UNIT        DATA TYPE:   INFORMATION
#---------    -------------   --------------------------
 STRT.M                1.12:   Top Depth
 STOP.M              835.52:   Bottom Depth
 STEP.M                0.10:   Increment
 NULL.              -999.25:   Null Value
 SRVC.                  KPG:   Service Company/Logging company
 DATE.           06/15/2024:   LAS file Creation Date
 WELL.               342HRL:   Well Name
 COMP.  ТОО"Казактуркмунай":   Company
 FLD .             Каратюбе:   Field
 STATE.                    :   State
 COUNT.                    :   Country
 LOC .                     :   Location
 LATI.                     :   Latitude/Northing
 LONG.                     :   Longitude/Easting
 PDAT.                     :   Permanent Datum
 EPDAT.                    :   Elevation of Permanent Datum
 LGMEA.                    :   Log Measured from
 APDAT.                    :   Elevation Above Permanent Datum
 KB  .                     :   KB Elevation
 DF  .                     :   DF Elevation
 GL  .                     :   GL Elevation
 RWS .                     :   Def_Rw
 WST .                     :   Def_Rwt
 RIGN.                     :   Rig Name
 CNTY.                     :   County
 PROV.                     :   Province
~PARAMETER INFORMATION
#MNEM  .UNIT          Value:   Description
#---------    -------------   --------------------------
~CURVE INFORMATION
#MNEM  .UNIT           API Code:   Curve Description
#---------       -------------- -------------------------- 
 DEPTH .m                      :   1 (WLWorkflow)            (6in)                   Depth Index
 HGR   .GAPI                   :   2 High Resolution Gamma Ray {F13.4}
 HMIN  .Ohmm                   :   3 HIP Micro Inverse Resistivity
 HMNO  .Ohmm                   :   4 HIP Micro Normal Resistivity
 PEFZ  .B/E                    :   5 Formation Photoelectric Factor
 RHOZ  .g/cm3                  :   6 Bulk Density
 RXOZ  .ohm.m                  :   7 (HDRS-H)                (2in)                   Invaded Formation Resistivity filtered at 18 inches
 CFTC  .                       :   8 
 CNTC  .                       :   9 
 ГК    .уе                     :   10 ГК(у.е)
 MTEM_FILT.degC                :   11 Filtered Mud Temperature
 TNPH  .V/V                    :   12 Neutron porosity
 HCAL  .MM                     :   13 HRCC Caliper Calibrated {F13.4}
 AHT10 .ohm.m                  :   14 Array Induction Two Foot Resistivity A10
 AHT20 .ohm.m                  :   15 Array Induction Two Foot Resistivity A20
 AHT30 .ohm.m                  :   16 Array Induction Two Foot Resistivity A30
 AHT60 .ohm.m                  :   17 Array Induction Two Foot Resistivity A60
 AHT90 .ohm.m                  :   18 Array Induction Two Foot Resistivity A90
 SP    .mV                     :   19 Spontaneous Potential
 AHMF  .ohm.m                  :   20 Array Induction Mud Resistivity Fully Calibrated
 HFK   .                       :   21 
 HSGR  .                       :   22 
 HTHO  .                       :   23 
 HTPR  .                       :   24 
 HTUR  .                       :   25 
 HUPR  .                       :   26 
 HURA  .                       :   27 
 PURA  .PPM                    :   28 Upper Limit of Formation Uranium Concentration {F13.4}
 RLA1  .ohm.m                  :   29 HRLT Borehole Corrected Resistivity 1
 RLA2  .ohm.m                  :   30 HRLT Borehole Corrected Resistivity 2
 RLA3  .ohm.m                  :   31 HRLT Borehole Corrected Resistivity 3
 RLA4  .ohm.m                  :   32 HRLT Borehole Corrected Resisitivity 4
 RLA5  .ohm.m                  :   33 HRLT Borehole Corrected Resistivity 5
 RT_HRLT.                      :   34 
 RXO_HRLT.                     :   35 
 ГК    .уе                     :   36 ГК(у.е)
 C1    .mm                     :   37 CALIPER DIAMETER 1
 C2    .mm                     :   38 CALIPER DIAMETER 2
 CALI  .mm                     :   39 Caliper
 BSC   .mm                     :   40 Nominal Caliper
 Incl  .                       :   41 НИ-М3 - Inclin
 AZIM  .                       :   42 Azimut
~A Log Data Section - Number of Curves = 42
# ...
507.12  92.5470   0.8477   0.7570  3.6179  2.3258    1.1834   500.8939 1635.9656  94.7726 35.6598  0.4014 212.1836    1.2541    2.2280    2.3560    2.6791   2.7171  93.8179  0.1381  2.8733  87.4402  8.3142  2.8939  4.8631  0.5951  1.7099  2.0451   1.8387    1.9885    2.0677    2.0815    2.0926    2.2942    1.2626  94.7726 212.3452 212.2336 212.2894 215.9000  0.4846 196.0872
507.22  93.5108   1.0390   0.9329  3.8444  2.3718    1.2552   509.7151 1629.4219  92.8302 35.6600  0.3873 212.5512    1.2811    2.3020    2.4537    2.8136   2.9028  93.9277  0.1382  2.7480  84.3771  7.7714  2.8261  4.4036  0.6455  1.7699  2.0940   2.1959    2.4111    2.5269    2.5459    2.5578    2.8897    1.5076  92.8302 212.3141 212.3680 212.3409 215.9000  0.4854 196.2281
507.32  81.3251   1.1962   1.0586  3.9317  2.3917    1.2606   520.2521 1636.9762  93.4981 35.6600  0.3769 212.3162    1.2270    2.1408    2.2633    2.5730   2.6395  93.6832  0.1382  2.6886  82.7387  7.4148  2.7582  4.1338  0.6677  1.7946  2.1128   2.1551    2.3589    2.4735    2.4960    2.4995    2.8249    1.4414  93.4981 212.0273 212.3284 212.1775 215.9000  0.4862 196.3892
507.42  86.3284   1.0016   0.8851  3.8226  2.3671    1.1750   516.6863 1642.5338  93.4164 35.6604  0.3835 212.6661    1.1565    1.9312    2.0109    2.2606   2.3089  92.7232  0.1382  2.7331  83.2023  7.4022  2.7085  4.2714  0.6343  1.7334  2.0534   1.7264    1.8500    1.9339    1.9517    1.9414    2.1241    1.1425  93.4164 212.0588 212.1808 212.1198 215.9000  0.4872 196.5565
507.52 103.0896   0.7838   0.6930  3.5483  2.3168    1.0704   505.6190 1645.0720  94.8797 35.6607  0.3990 212.5039    1.1120    1.8035    1.8706    2.0885   2.1183  91.6924  0.1382  2.8323  86.6588  7.8472  2.7689  4.5549  0.6088  1.7229  2.0566   1.5636    1.6657    1.7363    1.7606    1.7517    1.8975    1.0577  94.8797 212.2548 212.1174 212.1861 215.9000  0.4882 196.7291
507.62  98.8595   0.7421   0.6564  3.2200  2.2592    0.9947   484.3280 1641.1293 100.7978 35.6607  0.4269 212.1836    1.1166    1.8260    1.9084    2.1082   2.1477  90.6497  0.1382  2.9451  91.2161  8.2403  2.7992  4.5170  0.6263  1.8494  2.2014   1.6326    1.7307    1.7987    1.8309    1.8159    1.9515    1.1236 100.7978 212.4184 212.3354 212.3769 215.9000  0.4892 196.9063
507.72 107.2905   0.8052   0.7124  2.9217  2.2039    0.9966   472.4174 1639.0738 103.2337 35.6607  0.4435 212.1836    1.1430    1.8884    1.9712    2.1629   2.1850  89.6217  0.1382  3.0658  96.9358  8.3640  2.7289  3.7746  0.7283  2.2361  2.6113   1.7571    1.8537    1.9171    1.9573    1.9411    2.0697    1.2299 103.2337 212.4746 212.5501 212.5125 215.9000  0.4903 197.0827
507.82 104.9968   0.8669   0.7682  2.7116  2.1702    1.0587   467.8917 1638.9971 104.3865 35.6607  0.4504 212.2296    1.1670    1.9381    2.0035    2.2025   2.2346  88.7275  0.1382  3.1637  99.7547  8.2212  2.6010  3.4305  0.7587  2.4010  2.7828   1.8565    1.9373    1.9983    2.0405    2.0293    2.1379    1.3297 104.3865 212.2874 212.6296 212.4587 215.9000  0.4914 197.2539
507.92 115.1215   0.8983   0.7972  2.6060  2.1550    1.0979   478.1722 1643.5497 104.9246 35.6607  0.4367 212.5150    1.1575    1.9260    1.9921    2.1755   2.2085  88.0322  0.1382  3.2247 101.3743  8.1800  2.5370  3.3231  0.7638  2.4631  2.8465   1.8413    1.9109    1.9738    2.0109    2.0015    2.0982    1.3317 104.9246 211.8218 212.4113 212.1162 215.9000  0.4927 197.4180
508.02  95.2919   0.8859   0.7867  2.5879  2.1468    1.1018   479.6601 1633.8478 103.6576 35.6607  0.4302 212.1836    1.1630    1.9276    1.9862    2.1620   2.2023  87.8619  0.1382  3.2053 101.7747  8.5713  2.6744  3.5682  0.7498  2.4034  2.7863   1.7526    1.8194    1.8802    1.9050    1.9029    1.9911    1.2762 103.6576 211.7436 212.1923 211.9681 215.9000  0.4940 197.5759
508.12 103.0908   0.8609   0.7628  2.5979  2.1476    1.1149   475.4471 1617.3671 102.3045 35.6607  0.4296 212.7580    1.1665    1.9254    1.9729    2.1277   2.1716  87.7364  0.1382  3.2004 101.8594  8.5321  2.6659  3.4964  0.7631  2.4422  2.8232   1.7341    1.8148    1.8815    1.8948    1.9027    2.0069    1.2397 102.3045 211.9947 212.1020 212.0487 215.9000  0.4951 197.7205
508.22 101.5820   0.8904   0.7870  2.6223  2.1556    1.1265   461.6237 1596.5290 103.9179 35.6607  0.4420 212.3714    1.1861    1.9544    2.0102    2.1757   2.1811  87.4701  0.1382  3.2046 101.9968  8.5666  2.6729  3.5149  0.7642  2.4486  2.8278   1.8058    1.8975    1.9675    1.9742    1.9905    2.1071    1.2790 103.9179 212.3039 212.2547 212.2793 215.9000  0.4965 197.8411
508.32 113.4402   0.9444   0.8346  2.6592  2.1626    1.1736   466.0485 1589.9542 105.0881 35.6607  0.4325 212.7580    1.2031    2.0037    2.0644    2.2350   2.2185  86.4796  0.1382  3.2237 102.6444  9.3032  2.8854  4.1700  0.6958  2.2425  2.6219   1.8305    1.9289    1.9954    1.9964    2.0169    2.1331    1.3051 105.0881 212.3312 212.2026 212.2669 215.9000  0.4979 197.9582
508.42 114.9162   0.9932   0.8802  2.6856  2.1705    1.2616   478.0140 1590.6652 106.5341 35.6607  0.4145 212.7580    1.2123    2.0655    2.1056    2.2447   2.2301  85.7280  0.1382  3.2793 103.7365  9.7628  2.9766  4.7218  0.6341  2.0770  2.4605   1.8838    1.9993    2.0591    2.0570    2.0865    2.2119    1.3457 106.5341 212.1910 212.0455 212.1184 215.9000  0.4991 198.1042
508.52 106.4688   1.0532   0.9434  2.6985  2.1763    1.3754   478.5531 1590.9953 111.0772 35.6607  0.4139 213.3325    1.2322    2.1201    2.1939    2.3483   2.3034  85.1846  0.1382  3.3251 104.6618  9.8953  2.9750  4.9278  0.6122  2.0331  2.4221   2.0201    2.1467    2.1969    2.1952    2.2347    2.3588    1.4652 111.0772 212.2083 212.0884 212.1487 215.9000  0.5003 198.1787
508.62 103.9096   1.1520   1.0455  2.7003  2.1767    1.4766   495.3116 1594.3024 112.8842 35.6609  0.3934 213.1027    1.2494    2.1915    2.2764    2.4619   2.3870  85.1642  0.1382  3.2587 104.0002  9.0539  2.7767  3.7510  0.7587  2.4685  2.8614   2.1899    2.3161    2.3548    2.3586    2.4082    2.5199    1.6210 112.8842 212.3226 212.3438 212.3332 215.9000  0.5017 198.2346
508.72 117.0339   1.2168   1.1068  2.6585  2.1765    1.5557   519.0002 1598.9672 112.7736 35.6613  0.3643 212.7580    1.2471    2.1901    2.2465    2.4359   2.3643  85.4734  0.1382  3.2053 103.3281  8.5248  2.6590  3.1222  0.8562  2.7424  3.1367   2.2361    2.3302    2.3573    2.3727    2.4212    2.4905    1.7313 112.7736 212.4639 212.6067 212.5353 215.9000  0.5031 198.4018
508.82 107.5297   1.1976   1.0883  2.5773  2.1759    1.5710   507.9083 1598.1143 110.9619 35.6613  0.3775 212.9189    1.2133    2.0801    2.1348    2.3179   2.2311  86.0488  0.1382  3.1566 102.4186  8.2436  2.6120  2.8748  0.9100  2.8734  3.2668   2.2411    2.2931    2.3236    2.3565    2.4042    2.4464    1.7589 110.9619 212.5640 212.5371 212.5504 215.9000  0.5042 198.5215
508.92 120.0953   1.1698   1.0508  2.4841  2.1599    1.3687   491.1187 1582.5074 107.7869 35.6613  0.3934 213.2662    1.1564    1.9488    2.0133    2.2022   2.1001  87.1868  0.1383  3.0956 100.0831  8.4962  2.7458  3.2362  0.8514  2.6371  3.0242   2.1173    2.1379    2.1745    2.2195    2.2729    2.3066    1.6238 107.7869 212.9931 212.8024 212.8974 215.9000  0.5051 198.6070
509.02  96.1198   0.9689   0.8587  2.3704  2.1208    1.1710   468.5566 1553.6641 103.4931 35.6613  0.4132 212.6661    1.1147    1.8161    1.8674    2.0295   1.9382  87.6579  0.1383  2.9945  97.4284  8.6143  2.8798  3.4778  0.8281  2.4797  2.8580   1.7489    1.7366    1.7716    1.8096    1.8586    1.8590    1.3966 103.4931 213.4278 213.2399 213.3340 215.9000  0.5057 198.6546
509.12  99.2858   0.7770   0.6877  2.2438  2.0500    1.1199   414.8971 1485.3654  98.0562 35.6613  0.4745 212.1376    1.1083    1.8034    1.8613    2.0023   1.9215  87.5834  0.1384  2.8653  94.2602  8.5826  2.9948  3.6230  0.8266  2.3686  2.7355   1.5769    1.5613    1.5979    1.6334    1.6814    1.6785    1.2665  98.0562 213.0890 213.1407 213.1152 215.9000  0.5062 198.6941
509.22  97.5632   0.7927   0.7095  2.1326  1.9318    1.0765   363.6590 1409.5858  93.0531 35.6613  0.5554 212.1836    1.1678    2.0011    2.0837    2.2325   2.1570  86.9886  0.1383  2.7090  87.9630  7.9066  2.9165  3.5675  0.8174  2.2151  2.5595   1.7387    1.7584    1.8065    1.8523    1.9056    1.9517    1.2847  93.0531 213.0097 213.0350 213.0222 215.9000  0.5064 198.7265
