~VERSION INFORMATION
 VERS.                  2.0:   CWLS Log Ascii Standard
 WRAP.                   NO:   One line per depth step
~WELL INFORMATION
#MNEM.UNIT        DATA TYPE:   INFORMATION
#---------    -------------   --------------------------
 STRT.M                1.12:   Top Depth
 STOP.M              835.52:   Bottom Depth
 STEP.M                0.10:   Increment
 NULL.              -999.25:   Null Value
 SRVC.                  KPG:   Service Company/Logging company
 DATE.           06/15/2024:   LAS file Creation Date
 WELL.               342HRL:   Well Name
 COMP.  ТОО"Казактуркмунай":   Company
 FLD .             Каратюбе:   Field
 STATE.                    :   State
 COUNT.                    :   Country
 LOC .                     :   Location
 LATI.                     :   Latitude/Northing
 LONG.                     :   Longitude/Easting
 PDAT.                     :   Permanent Datum
 EPDAT.                    :   Elevation of Permanent Datum
 LGMEA.                    :   Log Measured from
 APDAT.                    :   Elevation Above Permanent Datum
 KB  .                     :   KB Elevation
 DF  .                     :   DF Elevation
 GL  .                     :   GL Elevation
 RWS .                     :   Def_Rw
 WST .                     :   Def_Rwt
 RIGN.                     :   Rig Name
 CNTY.                     :   County
 PROV.                     :   Province
~PARAMETER INFORMATION
#MNEM  .UNIT          Value:   Description
#---------    -------------   --------------------------
~CURVE INFORMATION
#MNEM  .UNIT           API Code:   Curve Description
#---------       -------------- -------------------------- 
 DEPTH .m                      :   1 (WLWorkflow)            (6in)                   Depth Index
 HGR   .GAPI                   :   2 High Resolution Gamma Ray {F13.4}
 HMIN  .Ohmm                   :   3 HIP Micro Inverse Resistivity
 HMNO  .Ohmm                   :   4 HIP Micro Normal Resistivity
 PEFZ  .B/E                    :   5 Formation Photoelectric Factor
 RHOZ  .g/cm3                  :   6 Bulk Density
 RXOZ  .ohm.m                  :   7 (HDRS-H)                (2in)                   Invaded Formation Resistivity filtered at 18 inches
 CFTC  .                       :   8 
 CNTC  .                       :   9 
 ГК    .уе                     :   10 ГК(у.е)
 MTEM_FILT.degC                :   11 Filtered Mud Temperature
 TNPH  .V/V                    :   12 Neutron porosity
 HCAL  .MM                     :   13 HRCC Caliper Calibrated {F13.4}
 AHT10 .ohm.m                  :   14 Array Induction Two Foot Resistivity A10
 AHT20 .ohm.m                  :   15 Array Induction Two Foot Resistivity A20
 AHT30 .ohm.m                  :   16 Array Induction Two Foot Resistivity A30
 AHT60 .ohm.m                  :   17 Array Induction Two Foot Resistivity A60
 AHT90 .ohm.m                  :   18 Array Induction Two Foot Resistivity A90
 SP    .mV                     :   19 Spontaneous Potential
 AHMF  .ohm.m                  :   20 Array Induction Mud Resistivity Fully Calibrated
 HFK   .                       :   21 
 HSGR  .                       :   22 
 HTHO  .                       :   23 
 HTPR  .                       :   24 
 HTUR  .                       :   25 
 HUPR  .                       :   26 
 HURA  .                       :   27 
 PURA  .PPM                    :   28 Upper Limit of Formation Uranium Concentration {F13.4}
 RLA1  .ohm.m                  :   29 HRLT Borehole Corrected Resistivity 1
 RLA2  .ohm.m                  :   30 HRLT Borehole Corrected Resistivity 2
 RLA3  .ohm.m                  :   31 HRLT Borehole Corrected Resistivity 3
 RLA4  .ohm.m                  :   32 HRLT Borehole Corrected Resisitivity 4
 RLA5  .ohm.m                  :   33 HRLT Borehole Corrected Resistivity 5
 RT_HRLT.                      :   34 
 RXO_HRLT.                     :   35 
 ГК    .уе                     :   36 ГК(у.е)
 C1    .mm                     :   37 CALIPER DIAMETER 1
 C2    .mm                     :   38 CALIPER DIAMETER 2
 CALI  .mm                     :   39 Caliper
 BSC   .mm                     :   40 Nominal Caliper
 Incl  .                       :   41 НИ-М3 - Inclin
 AZIM  .                       :   42 Azimut
~A Log Data Section - Number of Curves = 42
# ...
273.92  77.4027   0.8932   0.8920  2.3837  2.0396    1.4229   487.2626 1605.8353  80.0295 33.1511  0.4050 216.5726    1.2956    3.1480    4.0791    6.6176   6.3420  87.8125  0.1483  3.0097  79.0666  6.8973  2.2921 10.6098  0.2192  0.6592  0.9976   3.8250    4.9410    5.6411    5.8762    6.0909    7.8560    1.9708  80.0295 227.6310 226.4497 227.0393 215.9000  0.6912 219.5018
274.02  75.3925   0.7864   0.7711  2.4329  2.0332    1.3204   490.4605 1612.2649  78.1824 33.1511  0.4041 214.3710    1.2290    2.8700    3.6945    5.6564   5.5271  87.8125  0.1483  3.0450  80.7101  7.0629  2.3196  9.4618  0.2459  0.7494  1.0941   3.4839    4.3975    5.0210    5.1854    5.3529    6.8567    1.8518  78.1824 228.3873 228.3184 228.3527 215.9000  0.6923 219.3558
274.12  78.9038   0.7230   0.7236  2.4623  2.0357    1.0130   503.7766 1636.3825  77.0182 33.1511  0.3959 213.9070    1.1870    2.6180    3.2858    4.8805   4.7106  87.8125  0.1483  3.1132  82.5531  7.2171  2.3182  9.0095  0.2583  0.8040  1.1562   3.3587    4.2539    4.9053    5.0563    5.1914    6.6917    1.7562  77.0182 227.1532 225.7053 226.4277 215.9000  0.6924 219.1777
274.22  82.3370   0.4986   0.5248  2.4710  2.0476    0.9409   507.9603 1659.9098  77.8582 33.1511  0.3994 215.3653    1.2032    2.6114    3.1905    4.7121   4.8492  87.8125  0.1484  3.1120  82.5445  7.4051  2.3795 10.7531  0.2239  0.6969  1.0490   3.1204    3.9883    4.5846    4.7407    4.8641    6.2784    1.6058  77.8582 225.4071 222.5671 223.9825 215.9000  0.6916 218.9765
274.32  74.4162   0.3976   0.4430  2.4877  2.0667    0.9352   503.7141 1682.8920  80.5481 33.1511  0.4137 215.6304    1.2427    2.8071    3.5366    5.2081   5.7778  87.8125  0.1485  3.0371  81.7334  7.4356  2.4501 10.1237  0.2517  0.7590  1.1077   2.9166    3.7511    4.2583    4.4352    4.5259    5.8390    1.4987  80.5481 222.4145 219.4755 220.9402 215.9000  0.6888 218.7976
274.42  76.6969   0.3810   0.4594  2.5063  2.0868    1.0365   504.7591 1688.5927  84.6986 33.1511  0.4149 212.8022    1.3069    3.0654    4.0866    6.0014   7.0337  87.8125  0.1485  2.9128  80.3587  7.3570  2.5257  7.9146  0.3200  0.9320  1.2746   3.0379    3.9676    4.4642    4.6973    4.7632    6.1779    1.5387  84.6986 217.1988 216.4753 216.8352 215.9000  0.6856 218.6453
274.52  91.5716   0.5067   0.6307  2.5190  2.1047    1.2508   498.6275 1691.3568  87.7546 33.1511  0.4235 217.5148    1.3426    3.2401    4.1204    6.2498   6.8265  87.8125  0.1485  2.9101  79.7749  7.4637  2.5648  9.7010  0.2691  0.7832  1.1205   3.3554    4.5552    5.1550    5.4863    5.5509    7.3056    1.5960  87.7546 213.9562 217.1489 215.5431 215.9000  0.6820 218.5177
274.62  99.5676   0.9542   1.0077  2.5541  2.1129    1.3111   484.7211 1690.9398  89.6250 33.1511  0.4402 227.5840    1.3339    3.0792    3.9723    5.7562   6.7026  87.8181  0.1485  2.9324  80.2263  7.6146  2.5965 11.0424  0.2359  0.6913  1.0285   3.4377    4.7192    5.3511    5.7638    5.8458    7.7240    1.6255  89.6250 215.2142 221.5772 218.3722 215.9000  0.6778 218.4274
274.72 100.2897   0.9984   0.9066  2.5794  2.1113    1.3462   501.7375 1690.0709  93.6067 33.1511  0.4127 232.0376    1.3301    3.0959    3.7918    5.2890   6.4267  87.8298  0.1485  2.9778  81.6333  7.8062  2.6215 11.9731  0.2190  0.6520  0.9937   3.2552    4.3160    4.8540    5.2404    5.3127    6.9462    1.6378  93.6067 219.6265 223.4187 221.5132 215.9000  0.6725 218.4169
274.82  81.8727   0.8239   0.7356  2.5731  2.1099    1.2035   515.4590 1688.8591  96.4074 33.1511  0.3942 214.8262    1.3356    3.0400    3.7127    5.1582   6.0953  87.9085  0.1485  3.0392  83.9204  7.9295  2.6092 11.0163  0.2377  0.7230  1.0739   3.2311    4.1114    4.6283    4.9673    5.0517    6.5193    1.7252  96.4074 223.8998 225.4691 224.6830 215.9000  0.6661 218.4927
274.92 102.0806   0.8476   0.7551  2.5557  2.1073    1.0703   522.6554 1687.2245  97.4950 33.1511  0.3907 212.1836    1.3343    3.2618    4.0109    5.7819   6.6437  87.9460  0.1485  3.0725  85.8270  7.8852  2.5664  9.1998  0.2934  0.9015  1.2601   3.2981    4.1635    4.7307    5.0529    5.1491    6.6468    1.7788  97.4950 227.7740 229.4417 228.6061 215.9000  0.6607 218.4553
275.02 110.6997   0.8426   0.7550  2.5100  2.1025    1.1013   519.2778 1678.5299 101.2353 33.1511  0.3923 212.1836    1.3788    3.5294    4.3527    6.5103   7.3812  87.9241  0.1485  3.0751  87.3213  7.6593  2.4908  6.4521  0.3891  1.1964  1.5610   3.3177    4.1265    4.7564    5.0586    5.1642    6.6624    1.8023 101.2353 233.5277 233.6755 233.6016 215.9000  0.6549 218.4134
275.12 105.1989   0.8508   0.7716  2.4557  2.0965    1.1733   508.9663 1657.4660 103.2695 33.1511  0.3977 212.4708    1.4762    4.0394    4.9206    7.9831   9.0937  88.2007  0.1485  3.0730  89.4985  7.7600  2.5253  5.4166  0.4742  1.4571  1.8291   3.3180    4.1416    4.8195    5.1200    5.2180    6.7712    1.7923 103.2695 231.1693 230.7745 230.9716 215.9000  0.6485 218.3735
275.22 104.4746   0.8562   0.8138  2.4144  2.0834    1.2833   489.2583 1617.5002 102.0393 33.1511  0.4083 212.4363    1.5982    5.2693    6.7956   13.4164  16.1225  88.5960  0.1485  3.0339  89.9586  7.6459  2.5193  4.5897  0.5540  1.6776  2.0495   3.7736    4.9410    5.8323    6.2500    6.4080    8.4643    1.9107 102.0393 217.5917 218.7047 218.1472 215.9000  0.6421 218.4563
275.32 105.7507   0.9034   0.9108  2.3987  2.0632    1.4099   479.7425 1599.5412 101.5225 33.1515  0.4139 213.1716    1.6917    6.0009    8.6281   20.8419  21.8393  89.1305  0.1485  2.9461  88.0952  7.2241  2.4518  3.9197  0.6273  1.8472  2.2090   4.4002    5.9928    7.1249    7.7034    7.9610   10.6141    2.1163 101.5225 212.9583 214.1513 213.5541 215.9000  0.6355 218.5214
275.42  99.9560   0.8016   0.8708  2.3906  2.0447    1.5559   474.8362 1590.5818 101.0066 33.1517  0.4165 215.8956    1.6575    5.6406    8.2666   23.8347  20.6853  89.2204  0.1485  2.9193  88.0400  7.3505  2.5182  3.9084  0.6442  1.8805  2.2401   5.0143    7.0328    8.2442    9.0016    9.3654   12.4787    2.3332 101.0066 212.5616 213.1812 212.8714 215.9000  0.6284 218.5353
275.52  99.5603   0.6470   0.7710  2.3882  2.0367    1.6731   475.9199 1592.6206 100.2570 33.1517  0.4143 220.2722    1.6169    5.0540    6.9565   17.7182  12.9530  89.2428  0.1485  2.9055  87.9362  7.4978  2.5805  4.0553  0.6374  1.8521  2.2093   5.0268    7.0135    8.0937    8.8277    9.2325   12.2118    2.3803 100.2570 212.8241 212.7842 212.8040 215.9000  0.6218 218.6346
275.62 100.7755   0.6140   0.7563  2.3926  2.0381    1.7364   473.3124 1573.4685 102.5736 33.1521  0.4082 228.6225    1.5853    4.4088    5.9778   10.6192   8.8167  89.2751  0.1486  2.9019  87.4252  7.5798  2.6120  4.3407  0.6022  1.7476  2.1009   4.8306    6.5171    7.4546    8.0819    8.5158   11.1187    2.4132 102.5736 213.3498 212.5040 212.9261 215.9000  0.6150 218.7350
275.72 103.2104   0.7521   0.8786  2.3969  2.0397    1.7412   468.1777 1551.3455 105.8892 33.1524  0.4061 231.0955    1.5661    4.0582    5.4733    8.1483   7.7356  89.5341  0.1486  2.9966  91.5660  7.9413  2.6493  4.1700  0.6369  1.9114  2.2797   4.6311    5.8020    6.6017    7.1016    7.4936    9.5441    2.5342 105.8892 214.6929 212.2843 213.4841 215.9000  0.6073 218.8095
275.82 111.0550   0.8375   0.9332  2.4019  2.0391    1.7825   458.7710 1534.3653 109.9244 33.1524  0.4168 213.8266    1.5279    3.6459    5.3820    7.4760   6.9741  89.9875  0.1486  3.0812  96.0784  8.1953  2.6599  3.7953  0.7091  2.1866  2.5713   4.2498    4.8821    5.4658    5.8184    6.1447    7.5023    2.5981 109.9244 218.1109 214.0315 216.0615 215.9000  0.5993 218.9530
275.92 108.2000   0.8622   0.9328  2.4131  2.0376    1.7446   458.2286 1543.3425 111.7107 33.1524  0.4224 211.6091    1.4575    3.4058    4.4141    5.9257   5.8336  90.8040  0.1486  3.1129  99.8081  8.1387  2.6146  3.1569  0.8346  2.5991  2.9969   3.9573    4.4335    4.9012    5.2031    5.5545    6.6360    2.5148 111.7107 223.6287 221.8815 222.7508 215.9000  0.5912 219.1244
276.02 120.0333   0.8997   0.9484  2.4259  2.0487    1.5184   461.5404 1562.2860 112.0154 33.1524  0.4255 212.4487    1.3884    3.0841    3.9104    5.0256   5.0644  91.5357  0.1486  3.1236 101.5634  8.0697  2.5835  2.9077  0.8897  2.7793  3.1805   3.8600    4.3487    4.7848    5.0931    5.4790    6.5340    2.4309 112.0154 227.0130 232.3107 229.6293 215.9000  0.5830 219.3256
