~VERSION INFORMATION
 VERS.                  2.0:   CWLS Log Ascii Standard
 WRAP.                   NO:   One line per depth step
~WELL INFORMATION
#MNEM.UNIT        DATA TYPE:   INFORMATION
#---------    -------------   --------------------------
 STRT.M                1.12:   Top Depth
 STOP.M              835.52:   Bottom Depth
 STEP.M                0.10:   Increment
 NULL.              -999.25:   Null Value
 SRVC.                  KPG:   Service Company/Logging company
 DATE.           06/15/2024:   LAS file Creation Date
 WELL.               342HRL:   Well Name
 COMP.  ТОО"Казактуркмунай":   Company
 FLD .             Каратюбе:   Field
 STATE.                    :   State
 COUNT.                    :   Country
 LOC .                     :   Location
 LATI.                     :   Latitude/Northing
 LONG.                     :   Longitude/Easting
 PDAT.                     :   Permanent Datum
 EPDAT.                    :   Elevation of Permanent Datum
 LGMEA.                    :   Log Measured from
 APDAT.                    :   Elevation Above Permanent Datum
 KB  .                     :   KB Elevation
 DF  .                     :   DF Elevation
 GL  .                     :   GL Elevation
 RWS .                     :   Def_Rw
 WST .                     :   Def_Rwt
 RIGN.                     :   Rig Name
 CNTY.                     :   County
 PROV.                     :   Province
~PARAMETER INFORMATION
#MNEM  .UNIT          Value:   Description
#---------    -------------   --------------------------
~CURVE INFORMATION
#MNEM  .UNIT           API Code:   Curve Description
#---------       -------------- -------------------------- 
 DEPTH .m                      :   1 (WLWorkflow)            (6in)                   Depth Index
 HGR   .GAPI                   :   2 High Resolution Gamma Ray {F13.4}
 HMIN  .Ohmm                   :   3 HIP Micro Inverse Resistivity
 HMNO  .Ohmm                   :   4 HIP Micro Normal Resistivity
 PEFZ  .B/E                    :   5 Formation Photoelectric Factor
 RHOZ  .g/cm3                  :   6 Bulk Density
 RXOZ  .ohm.m                  :   7 (HDRS-H)                (2in)                   Invaded Formation Resistivity filtered at 18 inches
 CFTC  .                       :   8 
 CNTC  .                       :   9 
 ГК    .уе                     :   10 ГК(у.е)
 MTEM_FILT.degC                :   11 Filtered Mud Temperature
 TNPH  .V/V                    :   12 Neutron porosity
 HCAL  .MM                     :   13 HRCC Caliper Calibrated {F13.4}
 AHT10 .ohm.m                  :   14 Array Induction Two Foot Resistivity A10
 AHT20 .ohm.m                  :   15 Array Induction Two Foot Resistivity A20
 AHT30 .ohm.m                  :   16 Array Induction Two Foot Resistivity A30
 AHT60 .ohm.m                  :   17 Array Induction Two Foot Resistivity A60
 AHT90 .ohm.m                  :   18 Array Induction Two Foot Resistivity A90
 SP    .mV                     :   19 Spontaneous Potential
 AHMF  .ohm.m                  :   20 Array Induction Mud Resistivity Fully Calibrated
 HFK   .                       :   21 
 HSGR  .                       :   22 
 HTHO  .                       :   23 
 HTPR  .                       :   24 
 HTUR  .                       :   25 
 HUPR  .                       :   26 
 HURA  .                       :   27 
 PURA  .PPM                    :   28 Upper Limit of Formation Uranium Concentration {F13.4}
 RLA1  .ohm.m                  :   29 HRLT Borehole Corrected Resistivity 1
 RLA2  .ohm.m                  :   30 HRLT Borehole Corrected Resistivity 2
 RLA3  .ohm.m                  :   31 HRLT Borehole Corrected Resistivity 3
 RLA4  .ohm.m                  :   32 HRLT Borehole Corrected Resisitivity 4
 RLA5  .ohm.m                  :   33 HRLT Borehole Corrected Resistivity 5
 RT_HRLT.                      :   34 
 RXO_HRLT.                     :   35 
 ГК    .уе                     :   36 ГК(у.е)
 C1    .mm                     :   37 CALIPER DIAMETER 1
 C2    .mm                     :   38 CALIPER DIAMETER 2
 CALI  .mm                     :   39 Caliper
 BSC   .mm                     :   40 Nominal Caliper
 Incl  .                       :   41 НИ-М3 - Inclin
 AZIM  .                       :   42 Azimut
~A Log Data Section - Number of Curves = 42
# ...
181.52  92.5012   0.5599   0.4983  2.7269  2.0511    0.6684   429.7189 1469.5595  80.0689 31.9713  0.4329 215.6304    1.1271    2.6669    3.7746    6.3687   6.2548  92.9684  0.1521  3.0840  81.4571  8.6911  2.8199 17.3822  0.0436  0.1358  0.4735   3.4124    4.4576    5.0320    5.3359    5.7642    7.3351    1.7837  80.0689 212.7285 215.6860 214.2020 215.9000  1.0081 219.3433
181.62  83.9760   0.4652   0.4125  2.7022  2.0335    0.6200   414.6484 1449.3301  82.8944 31.9725  0.4491 215.6304    1.1192    2.5942    3.4467    5.7305   5.9907  92.1406  0.1522  3.0076  79.7512  8.6559  2.8784 17.3117  0.0264  0.0796  0.4118   3.1922    4.0855    4.6071    4.8712    5.2489    6.6414    1.7139  82.8944 213.2389 215.7000 214.4661 215.9000  1.0075 219.2858
181.72  74.1319   0.4418   0.3919  2.6772  2.0217    0.5568   405.6467 1451.0074  83.8941 31.9730  0.4661 216.1934    1.1034    2.4817    3.1903    4.9488   5.2336  91.1544  0.1524  3.0490  80.4555  8.3731  2.7469 16.7461  0.0564  0.1724  0.5074   3.0842    3.9295    4.4194    4.6880    5.0536    6.3757    1.6596  83.8941 213.1284 215.7000 214.4103 215.9000  1.0067 219.2772
181.82  85.2125   0.4328   0.3839  2.6542  2.0209    0.5459   401.4931 1466.6487  83.5879 31.9731  0.4817 216.5695    1.1039    2.4896    3.1869    4.6557   4.9353  90.0984  0.1524  3.0303  80.1696  8.2815  2.7334 16.5630  0.0637  0.1933  0.5282   2.9417    3.7895    4.2330    4.4971    4.8443    6.1153    1.5617  83.5879 212.4560 215.8692 214.1554 215.9000  1.0089 219.3277
181.92  90.8031   0.4368   0.3872  2.6518  2.0299    0.5882   405.7191 1465.5592  82.7862 31.9743  0.4732 216.6645    1.1610    2.7248    3.6079    5.1181   5.7758  89.0138  0.1524  2.9839  79.5533  8.2675  2.7707 16.5350  0.0666  0.1986  0.5327   2.7624    3.6164    4.0005    4.2589    4.5926    5.7998    1.4482  82.7862 212.1903 216.3939 214.2818 215.9000  1.0109 219.3499
182.02  73.0151   0.5078   0.4535  2.6754  2.0529    0.6817   411.6845 1474.0653  82.2512 31.9748  0.4664 216.1165    1.2266    3.2365    4.5594    6.5759   7.8463  88.1910  0.1524  2.9811  80.5981  8.0340  2.6949 16.0681  0.1297  0.3864  0.7257   2.8306    3.7616    4.1760    4.4528    4.7815    6.0851    1.4611  82.2512 212.6379 216.6970 214.6581 215.9000  1.0130 219.3584
182.12  71.0954   0.6742   0.6109  2.7109  2.0845    0.8221   418.9478 1490.7089  81.9954 31.9749  0.4616 215.1020    1.2930    3.7805    5.6172    8.5601  11.9999  87.8125  0.1524  3.0281  82.5151  8.1326  2.6851 16.2651  0.1485  0.4491  0.7970   3.1237    4.1853    4.6899    4.9993    5.3758    6.8803    1.5924  81.9954 213.6098 216.6970 215.1482 215.9000  1.0195 219.4464
182.22  71.6884   0.8558   0.7968  2.7610  2.1069    1.0305   417.2043 1505.5530  84.2819 31.9770  0.4720 215.6304    1.3282    4.0357    5.8964    9.5283  14.2997  87.8203  0.1524  3.1046  84.9218  8.4390  2.7182 16.8385  0.1389  0.4311  0.7893   3.3137    4.3774    4.9309    5.2505    5.6568    7.2202    1.7092  84.2819 214.0098 216.7162 215.3585 215.9000  1.0214 219.5339
182.32  93.5594   0.8727   0.8228  2.8317  2.1135    1.1677   415.2706 1524.0828  85.3585 31.9781  0.4849 215.0560    1.2919    3.7059    4.9629    7.9888  11.4854  88.2079  0.1524  3.1124  85.7796  8.4423  2.7125 16.2819  0.1596  0.4967  0.8570   3.2924    4.2888    4.8222    5.1323    5.5215    7.0201    1.7300  85.3585 213.9097 216.8267 215.3628 215.9000  1.0197 219.6213
182.42 100.1663   0.8709   0.7954  2.9033  2.1107    1.0362   413.1465 1546.2985  85.2250 31.9781  0.5000 215.0560    1.2377    3.2282    4.0074    6.1510   7.1964  88.5462  0.1524  3.0808  85.8539  8.8613  2.8798 17.1668  0.1265  0.3925  0.7512   3.1778    4.0690    4.5713    4.8676    5.2457    6.6323    1.7100  85.2250 213.3284 216.7943 215.0540 215.9000  1.0276 219.7234
182.52  77.3599   0.7223   0.6407  2.9550  2.1003    0.9127   414.6106 1549.1513  85.9666 31.9801  0.4986 214.9641    1.2040    2.9276    3.4238    4.9339   5.4176  88.8351  0.1524  3.0148  85.2299  9.6178  3.1902 19.2356  0.0493  0.1487  0.5023   2.9280    3.7064    4.1777    4.4618    4.8239    6.0758    1.5951  85.9666 212.8028 216.1942 214.4915 215.9000  1.0280 219.8105
182.62  81.9677   0.6116   0.5419  2.9675  2.0884    0.8497   421.9876 1547.6745  85.7879 31.9826  0.4845 214.4815    1.2100    2.9378    3.4584    4.8638   5.0175  88.4762  0.1524  2.9198  83.1040  9.5726  3.2800 19.1451  0.0523  0.1525  0.4974   2.7667    3.3835    3.7967    4.0428    4.3826    5.4415    1.5770  85.7879 212.5858 215.9361 214.2538 215.9000  1.0207 219.8827
182.72  86.2218   0.6044   0.5434  2.9425  2.0868    0.8694   436.4557 1541.6379  84.4515 31.9858  0.4556 213.9070    1.2687    3.2094    3.9040    5.5994   5.5334  88.1549  0.1524  2.8224  81.8478  9.7721  3.4676 19.5442  0.0614  0.1724  0.5109   2.8750    3.4809    3.8958    4.1566    4.4914    5.5624    1.6678  84.4515 212.6972 216.2315 214.4567 215.9000  1.0248 219.9829
182.82  92.0360   0.7215   0.6673  2.8794  2.0947    0.9139   438.1058 1539.5444  88.1630 31.9861  0.4518 213.9070    1.3099    3.4577    4.3310    6.4713   5.9380  87.9040  0.1523  2.7226  81.4614 10.2163  3.7529 20.4326  0.0766  0.2085  0.5429   3.2880    4.0405    4.5430    4.8540    5.2687    6.5640    1.8612  88.1630 212.5899 216.1413 214.3579 215.9000  1.0236 219.9621
182.92  92.2505   0.8266   0.7677  2.8203  2.1006    1.0193   440.5529 1533.0208  90.4072 31.9875  0.4448 213.4540    1.3385    3.5705    4.5052    6.9727   6.2872  87.8515  0.1523  2.7605  82.7840  9.8711  3.5774 19.3535  0.1462  0.4053  0.7452   3.4361    4.2424    4.7436    5.0643    5.4837    6.8322    1.9356  90.4072 212.4800 215.9229 214.1946 215.9000  1.0156 219.7927
183.02  92.6569   0.8011   0.7335  2.7828  2.1025    1.0904   445.8673 1519.3379  89.7922 31.9909  0.4299 213.6312    1.3522    3.5230    4.4022    6.6957   6.1467  87.9361  0.1522  2.7899  83.8442  9.6751  3.4680 18.0569  0.1927  0.5377  0.8818   3.3565    4.1691    4.6222    4.9298    5.3562    6.6541    1.8876  89.7922 212.5589 215.8376 214.1916 215.9000  1.0151 219.7886
183.12  81.6791   0.7901   0.7127  2.7616  2.1019    1.0392   442.7955 1507.0261  88.6603 31.9914  0.4292 213.4933    1.3500    3.3862    4.2006    6.3061   6.1368  88.2004  0.1522  2.8037  84.5193  9.6914  3.4567 16.5688  0.2088  0.5854  0.9317   3.3008    4.1402    4.5692    4.8841    5.3038    6.6010    1.8394  88.6603 212.8603 216.1433 214.4951 215.9000  1.0131 219.7005
183.22  86.6754   0.7713   0.6933  2.7595  2.0967    1.0276   438.3824 1496.6312  87.9794 31.9928  0.4317 213.6860    1.3397    3.2725    4.0271    5.8762   5.9771  88.8381  0.1522  2.7920  83.8687  9.5555  3.4224 17.2693  0.1985  0.5544  0.8988   3.2216    4.0950    4.5173    4.8249    5.2451    6.5542    1.7753  87.9794 213.2486 216.7550 214.9952 215.9000  1.0079 219.4648
183.32  85.4090   0.7868   0.7070  2.7630  2.0904    1.0226   433.6021 1489.4490  88.2673 31.9968  0.4363 213.3325    1.3310    3.1048    3.8260    5.5073   5.9977  89.1875  0.1522  2.7561  83.0336  9.6312  3.4972 18.4313  0.1756  0.4851  0.8264   3.2193    4.0893    4.5378    4.8372    5.2802    6.6002    1.7697  88.2673 213.4152 217.2596 215.3291 215.9000  1.0039 219.3035
183.42  93.6137   0.8125   0.7262  2.7547  2.0880    0.9893   421.8452 1484.9709  86.2883 31.9975  0.4546 213.3325    1.3247    3.0355    3.6847    5.2768   5.8877  88.9071  0.1523  2.6874  82.0949 10.0445  3.7386 20.0000  0.1370  0.3685  0.7054   3.1210    3.9084    4.3564    4.6263    5.0600    6.2987    1.7384  86.2883 212.9700 216.7208 214.8367 215.9000  1.0017 219.1166
183.52  88.9156   0.7472   0.6683  2.7439  2.0876    0.9870   409.3371 1483.7520  84.3359 31.9991  0.4767 213.9070    1.3423    3.1313    3.8158    5.4990   6.0327  88.3786  0.1523  2.7087  82.1967  9.8064  3.6216 19.6127  0.1507  0.4086  0.7453   2.9442    3.6029    4.0297    4.2566    4.6624    5.7576    1.6840  84.3359 212.4800 216.0320 214.2480 215.9000  1.0028 218.8631
183.62  74.9862   0.7177   0.6473  2.7324  2.0872    0.9821   398.4106 1488.8454  83.5291 32.0042  0.5008 213.9070    1.3801    3.2696    4.0655    5.9483   6.2809  87.9415  0.1523  2.7617  82.8412  9.8923  3.5795 19.7846  0.1182  0.3215  0.6603   3.0564    3.7448    4.2005    4.4290    4.8606    6.0070    1.7439  83.5291 212.4800 216.0698 214.2669 215.9000  0.9970 218.5003
