~VERSION INFORMATION
 VERS.                  2.0:   CWLS Log Ascii Standard
 WRAP.                   NO:   One line per depth step
~WELL INFORMATION
#MNEM.UNIT        DATA TYPE:   INFORMATION
#---------    -------------   --------------------------
 STRT.M                1.12:   Top Depth
 STOP.M              835.52:   Bottom Depth
 STEP.M                0.10:   Increment
 NULL.              -999.25:   Null Value
 SRVC.                  KPG:   Service Company/Logging company
 DATE.           06/15/2024:   LAS file Creation Date
 WELL.               342HRL:   Well Name
 COMP.  ТОО"Казактуркмунай":   Company
 FLD .             Каратюбе:   Field
 STATE.                    :   State
 COUNT.                    :   Country
 LOC .                     :   Location
 LATI.                     :   Latitude/Northing
 LONG.                     :   Longitude/Easting
 PDAT.                     :   Permanent Datum
 EPDAT.                    :   Elevation of Permanent Datum
 LGMEA.                    :   Log Measured from
 APDAT.                    :   Elevation Above Permanent Datum
 KB  .                     :   KB Elevation
 DF  .                     :   DF Elevation
 GL  .                     :   GL Elevation
 RWS .                     :   Def_Rw
 WST .                     :   Def_Rwt
 RIGN.                     :   Rig Name
 CNTY.                     :   County
 PROV.                     :   Province
~PARAMETER INFORMATION
#MNEM  .UNIT          Value:   Description
#---------    -------------   --------------------------
~CURVE INFORMATION
#MNEM  .UNIT           API Code:   Curve Description
#---------       -------------- -------------------------- 
 DEPTH .m                      :   1 (WLWorkflow)            (6in)                   Depth Index
 HGR   .GAPI                   :   2 High Resolution Gamma Ray {F13.4}
 HMIN  .Ohmm                   :   3 HIP Micro Inverse Resistivity
 HMNO  .Ohmm                   :   4 HIP Micro Normal Resistivity
 PEFZ  .B/E                    :   5 Formation Photoelectric Factor
 RHOZ  .g/cm3                  :   6 Bulk Density
 RXOZ  .ohm.m                  :   7 (HDRS-H)                (2in)                   Invaded Formation Resistivity filtered at 18 inches
 CFTC  .                       :   8 
 CNTC  .                       :   9 
 ГК    .уе                     :   10 ГК(у.е)
 MTEM_FILT.degC                :   11 Filtered Mud Temperature
 TNPH  .V/V                    :   12 Neutron porosity
 HCAL  .MM                     :   13 HRCC Caliper Calibrated {F13.4}
 AHT10 .ohm.m                  :   14 Array Induction Two Foot Resistivity A10
 AHT20 .ohm.m                  :   15 Array Induction Two Foot Resistivity A20
 AHT30 .ohm.m                  :   16 Array Induction Two Foot Resistivity A30
 AHT60 .ohm.m                  :   17 Array Induction Two Foot Resistivity A60
 AHT90 .ohm.m                  :   18 Array Induction Two Foot Resistivity A90
 SP    .mV                     :   19 Spontaneous Potential
 AHMF  .ohm.m                  :   20 Array Induction Mud Resistivity Fully Calibrated
 HFK   .                       :   21 
 HSGR  .                       :   22 
 HTHO  .                       :   23 
 HTPR  .                       :   24 
 HTUR  .                       :   25 
 HUPR  .                       :   26 
 HURA  .                       :   27 
 PURA  .PPM                    :   28 Upper Limit of Formation Uranium Concentration {F13.4}
 RLA1  .ohm.m                  :   29 HRLT Borehole Corrected Resistivity 1
 RLA2  .ohm.m                  :   30 HRLT Borehole Corrected Resistivity 2
 RLA3  .ohm.m                  :   31 HRLT Borehole Corrected Resistivity 3
 RLA4  .ohm.m                  :   32 HRLT Borehole Corrected Resisitivity 4
 RLA5  .ohm.m                  :   33 HRLT Borehole Corrected Resistivity 5
 RT_HRLT.                      :   34 
 RXO_HRLT.                     :   35 
 ГК    .уе                     :   36 ГК(у.е)
 C1    .mm                     :   37 CALIPER DIAMETER 1
 C2    .mm                     :   38 CALIPER DIAMETER 2
 CALI  .mm                     :   39 Caliper
 BSC   .mm                     :   40 Nominal Caliper
 Incl  .                       :   41 НИ-М3 - Inclin
 AZIM  .                       :   42 Azimut
~A Log Data Section - Number of Curves = 42
# ...
366.32 115.9982   0.4709   0.5636  2.8944  2.0936    1.1778   394.2251 1465.9027 115.1372 34.3258  0.4983 214.7802    1.2910    2.2215    2.2616    2.5157   2.4951  78.0070  0.1444  3.2376 101.8623 11.3084  3.4928 10.8794  0.3211  1.0397  1.4159   2.2067    2.2848    2.3454    2.3822    2.4823    2.6018    1.5622 115.1372 212.7126 217.5058 215.0955 215.9000  0.5249 203.8590
366.42 115.3025   0.5157   0.6048  2.8954  2.0963    1.1908   394.1212 1465.2058 116.7540 34.3264  0.4977 215.6304    1.2925    2.2281    2.2691    2.5285   2.5205  78.2419  0.1444  3.2536 102.8526 11.4508  3.5194 10.4661  0.3366  1.0952  1.4749   2.2789    2.3647    2.4299    2.4729    2.5645    2.6991    1.6024 116.7540 213.0057 217.0908 215.0383 215.9000  0.5304 204.3112
366.52 130.9028   0.5581   0.6325  2.9047  2.1018    1.1668   395.7170 1448.0413 118.0216 34.3276  0.4847 217.9284    1.2987    2.2386    2.2741    2.5342   2.5311  78.3586  0.1444  3.2973 104.1786 11.7977  3.5771 11.7549  0.3114  1.0247  1.4086   2.3141    2.3941    2.4622    2.5126    2.5965    2.7328    1.6145 118.0216 212.9876 219.6164 216.2691 215.9000  0.5343 204.9727
366.62 110.1169   0.6128   0.6477  2.9129  2.1074    1.1113   404.0757 1450.8920 118.5741 34.3276  0.4700 222.0381    1.2862    2.2250    2.2709    2.5277   2.5234  78.3572  0.1444  3.3645 105.8175 12.3035  3.6569 14.3206  0.2554  0.8595  1.2481   2.2134    2.2851    2.3542    2.4009    2.4814    2.6087    1.5435 118.5741 211.9770 226.6913 219.2023 215.9000  0.5383 205.5773
366.72 118.6085   0.6378   0.6421  2.9148  2.1089    1.1192   406.6608 1457.7625 117.7583 34.3284  0.4682 217.9284    1.2918    2.2481    2.2972    2.5563   2.5564  78.6558  0.1444  3.4578 108.6870 12.5335  3.6251 13.1411  0.2769  0.9583  1.3575   2.1177    2.1871    2.2586    2.2921    2.3549    2.4685    1.4944 117.7583 211.0842 233.1802 221.8548 215.9000  0.5423 206.1248
366.82 111.3740   0.6724   0.6749  2.9084  2.1091    1.1143   402.3059 1468.8723 115.3536 34.3301  0.4813 221.6404    1.3124    2.3091    2.3514    2.6255   2.6295  78.8475  0.1444  3.5257 110.4884 12.4592  3.5347 11.4111  0.3154  1.1134  1.5198   2.1922    2.2802    2.3617    2.3974    2.4651    2.6095    1.5322 115.3536 211.1215 234.2638 222.3867 215.9000  0.5418 206.7696
366.92 120.1335   0.7232   0.7264  2.8889  2.1104    1.1358   420.1520 1477.7373 114.2567 34.3303  0.4543 220.5250    1.3415    2.3992    2.4218    2.7249   2.7299  78.9066  0.1444  3.5682 111.2218 12.0805  3.3856  9.1307  0.3712  1.3247  1.7350   2.3862    2.4630    2.5600    2.6039    2.6567    2.8016    1.6643 114.2567 212.2215 227.6986 219.8145 215.9000  0.5417 207.1567
367.02 116.7248   0.6336   0.6777  2.8755  2.1108    1.1710   434.7016 1479.0853 113.0493 34.3306  0.4301 218.0433    1.3526    2.4296    2.4525    2.7647   2.7683  78.8506  0.1444  3.5812 110.7373 11.4708  3.2034  7.5881  0.4282  1.5340  1.9433   2.4631    2.5448    2.6409    2.6894    2.7391    2.8892    1.7184 113.0493 213.1707 221.7937 217.4393 215.9000  0.5420 207.2388
367.12 108.1673   0.5652   0.6289  2.8667  2.1121    1.1693   442.1029 1469.8591 111.5414 34.3314  0.4144 217.1771    1.3360    2.3854    2.4180    2.7050   2.7151  78.8460  0.1444  3.5754 109.6453 11.3141  3.1649  7.7843  0.4188  1.4987  1.9037   2.4686    2.5580    2.6463    2.6977    2.7441    2.9005    1.7099 111.5414 213.4395 220.3460 216.8644 215.9000  0.5429 207.1016
367.22 107.2751   0.5604   0.6179  2.8621  2.1165    1.1410   453.2575 1487.3982 108.2827 34.3315  0.4054 215.6304    1.3177    2.3268    2.3790    2.6540   2.6557  78.9277  0.1444  3.5484 107.8691 11.6946  3.2959 10.0039  0.3314  1.1763  1.5731   2.3100    2.4144    2.4900    2.5369    2.5700    2.7302    1.5935 108.2827 213.8663 218.1560 216.0000 215.9000  0.5437 206.9228
367.32 105.3137   0.5642   0.6192  2.8709  2.1209    1.1180   451.2136 1498.6938 107.0125 34.3315  0.4143 216.5363    1.3156    2.2923    2.3494    2.6115   2.6019  79.2134  0.1444  3.5369 106.9032 11.9230  3.3711 11.0427  0.3063  1.0833  1.4765   2.1859    2.2944    2.3679    2.4075    2.4371    2.5935    1.5165 107.0125 213.8799 217.5317 215.6962 215.9000  0.5440 206.7080
367.42 103.2207   0.4811   0.5623  2.8934  2.1220    1.1416   424.7959 1492.4017 109.7020 34.3315  0.4531 219.8127    1.3313    2.3054    2.3473    2.6059   2.6030  79.1299  0.1444  3.5119 106.2046 12.0272  3.4248 11.1392  0.3092  1.0850  1.4765   2.2286    2.3144    2.3913    2.4257    2.4492    2.5683    1.6105 109.7020 213.1969 219.0117 216.0843 215.9000  0.5432 206.1745
367.52 112.0296   0.5167   0.5975  2.9185  2.1267    1.1899   419.2338 1492.5842 109.6031 34.3319  0.4632 217.4458    1.3432    2.3360    2.3495    2.6131   2.6072  78.3406  0.1444  3.4658 105.8028 11.9691  3.4536 10.0078  0.3458  1.1981  1.5901   2.4106    2.4722    2.5627    2.5954    2.6200    2.7143    1.8025 109.6031 212.8864 217.7312 215.2950 215.9000  0.5428 205.5973
367.62 121.9988   0.6517   0.7015  2.9496  2.1373    1.2779   420.7722 1489.9821 109.3769 34.3321  0.4600 214.0396    1.3099    2.2777    2.3142    2.5621   2.5498  78.0966  0.1444  3.4624 105.4109 11.5996  3.3502  8.7996  0.3837  1.3285  1.7205   2.6295    2.6756    2.7754    2.8106    2.8396    2.9279    1.9717 109.3769 213.1421 218.4626 215.7815 215.9000  0.5437 205.0199
367.72 105.8587   0.8683   0.8670  2.9828  2.1424    1.1997   429.2730 1478.4374 110.0495 34.3321  0.4396 215.2972    1.2269    2.0436    2.0985    2.2843   2.2801  78.0000  0.1444  3.4810 105.3083 11.3474  3.2600  8.2067  0.3980  1.3848  1.7774   2.5789    2.6351    2.7228    2.7509    2.7790    2.8714    1.9148 110.0495 213.7938 224.7749 219.2130 215.9000  0.5435 204.5093
367.82  98.2098   0.6270   0.6716  3.0023  2.1454    1.1024   450.2430 1489.7471 109.3467 34.3321  0.4123 214.4815    1.1486    1.8494    1.8965    2.0532   2.0573  78.0000  0.1444  3.5285 105.7177 11.3794  3.2252  8.7263  0.3700  1.3051  1.6995   2.1024    2.1480    2.1974    2.2194    2.2414    2.2920    1.6283 109.3467 213.4397 228.7747 220.9736 215.9000  0.5428 204.0619
367.92 109.8070   0.5180   0.5463  3.0079  2.1517    1.0810   465.4557 1502.7552 109.4302 34.3321  0.3947 214.4815    1.1315    1.7870    1.8203    1.9607   1.9622  78.0000  0.1444  3.5550 105.7575 11.8204  3.3246 11.9772  0.2933  1.0414  1.4353   1.6950    1.7210    1.7527    1.7703    1.7890    1.7972    1.4435 109.4302 213.3915 227.9465 220.5378 215.9000  0.5417 203.7269
368.02 119.2634   0.5450   0.5701  3.0070  2.1494    1.0812   454.8487 1503.3058 112.7925 34.3321  0.4096 217.8621    1.1808    1.9179    1.9547    2.1189   2.1257  77.7942  0.1444  3.5707 105.5217 12.2061  3.4184 15.7950  0.2205  0.7872  1.1801   1.8729    1.8997    1.9252    1.9455    1.9696    1.9609    1.6863 112.7925 214.9254 220.6682 217.7736 215.9000  0.5409 203.3970
368.12 111.4912   0.6930   0.7381  2.9989  2.1446    1.1557   437.7240 1514.6882 113.6668 34.3321  0.4431 221.9497    1.2383    2.0758    2.1132    2.2955   2.2979  77.0027  0.1444  3.5712 104.8291 12.2958  3.4430 19.7165  0.1770  0.6321  1.0239   2.4118    2.4356    2.4750    2.5001    2.5334    2.5271    2.1239 113.6668 215.7538 216.5487 216.1499 215.9000  0.5400 203.1550
368.22 115.3025   0.8264   0.8623  2.9829  2.1462    1.3109   419.6745 1527.3481 112.6254 34.3321  0.4802 214.4815    1.2380    2.0507    2.0607    2.2538   2.2373  75.7352  0.1444  3.5438 103.9587 12.2658  3.4613 19.6486  0.1765  0.6254  1.0142   2.5685    2.5794    2.6274    2.6456    2.6835    2.6744    2.2481 112.6254 216.0240 215.9820 216.0014 215.9000  0.5389 203.1598
368.32 117.4184   0.6990   0.7520  2.9712  2.1467    1.2716   406.4657 1531.0442 107.8911 34.3321  0.5069 218.0433    1.1600    1.8504    1.8717    2.0412   2.0239  74.3410  0.1443  3.5176 103.3769 12.3277  3.5046 19.9912  0.1734  0.6098  0.9963   2.4438    2.4527    2.4961    2.5125    2.5512    2.5477    2.0865 107.8911 216.1371 218.6238 217.3764 215.9000  0.5376 203.3063
368.42  86.3308   0.5839   0.6338  2.9617  2.1483    1.1544   406.0220 1543.4624 103.5469 34.3324  0.5143 217.3080    1.1243    1.7361    1.7291    1.8836   1.8490  73.0907  0.1443  3.5158 103.7509 12.7413  3.6241 24.5202  0.1300  0.4569  0.8443   1.9415    1.9518    1.9783    1.9796    2.0182    2.0068    1.7088 103.5469 216.6323 219.8548 218.2378 215.9000  0.5362 203.5122
