~VERSION INFORMATION
 VERS.                  2.0:   CWLS Log Ascii Standard
 WRAP.                   NO:   One line per depth step
~WELL INFORMATION
#MNEM.UNIT        DATA TYPE:   INFORMATION
#---------    -------------   --------------------------
 STRT.M                1.12:   Top Depth
 STOP.M              835.52:   Bottom Depth
 STEP.M                0.10:   Increment
 NULL.              -999.25:   Null Value
 SRVC.                  KPG:   Service Company/Logging company
 DATE.           06/15/2024:   LAS file Creation Date
 WELL.               342HRL:   Well Name
 COMP.  ТОО"Казактуркмунай":   Company
 FLD .             Каратюбе:   Field
 STATE.                    :   State
 COUNT.                    :   Country
 LOC .                     :   Location
 LATI.                     :   Latitude/Northing
 LONG.                     :   Longitude/Easting
 PDAT.                     :   Permanent Datum
 EPDAT.                    :   Elevation of Permanent Datum
 LGMEA.                    :   Log Measured from
 APDAT.                    :   Elevation Above Permanent Datum
 KB  .                     :   KB Elevation
 DF  .                     :   DF Elevation
 GL  .                     :   GL Elevation
 RWS .                     :   Def_Rw
 WST .                     :   Def_Rwt
 RIGN.                     :   Rig Name
 CNTY.                     :   County
 PROV.                     :   Province
~PARAMETER INFORMATION
#MNEM  .UNIT          Value:   Description
#---------    -------------   --------------------------
~CURVE INFORMATION
#MNEM  .UNIT           API Code:   Curve Description
#---------       -------------- -------------------------- 
 DEPTH .m                      :   1 (WLWorkflow)            (6in)                   Depth Index
 HGR   .GAPI                   :   2 High Resolution Gamma Ray {F13.4}
 HMIN  .Ohmm                   :   3 HIP Micro Inverse Resistivity
 HMNO  .Ohmm                   :   4 HIP Micro Normal Resistivity
 PEFZ  .B/E                    :   5 Formation Photoelectric Factor
 RHOZ  .g/cm3                  :   6 Bulk Density
 RXOZ  .ohm.m                  :   7 (HDRS-H)                (2in)                   Invaded Formation Resistivity filtered at 18 inches
 CFTC  .                       :   8 
 CNTC  .                       :   9 
 ГК    .уе                     :   10 ГК(у.е)
 MTEM_FILT.degC                :   11 Filtered Mud Temperature
 TNPH  .V/V                    :   12 Neutron porosity
 HCAL  .MM                     :   13 HRCC Caliper Calibrated {F13.4}
 AHT10 .ohm.m                  :   14 Array Induction Two Foot Resistivity A10
 AHT20 .ohm.m                  :   15 Array Induction Two Foot Resistivity A20
 AHT30 .ohm.m                  :   16 Array Induction Two Foot Resistivity A30
 AHT60 .ohm.m                  :   17 Array Induction Two Foot Resistivity A60
 AHT90 .ohm.m                  :   18 Array Induction Two Foot Resistivity A90
 SP    .mV                     :   19 Spontaneous Potential
 AHMF  .ohm.m                  :   20 Array Induction Mud Resistivity Fully Calibrated
 HFK   .                       :   21 
 HSGR  .                       :   22 
 HTHO  .                       :   23 
 HTPR  .                       :   24 
 HTUR  .                       :   25 
 HUPR  .                       :   26 
 HURA  .                       :   27 
 PURA  .PPM                    :   28 Upper Limit of Formation Uranium Concentration {F13.4}
 RLA1  .ohm.m                  :   29 HRLT Borehole Corrected Resistivity 1
 RLA2  .ohm.m                  :   30 HRLT Borehole Corrected Resistivity 2
 RLA3  .ohm.m                  :   31 HRLT Borehole Corrected Resistivity 3
 RLA4  .ohm.m                  :   32 HRLT Borehole Corrected Resisitivity 4
 RLA5  .ohm.m                  :   33 HRLT Borehole Corrected Resistivity 5
 RT_HRLT.                      :   34 
 RXO_HRLT.                     :   35 
 ГК    .уе                     :   36 ГК(у.е)
 C1    .mm                     :   37 CALIPER DIAMETER 1
 C2    .mm                     :   38 CALIPER DIAMETER 2
 CALI  .mm                     :   39 Caliper
 BSC   .mm                     :   40 Nominal Caliper
 Incl  .                       :   41 НИ-М3 - Inclin
 AZIM  .                       :   42 Azimut
~A Log Data Section - Number of Curves = 42
# ...
691.92  51.4541   2.0124   1.7810  2.6531  2.3891    2.6933   824.6047 2206.3021  57.3176 37.5822  0.2807 217.3769    1.4606    2.6106    2.5592    2.7027   2.6665  89.9900  0.1313  2.4974  63.7638  6.2247  2.4900 12.4495  0.0776  0.1918  0.5102   2.5232    2.5276    2.5933    2.6264    2.6605    2.6643    2.1363  57.3176 214.7363 220.3846 217.5410 215.9000  0.2725  67.6731
692.02  55.0512   2.1266   1.9172  2.6692  2.3877    3.1155   824.0943 2217.9442  58.2401 37.5822  0.2835 217.8595    1.4671    2.6315    2.5970    2.7526   2.7373  90.5772  0.1313  2.4156  61.8865  5.7038  2.3632 11.4077  0.1352  0.3251  0.6334   2.6207    2.6347    2.6956    2.7404    2.7661    2.7769    2.2069  58.2401 215.2000 219.3291 217.2537 215.9000  0.2709  67.7243
692.12  64.9062   3.0532   2.7218  2.7133  2.3864    3.2963   849.9826 2216.5118  61.5769 37.5822  0.2693 217.3539    1.4703    2.6516    2.6157    2.7919   2.7793  91.0479  0.1313  2.2596  59.1801  5.5216  2.4454 11.0432  0.1626  0.3660  0.6598   2.7979    2.8281    2.8977    2.9524    2.9759    3.0174    2.2468  61.5769 215.2778 224.0799 219.6259 215.9000  0.2696  67.5994
692.22  62.3571   3.2882   2.9089  2.7808  2.3772    3.3476   874.2261 2210.3425  65.2008 37.5822  0.2550 216.7794    1.4656    2.6183    2.5888    2.7797   2.7759  91.4370  0.1313  2.1782  58.2076  5.5904  2.5687 11.1808  0.1857  0.4038  0.6913   2.6938    2.7285    2.7937    2.8418    2.8596    2.9038    2.1530  65.2008 215.2027 227.5653 221.2883 215.9000  0.2674  67.0996
692.32  63.0628   2.4409   2.1676  2.8473  2.3648    3.3634   847.6917 2205.6557  66.0459 37.5822  0.2682 216.9562    1.4598    2.5830    2.5618    2.7310   2.7279  91.8590  0.1314  2.1368  58.0073  5.7864  2.7077 11.5727  0.1964  0.4195  0.7049   2.4474    2.4873    2.5443    2.5823    2.5925    2.6277    2.0030  66.0459 215.2782 220.1981 217.7225 215.9000  0.2667  66.5210
692.42  72.4314   1.9854   1.8298  2.8646  2.3669    2.9998   842.7010 2208.7381  66.2225 37.5822  0.2714 216.5956    1.4636    2.5796    2.5577    2.7301   2.7377  92.5558  0.1314  2.1480  58.5180  6.1340  2.8555 12.2680  0.1715  0.3682  0.6562   2.5019    2.5605    2.6196    2.6536    2.6608    2.7097    2.0329  66.2225 214.9889 217.5279 216.2546 215.9000  0.2668  65.8408
692.52  66.4114   2.1204   1.9299  2.8581  2.3753    2.7724   844.2376 2212.5756  66.7503 37.5822  0.2713 216.6186    1.4842    2.6374    2.5969    2.7693   2.7766  92.9309  0.1314  2.2098  60.0444  6.3283  2.8647 12.6566  0.1491  0.3284  0.6229   2.6734    2.7377    2.8067    2.8384    2.8481    2.9051    2.1592  66.7503 214.5736 217.7575 216.1595 215.9000  0.2675  64.8581
692.62  66.8307   2.1468   1.9353  2.8513  2.3794    2.7617   820.6891 2197.5440  71.4574 37.5822  0.2817 216.6358    1.4985    2.6895    2.6290    2.8443   2.8509  93.0769  0.1314  2.2957  61.9491  6.5700  2.8599 13.1400  0.1083  0.2454  0.5478   2.8568    2.9161    2.9982    3.0245    3.0350    3.0913    2.3136  71.4574 214.5218 216.1930 215.3562 215.9000  0.2682  63.8477
692.72  71.2832   2.0627   1.8424  2.8337  2.3827    2.6851   797.4784 2179.5482  74.7710 37.5822  0.2920 216.3313    1.4953    2.6804    2.6241    2.8240   2.8288  92.7891  0.1314  2.4003  63.7820  7.2677  3.0250 14.5353 -0.0152 -0.0415  0.2698   2.8220    2.8690    2.9540    2.9756    2.9906    3.0377    2.2990  74.7710 214.4045 215.5234 214.9633 215.9000  0.2692  62.8488
692.82  89.4540   2.0374   1.8043  2.8157  2.3785    2.5594   773.5563 2162.8686  76.9845 37.5822  0.3039 216.0944    1.4726    2.5860    2.5449    2.7384   2.7430  92.8327  0.1313  2.4786  65.5317  7.9208  3.1931 15.8417 -0.0945 -0.2364  0.0827   2.5867    2.6040    2.6789    2.6890    2.7010    2.7083    2.2517  76.9845 214.2614 215.6247 214.9422 215.9000  0.2712  62.0034
692.92  81.7684   1.9482   1.7212  2.8104  2.3663    2.5332   741.3682 2174.3850  76.9844 37.5822  0.3300 216.2049    1.4475    2.5054    2.4821    2.6600   2.6624  93.0225  0.1313  2.5302  66.9590  8.4519  3.3404 16.9037 -0.1431 -0.3622 -0.0371   2.4331    2.4526    2.5109    2.5264    2.5412    2.5433    2.1382  76.9844 214.2436 215.4558 214.8489 215.9000  0.2718  61.1280
693.02  70.1403   1.9824   1.7515  2.7936  2.3608    2.4079   724.7899 2182.9914  72.4724 37.5822  0.3443 216.2049    1.4403    2.4505    2.4288    2.6015   2.6067  92.7008  0.1313  2.4969  66.6580  8.3672  3.3511 16.7343 -0.1364 -0.3408 -0.0188   2.4534    2.4829    2.5368    2.5516    2.5706    2.5770    2.1363  72.4724 214.2305 215.3203 214.7742 215.9000  0.2719  60.2781
693.12  62.6189   1.9036   1.6826  2.7494  2.3600    2.3870   721.0465 2188.1879  64.7883 37.5822  0.3488 215.9729    1.4465    2.4625    2.4107    2.5685   2.5647  92.3281  0.1313  2.5070  66.9410  8.4087  3.3541 16.8174 -0.1369 -0.3433 -0.0185   2.4370    2.4685    2.5158    2.5251    2.5436    2.5422    2.1806  64.7883 214.2181 215.2861 214.7516 215.9000  0.2735  59.8224
693.22  57.3869   1.7376   1.5655  2.7072  2.3602    2.5383   737.4264 2170.3055  61.5051 37.5822  0.3315 216.2049    1.4691    2.5211    2.4581    2.5994   2.5950  91.9316  0.1313  2.5492  67.5642  8.4939  3.3330 16.9878 -0.1433 -0.3656 -0.0347   2.4599    2.4779    2.5225    2.5395    2.5507    2.5398    2.2622  61.5051 214.1979 215.3544 214.7755 215.9000  0.2733  59.4425
693.32  58.8565   2.0542   1.8344  2.6673  2.3641    2.5055   766.4423 2177.8930  61.7476 37.5822  0.3127 216.2049    1.4942    2.5838    2.5255    2.6690   2.6738  91.8142  0.1313  2.6408  68.0280  8.2764  3.1372 16.5527 -0.1637 -0.4333 -0.1008   2.5822    2.6150    2.6600    2.6821    2.6912    2.6884    2.3318  61.7476 214.0078 215.5027 214.7538 215.9000  0.2717  59.1393
693.42  59.9680   2.2611   1.9982  2.6286  2.3639    2.4858   807.1223 2208.9910  65.2445 37.5822  0.2924 216.2049    1.5104    2.6534    2.5902    2.7521   2.7637  91.3596  0.1313  2.6823  68.3172  8.1224  3.0282 16.2448 -0.1583 -0.4247 -0.0898   2.6699    2.7010    2.7338    2.7431    2.7573    2.7454    2.4876  65.2445 213.8077 215.6167 214.7100 215.9000  0.2701  59.2102
693.52  77.2630   1.8741   1.6557  2.5920  2.3617    2.6660   827.4399 2234.0581  68.1648 37.5822  0.2856 216.2270    1.5334    2.7015    2.6291    2.8164   2.8030  90.5938  0.1313  2.6848  68.4119  8.0348  2.9927 16.0695 -0.1385 -0.3716 -0.0341   2.5972    2.6286    2.6483    2.6537    2.6765    2.6587    2.4604  68.1648 214.0361 215.4953 214.7642 215.9000  0.2688  59.2454
693.62  68.7865   1.9740   1.7441  2.5604  2.3629    2.4871   844.7085 2258.0310  70.1967 37.5822  0.2802 216.7449    1.5335    2.7339    2.6446    2.8154   2.8029  90.0798  0.1313  2.6675  67.3159  8.2956  3.1103 16.5913 -0.2127 -0.5667 -0.2325   2.6529    2.6832    2.7094    2.7147    2.7413    2.7228    2.4924  70.1967 214.1371 215.4917 214.8129 215.9000  0.2679  59.2475
693.72  68.1403   2.0527   1.8175  2.5452  2.3633    2.4803   858.6738 2280.8186  71.2659 37.5822  0.2764 218.3923    1.5422    2.7499    2.6489    2.8195   2.8138  89.5968  0.1313  2.5966  64.6415  8.1277  3.1284 16.2554 -0.2554 -0.6623 -0.3402   2.7334    2.7473    2.7851    2.7928    2.8246    2.8006    2.5584  71.2659 214.0305 215.6612 214.8445 215.9000  0.2684  59.3535
693.82  69.0297   1.9623   1.7576  2.5392  2.3621    2.5794   873.6223 2314.7230  68.7273 37.5822  0.2754 217.0552    1.5454    2.7718    2.6727    2.8454   2.8097  89.1475  0.1313  2.4763  60.5100  7.5639  3.0546 15.1278 -0.2691 -0.6663 -0.3642   2.7288    2.7244    2.7671    2.7675    2.8103    2.7769    2.5887  68.7273 214.1930 215.7134 214.9522 215.9000  0.2673  59.5290
693.92  69.5410   1.9099   1.7326  2.5607  2.3627    2.7812   902.6653 2351.7467  66.6057 37.5822  0.2680 216.2968    1.5702    2.8473    2.7561    2.9323   2.8856  88.4330  0.1313  2.4174  59.5630  6.8721  2.8400 13.7443 -0.1648 -0.4017 -0.1057   2.8295    2.8253    2.8757    2.8778    2.9287    2.8944    2.6356  66.6057 214.6501 215.8124 215.2304 215.9000  0.2643  59.7799
694.02  67.9736   2.3517   2.0943  2.6151  2.3689    2.8084   950.3229 2392.1297  65.2886 37.5822  0.2518 216.2049    1.6202    2.9308    2.8412    3.0244   2.9707  87.9601  0.1314  2.3771  58.4230  6.1541  2.5876 12.3082 -0.0811 -0.1935  0.0959   3.0575    3.0736    3.1333    3.1334    3.1988    3.1826    2.6925  65.2886 215.1832 215.9389 215.5607 215.9000  0.2637  59.7900
