~VERSION INFORMATION
 VERS.                  2.0:   CWLS Log Ascii Standard
 WRAP.                   NO:   One line per depth step
~WELL INFORMATION
#MNEM.UNIT        DATA TYPE:   INFORMATION
#---------    -------------   --------------------------
 STRT.M                1.12:   Top Depth
 STOP.M              835.52:   Bottom Depth
 STEP.M                0.10:   Increment
 NULL.              -999.25:   Null Value
 SRVC.                  KPG:   Service Company/Logging company
 DATE.           06/15/2024:   LAS file Creation Date
 WELL.               342HRL:   Well Name
 COMP.  ТОО"Казактуркмунай":   Company
 FLD .             Каратюбе:   Field
 STATE.                    :   State
 COUNT.                    :   Country
 LOC .                     :   Location
 LATI.                     :   Latitude/Northing
 LONG.                     :   Longitude/Easting
 PDAT.                     :   Permanent Datum
 EPDAT.                    :   Elevation of Permanent Datum
 LGMEA.                    :   Log Measured from
 APDAT.                    :   Elevation Above Permanent Datum
 KB  .                     :   KB Elevation
 DF  .                     :   DF Elevation
 GL  .                     :   GL Elevation
 RWS .                     :   Def_Rw
 WST .                     :   Def_Rwt
 RIGN.                     :   Rig Name
 CNTY.                     :   County
 PROV.                     :   Province
~PARAMETER INFORMATION
#MNEM  .UNIT          Value:   Description
#---------    -------------   --------------------------
~CURVE INFORMATION
#MNEM  .UNIT           API Code:   Curve Description
#---------       -------------- -------------------------- 
 DEPTH .m                      :   1 (WLWorkflow)            (6in)                   Depth Index
 HGR   .GAPI                   :   2 High Resolution Gamma Ray {F13.4}
 HMIN  .Ohmm                   :   3 HIP Micro Inverse Resistivity
 HMNO  .Ohmm                   :   4 HIP Micro Normal Resistivity
 PEFZ  .B/E                    :   5 Formation Photoelectric Factor
 RHOZ  .g/cm3                  :   6 Bulk Density
 RXOZ  .ohm.m                  :   7 (HDRS-H)                (2in)                   Invaded Formation Resistivity filtered at 18 inches
 CFTC  .                       :   8 
 CNTC  .                       :   9 
 ГК    .уе                     :   10 ГК(у.е)
 MTEM_FILT.degC                :   11 Filtered Mud Temperature
 TNPH  .V/V                    :   12 Neutron porosity
 HCAL  .MM                     :   13 HRCC Caliper Calibrated {F13.4}
 AHT10 .ohm.m                  :   14 Array Induction Two Foot Resistivity A10
 AHT20 .ohm.m                  :   15 Array Induction Two Foot Resistivity A20
 AHT30 .ohm.m                  :   16 Array Induction Two Foot Resistivity A30
 AHT60 .ohm.m                  :   17 Array Induction Two Foot Resistivity A60
 AHT90 .ohm.m                  :   18 Array Induction Two Foot Resistivity A90
 SP    .mV                     :   19 Spontaneous Potential
 AHMF  .ohm.m                  :   20 Array Induction Mud Resistivity Fully Calibrated
 HFK   .                       :   21 
 HSGR  .                       :   22 
 HTHO  .                       :   23 
 HTPR  .                       :   24 
 HTUR  .                       :   25 
 HUPR  .                       :   26 
 HURA  .                       :   27 
 PURA  .PPM                    :   28 Upper Limit of Formation Uranium Concentration {F13.4}
 RLA1  .ohm.m                  :   29 HRLT Borehole Corrected Resistivity 1
 RLA2  .ohm.m                  :   30 HRLT Borehole Corrected Resistivity 2
 RLA3  .ohm.m                  :   31 HRLT Borehole Corrected Resistivity 3
 RLA4  .ohm.m                  :   32 HRLT Borehole Corrected Resisitivity 4
 RLA5  .ohm.m                  :   33 HRLT Borehole Corrected Resistivity 5
 RT_HRLT.                      :   34 
 RXO_HRLT.                     :   35 
 ГК    .уе                     :   36 ГК(у.е)
 C1    .mm                     :   37 CALIPER DIAMETER 1
 C2    .mm                     :   38 CALIPER DIAMETER 2
 CALI  .mm                     :   39 Caliper
 BSC   .mm                     :   40 Nominal Caliper
 Incl  .                       :   41 НИ-М3 - Inclin
 AZIM  .                       :   42 Azimut
~A Log Data Section - Number of Curves = 42
# ...
458.72  94.4311   1.0892   0.9721  2.9490  2.2049    1.4046   455.3632 1550.4742  92.8657 35.2982  0.4308 213.8151    1.3743    2.6132    2.6723    2.9372   2.8731  78.3177  0.1405  2.8170  92.8538 10.1830  3.6084  6.7881  0.5543  1.5503  1.9238   2.5263    2.7599    2.8395    2.8466    2.8874    3.1811    1.7325  92.8657 212.4899 212.6649 212.5776 215.9000  0.5794 183.2060
458.82  97.2143   1.0664   0.9602  2.9273  2.1847    1.4085   409.9234 1489.2116  92.9431 35.2983  0.4843 213.8407    1.3738    2.6349    2.7026    2.9890   2.8922  78.0122  0.1405  2.6727  89.8831  9.0150  3.3731  4.8193  0.6999  1.8708  2.2347   2.4990    2.7104    2.8413    2.8492    2.8954    3.2258    1.7225  92.9431 212.6691 212.7020 212.6852 215.9000  0.5788 183.0330
458.92  94.3483   1.0238   0.9478  2.8263  2.1061    1.2690   364.8253 1414.6653  89.9611 35.2995  0.5453 213.7461    1.3850    2.6539    2.7168    3.0166   2.8924  78.0000  0.1405  2.4603  83.5807  8.6128  3.5067  5.1539  0.6810  1.6777  2.0223   2.5030    2.6952    2.8568    2.8708    2.9329    3.2878    1.7267  89.9611 212.7720 212.7020 212.7370 215.9000  0.5784 182.8303
459.02  90.7366   0.7542   0.7401  2.6283  1.9584    1.3779   322.4309 1324.8659  83.0128 35.3023  0.6126 213.7081    1.4019    2.7101    2.7643    3.0702   2.9292  77.9214  0.1405  2.2731  77.2612  8.1395  3.5812  5.6994  0.6336  1.4466  1.7687   2.3672    2.4960    2.6364    2.6584    2.7277    2.9819    1.6252  83.0128 212.7720 212.6555 212.7136 215.9000  0.5777 182.6365
459.12  68.3092   0.7766   0.7768  2.3084  1.7876    1.4810   287.2542 1245.3718  77.0025 35.3026  0.7212 215.2283    1.4183    2.8289    2.8949    3.1786   3.0240  77.7426  0.1405  2.1131  70.9231  7.5890  3.5914  6.4733  0.5554  1.1743  1.4705   2.6111    2.7183    2.8507    2.8993    2.9821    3.2064    1.8047  77.0025 212.7825 212.5050 212.6434 215.9000  0.5771 182.4505
459.22  65.2434   1.2077   1.1953  1.9820  1.6295    1.4650   261.9202 1173.1395  70.2140 35.3040  0.7820 214.7342    1.4150    2.7788    2.8888    3.1435   3.0068  77.3023  0.1405  2.0083  65.8886  7.2417  3.6064  8.3734  0.4447  0.8992  1.1739   3.0762    3.1732    3.3087    3.3901    3.4862    3.7187    2.0999  70.2140 212.8646 212.4730 212.6688 215.9000  0.5770 182.2741
459.32  67.9698   1.1886   1.1554  1.7742  1.5134    1.7981   250.8647 1110.6715  62.0634 35.3075  0.7614 214.4815    1.3738    2.6696    2.7640    3.0133   2.8958  76.9450  0.1405  1.9430  62.7924  7.0584  3.6328  9.3767  0.3876  0.7529  1.0147   2.8722    2.9381    3.0368    3.1259    3.2170    3.3861    1.9696  62.0634 213.4043 212.7362 213.0698 215.9000  0.5770 182.1133
459.42  58.0286   1.0674   1.0523  1.6797  1.4808    1.8815   244.9659 1100.1907  64.0453 35.3080  0.7991 213.9070    1.3430    2.5807    2.6590    2.8926   2.7844  76.7583  0.1405  1.9254  62.0938  7.0732  3.6738  9.1788  0.4003  0.7707  1.0304   2.5407    2.5913    2.6689    2.7551    2.8459    2.9736    1.7772  64.0453 214.7790 213.1038 213.9393 215.9000  0.5769 181.9831
459.52  54.0622   1.0548   1.0695  1.7241  1.5335    1.8794   245.7695 1120.4233  67.8138 35.3083  0.8352 214.2826    1.3418    2.5865    2.6769    2.9083   2.8059  76.5831  0.1405  2.0380  65.3697  7.7153  3.7819 11.6004  0.3353  0.6783  0.9507   2.6929    2.7705    2.8603    2.9588    3.0565    3.2350    1.8741  67.8138 215.2571 213.3673 214.3096 215.9000  0.5766 181.8981
459.62  76.4095   1.2331   1.2476  1.8948  1.6526    1.6769   257.9538 1183.8476  71.8488 35.3094  0.8499 212.7580    1.3339    2.5675    2.6632    2.9418   2.8464  76.4318  0.1405  2.1824  70.0164  8.5258  3.9021 13.2498  0.2945  0.6434  0.9334   2.8078    2.9241    3.0117    3.1192    3.2310    3.4711    1.9451  71.8488 214.2257 213.4886 213.8568 215.9000  0.5771 181.7965
459.72  83.9398   0.9778   0.9903  2.1373  1.8137    1.6419   310.6559 1265.2277  83.7665 35.3096  0.6679 213.2176    1.3205    2.4995    2.6104    2.8880   2.7988  76.3231  0.1405  2.3564  76.1924  9.5024  4.0308 13.2863  0.3034  0.7152  1.0286   2.5710    2.6602    2.7325    2.8203    2.9262    3.1032    1.7852  83.7665 215.1997 213.9554 214.5768 215.9000  0.5774 181.7446
459.82  89.1189   0.7887   0.7980  2.3786  1.9805    1.5318   369.4679 1345.4892  95.1339 35.3104  0.4895 212.6696    1.2938    2.3989    2.4954    2.7670   2.6917  76.9071  0.1405  2.5874  83.4190 10.2798  3.9774 12.7926  0.3111  0.8060  1.1468   2.5182    2.6085    2.6945    2.7737    2.8857    3.0778    1.7520  95.1339 215.8651 214.4525 215.1572 215.9000  0.5772 181.7948
459.92 107.1941   0.8781   0.8628  2.5832  2.1168    1.3593   421.4633 1413.3622 100.9176 35.3131  0.4256 212.4938    1.2689    2.3107    2.4018    2.6590   2.5856  77.5385  0.1405  2.7994  90.0062 10.8049  3.8637 11.5502  0.3409  0.9590  1.3240   2.3603    2.4387    2.5404    2.6091    2.7217    2.9178    1.6365 100.9176 214.2570 214.5214 214.3894 215.9000  0.5774 181.7893
460.02 118.2892   1.0353   0.9467  2.7286  2.2002    1.3675   459.0086 1483.6616 104.9227 35.3137  0.3974 212.4598    1.2556    2.2391    2.3325    2.5950   2.5374  77.9137  0.1405  2.9565  95.0199 10.9034  3.6902  9.0220  0.4140  1.2266  1.6084   2.1590    2.2266    2.3209    2.3772    2.4816    2.6476    1.5039 104.9227 213.6596 214.1393 213.8991 215.9000  0.5776 181.7856
460.12 101.3682   1.0447   0.9366  2.7966  2.2314    1.3798   479.6946 1545.2077 106.8988 35.3143  0.3940 212.1836    1.2500    2.2444    2.3577    2.6403   2.5816  78.0433  0.1405  3.0606  99.0327 11.4195  3.7296  8.7641  0.4256  1.3025  1.6956   2.1602    2.2486    2.3408    2.3909    2.4944    2.6782    1.5160 106.8988 213.5952 213.6263 213.6106 215.9000  0.5775 181.8161
460.22  99.3745   1.0414   0.9364  2.7964  2.2283    1.3495   460.6612 1576.7400 104.1324 35.3167  0.4352 212.7580    1.2426    2.2212    2.3512    2.6487   2.5941  78.2965  0.1405  3.1482 102.4928 12.0389  3.8231  9.1929  0.4168  1.3114  1.7124   2.2325    2.3417    2.4411    2.4958    2.6061    2.8285    1.5842 104.1324 213.4295 213.4415 213.4353 215.9000  0.5772 181.8457
460.32 101.3365   1.0480   0.9376  2.7626  2.2189    1.3229   451.1126 1589.9316 103.6482 35.3174  0.4557 212.7580    1.2318    2.1824    2.3221    2.6283   2.5716  79.1740  0.1405  3.2236 105.1376 12.6868  3.9348 10.0830  0.3909  1.2596  1.6625   2.2276    2.3821    2.4880    2.5489    2.6625    2.9731    1.6510 103.6482 213.3630 213.3677 213.3657 215.9000  0.5770 181.8838
460.42 100.9530   1.0369   0.9196  2.7344  2.2108    1.2688   445.7579 1588.9819 103.7303 35.3177  0.4641 212.7580    1.2224    2.1488    2.2672    2.5830   2.5315  79.7094  0.1405  3.2387 106.1510 12.8267  3.9604  9.4056  0.4248  1.3756  1.7783   2.0629    2.2176    2.3150    2.3666    2.4746    2.7614    1.4994 103.7303 213.1320 213.2371 213.1844 215.9000  0.5769 181.9497
460.52 107.1732   0.9507   0.8454  2.7105  2.2073    1.2607   442.4240 1559.9963 102.5280 35.3193  0.4565 212.5512    1.2122    2.1271    2.2540    2.5494   2.5114  80.1275  0.1404  3.2271 106.2941 12.7820  3.9608  8.5082  0.4656  1.5023  1.9029   1.9972    2.1543    2.2455    2.2911    2.3937    2.6586    1.3962 102.5280 212.4970 212.8335 212.6649 215.9000  0.5760 181.9658
460.62 105.7301   0.9439   0.8421  2.7011  2.2029    1.2239   443.0969 1554.2817 102.9805 35.3198  0.4528 212.3904    1.2063    2.1102    2.2496    2.5270   2.4959  80.6090  0.1404  3.1879 105.2243 12.6329  3.9627  8.3970  0.4720  1.5045  1.8986   2.0890    2.2674    2.3711    2.4216    2.5296    2.8149    1.3840 102.9805 212.3315 212.5336 212.4324 215.9000  0.5753 181.9614
460.72  96.0128   0.9909   0.8796  2.7061  2.1958    1.1355   444.3192 1556.3841 103.7372 35.3203  0.4518 212.1836    1.1886    2.0745    2.2072    2.4789   2.4600  81.5156  0.1404  3.0715 102.3568 11.9143  3.8756  7.0365  0.5713  1.7432  2.1264   2.0836    2.2624    2.3690    2.4187    2.5269    2.8161    1.3657 103.7372 212.3606 212.3153 212.3376 215.9000  0.5759 181.9528
460.82  96.8191   0.8754   0.7738  2.7191  2.1889    1.1105   437.4721 1537.8311 101.5995 35.3233  0.4550 211.6091    1.1793    2.0300    2.1515    2.4357   2.4424  82.4800  0.1404  2.9342  99.4004 11.1783  3.8111  5.4980  0.6943  2.0352  2.4077   1.9036    2.0493    2.1491    2.1990    2.2934    2.5442    1.2696 101.5995 212.0416 212.1515 212.0964 215.9000  0.5760 182.0228
