~VERSION INFORMATION
 VERS.                  2.0:   CWLS Log Ascii Standard
 WRAP.                   NO:   One line per depth step
~WELL INFORMATION
#MNEM.UNIT        DATA TYPE:   INFORMATION
#---------    -------------   --------------------------
 STRT.M                1.12:   Top Depth
 STOP.M              835.52:   Bottom Depth
 STEP.M                0.10:   Increment
 NULL.              -999.25:   Null Value
 SRVC.                  KPG:   Service Company/Logging company
 DATE.           06/15/2024:   LAS file Creation Date
 WELL.               342HRL:   Well Name
 COMP.  ТОО"Казактуркмунай":   Company
 FLD .             Каратюбе:   Field
 STATE.                    :   State
 COUNT.                    :   Country
 LOC .                     :   Location
 LATI.                     :   Latitude/Northing
 LONG.                     :   Longitude/Easting
 PDAT.                     :   Permanent Datum
 EPDAT.                    :   Elevation of Permanent Datum
 LGMEA.                    :   Log Measured from
 APDAT.                    :   Elevation Above Permanent Datum
 KB  .                     :   KB Elevation
 DF  .                     :   DF Elevation
 GL  .                     :   GL Elevation
 RWS .                     :   Def_Rw
 WST .                     :   Def_Rwt
 RIGN.                     :   Rig Name
 CNTY.                     :   County
 PROV.                     :   Province
~PARAMETER INFORMATION
#MNEM  .UNIT          Value:   Description
#---------    -------------   --------------------------
~CURVE INFORMATION
#MNEM  .UNIT           API Code:   Curve Description
#---------       -------------- -------------------------- 
 DEPTH .m                      :   1 (WLWorkflow)            (6in)                   Depth Index
 HGR   .GAPI                   :   2 High Resolution Gamma Ray {F13.4}
 HMIN  .Ohmm                   :   3 HIP Micro Inverse Resistivity
 HMNO  .Ohmm                   :   4 HIP Micro Normal Resistivity
 PEFZ  .B/E                    :   5 Formation Photoelectric Factor
 RHOZ  .g/cm3                  :   6 Bulk Density
 RXOZ  .ohm.m                  :   7 (HDRS-H)                (2in)                   Invaded Formation Resistivity filtered at 18 inches
 CFTC  .                       :   8 
 CNTC  .                       :   9 
 ГК    .уе                     :   10 ГК(у.е)
 MTEM_FILT.degC                :   11 Filtered Mud Temperature
 TNPH  .V/V                    :   12 Neutron porosity
 HCAL  .MM                     :   13 HRCC Caliper Calibrated {F13.4}
 AHT10 .ohm.m                  :   14 Array Induction Two Foot Resistivity A10
 AHT20 .ohm.m                  :   15 Array Induction Two Foot Resistivity A20
 AHT30 .ohm.m                  :   16 Array Induction Two Foot Resistivity A30
 AHT60 .ohm.m                  :   17 Array Induction Two Foot Resistivity A60
 AHT90 .ohm.m                  :   18 Array Induction Two Foot Resistivity A90
 SP    .mV                     :   19 Spontaneous Potential
 AHMF  .ohm.m                  :   20 Array Induction Mud Resistivity Fully Calibrated
 HFK   .                       :   21 
 HSGR  .                       :   22 
 HTHO  .                       :   23 
 HTPR  .                       :   24 
 HTUR  .                       :   25 
 HUPR  .                       :   26 
 HURA  .                       :   27 
 PURA  .PPM                    :   28 Upper Limit of Formation Uranium Concentration {F13.4}
 RLA1  .ohm.m                  :   29 HRLT Borehole Corrected Resistivity 1
 RLA2  .ohm.m                  :   30 HRLT Borehole Corrected Resistivity 2
 RLA3  .ohm.m                  :   31 HRLT Borehole Corrected Resistivity 3
 RLA4  .ohm.m                  :   32 HRLT Borehole Corrected Resisitivity 4
 RLA5  .ohm.m                  :   33 HRLT Borehole Corrected Resistivity 5
 RT_HRLT.                      :   34 
 RXO_HRLT.                     :   35 
 ГК    .уе                     :   36 ГК(у.е)
 C1    .mm                     :   37 CALIPER DIAMETER 1
 C2    .mm                     :   38 CALIPER DIAMETER 2
 CALI  .mm                     :   39 Caliper
 BSC   .mm                     :   40 Nominal Caliper
 Incl  .                       :   41 НИ-М3 - Inclin
 AZIM  .                       :   42 Azimut
~A Log Data Section - Number of Curves = 42
# ...
645.72  92.7094   1.3903   1.2898  2.8864  2.1998    1.9488   513.4973 1740.4321  92.8999 37.1369  0.4258 212.7580    1.6452    4.1893    4.5089    5.8112   5.6137  92.8488  0.1327  2.5432  83.6752  8.5529  3.3623  4.7828  0.7115  1.8085  2.1550   3.6894    4.3132    4.6784    4.9045    5.4461    6.4856    2.2851  92.8999 211.2960 212.0637 211.6797 215.9000  0.3535 132.7583
645.82  92.6778   1.3898   1.2930  2.9591  2.2047    1.9949   512.7358 1741.6386  92.7272 37.1369  0.4273 212.7580    1.6713    4.3512    4.6724    6.1087   5.8520  92.3207  0.1327  2.5255  83.1759  8.0542  3.1895  4.0014  0.7970  2.0129  2.3582   3.7422    4.3962    4.7693    5.0297    5.5672    6.6627    2.3114  92.7272 211.2960 212.0164 211.6560 215.9000  0.3536 132.4111
645.92  94.9078   1.4217   1.3357  3.0513  2.2138    2.0504   518.5639 1737.3319  92.3493 37.1375  0.4181 212.7580    1.7051    4.5685    4.9369    6.5617   6.2252  91.5761  0.1327  2.5693  82.7731  7.6275  2.9705  3.7827  0.7850  2.0165  2.3595   3.9226    4.6345    5.0374    5.3349    5.9128    7.1164    2.4241  92.3493 211.2960 211.9073 211.6020 215.9000  0.3540 131.9781
646.02  92.7753   1.4974   1.4036  3.1501  2.2250    2.1285   531.2505 1727.2868  91.7576 37.1387  0.3977 212.2278    1.7358    4.7337    5.1433    6.8952   6.4326  91.1135  0.1327  2.6585  83.5622  7.2633  2.7384  3.5715  0.7660  2.0346  2.3795   3.9984    4.7084    5.1504    5.4686    6.0736    7.3429    2.5000  91.7576 211.2960 211.8383 211.5670 215.9000  0.3544 131.3731
646.12  91.2081   1.5588   1.4617  3.2364  2.2309    2.2411   544.5275 1715.2658  90.5715 37.1388  0.3776 212.1836    1.7707    4.9669    5.4340    7.5014   6.8657  90.9443  0.1327  2.7853  85.3487  6.9550  2.4970  3.3697  0.7410  2.0640  2.4144   4.0966    4.7985    5.2782    5.6310    6.2421    7.5969    2.6155  90.5715 211.2819 212.1037 211.6923 215.9000  0.3547 130.6610
646.22  90.0050   1.5871   1.5022  3.2845  2.2310    2.3463   553.3253 1705.9073  88.1350 37.1388  0.3640 212.1836    1.8012    5.1897    5.6952    8.0861   7.4619  90.9819  0.1327  2.8109  85.3552  6.9110  2.4588  3.4609  0.7109  1.9978  2.3472   4.3143    5.0687    5.6188    6.0290    6.6890    8.2150    2.7591  88.1350 211.1905 212.1332 211.6615 215.9000  0.3549 129.8375
646.32  84.4886   1.6377   1.5697  3.2793  2.2243    2.3781   556.3912 1700.0422  84.1386 37.1388  0.3586 212.5742    1.8155    5.2122    5.7737    8.3509   7.7249  91.0831  0.1327  2.8323  86.0886  6.7443  2.3816  3.2961  0.7268  2.0591  2.4106   4.4715    5.2713    5.8840    6.3630    7.0394    8.7272    2.8509  84.1386 211.0789 211.8367 211.4578 215.9000  0.3544 128.8385
646.42  83.0739   1.6173   1.5443  3.1972  2.2141    2.3095   546.9057 1694.5485  82.6776 37.1388  0.3673 212.7580    1.7998    5.0540    5.6434    8.1583   7.6313  91.2542  0.1326  2.8492  87.5784  6.4500  2.2638  2.8648  0.7908  2.2532  2.6100   4.3009    5.0400    5.6346    6.1264    6.7609    8.3931    2.7587  82.6776 211.1736 211.9227 211.5480 215.9000  0.3536 127.7680
646.52  71.7063   1.5031   1.4242  3.0566  2.1993    2.2422   546.5912 1694.6754  81.5013 37.1388  0.3678 212.4487    1.7953    4.9439    5.5417    7.8907   7.5959  91.6095  0.1326  2.8812  87.0062  6.6387  2.3038  3.3925  0.6889  1.9829  2.3363   4.0734    4.7548    5.3148    5.7995    6.3816    7.9225    2.6237  81.5013 211.2005 212.1417 211.6703 215.9000  0.3524 126.6158
646.62  86.5531   1.4158   1.3352  2.9013  2.1849    2.1389   562.3285 1703.5432  80.4255 37.1388  0.3535 212.4823    1.7911    4.8512    5.4477    7.7078   7.5131  91.9628  0.1326  2.9462  87.5654  6.7988  2.3085  3.7947  0.6094  1.7932  2.1471   4.1636    4.8896    5.4771    5.9871    6.5849    8.1928    2.6423  80.4255 211.0829 212.3604 211.7203 215.9000  0.3505 125.4226
646.72  87.8193   1.4312   1.3460  2.7572  2.1773    2.0353   561.0113 1710.9390  84.0052 37.1388  0.3573 212.5150    1.7964    4.7739    5.3532    7.5043   7.4056  92.2881  0.1326  3.0522  89.6741  6.8968  2.2598  3.9863  0.5671  1.7305  2.0908   4.1364    4.8473    5.4246    5.9230    6.5031    8.0481    2.5830  84.0052 211.1696 212.5604 211.8640 215.9000  0.3478 124.2550
646.82  89.1882   1.4110   1.3296  2.6522  2.1696    2.0548   561.4607 1720.4802  87.6109 37.1388  0.3601 212.3904    1.7684    4.5877    5.1160    7.0046   7.0004  92.7778  0.1326  3.1067  91.0975  6.9669  2.2427  3.8082  0.5898  1.8331  2.1993   4.0012    4.6735    5.2250    5.6655    6.2184    7.6277    2.4519  87.6109 211.2099 212.6053 211.9066 215.9000  0.3443 123.1328
646.92  93.9917   1.3689   1.3010  2.5920  2.1640    2.0151   570.2861 1734.6131  89.9165 37.1388  0.3554 212.1836    1.7262    4.2768    4.7329    6.2724   6.3280  93.1766  0.1326  3.1667  92.1489  7.1723  2.2641  4.0369  0.5703  1.8027  2.1726   3.8952    4.5517    5.0793    5.4835    6.0029    7.3196    2.3361  89.9165 211.0858 212.3863 211.7352 215.9000  0.3408 121.9068
647.02  89.0966   1.3808   1.2976  2.5701  2.1592    1.9513   565.5268 1756.8046  94.0815 37.1388  0.3682 212.7580    1.6726    4.0229    4.3970    5.6943   5.7620  93.3514  0.1326  3.2421  92.7116  7.5930  2.3417  4.9524  0.4760  1.5419  1.9118   3.6027    4.1941    4.6576    4.9704    5.4397    6.5815    2.1650  94.0815 211.1714 212.1793 211.6750 215.9000  0.3368 120.7130
647.12 100.5675   1.3429   1.2523  2.5662  2.1524    1.9135   564.8885 1771.7633  97.8326 37.1388  0.3740 212.6661    1.6199    3.7262    4.0541    5.0937   5.2727  93.5472  0.1326  3.1405  91.3266  7.5778  2.4146  4.6947  0.5176  1.6210  1.9848   3.3074    3.8324    4.2187    4.4489    4.8704    5.8397    2.0170  97.8326 211.2960 212.1197 211.7077 215.9000  0.3318 119.6116
647.22 104.1862   1.3017   1.2098  2.5710  2.1487    1.8991   580.8241 1765.7175  99.6655 37.1388  0.3548 212.2167    1.5878    3.5759    3.8649    4.7595   4.9058  93.8116  0.1326  3.0632  90.1782  7.5141  2.4531  4.4309  0.5537  1.6960  2.0544   3.2146    3.7373    4.0778    4.2756    4.6739    5.5831    1.9718  99.6655 211.2960 212.3387 211.8167 215.9000  0.3261 118.7932
647.32 107.4642   1.3365   1.2450  2.5803  2.1503    1.8772   571.9605 1762.5474  99.5838 37.1388  0.3632 212.7350    1.5730    3.5208    3.7452    4.5316   4.6668  94.2252  0.1326  3.0843  90.0541  7.4830  2.4262  4.4954  0.5398  1.6647  2.0205   3.2285    3.7726    4.0660    4.2422    4.6186    5.4995    1.9953  99.5838 211.2960 212.5469 211.9206 215.9000  0.3203 118.0077
647.42  97.4035   1.3705   1.2719  2.5826  2.1606    1.9223   557.9007 1763.2504  98.1918 37.1388  0.3787 212.2057    1.5593    3.4803    3.6859    4.4186   4.5117  94.7477  0.1327  3.0633  90.1602  7.9489  2.5961  5.3621  0.4905  1.5036  1.8584   3.2174    3.7559    4.0287    4.1882    4.5389    5.3930    2.0013  98.1918 211.2960 212.4776 211.8866 215.9000  0.3147 117.1539
647.52  94.5045   1.4145   1.3086  2.5863  2.1779    1.9574   550.4748 1772.9962  94.5843 37.1388  0.3908 212.7120    1.5510    3.4510    3.5957    4.2973   4.3029  95.2248  0.1327  3.0447  90.8138  8.4587  2.7780  6.0351  0.4607  1.4028  1.7595   3.1762    3.7059    3.9615    4.1069    4.4421    5.2656    1.9831  94.5843 211.2960 212.0251 211.6609 215.9000  0.3090 116.5371
647.62  88.4081   1.4258   1.3204  2.6009  2.1986    1.9904   528.7889 1767.0130  91.2498 37.1388  0.4166 212.2720    1.5475    3.4056    3.5259    4.1872   4.1493  95.4677  0.1327  3.0532  92.6270  8.8164  2.8875  5.8454  0.4943  1.5093  1.8735   3.1618    3.6473    3.8790    4.0162    4.3337    5.0948    2.0102  91.2498 211.2960 212.2414 211.7684 215.9000  0.3035 116.0169
647.72  86.3773   1.4451   1.3392  2.6282  2.2168    2.0002   510.9435 1755.0208  88.6403 37.1388  0.4354 212.7580    1.5257    3.3492    3.4615    4.0970   4.0244  95.9481  0.1327  3.0129  93.1334  9.0467  3.0038  5.5991  0.5377  1.6187  1.9863   3.1422    3.5911    3.8148    3.9492    4.2478    4.9712    2.0263  88.6403 211.2297 212.4845 211.8561 215.9000  0.2986 115.5737
647.82  87.1061   1.4459   1.3373  2.6797  2.2276    2.0068   530.6428 1743.4596  88.5060 37.1388  0.4048 212.5972    1.5165    3.3490    3.4696    4.1126   4.0136  96.4659  0.1327  2.9892  93.6809  9.2099  3.0814  5.3797  0.5728  1.7122  2.0836   3.1241    3.5345    3.7616    3.9091    4.1912    4.8933    2.0395  88.5060 211.0435 211.9953 211.5184 215.9000  0.2936 115.1885
