~VERSION INFORMATION
 VERS.                  2.0:   CWLS Log Ascii Standard
 WRAP.                   NO:   One line per depth step
~WELL INFORMATION
#MNEM.UNIT        DATA TYPE:   INFORMATION
#---------    -------------   --------------------------
 STRT.M                1.12:   Top Depth
 STOP.M              835.52:   Bottom Depth
 STEP.M                0.10:   Increment
 NULL.              -999.25:   Null Value
 SRVC.                  KPG:   Service Company/Logging company
 DATE.           06/15/2024:   LAS file Creation Date
 WELL.               342HRL:   Well Name
 COMP.  ТОО"Казактуркмунай":   Company
 FLD .             Каратюбе:   Field
 STATE.                    :   State
 COUNT.                    :   Country
 LOC .                     :   Location
 LATI.                     :   Latitude/Northing
 LONG.                     :   Longitude/Easting
 PDAT.                     :   Permanent Datum
 EPDAT.                    :   Elevation of Permanent Datum
 LGMEA.                    :   Log Measured from
 APDAT.                    :   Elevation Above Permanent Datum
 KB  .                     :   KB Elevation
 DF  .                     :   DF Elevation
 GL  .                     :   GL Elevation
 RWS .                     :   Def_Rw
 WST .                     :   Def_Rwt
 RIGN.                     :   Rig Name
 CNTY.                     :   County
 PROV.                     :   Province
~PARAMETER INFORMATION
#MNEM  .UNIT          Value:   Description
#---------    -------------   --------------------------
~CURVE INFORMATION
#MNEM  .UNIT           API Code:   Curve Description
#---------       -------------- -------------------------- 
 DEPTH .m                      :   1 (WLWorkflow)            (6in)                   Depth Index
 HGR   .GAPI                   :   2 High Resolution Gamma Ray {F13.4}
 HMIN  .Ohmm                   :   3 HIP Micro Inverse Resistivity
 HMNO  .Ohmm                   :   4 HIP Micro Normal Resistivity
 PEFZ  .B/E                    :   5 Formation Photoelectric Factor
 RHOZ  .g/cm3                  :   6 Bulk Density
 RXOZ  .ohm.m                  :   7 (HDRS-H)                (2in)                   Invaded Formation Resistivity filtered at 18 inches
 CFTC  .                       :   8 
 CNTC  .                       :   9 
 ГК    .уе                     :   10 ГК(у.е)
 MTEM_FILT.degC                :   11 Filtered Mud Temperature
 TNPH  .V/V                    :   12 Neutron porosity
 HCAL  .MM                     :   13 HRCC Caliper Calibrated {F13.4}
 AHT10 .ohm.m                  :   14 Array Induction Two Foot Resistivity A10
 AHT20 .ohm.m                  :   15 Array Induction Two Foot Resistivity A20
 AHT30 .ohm.m                  :   16 Array Induction Two Foot Resistivity A30
 AHT60 .ohm.m                  :   17 Array Induction Two Foot Resistivity A60
 AHT90 .ohm.m                  :   18 Array Induction Two Foot Resistivity A90
 SP    .mV                     :   19 Spontaneous Potential
 AHMF  .ohm.m                  :   20 Array Induction Mud Resistivity Fully Calibrated
 HFK   .                       :   21 
 HSGR  .                       :   22 
 HTHO  .                       :   23 
 HTPR  .                       :   24 
 HTUR  .                       :   25 
 HUPR  .                       :   26 
 HURA  .                       :   27 
 PURA  .PPM                    :   28 Upper Limit of Formation Uranium Concentration {F13.4}
 RLA1  .ohm.m                  :   29 HRLT Borehole Corrected Resistivity 1
 RLA2  .ohm.m                  :   30 HRLT Borehole Corrected Resistivity 2
 RLA3  .ohm.m                  :   31 HRLT Borehole Corrected Resistivity 3
 RLA4  .ohm.m                  :   32 HRLT Borehole Corrected Resisitivity 4
 RLA5  .ohm.m                  :   33 HRLT Borehole Corrected Resistivity 5
 RT_HRLT.                      :   34 
 RXO_HRLT.                     :   35 
 ГК    .уе                     :   36 ГК(у.е)
 C1    .mm                     :   37 CALIPER DIAMETER 1
 C2    .mm                     :   38 CALIPER DIAMETER 2
 CALI  .mm                     :   39 Caliper
 BSC   .mm                     :   40 Nominal Caliper
 Incl  .                       :   41 НИ-М3 - Inclin
 AZIM  .                       :   42 Azimut
~A Log Data Section - Number of Curves = 42
# ...
135.32  45.1049   0.1062   0.0882 10.0000  3.3392    0.0801   301.5225 1134.2337  45.5456 31.3804  0.5181 230.5670   -999.25   -999.25   -999.25   -999.25  -999.25 201.1328 -999.25 -999.25  -999.25 -999.25 -999.25 -999.25 -999.25 -999.25 -999.25  -999.25   -999.25   -999.25   -999.25   -999.25   -999.25   -999.25  56.2830 228.4441 228.8999 228.6720 228.7000  1.2234 210.6855
135.42  41.7375   0.0798   0.0705 10.0000  3.3595    0.0977   298.3052 1117.9248  46.2908 31.3804  0.5147 230.5670   -999.25   -999.25   -999.25   -999.25  -999.25 201.1328 -999.25 -999.25  -999.25 -999.25 -999.25 -999.25 -999.25 -999.25 -999.25  -999.25   -999.25   -999.25   -999.25   -999.25   -999.25   -999.25  55.8704 228.5300 228.7634 228.6467 228.7000  1.2222 211.1311
135.52  44.4309   0.0678   0.0623 10.0000  3.4054    0.1040   295.8600 1111.4742  47.8467 31.3804  0.5176 230.3142   -999.25   -999.25   -999.25   -999.25  -999.25 201.1328 -999.25 -999.25  -999.25 -999.25 -999.25 -999.25 -999.25 -999.25 -999.25  -999.25   -999.25   -999.25   -999.25   -999.25   -999.25   -999.25  54.6527 228.5640 228.8152 228.6893 228.7000  1.2205 211.4303
135.62  51.6515   0.1066   0.0959 10.0000  3.4693    0.0883   294.8152 1119.6275  50.7094 31.3804  0.5288 230.3602   -999.25   -999.25   -999.25   -999.25  -999.25 201.1328 -999.25 -999.25  -999.25 -999.25 -999.25 -999.25 -999.25 -999.25 -999.25  -999.25   -999.25   -999.25   -999.25   -999.25   -999.25   -999.25  52.5699 228.4466 229.1244 228.7848 228.7000  1.2201 211.9051
135.72  54.6929   0.0882   0.0795 10.0000  3.5317    0.0869   311.1255 1177.1490  51.2805 31.3804  0.5230 230.5670   -999.25   -999.25   -999.25   -999.25  -999.25 201.1328 -999.25 -999.25  -999.25 -999.25 -999.25 -999.25 -999.25 -999.25 -999.25  -999.25   -999.25   -999.25   -999.25   -999.25   -999.25   -999.25  50.5965 228.5274 229.0791 228.8034 228.7000  1.2200 212.3708
135.82  52.4317   0.0612   0.0563 10.0000  3.5679    0.0779   332.7606 1249.9243  51.3292 31.3804  0.5131 230.4291   -999.25   -999.25   -999.25   -999.25  -999.25 201.1328 -999.25 -999.25  -999.25 -999.25 -999.25 -999.25 -999.25 -999.25 -999.25  -999.25   -999.25   -999.25   -999.25   -999.25   -999.25   -999.25  49.0079 228.5737 228.9443 228.7595 228.7000  1.2198 212.7819
135.92  46.4192   0.0521   0.0485 10.0000  3.5617    0.0598   358.6861 1335.1315  51.1956 31.3804  0.5011 230.5670   -999.25   -999.25   -999.25   -999.25  -999.25 201.1328 -999.25 -999.25  -999.25 -999.25 -999.25 -999.25 -999.25 -999.25 -999.25  -999.25   -999.25   -999.25   -999.25   -999.25   -999.25   -999.25  48.8238 228.4166 228.9834 228.7002 228.7000  1.2224 213.1775
136.02  53.1861   0.0454   0.0426 10.0000  3.5200    0.0624   419.1316 1402.3200  48.3746 31.3804  0.4155 230.5325   -999.25   -999.25   -999.25   -999.25  -999.25 201.1328 -999.25 -999.25  -999.25 -999.25 -999.25 -999.25 -999.25 -999.25 -999.25  -999.25   -999.25   -999.25   -999.25   -999.25   -999.25   -999.25  48.8150 228.3653 229.1297 228.7470 228.7000  1.2249 213.5313
136.12  51.4216   0.0780   0.0587 10.0000  3.4611    0.0694   476.5166 1451.2194  45.9793 31.3804  0.3312 230.0155   -999.25   -999.25   -999.25   -999.25  -999.25 201.1328 -999.25 -999.25  -999.25 -999.25 -999.25 -999.25 -999.25 -999.25 -999.25  -999.25   -999.25   -999.25   -999.25   -999.25   -999.25   -999.25  48.6104 228.4303 229.1966 228.8131 228.7000  1.2258 213.8026
136.22  40.3633   0.1455   0.0947 10.0000  3.4038    0.0703   500.8175 1463.6207  46.6665 31.3804  0.3037 230.5670   -999.25   -999.25   -999.25   -999.25  -999.25 201.1328 -999.25 -999.25  -999.25 -999.25 -999.25 -999.25 -999.25 -999.25 -999.25  -999.25   -999.25   -999.25   -999.25   -999.25   -999.25   -999.25  49.8652 228.5904 229.0143 228.8022 228.7000  1.2243 213.9791
136.32  47.6373   0.1231   0.0885 10.0000  3.3570    0.0850   503.6022 1470.0031  45.8498 31.3804  0.3024 230.5670   -999.25   -999.25   -999.25   -999.25  -999.25 201.1328 -999.25 -999.25  -999.25 -999.25 -999.25 -999.25 -999.25 -999.25 -999.25  -999.25   -999.25   -999.25   -999.25   -999.25   -999.25   -999.25  50.7872 228.6508 228.9453 228.7977 228.7000  1.2232 214.1043
136.42  49.5671   0.0626   0.0578 10.0000  3.3232    0.0958   485.4926 1463.2496  45.3926 31.3804  0.3277 230.5670   -999.25   -999.25   -999.25   -999.25  -999.25 201.1328 -999.25 -999.25  -999.25 -999.25 -999.25 -999.25 -999.25 -999.25 -999.25  -999.25   -999.25   -999.25   -999.25   -999.25   -999.25   -999.25  49.7601 228.5910 228.9460 228.7685 228.7000  1.2247 214.1587
136.52  45.5214   0.0829   0.0756 10.0000  3.2989    0.0770   420.1054 1417.4207  48.0827 31.3804  0.4155 230.5670   -999.25   -999.25   -999.25   -999.25  -999.25 201.1328 -999.25 -999.25  -999.25 -999.25 -999.25 -999.25 -999.25 -999.25 -999.25  -999.25   -999.25   -999.25   -999.25   -999.25   -999.25   -999.25  54.2351 228.4577 228.9457 228.7017 228.7000  1.2250 214.1585
136.62  42.6514   0.0696   0.0646 10.0000  3.2805    0.0749   379.1494 1333.9003  48.8897 31.3804  0.4474 230.5670   -999.25   -999.25   -999.25   -999.25  -999.25 201.1328 -999.25 -999.25  -999.25 -999.25 -999.25 -999.25 -999.25 -999.25 -999.25  -999.25   -999.25   -999.25   -999.25   -999.25   -999.25   -999.25  59.1632 228.5155 228.9447 228.7301 228.7000  1.2247 214.1178
136.72  51.1547   0.0539   0.0517 10.0000  3.2699    0.0633   348.9744 1243.5575  49.1412 31.3804  0.4625 230.5670   -999.25   -999.25   -999.25   -999.25  -999.25 201.1328 -999.25 -999.25  -999.25 -999.25 -999.25 -999.25 -999.25 -999.25 -999.25  -999.25   -999.25   -999.25   -999.25   -999.25   -999.25   -999.25  58.8438 228.6535 229.0070 228.8301 228.7000  1.2242 214.0016
136.82  51.4965   0.0458   0.0429 10.0000  3.2670    0.0589   320.3153 1198.7719  50.6206 31.3804  0.5131 230.5670   -999.25   -999.25   -999.25   -999.25  -999.25 201.1328 -999.25 -999.25  -999.25 -999.25 -999.25 -999.25 -999.25 -999.25 -999.25  -999.25   -999.25   -999.25   -999.25   -999.25   -999.25   -999.25  59.3208 228.6822 229.1618 228.9215 228.7000  1.2206 213.3040
136.92  49.3376   0.0480   0.0449 10.0000  3.2675    0.0620   303.7832 1170.0613  51.3121 31.3804  0.5440 230.5670   -999.25   -999.25   -999.25   -999.25  -999.25 201.1328 -999.25 -999.25  -999.25 -999.25 -999.25 -999.25 -999.25 -999.25 -999.25  -999.25   -999.25   -999.25   -999.25   -999.25   -999.25   -999.25  59.0212 228.7983 229.1149 228.9561 228.7000  1.2163 212.3413
137.02  53.2624   0.0597   0.0552 10.0000  3.2661    0.0599   293.2377 1148.6636  51.7870 31.3804  0.5666 230.5670 1950.0000    0.6477  332.1684   64.0400  23.4271 201.1328  0.1502 -999.25  -999.25 -999.25 -999.25 -999.25 -999.25 -999.25 -999.25  -999.25   -999.25   -999.25   -999.25   -999.25   -999.25   -999.25  53.2635 228.9365 229.0176 228.9767 228.7000  1.2142 211.3010
137.12  52.0041   0.0583   0.0539 10.0000  3.2612    0.0744   278.7073 1117.4182  53.7854 31.3804  0.6054 230.3239 1950.0000    0.6420  198.9022   42.1139  19.8484 201.1328  0.1502 -999.25  -999.25 -999.25 -999.25 -999.25 -999.25 -999.25 -999.25  -999.25   -999.25   -999.25   -999.25   -999.25   -999.25   -999.25  54.2442 228.9470 229.1579 229.0526 228.7000  1.2113 210.2424
137.22  53.7788   0.0693   0.0630 10.0000  3.2538    0.0898   273.5381 1088.1697  54.9075 31.3804  0.5944 230.5670 1950.0000    0.6340  123.9397   55.0041  35.7589 201.1328  0.1502 -999.25  -999.25 -999.25 -999.25 -999.25 -999.25 -999.25 -999.25  -999.25   -999.25   -999.25   -999.25   -999.25   -999.25   -999.25  58.6715 228.9470 229.1232 229.0356 228.7000  1.2077 209.0807
137.32  58.3861   0.0962   0.0853 10.0000  3.2463    0.0793   275.5767 1062.7849  55.6560 31.3804  0.5499 229.9925 1950.0000    0.6246   88.3691   50.6757  36.5702 201.1328  0.1502 -999.25  -999.25 -999.25 -999.25 -999.25 -999.25 -999.25 -999.25  -999.25   -999.25   -999.25   -999.25   -999.25   -999.25   -999.25  61.7651 228.8963 228.9636 228.9303 228.7000  1.2034 207.2355
137.42  50.0755   0.0829   0.0738 10.0000  3.2401    0.0633   288.7360 1066.5215  58.8246 31.3808  0.5039 230.1304 1950.0000    0.6141   67.3132   43.6813  29.6638 201.1328  0.1502 -999.25  -999.25 -999.25 -999.25 -999.25 -999.25 -999.25 -999.25  -999.25   -999.25   -999.25   -999.25   -999.25   -999.25   -999.25  63.8571 228.7402 228.9440 228.8421 228.7000  1.2000 205.6277
