~VERSION INFORMATION
 VERS.                  2.0:   CWLS Log Ascii Standard
 WRAP.                   NO:   One line per depth step
~WELL INFORMATION
#MNEM.UNIT        DATA TYPE:   INFORMATION
#---------    -------------   --------------------------
 STRT.M                1.12:   Top Depth
 STOP.M              835.52:   Bottom Depth
 STEP.M                0.10:   Increment
 NULL.              -999.25:   Null Value
 SRVC.                  KPG:   Service Company/Logging company
 DATE.           06/15/2024:   LAS file Creation Date
 WELL.               342HRL:   Well Name
 COMP.  ТОО"Казактуркмунай":   Company
 FLD .             Каратюбе:   Field
 STATE.                    :   State
 COUNT.                    :   Country
 LOC .                     :   Location
 LATI.                     :   Latitude/Northing
 LONG.                     :   Longitude/Easting
 PDAT.                     :   Permanent Datum
 EPDAT.                    :   Elevation of Permanent Datum
 LGMEA.                    :   Log Measured from
 APDAT.                    :   Elevation Above Permanent Datum
 KB  .                     :   KB Elevation
 DF  .                     :   DF Elevation
 GL  .                     :   GL Elevation
 RWS .                     :   Def_Rw
 WST .                     :   Def_Rwt
 RIGN.                     :   Rig Name
 CNTY.                     :   County
 PROV.                     :   Province
~PARAMETER INFORMATION
#MNEM  .UNIT          Value:   Description
#---------    -------------   --------------------------
~CURVE INFORMATION
#MNEM  .UNIT           API Code:   Curve Description
#---------       -------------- -------------------------- 
 DEPTH .m                      :   1 (WLWorkflow)            (6in)                   Depth Index
 HGR   .GAPI                   :   2 High Resolution Gamma Ray {F13.4}
 HMIN  .Ohmm                   :   3 HIP Micro Inverse Resistivity
 HMNO  .Ohmm                   :   4 HIP Micro Normal Resistivity
 PEFZ  .B/E                    :   5 Formation Photoelectric Factor
 RHOZ  .g/cm3                  :   6 Bulk Density
 RXOZ  .ohm.m                  :   7 (HDRS-H)                (2in)                   Invaded Formation Resistivity filtered at 18 inches
 CFTC  .                       :   8 
 CNTC  .                       :   9 
 ГК    .уе                     :   10 ГК(у.е)
 MTEM_FILT.degC                :   11 Filtered Mud Temperature
 TNPH  .V/V                    :   12 Neutron porosity
 HCAL  .MM                     :   13 HRCC Caliper Calibrated {F13.4}
 AHT10 .ohm.m                  :   14 Array Induction Two Foot Resistivity A10
 AHT20 .ohm.m                  :   15 Array Induction Two Foot Resistivity A20
 AHT30 .ohm.m                  :   16 Array Induction Two Foot Resistivity A30
 AHT60 .ohm.m                  :   17 Array Induction Two Foot Resistivity A60
 AHT90 .ohm.m                  :   18 Array Induction Two Foot Resistivity A90
 SP    .mV                     :   19 Spontaneous Potential
 AHMF  .ohm.m                  :   20 Array Induction Mud Resistivity Fully Calibrated
 HFK   .                       :   21 
 HSGR  .                       :   22 
 HTHO  .                       :   23 
 HTPR  .                       :   24 
 HTUR  .                       :   25 
 HUPR  .                       :   26 
 HURA  .                       :   27 
 PURA  .PPM                    :   28 Upper Limit of Formation Uranium Concentration {F13.4}
 RLA1  .ohm.m                  :   29 HRLT Borehole Corrected Resistivity 1
 RLA2  .ohm.m                  :   30 HRLT Borehole Corrected Resistivity 2
 RLA3  .ohm.m                  :   31 HRLT Borehole Corrected Resistivity 3
 RLA4  .ohm.m                  :   32 HRLT Borehole Corrected Resisitivity 4
 RLA5  .ohm.m                  :   33 HRLT Borehole Corrected Resistivity 5
 RT_HRLT.                      :   34 
 RXO_HRLT.                     :   35 
 ГК    .уе                     :   36 ГК(у.е)
 C1    .mm                     :   37 CALIPER DIAMETER 1
 C2    .mm                     :   38 CALIPER DIAMETER 2
 CALI  .mm                     :   39 Caliper
 BSC   .mm                     :   40 Nominal Caliper
 Incl  .                       :   41 НИ-М3 - Inclin
 AZIM  .                       :   42 Azimut
~A Log Data Section - Number of Curves = 42
# ...
412.52 105.4724   0.7195   0.7449  2.9163  2.1850    1.2947   450.1193 1588.4446 107.2091 34.9216  0.4564 213.8955    1.4638    2.8357    2.8854    3.1796   3.1716  79.8769  0.1425  3.3393 102.8511 12.8598  3.8510 12.5660  0.3065  1.0234  1.4097   2.7730    2.9759    3.1847    3.3920    3.4337    3.9655    1.8643 107.2091 209.6315 213.6825 211.6468 215.9000  0.6143 190.3961
412.62 106.3273   0.7520   0.7709  2.8916  2.1786    1.2980   425.0205 1571.1129 106.3094 34.9218  0.4943 213.9070    1.4564    2.8020    2.8687    3.1423   3.1594  79.5063  0.1425  3.3468 103.9061 13.0332  3.8941 12.6751  0.3072  1.0282  1.4174   2.7109    2.8873    3.1073    3.3297    3.3210    3.8443    1.8280 106.3094 211.7692 214.6329 213.1961 215.9000  0.6145 190.1296
412.72 109.7377   0.8000   0.8024  2.8734  2.1736    1.3079   403.9681 1555.8865 104.8819 34.9222  0.5267 213.9070    1.4504    2.7735    2.8471    3.1059   3.1384  79.1511  0.1425  3.3092 103.2828 12.4639  3.7649 10.6249  0.3650  1.2058  1.5909   2.6694    2.8474    3.0745    3.3059    3.2642    3.7963    1.7901 104.8819 214.3610 216.2240 215.2903 215.9000  0.6132 189.9825
412.82 104.5966   0.8150   0.8089  2.8629  2.1693    1.2999   407.6479 1550.4558 107.5544 34.9222  0.5161 214.3436    1.4468    2.7555    2.8337    3.0895   3.1092  78.8418  0.1425  3.2826 102.2429 11.7808  3.5896  8.7146  0.4121  1.3525  1.7327   2.6415    2.8163    3.0655    3.2931    3.2143    3.7624    1.7602 107.5544 216.2152 217.7217 216.9671 215.9000  0.6111 189.8532
412.92 105.4418   0.7913   0.7878  2.8535  2.1651    1.3144   413.3644 1566.0267 108.8673 34.9225  0.5125 213.9070    1.4451    2.7540    2.8322    3.0845   3.0974  78.6835  0.1425  3.3239 101.3645 11.3694  3.4212  8.9355  0.3831  1.2731  1.6511   2.6322    2.8125    3.0666    3.2765    3.1735    3.7250    1.7654 108.8673 216.4444 218.3574 217.3993 215.9000  0.6088 189.7350
413.02 114.2495   0.7926   0.7952  2.8424  2.1655    1.3412   422.3679 1587.9067 109.5127 34.9228  0.5064 213.3325    1.4438    2.7412    2.8280    3.0942   3.0889  78.3577  0.1425  3.3400 101.6266 11.1845  3.3487  8.4258  0.3992  1.3334  1.7127   2.6528    2.8555    3.1276    3.3101    3.1919    3.7772    1.8161 109.5127 215.8087 217.9810 216.8926 215.9000  0.6067 189.6343
413.12 115.6845   0.8316   0.8378  2.8322  2.1700    1.3447   443.5961 1591.0238 110.0124 34.9228  0.4692 213.4933    1.4383    2.7632    2.8494    3.1429   3.1104  78.0160  0.1425  3.3393 102.1571 11.1753  3.3469  7.9769  0.4202  1.4034  1.7841   2.8165    3.0609    3.3687    3.5032    3.3699    4.0346    2.0226 110.0124 215.9463 216.8270 216.3863 215.9000  0.6043 189.5486
413.22 109.3395   0.8368   0.8428  2.8312  2.1748    1.3446   465.1125 1590.3477 108.6895 34.9234  0.4341 214.1943    1.4286    2.7522    2.8154    3.1443   3.0462  78.0042  0.1425  3.3108 102.1098 11.5117  3.4774  8.7731  0.3972  1.3153  1.6929   2.8865    3.1666    3.4837    3.5757    3.4426    4.1104    1.9662 108.6895 216.0240 216.0449 216.0343 215.9000  0.6016 189.4743
413.32 103.2072   0.7699   0.7839  2.8241  2.1853    1.3706   483.3545 1588.6099 106.1706 34.9241  0.4056 214.1598    1.4160    2.7444    2.8027    3.0680   3.0033  78.0000  0.1425  3.3529 103.2612 11.7379  3.5012  9.5719  0.3674  1.2303  1.6091   2.7558    3.0397    3.3167    3.3516    3.2294    3.8007    1.7980 106.1706 215.6556 216.4386 216.0451 215.9000  0.5991 189.4225
413.42 105.4031   0.7886   0.7933  2.8214  2.1965    1.3434   473.7914 1595.5454 102.2695 34.9241  0.4222 214.4815    1.4058    2.7609    2.8061    2.9879   2.9826  77.9942  0.1425  3.3997 104.4703 11.8359  3.4816 10.0255  0.3490  1.1852  1.5664   2.7574    3.0599    3.2897    3.2970    3.1752    3.6800    1.7744 102.2695 214.5230 218.1568 216.3326 215.9000  0.5968 189.3366
413.52 100.4266   0.8487   0.8449  2.8352  2.2025    1.3260   468.3581 1595.1891 101.0641 34.9244  0.4298 214.8722    1.3866    2.7349    2.7450    2.8960   2.9543  77.9413  0.1425  3.2972 103.0217 11.5332  3.4981  8.6601  0.4078  1.3421  1.7222   2.8778    3.2095    3.3931    3.3949    3.2780    3.7476    1.8634 101.0641 213.8269 217.3073 215.5589 215.9000  0.5946 189.2381
413.62  94.4983   0.8353   0.8300  2.8352  2.2057    1.3516   465.1495 1589.0999 101.9548 34.9248  0.4321 215.0560    1.3563    2.6539    2.6456    2.7871   2.9101  77.7819  0.1424  3.1818 102.9521 11.5835  3.6454  7.3614  0.5071  1.6050  1.9869   2.8907    3.2069    3.3111    3.2937    3.2000    3.5252    1.9860 101.9548 213.6809 214.5979 214.1389 215.9000  0.5916 189.1935
413.72 106.7087   0.8424   0.8276  2.8331  2.2024    1.2987   451.8354 1572.5822 106.3359 34.9248  0.4458 214.8239    1.3315    2.5950    2.5437    2.6779   2.8372  77.5191  0.1424  3.0673 103.4829 11.7726  3.8380  6.1867  0.6209  1.9042  2.2892   2.7285    2.9802    3.0447    3.0165    2.9454    3.1320    2.1107 106.3359 213.8591 213.9484 213.9034 215.9000  0.5889 189.0884
413.82 112.1771   0.8160   0.7961  2.8275  2.1911    1.2338   450.0269 1565.1424 111.0384 34.9252  0.4453 215.1249    1.3186    2.5730    2.4943    2.5881   2.7545  76.7966  0.1424  3.0200 102.5942 11.4782  3.8005  5.7112  0.6672  2.0139  2.3989   2.6709    2.8529    2.8967    2.8709    2.8111    2.8925    2.3559 111.0384 214.8989 213.9798 214.4386 215.9000  0.5862 188.9386
413.92 120.3214   0.7486   0.7314  2.8119  2.1840    1.1838   457.9111 1565.7608 115.9875 34.9260  0.4329 215.5862    1.3100    2.5532    2.4399    2.5378   2.6284  76.2272  0.1424  3.0512 103.8734 11.2506  3.6898  5.1338  0.7231  2.2093  2.6037   2.7875    2.8946    2.9229    2.8990    2.8490    2.8749    2.7706 115.9875 216.3621 214.4695 215.4136 215.9000  0.5834 188.7447
414.02 114.7557   0.7148   0.6977  2.7719  2.1763    1.1605   460.4873 1582.2993 119.5950 34.9260  0.4362 215.0560    1.2939    2.5422    2.4486    2.6311   2.6130  75.8032  0.1424  3.1318 106.4323 11.0484  3.5278  4.5040  0.7834  2.4536  2.8629   2.8196    2.8556    2.8678    2.8592    2.8192    2.8433    2.8343 119.5950 216.6019 215.0020 215.8006 215.9000  0.5804 188.5409
414.12 124.3020   0.7576   0.7377  2.7463  2.1747    1.1724   465.7191 1602.2097 119.7874 34.9268  0.4368 215.5862    1.3499    2.8279    2.7669    2.9776   2.9731  76.1168  0.1423  3.1291 105.4408 10.5155  3.3604  4.1607  0.8087  2.5305  2.9422   2.8072    2.7986    2.8086    2.8062    2.7776    2.7979    2.8568 119.7874 216.5023 215.1095 215.8049 215.9000  0.5772 188.3238
414.22 127.3271   0.7905   0.7779  2.6996  2.1795    1.2884   473.7150 1625.6294 116.4251 34.9285  0.4346 215.1249    1.5320    3.4512    3.3542    3.6871   3.6480  76.8035  0.1422  3.1484 104.3274 10.1557  3.2263  4.1444  0.7809  2.4572  2.8694   3.0107    3.0133    3.0264    3.0271    3.0234    3.0203    3.0928 116.4251 216.0831 214.9733 215.5275 215.9000  0.5753 187.8752
414.32 122.8121   0.8710   0.8705  2.6313  2.1710    1.5145   486.7465 1643.5004 109.7143 34.9286  0.4228 216.2049    1.6781    4.3151    4.3191    4.9715   4.9336  77.8785  0.1421  3.1799 102.9700  9.9261  3.1214  4.3897  0.7115  2.2615  2.6721   3.5246    3.5789    3.6182    3.6248    3.6528    3.6357    3.2925 109.7143 215.1792 215.4554 215.3170 215.9000  0.5729 187.4509
414.42 104.3780   1.0996   1.1202  2.5468  2.1496    1.7454   502.0853 1647.3345 100.2764 34.9295  0.4030 217.8709    1.9570    7.6969    7.0981    9.4434   8.3076  77.9673  0.1421  2.8950  94.7480  8.8511  3.0539  3.8056  0.8104  2.3314  2.7151   4.9168    5.2238    5.3262    5.3488    5.4344    5.7203    3.6577 100.2764 214.6552 215.2038 214.9288 215.9000  0.5700 187.0520
414.52  86.5799   0.6965   0.8752  2.4421  2.1162    1.8841   520.1627 1633.5220  87.4995 34.9315  0.3735 220.9846    2.2994   12.2505   12.9492   19.0603  16.1766  78.0000  0.1421  2.5828  86.1324  7.8091  3.0241  3.3100  0.9212  2.3581  2.7120   7.3797    8.2306    8.5613    8.6891    8.8162   10.1662    5.6794  87.4995 214.6465 214.0013 214.3239 215.9000  0.5680 186.2629
414.62  80.7654   0.4651   0.6438  2.3278  2.0737    1.7592   511.8143 1637.9697  78.7522 34.9339  0.3859 217.7074    2.2497   13.7862   18.2693   25.8301  27.3777  78.0000  0.1421  2.2421  77.1072  6.8013  3.0335  2.9063  1.0445  2.3401  2.6609  18.4357   23.6935   26.4591   26.7831   27.5149   35.3081    9.9822  78.7522 214.2474 213.7010 213.9742 215.9000  0.5666 185.5068
