~Version
 VERS              .         3.0                           : CWLS LOG ASCII STANDARD - VERSION 3.0
 WRAP              .         NO                            : ONE LINE PER DEPTH STEP
 DLM               .         SPACE                         : DELIMITING CHARACTER(SPACE TAB OR COMMA)
~Well Information
#_______________________________________________________________________________
#
#PARAMETER_NAME    .UNIT     VALUE                         : DESCRIPTION
#_______________________________________________________________________________
STRT               .м        0.7                           : First reference value
STOP               .м        869.3                         : Last reference value
STEP               .м        0.1                           : Step increment
NULL               .         -9999                         : Missing value
COMP               .         ICPetroleum                   : Company
WELL               .         303                           : Well name
FLD                .         Karatobe                      : Field
LOC                .                                       : Location
SRVC               .         ТОО ГК ГИС Сервис             : Service Company
CTRY               .         KZ                            : Country
DATE               .         11.12..2021                   : Service Date
LATI               .         0                             : Latitude
LONG               .         0                             : Longitude
GDAT               .         WGS 84                        : Geodetic Datum
COORDIN            .                                       : Grid System
COUNT              .         KAZAKHSTAN                    : Country
COUNTRY            .         Kazakhstan                    : 
COUNTRY            .         Kazakhstan                    : 
EREF               .m        139.5                         : 
KB                 .         139.4                         : KB Elevation
ORIGINALWELLNAME   .         303                           : 
PROV               .                                       : Province
RWS                .         -999                          : Def_Rw
UWI                .                                       : Уникальный идентификатор скважины
WST                .         -999                          : Def_Rwt
X                  .km       467028.67                     : 
XCOORD             .                                       : X or East-West Coordinate
Y                  .km       5308133.79                    : 
YCOORD             .                                       : Y or North-South Coordinate
~Parameter Information Block
#_______________________________________________________________________________
#
#PARAMETER_NAME    .UNIT     VALUE                         : DESCRIPTION
#_______________________________________________________________________________
SET                .         Las                           : 
DFL                .см3/мин  -999.250                      : Водоотдача промывочной жидкости
GSDD               .         NPHI                          : NPHI,0,DEPT,,,,,0
TDD                .м        868.0                         : Полная глубина по бурению
TDL                .м        868.0                         : Полная глубина по каротажу
TLFamily_DEPT      .         Measured Depth                : 
TLFamily_PHI_FINAL .         Porosity                      : 
TLFamily_SW_AR     .         Water Saturation              : 
TLFamily_VSH_FINAL .         Shale Volume                  : 
~Curve Information
#_______________________________________________________________________________
#
#LOGNAME           .UNIT     LOG_ID                        : DESCRIPTION
#_______________________________________________________________________________
DEPT               .м                                      : Колонка глубины {F}
PHI_FINAL          .m3/m3                                  : Porosity {F}
SW_AR              .m3/m3                                  :  {F}
VSH_FINAL          .unitless                               : Vshale {F}
~Ascii
# ...
580.8      0.2232113  1          0.4273032 
580.9      0.2327075  1          0.3676914 
581        0.2405861  1          0.3439745 
581.1      0.2531279  1          0.3258968 
581.2      0.2514918  1          0.3347787 
581.3      0.250968   1          0.3555236 
581.4      0.2346894  1          0.3848063 
581.5      0.2343173  1          0.3578103 
581.6      0.2279731  1          0.3698172 
581.7      0.2264104  1          0.3697725 
581.8      0.2159907  1          0.3871473 
581.9      0.2014214  1          0.4131495 
582        0.1955485  1          0.443418  
582.1      0.1950448  1          0.460671  
582.2      0.2204839  1          0.3972045 
582.3      0.2395332  1          0.332103  
582.4      0.2772146  1          0.2719846 
582.5      0.2977045  1          0.2339587 
582.6      0.3127093  1          0.2108941 
582.7      0.3270243  1          0.2061581 
582.8      0.3196878  1          0.2061371 
582.9      0.3039367  1          0.2221275 
583        0.2863424  1          0.2270778 
583.1      0.2801789  1          0.2623423 
583.2      0.2679127  1          0.2995455 
583.3      0.2471345  1          0.333956  
583.4      0.2243251  1          0.3763812 
583.5      0.2200186  1          0.3714121 
583.6      0.1819275  1          0.428547  
583.7      0.1688703  1          0.4452976 
583.8      0.143703   1          0.5312465 
583.9      0.1190782  1          0.5973671 
584        0.1127111  1          0.5827829 
584.1      0.1136762  1          0.5580696 
584.2      0.1404947  1          0.5050681 
584.3      0.1411457  1          0.4955774 
584.4      0.1308465  1          0.4449003 
584.5      0.1058479  1          0.4335953 
584.6      0.1085512  1          0.4769936 
584.7      0.1057956  1          0.5439634 
584.8      0.1453943  1          0.4921466 
584.9      0.1706831  1          0.4619392 
585        0.1855136  1          0.4648208 
585.1      0.1726596  1          0.5270268 
585.2      0.1559009  1          0.5854065 
585.3      0.1738565  1          0.5401591 
585.4      0.1902702  1          0.4734946 
585.5      0.193371   1          0.4330477 
585.6      0.1878019  1          0.4499262 
585.7      0.2229981  1          0.4556347 
585.8      0.2645394  1          0.430115  
585.9      0.3095384  1          0.3802009 
586        0.3017585  1          0.3851656 
586.1      0.2748133  1          0.4057066 
586.2      0.2729675  1          0.4216868 
586.3      0.271664   1          0.440999  
586.4      0.2845881  1          0.4353364 
586.5      0.2556398  1          0.4639225 
586.6      0.2239232  1          0.4580116 
586.7      0.2185889  1          0.4080392 
586.8      0.237607   1          0.3773032 
586.9      0.2192737  1          0.3772575 
587        0.1950367  1          0.4158706 
587.1      0.1921987  1          0.432174  
587.2      0.1953688  1          0.4293572 
587.3      0.1933447  1          0.423824  
587.4      0.1771277  1          0.4403839 
587.5      0.1531701  1          0.5123954 
587.6      0.1255974  1          0.6016263 
587.7      0.005066341 1          1         
587.8      0.003971403 1          1         
587.9      0.01257991 1          1         
588        0.01009179 1          1         
588.1      0.006720929 1          1         
588.2      0.003139454 1          1         
588.3      0.004740119 1          1         
588.4      0.002321796 1          1         
588.5      0          1          1         
588.6      0.002158339 1          1         
588.7      0.006931062 1          1         
588.8      0.0007189394 1          1         
588.9      0          1          1         
589        0          1          1         
589.1      0          1          1         
589.2      0.03551737 1          0.7824231 
589.3      0.09585343 1          0.6496064 
589.4      0.1344313  1          0.5964643 
589.5      0.1973497  1          0.5015467 
589.6      0.2589765  1          0.4391581 
589.7      0.3012611  1          0.3935598 
589.8      0.2899647  1          0.3935116 
589.9      0.287664   1          0.3734343 
590        0.2732027  1          0.3858044 
590.1      0.2864827  1          0.3758002 
590.2      0.2885565  1          0.3933187 
590.3      0.3175735  1          0.3781781 
590.4      0.3311942  0.9776017  0.4035561 
590.5      0.3565138  0.9198229  0.3634768 
590.6      0.4039272  0.8464025  0.3032194 
590.7      0.4349291  0.7861577  0.2601848 
590.8      0.4445256  0.7371742  0.2457388 
590.9      0.4459515  0.7386904  0.25465   
591        0.4236487  0.7919922  0.2421786 
591.1      0.3963161  0.8085856  0.238683  
591.2      0.3879835  0.7656753  0.2013229 
591.3      0.3979863  0.7111957  0.1793241 
591.4      0.3781817  0.77665    0.1793067 
591.5      0.3566238  0.8501918  0.2153201 
591.6      0.2996866  1          0.3008123 
591.7      0.238603   1          0.3800148 
591.8      0.2030685  1          0.449233  
591.9      0.2050228  1          0.457806  
592        0.2212401  1          0.4519795 
592.1      0.1971825  1          0.4605953 
592.2      0.1864586  1          0.4813216 
592.3      0.1858658  1          0.4873415 
592.4      0.1830066  1          0.4751801 
592.5      0.17273    1          0.4811343 
592.6      0.1504779  1          0.544899  
592.7      0.1229517  1          0.6348438 
592.8      0.1051538  1          0.6463875 
592.9      0.1212556  1          0.6346648 
593        0.1192984  1          0.6540618 
593.1      0.1076902  1          0.6579282 
593.2      0.1251916  1          0.59697   
593.3      0.1479002  1          0.5683619 
593.4      0.1541751  1          0.5443122 
593.5      0.1615176  1          0.5442389 
593.6      0.1679596  1          0.5243288 
593.7      0.1742748  1          0.4956783 
593.8      0.1707982  1          0.5018451 
593.9      0.1961012  1          0.4340032 
594        0.2042851  1          0.4202896 
594.1      0.2089153  1          0.4122171 
594.2      0.1906006  1          0.4651983 
594.3      0.1798933  1          0.507809  
594.4      0.1782131  1          0.507742  
594.5      0.1809574  1          0.507675  
594.6      0.1760178  1          0.5139659 
594.7      0.162517   1          0.5501036 
594.8      0.14415    1          0.5848393 
594.9      0.1357756  1          0.6102543 
595        0.1451492  1          0.5991275 
595.1      0.1610624  1          0.5739645 
595.2      0.1612132  1          0.5429963 
595.3      0.1545978  1          0.5530534 
595.4      0.154684   1          0.5428503 
595.5      0.1634139  1          0.5230055 
595.6      0.1625946  1          0.5631176 
595.7      0.1164594  1          0.6714749 
595.8      0.1096052  1          0.6918314 
595.9      0.1497366  1          0.5983824 
596        0.1965817  1          0.4759583 
596.1      0.1982556  1          0.4758968 
596.2      0.1817987  1          0.5128804 
596.3      0.1629658  1          0.562583  
596.4      0.1592585  1          0.5800009 
596.5      0.1517021  1          0.5906427 
596.6      0.1494189  1          0.558912  
596.7      0.1723934  1          0.531959  
596.8      0.1867499  1          0.4875398 
596.9      0.1917238  1          0.4520248 
597        0.1873827  1          0.4606168 
597.1      0.1909195  1          0.4664008 
597.2      0.1670153  1          0.5516367 
597.3      0.1551301  1          0.572244  
597.4      0.1522209  1          0.5617443 
597.5      0.19309    1          0.4603226 
597.6      0.2404155  1          0.353362  
597.7      0.2572745  1          0.3350593 
597.8      0.2612852  1          0.3327925 
597.9      0.2439621  1          0.3846179 
598        0.244508   1          0.3796013 
598.1      0.2517502  1          0.3722003 
598.2      0.2539255  1          0.362532  
598.3      0.2337212  1          0.3894526 
598.4      0.2167556  1          0.4370854 
598.5      0.2072662  1          0.462642  
598.6      0.2320167  1          0.4232726 
598.7      0.2463274  1          0.3892635 
598.8      0.2540568  1          0.3670551 
598.9      0.2565131  1          0.3942392 
