~Version
 VERS              .         3.0                           : CWLS LOG ASCII STANDARD - VERSION 3.0
 WRAP              .         NO                            : ONE LINE PER DEPTH STEP
 DLM               .         SPACE                         : DELIMITING CHARACTER(SPACE TAB OR COMMA)
~Well Information
#_______________________________________________________________________________
#
#PARAMETER_NAME    .UNIT     VALUE                         : DESCRIPTION
#_______________________________________________________________________________
STRT               .м        0.7                           : First reference value
STOP               .м        869.3                         : Last reference value
STEP               .м        0.1                           : Step increment
NULL               .         -9999                         : Missing value
COMP               .         ICPetroleum                   : Company
WELL               .         303                           : Well name
FLD                .         Karatobe                      : Field
LOC                .                                       : Location
SRVC               .         ТОО ГК ГИС Сервис             : Service Company
CTRY               .         KZ                            : Country
DATE               .         11.12..2021                   : Service Date
LATI               .         0                             : Latitude
LONG               .         0                             : Longitude
GDAT               .         WGS 84                        : Geodetic Datum
COORDIN            .                                       : Grid System
COUNT              .         KAZAKHSTAN                    : Country
COUNTRY            .         Kazakhstan                    : 
COUNTRY            .         Kazakhstan                    : 
EREF               .m        139.5                         : 
KB                 .         139.4                         : KB Elevation
ORIGINALWELLNAME   .         303                           : 
PROV               .                                       : Province
RWS                .         -999                          : Def_Rw
UWI                .                                       : Уникальный идентификатор скважины
WST                .         -999                          : Def_Rwt
X                  .km       467028.67                     : 
XCOORD             .                                       : X or East-West Coordinate
Y                  .km       5308133.79                    : 
YCOORD             .                                       : Y or North-South Coordinate
~Parameter Information Block
#_______________________________________________________________________________
#
#PARAMETER_NAME    .UNIT     VALUE                         : DESCRIPTION
#_______________________________________________________________________________
SET                .         Las                           : 
DFL                .см3/мин  -999.250                      : Водоотдача промывочной жидкости
GSDD               .         NPHI                          : NPHI,0,DEPT,,,,,0
TDD                .м        868.0                         : Полная глубина по бурению
TDL                .м        868.0                         : Полная глубина по каротажу
TLFamily_DEPT      .         Measured Depth                : 
TLFamily_PHI_FINAL .         Porosity                      : 
TLFamily_SW_AR     .         Water Saturation              : 
TLFamily_VSH_FINAL .         Shale Volume                  : 
~Curve Information
#_______________________________________________________________________________
#
#LOGNAME           .UNIT     LOG_ID                        : DESCRIPTION
#_______________________________________________________________________________
DEPT               .м                                      : Колонка глубины {F}
PHI_FINAL          .m3/m3                                  : Porosity {F}
SW_AR              .m3/m3                                  :  {F}
VSH_FINAL          .unitless                               : Vshale {F}
~Ascii
# ...
307.8      0.2853723  0.8580995  0.2369062 
307.9      0.2997314  0.8303797  0.1944933 
308        0.3237271  0.7816902  0.1308022 
308.1      0.3213384  0.7842034  0.1520327 
308.2      0.288607   0.8520972  0.2581367 
308.3      0.2872455  0.8517234  0.2454081 
308.4      0.2959486  0.8238432  0.2029471 
308.5      0.3213394  0.757387   0.08406655
308.6      0.2987353  0.815548   0.1223004 
308.7      0.2773109  0.884895   0.1859918 
308.8      0.2482027  0.9693788  0.2666385 
308.9      0.2587214  0.9160185  0.2835939 
309        0.2817559  0.8428391  0.2156757 
309.1      0.2185356  1          0.381244  
309.2      0.2303282  1          0.3557868 
309.3      0.2033093  1          0.4152031 
309.4      0.2949642  0.8162473  0.2029471 
309.5      0.3092107  0.7766869  0.1732148 
309.6      0.3274766  0.7439535  0.1180256 
309.7      0.3260705  0.7564282  0.1095718 
309.8      0.2750583  0.8829123  0.1774899 
309.9      0.2257551  0.9622087  0.2241776 
310        0.1884673  0.9078172  0.2496828 
310.1      0.1503977  0.8050526  0.2539096 
310.2      0.1143025  1          0.3218277 
310.3      0.1006671  1          0.4109764 
310.4      0.1444022  1          0.487396  
310.5      0.2248439  1          0.4661659 
310.6      0.2577863  0.964864   0.4194782 
310.7      0.2962014  0.8597812  0.3897459 
310.8      0.3076956  0.8304996  0.3472849 
310.9      0.3026488  0.843594   0.2963705 
311        0.2730541  0.9298398  0.2666385 
311.1      0.2308058  1          0.2878686 
311.2      0.1925218  1          0.3685154 
311.3      0.1846421  1          0.3770173 
311.4      0.1894172  1          0.3855191 
311.5      0.1685485  1          0.4364336 
311.6      0.1210873  1          0.5850465 
311.7      0.07122941 1          0.7506148 
311.8      0.07993811 1          0.7166076 
311.9      0.1339845  1          0.6062769 
312        0.2017486  1          0.4449354 
312.1      0.2288683  1          0.3939726 
312.2      0.2404907  0.9925862  0.3982477 
312.3      0.2061853  1          0.4279317 
312.4      0.192168   1          0.4958498 
312.5      0.1938511  1          0.5255822 
312.6      0.1802876  1          0.5510394 
312.7      0.2102446  1          0.5170803 
312.8      0.225909   1          0.5001246 
312.9      0.2193509  1          0.5001246 
313        0.1709299  1          0.5892732 
313.1      0.1340854  1          0.6529646 
313.2      0.164548   1          0.640236  
313.3      0.1919795  1          0.5680428 
313.4      0.1939409  1          0.5553141 
313.5      0.2124629  1          0.5128536 
313.6      0.2174779  1          0.457664  
313.7      0.2806329  0.8171375  0.27514   
313.8      0.2904346  0.7544815  0.241181  
313.9      0.2590057  0.8836761  0.317553  
314        0.1852713  1          0.4746674 
314.1      0.2064777  1          0.4449354 
314.2      0.2462111  0.9586652  0.3430582 
314.3      0.2411419  0.9645156  0.3090991 
314.4      0.2172218  1          0.4152031 
314.5      0.2103391  1          0.4279797 
314.6      0.2550302  0.9193937  0.3430582 
314.7      0.2820356  0.840031   0.2538616 
314.8      0.2932085  0.8026116  0.2326795 
314.9      0.2926472  0.7991082  0.2156757 
315        0.2677479  0.8736004  0.241181  
315.1      0.2793801  0.8613699  0.2326795 
315.2      0.2784022  0.8793661  0.2496348 
315.3      0.2573348  0.9485282  0.2878686 
315.4      0.2624813  0.9228802  0.3303296 
315.5      0.2474447  0.9649896  0.3600135 
315.6      0.2470335  0.9737184  0.3303296 
315.7      0.2538674  0.9632396  0.317553  
315.8      0.2242116  1          0.3897459 
315.9      0.2141947  1          0.4024745 
316        0.2160811  1          0.381244  
316.1      0.2444503  1          0.3260548 
316.2      0.2260183  1          0.3472849 
316.3      0.2122689  1          0.3642887 
316.4      0.2164729  1          0.3515601 
316.5      0.2035039  1          0.3642887 
316.6      0.211666   1          0.3600135 
316.7      0.1841266  1          0.4746674 
316.8      0.1648328  1          0.5256302 
316.9      0.1006832  1          0.7548415 
317        0.1083605  1          0.7591166 
317.1      0.04843022 1          0.8907258 
317.2      0.09869405 1          0.7718452 
317.3      0.0983764  1          0.7930276 
317.4      0.02955254 1          1         
317.5      0.03609399 1          1         
317.6      0.0322896  1          1         
317.7      0.02061895 1          1         
317.8      0.02262339 1          1         
317.9      0.04567398 1          0.9161807 
318        0.04821181 1          0.897098  
318.1      0.011117   1          0.928646  
318.2      0.003635656 1          0.8480902 
318.3      0.05979498 1          0.611508  
318.4      0.09598062 1          0.4552401 
318.5      0.09924027 1          0.4449869 
318.6      0.08554461 1          0.5479628 
318.7      0.09564607 1          0.6023197 
318.8      0.1380942  1          0.5640585 
318.9      0.1556636  1          0.5557816 
319        0.1472255  1          0.5556922 
319.1      0.1394736  1          0.5762556 
319.2      0.126797   1          0.6194839 
319.3      0.08496915 1          0.730112  
319.4      0.03422792 1          0.8641517 
319.5      0.01101785 1          0.972195  
319.6      0.009026391 1          1         
319.7      0.01073998 1          1         
319.8      0.006794969 1          1         
319.9      0.008103758 1          1         
320        0.06151178 1          0.7880973 
320.1      0.1223986  1          0.6275415 
320.2      0.124698   1          0.6229323 
320.3      0.08854827 1          0.6934875 
320.4      0.06629387 1          0.7443504 
320.5      0.06724872 1          0.74422   
320.6      0.1236956  1          0.5961059 
320.7      0.1226339  1          0.5623304 
320.8      0.1473468  1          0.534151  
320.9      0.1279721  1          0.6357876 
321        0.1043185  1          0.7541453 
321.1      0.07034982 1          0.8735543 
321.2      0.03740203 1          0.962408  
321.3      0.04878893 1          0.9424842 
321.4      0.02373351 1          1         
321.5      0.02201828 1          1         
321.6      0.02646652 1          1         
321.7      0.02363059 1          1         
321.8      0.02210464 1          1         
321.9      0.04425379 1          0.903108  
322        0.03047897 1          1         
322.1      0.03163893 1          1         
322.2      0.02216901 1          1         
322.3      0.01716417 1          1         
322.4      0.0135869  1          1         
322.5      0.01292141 1          1         
322.6      0.01814964 1          1         
322.7      0.01193572 1          1         
322.8      0.02133425 1          0.9595116 
322.9      0.02359337 1          0.9203702 
323        0.01465925 1          0.9525552 
323.1      0.007713853 1          1         
323.2      0.004251051 1          1         
323.3      0.00387565 1          1         
323.4      0.002951063 1          1         
323.5      0.001086376 1          1         
323.6      0.001051787 1          1         
323.7      0.005918669 1          0.9711835 
323.8      0.04682522 1          0.7773145 
323.9      0.1027564  1          0.6235874 
324        0.1688098  1          0.4864038 
324.1      0.1887428  1          0.4412591 
324.2      0.2154869  1          0.4184254 
324.3      0.2257327  1          0.441127  
324.4      0.2054172  1          0.489725  
324.5      0.1833283  1          0.531027  
324.6      0.1319747  1          0.6273546 
324.7      0.1022189  1          0.6408914 
324.8      0.1106403  1          0.6316634 
324.9      0.1579289  1          0.5345945 
325        0.1931864  1          0.5077036 
325.1      0.189317   1          0.5076244 
325.2      0.1637687  1          0.5343404 
325.3      0.179136   1          0.5112207 
325.4      0.1697918  1          0.5460191 
325.5      0.1864448  1          0.5380102 
325.6      0.2093004  1          0.4924544 
325.7      0.2376727  1          0.4111988 
325.8      0.2608418  0.9482784  0.3523208 
325.9      0.2550675  0.9722069  0.3662822 
