~Version
 VERS              .         3.0                           : CWLS LOG ASCII STANDARD - VERSION 3.0
 WRAP              .         NO                            : ONE LINE PER DEPTH STEP
 DLM               .         SPACE                         : DELIMITING CHARACTER(SPACE TAB OR COMMA)
~Well Information
#_______________________________________________________________________________
#
#PARAMETER_NAME    .UNIT     VALUE                         : DESCRIPTION
#_______________________________________________________________________________
STRT               .м        0.7                           : First reference value
STOP               .м        869.3                         : Last reference value
STEP               .м        0.1                           : Step increment
NULL               .         -9999                         : Missing value
COMP               .         ICPetroleum                   : Company
WELL               .         303                           : Well name
FLD                .         Karatobe                      : Field
LOC                .                                       : Location
SRVC               .         ТОО ГК ГИС Сервис             : Service Company
CTRY               .         KZ                            : Country
DATE               .         11.12..2021                   : Service Date
LATI               .         0                             : Latitude
LONG               .         0                             : Longitude
GDAT               .         WGS 84                        : Geodetic Datum
COORDIN            .                                       : Grid System
COUNT              .         KAZAKHSTAN                    : Country
COUNTRY            .         Kazakhstan                    : 
COUNTRY            .         Kazakhstan                    : 
EREF               .m        139.5                         : 
KB                 .         139.4                         : KB Elevation
ORIGINALWELLNAME   .         303                           : 
PROV               .                                       : Province
RWS                .         -999                          : Def_Rw
UWI                .                                       : Уникальный идентификатор скважины
WST                .         -999                          : Def_Rwt
X                  .km       467028.67                     : 
XCOORD             .                                       : X or East-West Coordinate
Y                  .km       5308133.79                    : 
YCOORD             .                                       : Y or North-South Coordinate
~Parameter Information Block
#_______________________________________________________________________________
#
#PARAMETER_NAME    .UNIT     VALUE                         : DESCRIPTION
#_______________________________________________________________________________
SET                .         Las                           : 
DFL                .см3/мин  -999.250                      : Водоотдача промывочной жидкости
GSDD               .         NPHI                          : NPHI,0,DEPT,,,,,0
TDD                .м        868.0                         : Полная глубина по бурению
TDL                .м        868.0                         : Полная глубина по каротажу
TLFamily_DEPT      .         Measured Depth                : 
TLFamily_PHI_FINAL .         Porosity                      : 
TLFamily_SW_AR     .         Water Saturation              : 
TLFamily_VSH_FINAL .         Shale Volume                  : 
~Curve Information
#_______________________________________________________________________________
#
#LOGNAME           .UNIT     LOG_ID                        : DESCRIPTION
#_______________________________________________________________________________
DEPT               .м                                      : Колонка глубины {F}
PHI_FINAL          .m3/m3                                  : Porosity {F}
SW_AR              .m3/m3                                  :  {F}
VSH_FINAL          .unitless                               : Vshale {F}
~Ascii
# ...
799.2      0.05426763 1          0.3204405 
799.3      0.07631961 1          0.2999031 
799.4      0.07276229 1          0.3035883 
799.5      0.02946965 1          0.2907834 
799.6      0          1          0.2980685 
799.7      0          1          0.305439  
799.8      0          1          0.3204405 
799.9      0          1          0.3261569 
800        0          1          0.3185461 
800.1      0          1          0.2907834 
800.2      0.04758279 1          0.2944154 
800.3      0.1105122  1          0.333857  
800.4      0.1072026  1          0.4009305 
800.5      0.08403093 1          0.4771314 
800.6      0.03516539 1          0.530621  
800.7      0.01689477 1          0.5535117 
800.8      0.02354383 1          0.5483729 
800.9      0.04226037 1          0.5381846 
801        0.06673922 1          0.5083233 
801.1      0.07837567 1          0.4677695 
801.2      0.1205053  1          0.4181863 
801.3      0.1448091  1          0.4203717 
801.4      0.1523338  1          0.4269664 
801.5      0.1464393  1          0.4291774 
801.6      0.1371667  1          0.396679  
801.7      0.120965   1          0.3655717 
801.8      0.1251464  1          0.3575037 
801.9      0.1368599  1          0.3635459 
802        0.141903   1          0.3861583 
802.1      0.1518385  1          0.3882502 
802.2      0.1446898  1          0.4138345 
802.3      0.09097413 1          0.4116681 
802.4      0.1327171  1          0.4247617 
802.5      0.09852152 1          0.4160072 
802.6      0.08823936 1          0.4269664 
802.7      0.06503    1          0.4225636 
802.8      0.04694566 1          0.433619  
802.9      0.01976279 1          0.433619  
803        0.05474258 1          0.4471002 
803.1      0.1089802  1          0.4380865 
803.2      0.1352974  1          0.4009305 
803.3      0.1350524  1          0.3737344 
803.4      0.1212775  1          0.3555014 
803.5      0.1023296  1          0.3716848 
803.6      0.06474873 1          0.409508  
803.7      0.03153628 1          0.4493701 
803.8      0.03805599 1          0.4677695 
803.9      0.04991859 1          0.4913807 
804        0.03549432 1          0.510772  
804.1      0.03818673 1          0.5156909 
804.2      0.06438893 1          0.4866033 
804.3      0.09633213 1          0.4818535 
804.4      0.0815507  1          0.5356561 
804.5      0.004378698 1          0.5560925 
804.6      0.05034275 1          0.5483729 
804.7      0.08325259 1          0.5181612 
804.8      0.03067994 1          0.4889885 
804.9      0          1          0.4516466 
805        0          1          0.4138345 
805.1      0          1          0.3988017 
805.2      0.03087271 1          0.3903482 
805.3      0.08143871 1          0.3882502 
805.4      0.1187658  1          0.4030655 
805.5      0.1060069  1          0.4631293 
805.6      0.1018467  1          0.5058817 
805.7      0.09896831 1          0.5281145 
805.8      0.0739086  1          0.5156909 
805.9      0.121688   1          0.4985995 
806        0.07241161 1          0.4747807 
806.1      0.0003325721 1          0.4358495 
806.2      0.03376285 1          0.4181863 
806.3      0.09345643 1          0.4073542 
806.4      0.1091162  1          0.409508  
806.5      0.07958884 1          0.4358495 
806.6      0.05870778 1          0.4818535 
806.7      0.02674547 1          0.5331348 
806.8      0.03659936 1          0.5083233 
806.9      0.03780703 1          0.4794891 
807        0.07252027 1          0.4425802 
807.1      0.07150977 1          0.4562196 
807.2      0.07274898 1          0.4724368 
807.3      0.05348901 1          0.4818535 
807.4      0.0574411  1          0.4700997 
807.5      0.07851649 1          0.4225636 
807.6      0.08209791 1          0.4203717 
807.7      0.07856919 1          0.4181863 
807.8      0.08290789 1          0.4425802 
807.9      0.1215509  1          0.4358495 
808        0.1453292  1          0.433619  
808.1      0.1607921  1          0.4247617 
808.2      0.1449326  1          0.409508  
808.3      0.1340114  1          0.431395  
808.4      0.104734   1          0.4425802 
808.5      0.09013058 1          0.4539298 
808.6      0.08243238 1          0.4425802 
808.7      0.06785252 1          0.4608193 
808.8      0.07311571 1          0.4425802 
808.9      0.07191665 1          0.4403301 
809        0.08757928 1          0.4247617 
809.1      0.09808126 1          0.4471002 
809.2      0.1372824  1          0.4448369 
809.3      0.1351701  1          0.4842249 
809.4      0.1245982  1          0.5206386 
809.5      0.1050746  1          0.5331348 
809.6      0.09683599 1          0.5181612 
809.7      0.07234033 1          0.4889885 
809.8      0.07939986 1          0.4562196 
809.9      0.09525567 1          0.4247617 
810        0.0880684  1          0.4358495 
810.1      0.08133847 1          0.4493701 
810.2      0.1072531  1          0.4608193 
810.3      0.1299526  1          0.4516466 
810.4      0.1227173  1          0.4403301 
810.5      0.1275893  1          0.4030655 
810.6      0.1331096  1          0.3799191 
810.7      0.1406102  1          0.3696412 
810.8      0.1019505  1          0.3903482 
810.9      0.0513623  1          0.3903482 
811        0.06482871 1          0.3945626 
811.1      0.01965345 1          0.3861583 
811.2      0.0821394  1          0.3819928 
811.3      0.0562892  1          0.431395  
811.4      0.02500393 1          0.4516466 
811.5      0.02117643 1          0.5034472 
811.6      0.03075546 1          0.5356561 
811.7      0.06628835 1          0.5156909 
811.8      0.03430884 1          0.4403301 
811.9      0.07228625 1          0.4052067 
812        0.08252296 1          0.431395  
812.1      0.04187836 1          0.465446  
812.2      0.03393427 1          0.465446  
812.3      0.03099649 1          0.4747807 
812.4      0.005606356 1          0.5083233 
812.5      0          1          0.5256152 
812.6      0          1          0.5083233 
812.7      0.01594818 1          0.5132279 
812.8      0.0270564  1          0.4889885 
812.9      0.07811742 1          0.4913807 
813        0.03503727 1          0.4818535 
813.1      0          1          0.5381846 
813.2      0          1          0.7599729 
813.3      0          1          0.7824554 
813.4      0          1          0.7042245 
813.5      0.005493055 1          0.4913807 
813.6      0.01148535 1          0.4539298 
813.7      0.01744103 1          0.4585161 
813.8      0          1          0.4842249 
813.9      0          1          0.530621  
814        0          1          0.5876554 
814.1      0          1          0.5957202 
814.2      0          1          0.5586808 
814.3      0          1          0.5058817 
814.4      0          1          0.4842249 
814.5      0          1          0.4913807 
814.6      0          1          0.5638799 
814.7      0          1          0.5770115 
814.8      0          1          0.5638799 
814.9      0          1          0.4913807 
815        0.01074807 1          0.4724368 
815.1      0.02832821 1          0.4403301 
815.2      0.05244356 1          0.3840725 
815.3      0.07333498 1          0.3261569 
815.4      0.04855208 1          0.2999031 
815.5      0.06410987 1          0.3204405 
815.6      0.05351283 1          0.3261569 
815.7      0.02629778 1          0.2980685 
815.8      0.03646058 1          0.220814  
815.9      0.04023986 1          0.1731956 
816        0.06867887 1          0.1601584 
816.1      0.08957913 1          0.1516551 
816.2      0.101473   1          0.167359  
816.3      0.1174756  0.971148   0.1865796 
816.4      0.116512   0.965959   0.2128394 
816.5      0.08058816 1          0.2049803 
816.6      0.1036522  1          0.2371162 
816.7      0.09518673 0.938181   0.2338176 
816.8      0.07250529 1          0.265945  
816.9      0.08685394 1          0.2642093 
817        0.0627318  1          0.3110236 
817.1      0.02915263 1          0.37579   
817.2      0.03944524 1          0.359512  
817.3      0.07435832 1          0.2962393 
