~Version
 VERS              .         3.0                           : CWLS LOG ASCII STANDARD - VERSION 3.0
 WRAP              .         NO                            : ONE LINE PER DEPTH STEP
 DLM               .         SPACE                         : DELIMITING CHARACTER(SPACE TAB OR COMMA)
~Well Information
#_______________________________________________________________________________
#
#PARAMETER_NAME    .UNIT     VALUE                         : DESCRIPTION
#_______________________________________________________________________________
STRT               .м        0.7                           : First reference value
STOP               .м        869.3                         : Last reference value
STEP               .м        0.1                           : Step increment
NULL               .         -9999                         : Missing value
COMP               .         ICPetroleum                   : Company
WELL               .         303                           : Well name
FLD                .         Karatobe                      : Field
LOC                .                                       : Location
SRVC               .         ТОО ГК ГИС Сервис             : Service Company
CTRY               .         KZ                            : Country
DATE               .         11.12..2021                   : Service Date
LATI               .         0                             : Latitude
LONG               .         0                             : Longitude
GDAT               .         WGS 84                        : Geodetic Datum
COORDIN            .                                       : Grid System
COUNT              .         KAZAKHSTAN                    : Country
COUNTRY            .         Kazakhstan                    : 
COUNTRY            .         Kazakhstan                    : 
EREF               .m        139.5                         : 
KB                 .         139.4                         : KB Elevation
ORIGINALWELLNAME   .         303                           : 
PROV               .                                       : Province
RWS                .         -999                          : Def_Rw
UWI                .                                       : Уникальный идентификатор скважины
WST                .         -999                          : Def_Rwt
X                  .km       467028.67                     : 
XCOORD             .                                       : X or East-West Coordinate
Y                  .km       5308133.79                    : 
YCOORD             .                                       : Y or North-South Coordinate
~Parameter Information Block
#_______________________________________________________________________________
#
#PARAMETER_NAME    .UNIT     VALUE                         : DESCRIPTION
#_______________________________________________________________________________
SET                .         Las                           : 
DFL                .см3/мин  -999.250                      : Водоотдача промывочной жидкости
GSDD               .         NPHI                          : NPHI,0,DEPT,,,,,0
TDD                .м        868.0                         : Полная глубина по бурению
TDL                .м        868.0                         : Полная глубина по каротажу
TLFamily_DEPT      .         Measured Depth                : 
TLFamily_PHI_FINAL .         Porosity                      : 
TLFamily_SW_AR     .         Water Saturation              : 
TLFamily_VSH_FINAL .         Shale Volume                  : 
~Curve Information
#_______________________________________________________________________________
#
#LOGNAME           .UNIT     LOG_ID                        : DESCRIPTION
#_______________________________________________________________________________
DEPT               .м                                      : Колонка глубины {F}
PHI_FINAL          .m3/m3                                  : Porosity {F}
SW_AR              .m3/m3                                  :  {F}
VSH_FINAL          .unitless                               : Vshale {F}
~Ascii
# ...
617.2      0.1365301  1          0.5742139 
617.3      0.1528328  1          0.4631724 
617.4      0.1506398  1          0.4573727 
617.5      0.1505407  1          0.4349513 
617.6      0.1434667  1          0.4213948 
617.7      0.1627828  1          0.3903605 
617.8      0.1628451  1          0.3978748 
617.9      0.1665456  1          0.4239101 
618        0.1672646  1          0.3778847 
618.1      0.1938568  1          0.3360426 
618.2      0.1972608  1          0.3404538 
618.3      0.1830201  1          0.4027383 
618.4      0.1670919  1          0.4427296 
618.5      0.1859067  1          0.4077969 
618.6      0.2056879  1          0.3493326 
618.7      0.2179026  1          0.3358111 
618.8      0.2254087  1          0.3402182 
618.9      0.2105539  1          0.3726433 
619        0.1980538  1          0.41538   
619.1      0.1776118  1          0.4592493 
619.2      0.1584415  1          0.4977052 
619.3      0.1344668  1          0.5194965 
619.4      0.0853764  1          0.5690634 
619.5      0.098058   1          0.5520062 
619.6      0.1123687  1          0.5485907 
619.7      0.09776417 1          0.5862621 
619.8      0.1005855  1          0.5932829 
619.9      0.112295   1          0.5417441 
620        0.1741412  1          0.4254916 
620.1      0.1763882  1          0.3892369 
620.2      0.2044421  1          0.3696756 
620.3      0.2042574  1          0.3768527 
620.4      0.2106774  1          0.3440735 
620.5      0.2220457  1          0.2815329 
620.6      0.262704   1          0.2075357 
620.7      0.2923009  1          0.1611064 
620.8      0.3316278  1          0.1309396 
620.9      0.3109868  1          0.09866352
621        0.3307728  1          0.06488726
621.1      0.3338842  1          0.04593619
621.2      0.3404096  1          0.04191779
621.3      0.3402008  1          0.05148427
621.4      0.356464   1          0.05580263
621.5      0.361335   1          0.05076983
621.6      0.3679615  1          0.04524224
621.7      0.3662961  1          0.04456485
621.8      0.3655078  1          0.04935626
621.9      0.3669181  1          0.05360517
622        0.3518041  1          0.0602369 
622.1      0.3599541  1          0.06405684
622.2      0.3473604  1          0.05431529
622.3      0.3612434  1          0.04522005
622.4      0.3698577  1          0.04387278
622.5      0.3632295  1          0.04794456
622.6      0.3553488  1          0.04932821
622.7      0.3630539  1          0.04793778
622.8      0.36363    1          0.0507227 
622.9      0.3726606  1          0.04655882
623        0.3672243  1          0.04519788
623.1      0.3674597  1          0.03608187
623.2      0.3581246  1          0.04251918
623.3      0.3457492  1          0.04185693
623.4      0.3535208  1          0.04384222
623.5      0.369787   1          0.04054314
623.6      0.3771165  1          0.04184826
623.7      0.3749791  1          0.04721648
623.8      0.3580673  1          0.04928618
623.9      0.363667   1          0.04652609
624        0.3617902  1          0.05352409
624.1      0.3542881  1          0.06165877
624.2      0.349344   1          0.07519539
624.3      0.3578984  1          0.05938352
624.4      0.3660149  1          0.04515363
624.5      0.3752828  1          0.03295591
624.6      0.3689895  1          0.03418059
624.7      0.3688434  1          0.03234295
624.8      0.3607359  1          0.03294932
624.9      0.3446459  1          0.03921127
625        0.3445435  1          0.04446228
625.1      0.3543187  1          0.04312506
625.2      0.358967   1          0.03856202
625.3      0.3597699  1          0.03540376
625.4      0.3414165  1          0.03112094
625.5      0.3488242  1          0.03172072
625.6      0.3574856  1          0.03293173
625.7      0.3705894  1          0.03539421
625.8      0.3784374  1          0.03111271
625.9      0.369729   1          0.02932455
626        0.3568376  1          0.03476617
626.1      0.3575163  1          0.04177605
626.2      0.3510024  1          0.0444251 
626.3      0.3489284  1          0.05343555
626.4      0.3478786  1          0.05415086
626.5      0.3500494  1          0.05854173
626.6      0.3382469  1          0.05270878
626.7      0.3391699  1          0.06078269
626.8      0.3293386  1          0.067743  
626.9      0.337318   1          0.07421096
627        0.3561201  1          0.06932551
627.1      0.3500397  1          0.07092964
627.2      0.3427318  1          0.06381404
627.3      0.3555873  1          0.05126389
627.4      0.3636979  1          0.03914434
627.5      0.3545104  1          0.0410821 
627.6      0.3594102  1          0.04915356
627.7      0.3564803  1          0.06073796
627.8      0.3439339  1          0.0692836 
627.9      0.3317602  1          0.07415409
628        0.3284648  1          0.06454911
628.1      0.3486954  1          0.05194154
628.2      0.3503981  1          0.051231  
628.3      0.3602388  1          0.05193411
628.4      0.3591877  1          0.04706054
628.5      0.3536485  1          0.03975787
628.6      0.3517345  1          0.04368401
628.7      0.3534697  1          0.0491153 
628.8      0.3418195  1          0.04980724
628.9      0.3483829  1          0.0436749 
629        0.3458414  1          0.04500881
629.1      0.3351136  1          0.05549201
629.2      0.3088906  1          0.05917065
629.3      0.2925293  1          0.05694533
629.4      0.2817246  1          0.04365976
629.5      0.2827421  1          0.03781354
629.6      0.2922539  1          0.03530149
629.7      0.2966591  1          0.04977547
629.8      0.2905174  1          0.06680235
629.9      0.2974224  1          0.08163421
630        0.2991733  1          0.07321326
630.1      0.2978909  1          0.06444832
630.2      0.291374   1          0.05987496
630.3      0.2763898  1          0.06915303
630.4      0.248348   1          0.07156094
630.5      0.1935668  1          0.0790263 
630.6      0.1469096  1          0.08864239
630.7      0.1084193  1          0.09978409
630.8      0.0895977  1          0.1036504 
630.9      0.09217998 1          0.09786096
631        0.1000821  0.914635   0.09317303
631.1      0.09617785 1          0.07814242
631.2      0.07925183 1          0.08241639
631.3      0.07800761 1          0.1026319 
631.4      0.0594157  1          0.1423576 
631.5      0.0388944  1          0.1388288 
631.6      0.03612719 1          0.1209717 
631.7      0.04005802 1          0.0894665 
631.8      0.03945869 1          0.08499863
631.9      0.02385174 1          0.09218512
632        0.05057334 1          0.09872328
632.1      0.133513   0.4920804  0.09588085
632.2      0.1876187  0.3584555  0.07227478
632.3      0.238771   0.315233   0.05978293
632.4      0.2992449  0.3209479  0.0546369 
632.5      0.3059537  0.5112824  0.07144702
632.6      0.2695495  0.9955078  0.09397803
632.7      0.193793   1          0.1155876 
632.8      0.1674698  1          0.1284609 
632.9      0.1915017  1          0.1433496 
633        0.1862999  1          0.153022  
633.1      0.1691293  1          0.1445123 
633.2      0.1944964  0.5924086  0.1134701 
633.3      0.2177354  0.7657537  0.0780097 
633.4      0.2252657  1          0.06048422
633.5      0.2080174  1          0.06199027
633.6      0.1844646  1          0.07383169
633.7      0.18269    1          0.08487165
633.8      0.1862939  1          0.09388729
633.9      0.1840845  1          0.09762263
634        0.1967902  1          0.08840333
634.1      0.1970233  1          0.08484498
634.2      0.1836571  1          0.1043385 
634.3      0.1605434  1          0.1338959 
634.4      0.1342187  1          0.1578161 
634.5      0.1164616  1          0.1443313 
634.6      0.1242044  1          0.1316029 
634.7      0.1445443  1          0.1123023 
634.8      0.1712103  1          0.10137   
634.9      0.2044752  1          0.09196384
635        0.2518976  1          0.0984825 
635.1      0.2856449  1          0.1122646 
635.2      0.2901058  1          0.1407025 
635.3      0.297534   1          0.1466176 
