~Version
 VERS              .         3.0                           : CWLS LOG ASCII STANDARD - VERSION 3.0
 WRAP              .         NO                            : ONE LINE PER DEPTH STEP
 DLM               .         SPACE                         : DELIMITING CHARACTER(SPACE TAB OR COMMA)
~Well Information
#_______________________________________________________________________________
#
#PARAMETER_NAME    .UNIT     VALUE                         : DESCRIPTION
#_______________________________________________________________________________
STRT               .м        0.7                           : First reference value
STOP               .м        869.3                         : Last reference value
STEP               .м        0.1                           : Step increment
NULL               .         -9999                         : Missing value
COMP               .         ICPetroleum                   : Company
WELL               .         303                           : Well name
FLD                .         Karatobe                      : Field
LOC                .                                       : Location
SRVC               .         ТОО ГК ГИС Сервис             : Service Company
CTRY               .         KZ                            : Country
DATE               .         11.12..2021                   : Service Date
LATI               .         0                             : Latitude
LONG               .         0                             : Longitude
GDAT               .         WGS 84                        : Geodetic Datum
COORDIN            .                                       : Grid System
COUNT              .         KAZAKHSTAN                    : Country
COUNTRY            .         Kazakhstan                    : 
COUNTRY            .         Kazakhstan                    : 
EREF               .m        139.5                         : 
KB                 .         139.4                         : KB Elevation
ORIGINALWELLNAME   .         303                           : 
PROV               .                                       : Province
RWS                .         -999                          : Def_Rw
UWI                .                                       : Уникальный идентификатор скважины
WST                .         -999                          : Def_Rwt
X                  .km       467028.67                     : 
XCOORD             .                                       : X or East-West Coordinate
Y                  .km       5308133.79                    : 
YCOORD             .                                       : Y or North-South Coordinate
~Parameter Information Block
#_______________________________________________________________________________
#
#PARAMETER_NAME    .UNIT     VALUE                         : DESCRIPTION
#_______________________________________________________________________________
SET                .         Las                           : 
DFL                .см3/мин  -999.250                      : Водоотдача промывочной жидкости
GSDD               .         NPHI                          : NPHI,0,DEPT,,,,,0
TDD                .м        868.0                         : Полная глубина по бурению
TDL                .м        868.0                         : Полная глубина по каротажу
TLFamily_DEPT      .         Measured Depth                : 
TLFamily_PHI_FINAL .         Porosity                      : 
TLFamily_SW_AR     .         Water Saturation              : 
TLFamily_VSH_FINAL .         Shale Volume                  : 
~Curve Information
#_______________________________________________________________________________
#
#LOGNAME           .UNIT     LOG_ID                        : DESCRIPTION
#_______________________________________________________________________________
DEPT               .м                                      : Колонка глубины {F}
PHI_FINAL          .m3/m3                                  : Porosity {F}
SW_AR              .m3/m3                                  :  {F}
VSH_FINAL          .unitless                               : Vshale {F}
~Ascii
# ...
526.2      0.4225415  0.9750308  0.0477496 
526.3      0.4149118  0.9856944  0.04274337
526.4      0.4146021  0.9741392  0.036589  
526.5      0.407902   0.9734836  0.0413435 
526.6      0.4051315  0.9908671  0.06072551
526.7      0.3991131  1          0.07500032
526.8      0.3907387  1          0.07065345
526.9      0.3547336  1          0.07411036
527        0.3226138  1          0.1058125 
527.1      0.2599476  1          0.2053221 
527.2      0.1868133  1          0.3130397 
527.3      0.1514587  1          0.3982428 
527.4      0.1135843  1          0.3620962 
527.5      0.09574815 1          0.3797447 
527.6      0.1586483  1          0.3570776 
527.7      0.1954804  1          0.374525  
527.8      0.2253674  1          0.3668995 
527.9      0.2364937  1          0.4728549 
528        0.2398237  1          0.5593632 
528.1      0.2529743  1          0.5557183 
528.2      0.3087425  0.9757067  0.4113569 
528.3      0.33109    0.9087411  0.3616928 
528.4      0.3120548  0.9489865  0.3950166 
528.5      0.3064798  0.9776226  0.4424014 
528.6      0.3112355  0.984017   0.4307772 
528.7      0.3375131  0.9011374  0.3766076 
528.8      0.3500493  0.8738458  0.3639493 
528.9      0.33555    0.8982521  0.4001125 
529        0.3119759  0.9446337  0.4334179 
529.1      0.2884936  0.9896965  0.4690151 
529.2      0.2962782  0.9205374  0.4219416 
529.3      0.2930421  0.9198455  0.381464  
529.4      0.3104762  0.899497   0.3188754 
529.5      0.3410008  0.8902832  0.2970947 
529.6      0.3775924  0.8423354  0.2745029 
529.7      0.3784084  0.8584714  0.2627389 
529.8      0.359053   0.9021848  0.2588852 
529.9      0.3308519  0.9653229  0.2439801 
530        0.2948432  1          0.2513074 
530.1      0.3036722  1          0.2569028 
530.2      0.3222155  0.9725662  0.272334  
530.3      0.3520186  0.9138033  0.272303  
530.4      0.370668   0.8909152  0.2822866 
530.5      0.373072   0.8932018  0.2925495 
530.6      0.3762431  0.8730674  0.3030993 
530.7      0.3746242  0.827778   0.3052159 
530.8      0.3578602  0.8644134  0.3365934 
530.9      0.3474455  0.927363   0.3858812 
531        0.3545992  0.9096559  0.4017298 
531.1      0.3421269  0.9064407  0.4237129 
531.2      0.3099079  0.9564275  0.4125202 
531.3      0.2582219  1          0.4321193 
531.4      0.2295341  1          0.4151746 
531.5      0.2007318  1          0.4206872 
531.6      0.1905448  1          0.4798207 
531.7      0.1730063  1          0.5493917 
531.8      0.1376123  1          0.5817314 
531.9      0.167846   1          0.505193  
532        0.1943562  1          0.4551127 
532.1      0.1937309  1          0.4921347 
532.2      0.1541414  1          0.5888209 
532.3      0.142294   1          0.627096  
532.4      0.1465572  1          0.6191635 
532.5      0.1542506  1          0.5885689 
532.6      0.1359227  1          0.6150969 
532.7      0.1351335  1          0.6111432 
532.8      0.1364452  1          0.6149188 
532.9      0.1356643  1          0.6465199 
533        0.1195206  1          0.6923527 
533.1      0.1122018  1          0.7185028 
533.2      0.1359139  1          0.7228545 
533.3      0.1720164  1          0.6920416 
533.4      0.2094094  1          0.6624103 
533.5      0.2830628  1          0.5621741 
533.6      0.3580325  0.840623   0.4336862 
533.7      0.4089743  0.7122923  0.3172485 
533.8      0.4318135  0.629468   0.2429361 
533.9      0.4168511  0.6460589  0.2119349 
534        0.3598568  0.7930847  0.2252962 
534.1      0.291043   1          0.273101  
534.2      0.2385803  1          0.3398789 
534.3      0.2043929  1          0.4136289 
534.4      0.1938208  1          0.4811404 
534.5      0.1731338  1          0.5542754 
534.6      0.181637   1          0.5265462 
534.7      0.2121196  1          0.4534918 
534.8      0.2284006  1          0.3944662 
534.9      0.2283853  1          0.3997399 
535        0.2075546  1          0.447398  
535.1      0.194115   1          0.4622462 
535.2      0.1886398  1          0.4443489 
535.3      0.1647197  1          0.477444  
535.4      0.1434319  1          0.5535774 
535.5      0.1169696  1          0.6163917 
535.6      0.09071913 1          0.7069868 
535.7      0.1053781  1          0.7025157 
535.8      0.09580979 1          0.7111635 
535.9      0.1484318  1          0.5783529 
536        0.1720392  1          0.4959275 
536.1      0.2018965  1          0.4181982 
536.2      0.2070175  1          0.3705777 
536.3      0.1852933  1          0.4208744 
536.4      0.1540969  1          0.5492909 
536.5      0.1095637  1          0.6676584 
536.6      0.1172359  1          0.6350265 
536.7      0.1453302  1          0.5668098 
536.8      0.1500203  1          0.5283284 
536.9      0.1547024  1          0.5148635 
537        0.163748   1          0.4952567 
537.1      0.1616397  1          0.5349152 
537.2      0.1406083  1          0.6071948 
537.3      0.1016993  1          0.7139601 
537.4      0.09734874 1          0.7094528 
537.5      0.08350646 1          0.7361072 
537.6      0.118105   1          0.6380835 
537.7      0.08955631 1          0.6917861 
537.8      0.09297275 1          0.695983  
537.9      0.1048128  1          0.7002019 
538        0.1181857  1          0.6297781 
538.1      0.1101299  1          0.6140836 
538.2      0.0912342  1          0.6217519 
538.3      0.09867676 1          0.5763908 
538.4      0.1238266  1          0.5442811 
538.5      0.1289161  1          0.5338805 
538.6      0.1104292  1          0.5304037 
538.7      0.1143669  1          0.4973215 
538.8      0.1016528  1          0.4877039 
538.9      0.07695928 1          0.5134575 
539        0.07657924 1          0.4939198 
539.1      0.1330873  1          0.4449989 
539.2      0.166641   1          0.4137804 
539.3      0.1647473  1          0.4748975 
539.4      0.1428392  1          0.5682525 
539.5      0.1202617  1          0.6244862 
539.6      0.1419449  1          0.571703  
539.7      0.1360445  1          0.5862609 
539.8      0.1461066  1          0.5607752 
539.9      0.1579524  1          0.5536187 
540        0.1643904  1          0.5193094 
540.1      0.1653656  1          0.5822409 
540.2      0.1451598  1          0.6160833 
540.3      0.1351904  1          0.6355804 
540.4      0.1190918  1          0.6556184 
540.5      0.09714337 1          0.6596149 
540.6      0.09702353 1          0.6719302 
540.7      0.1015469  1          0.6676714 
540.8      0.07291224 1          0.7506524 
540.9      0.06831273 1          0.7644685 
541        0.09390351 1          0.7012837 
541.1      0.1378485  1          0.5887986 
541.2      0.1466791  1          0.570416  
541.3      0.1152544  1          0.6189752 
541.4      0.09240958 1          0.6922532 
541.5      0.1012772  1          0.7051004 
541.6      0.1210322  1          0.6265008 
541.7      0.1382633  1          0.570015  
541.8      0.1506693  1          0.5556709 
541.9      0.1730475  1          0.5279986 
542        0.1568739  1          0.5626056 
542.1      0.151202   1          0.576941  
542.2      0.1483083  1          0.599083  
542.3      0.1528799  1          0.5989975 
542.4      0.1584155  1          0.5552058 
542.5      0.1456898  1          0.5343409 
542.6      0.1444187  1          0.5108736 
542.7      0.1625137  1          0.4914627 
542.8      0.1752703  1          0.4913969 
542.9      0.1821187  1          0.4913307 
543        0.1719466  1          0.520504  
543.1      0.1408202  1          0.5983142 
543.2      0.146567   1          0.6250536 
543.3      0.1529566  1          0.5981439 
543.4      0.1582691  1          0.5336784 
543.5      0.1670067  1          0.5201482 
543.6      0.1494012  1          0.5649109 
543.7      0.1658981  1          0.5648317 
543.8      0.2121747  1          0.5100403 
543.9      0.2946866  0.9870159  0.4364572 
544        0.3394535  0.8645     0.4250686 
544.1      0.351882   0.8100766  0.369463  
544.2      0.3247283  0.8295213  0.3221768 
544.3      0.2901374  0.94608    0.2473723 
