~Version
 VERS              .         3.0                           : CWLS LOG ASCII STANDARD - VERSION 3.0
 WRAP              .         NO                            : ONE LINE PER DEPTH STEP
 DLM               .         SPACE                         : DELIMITING CHARACTER(SPACE TAB OR COMMA)
~Well Information
#_______________________________________________________________________________
#
#PARAMETER_NAME    .UNIT     VALUE                         : DESCRIPTION
#_______________________________________________________________________________
STRT               .м        0.7                           : First reference value
STOP               .м        869.3                         : Last reference value
STEP               .м        0.1                           : Step increment
NULL               .         -9999                         : Missing value
COMP               .         ICPetroleum                   : Company
WELL               .         303                           : Well name
FLD                .         Karatobe                      : Field
LOC                .                                       : Location
SRVC               .         ТОО ГК ГИС Сервис             : Service Company
CTRY               .         KZ                            : Country
DATE               .         11.12..2021                   : Service Date
LATI               .         0                             : Latitude
LONG               .         0                             : Longitude
GDAT               .         WGS 84                        : Geodetic Datum
COORDIN            .                                       : Grid System
COUNT              .         KAZAKHSTAN                    : Country
COUNTRY            .         Kazakhstan                    : 
COUNTRY            .         Kazakhstan                    : 
EREF               .m        139.5                         : 
KB                 .         139.4                         : KB Elevation
ORIGINALWELLNAME   .         303                           : 
PROV               .                                       : Province
RWS                .         -999                          : Def_Rw
UWI                .                                       : Уникальный идентификатор скважины
WST                .         -999                          : Def_Rwt
X                  .km       467028.67                     : 
XCOORD             .                                       : X or East-West Coordinate
Y                  .km       5308133.79                    : 
YCOORD             .                                       : Y or North-South Coordinate
~Parameter Information Block
#_______________________________________________________________________________
#
#PARAMETER_NAME    .UNIT     VALUE                         : DESCRIPTION
#_______________________________________________________________________________
SET                .         Las                           : 
DFL                .см3/мин  -999.250                      : Водоотдача промывочной жидкости
GSDD               .         NPHI                          : NPHI,0,DEPT,,,,,0
TDD                .м        868.0                         : Полная глубина по бурению
TDL                .м        868.0                         : Полная глубина по каротажу
TLFamily_DEPT      .         Measured Depth                : 
TLFamily_PHI_FINAL .         Porosity                      : 
TLFamily_SW_AR     .         Water Saturation              : 
TLFamily_VSH_FINAL .         Shale Volume                  : 
~Curve Information
#_______________________________________________________________________________
#
#LOGNAME           .UNIT     LOG_ID                        : DESCRIPTION
#_______________________________________________________________________________
DEPT               .м                                      : Колонка глубины {F}
PHI_FINAL          .m3/m3                                  : Porosity {F}
SW_AR              .m3/m3                                  :  {F}
VSH_FINAL          .unitless                               : Vshale {F}
~Ascii
# ...
671.8      0.04230479 1          0.3505223 
671.9      0.07975415 1          0.3732783 
672        0.1097201  1          0.3571585 
672.1      0.1469696  1          0.3203991 
672.2      0.1812692  1          0.2810729 
672.3      0.1902044  1          0.2982244 
672.4      0.1539329  1          0.4222765 
672.5      0.09704249 1          0.5697377 
672.6      0.05105863 1          0.7018504 
672.7      0.05342139 1          0.7057838 
672.8      0.04084458 1          0.6779063 
672.9      0.06899816 1          0.5863662 
673        0.09612198 1          0.4707442 
673.1      0.1200525  1          0.3991774 
673.2      0.1549197  1          0.3544266 
673.3      0.1426589  1          0.3521522 
673.4      0.1620353  1          0.3137988 
673.5      0.1660252  1          0.336754  
673.6      0.1877265  1          0.3410366 
673.7      0.1574653  1          0.3819316 
673.8      0.1466377  1          0.3915058 
673.9      0.1380721  1          0.4319595 
674        0.1041372  1          0.4673401 
674.1      0.07896699 1          0.5424077 
674.2      0.0925815  1          0.5751797 
674.3      0.05420242 1          0.6882646 
674.4      0.04443263 1          0.6842331 
674.5      0.04412144 1          0.7202991 
674.6      0.03414854 1          0.6879799 
674.7      0.03276181 1          0.69184   
674.8      0.04459298 1          0.6568754 
674.9      0.06918891 1          0.5547711 
675        0.09559728 1          0.504576  
675.1      0.09863976 1          0.4926119 
675.2      0.0902295  1          0.525867  
675.3      0.08874676 1          0.5383855 
675.4      0.07660691 1          0.6017336 
675.5      0.06283686 1          0.6229913 
675.6      0.04039924 1          0.6870332 
675.7      0.06033841 1          0.7109312 
675.8      0.0443138  1          0.7567692 
675.9      0.0210705  1          0.8007178 
676        0.01370642 1          0.791612  
676.1      0.01131416 1          0.8004872 
676.2      0.0359802  1          0.7520605 
676.3      0.04168556 1          0.7392453 
676.4      0.0499976  1          0.718392  
676.5      0.05491088 1          0.6744768 
676.6      0.04599783 1          0.6403294 
676.7      0.07026769 1          0.6006993 
676.8      0.08862297 1          0.569885  
676.9      0.1123891  1          0.5185511 
677        0.1406475  1          0.4712589 
677.1      0.1428693  1          0.4599871 
677.2      0.1368516  1          0.4683183 
677.3      0.1021696  1          0.5307052 
677.4      0.128735   1          0.4853635 
677.5      0.1286147  1          0.4970372 
677.6      0.1176152  1          0.4652802 
677.7      0.1005045  1          0.5273091 
677.8      0.1021899  1          0.5210389 
677.9      0.09565373 1          0.5558816 
678        0.08892933 1          0.6066778 
678.1      0.05345049 1          0.6886072 
678.2      0.03794091 1          0.7330968 
678.3      0.03487632 1          0.7247019 
678.4      0.0591303  1          0.6536747 
678.5      0.08372466 1          0.6098049 
678.6      0.07491789 1          0.5888227 
678.7      0.04949477 1          0.6311912 
678.8      0.02953333 1          0.6918907 
678.9      0.0441903  1          0.6957611 
679        0.06918124 1          0.6569115 
679.1      0.06284415 1          0.6272178 
679.2      0.01350702 1          0.7488846 
679.3      0.001814324 1          0.8571768 
679.4      0          1          0.9475061 
679.5      0.04304093 1          0.783223  
679.6      0.06123428 1          0.7151997 
679.7      0.08213745 1          0.6562884 
679.8      0.08740933 1          0.6194258 
679.9      0.1044776  1          0.6051537 
680        0.1255974  1          0.5741916 
680.1      0.1213314  1          0.5945433 
680.2      0.07234024 1          0.7227837 
680.3      0.08283937 1          0.6748413 
680.4      0.07160167 1          0.6407472 
680.5      0.1145069  1          0.5638434 
680.6      0.04046401 1          0.7688598 
680.7      0          1          1         
680.8      0.0000371  1          1         
680.9      0          1          1         
681        0          1          1         
681.1      0          1          1         
681.2      0          1          0.9768753 
681.3      0          1          0.9138326 
681.4      0.00272919 1          0.8787538 
681.5      0          1          0.9135607 
681.6      0.05893983 1          0.6583722 
681.7      0.05842124 1          0.6322985 
681.8      0.07328398 1          0.6001447 
681.9      0.06709921 1          0.5897007 
682        0.08552556 1          0.5760496 
682.1      0.1161964  1          0.5368816 
682.2      0.1312724  1          0.5150924 
682.3      0.1233395  1          0.5495066 
682.4      0.1224574  1          0.5272753 
682.5      0.1315399  1          0.4765772 
682.6      0.1393693  1          0.4248939 
682.7      0.148326   1          0.4352988 
682.8      0.1494993  1          0.4623322 
682.9      0.1347729  1          0.4849565 
683        0.1363434  1          0.482011  
683.1      0.1060463  1          0.4790814 
683.2      0.1150922  1          0.4648903 
683.3      0.08797421 1          0.536061  
683.4      0.08199682 1          0.5919712 
683.5      0.05297697 1          0.6529238 
683.6      0.04571384 1          0.652836  
683.7      0.06722195 1          0.6056222 
683.8      0.07903177 1          0.6020451 
683.9      0.08723616 1          0.5746271 
684        0.06002164 1          0.6231298 
684.1      0.08101219 1          0.581206  
684.2      0.1096669  1          0.5611526 
684.3      0.08670216 1          0.6192973 
684.4      0.06406758 1          0.6373156 
684.5      0.0433308  1          0.644599  
684.6      0.06150687 1          0.5641481 
684.7      0.1058401  1          0.5319688 
684.8      0.09173268 1          0.5673033 
684.9      0.07931549 1          0.6046637 
685        0.06175743 1          0.644166  
685.1      0.07607969 1          0.6367182 
685.2      0.09809271 1          0.5442674 
685.3      0.08459014 1          0.5315637 
685.4      0.1064048  1          0.50699   
685.5      0.08736936 1          0.4663754 
685.6      0.0985008  1          0.3720806 
685.7      0.1387705  1          0.3096341 
685.8      0.1352217  1          0.3116026 
685.9      0.1414558  1          0.301662  
686        0.162653   1          0.2626704 
686.1      0.2015817  1          0.2405326 
686.2      0.2284132  1          0.2454813 
686.3      0.2282445  1          0.2806157 
686.4      0.2249314  1          0.3094002 
686.5      0.2235231  1          0.3174278 
686.6      0.2249438  1          0.3093333 
686.7      0.2203958  1          0.3214498 
686.8      0.2083068  1          0.3318251 
686.9      0.2169539  1          0.3172897 
687        0.2419314  1          0.2804098 
687.1      0.252628   1          0.2469313 
687.2      0.2567217  0.967371   0.2211419 
687.3      0.2726884  0.8791864  0.210492  
687.4      0.2925781  0.8053316  0.1959313 
687.5      0.2970849  0.8056628  0.1944992 
687.6      0.307147   0.7691502  0.1728153 
687.7      0.2879789  0.807338   0.1626107 
687.8      0.3105376  0.7452647  0.156436  
687.9      0.3080285  0.7482203  0.1576415 
688        0.3099747  0.7363381  0.1527874 
688.1      0.3133203  0.7398422  0.1806507 
688.2      0.3247396  0.7278365  0.1714251 
688.3      0.3204758  0.7296774  0.1575854 
688.4      0.3447153  0.6726691  0.1204493 
688.5      0.3441022  0.6662229  0.1214751 
688.6      0.3349384  0.6560101  0.1310268 
688.7      0.3506975  0.617254   0.1214549 
688.8      0.3602     0.5936527  0.1113229 
688.9      0.3555121  0.6192269  0.1064429 
689        0.3471444  0.6469489  0.1103208 
689.1      0.334582   0.6665745  0.1007427 
689.2      0.3447376  0.6642237  0.09252893
689.3      0.3557851  0.6809811  0.09703373
689.4      0.3400802  0.7489443  0.1277048 
689.5      0.3212736  0.8091632  0.166113  
689.6      0.2999999  0.8708699  0.1673655 
689.7      0.2997166  0.8882366  0.144337  
689.8      0.2856261  0.9471417  0.1255346 
689.9      0.3047446  0.8997086  0.125524  
