~Version
 VERS              .         3.0                           : CWLS LOG ASCII STANDARD - VERSION 3.0
 WRAP              .         NO                            : ONE LINE PER DEPTH STEP
 DLM               .         SPACE                         : DELIMITING CHARACTER(SPACE TAB OR COMMA)
~Well Information
#_______________________________________________________________________________
#
#PARAMETER_NAME    .UNIT     VALUE                         : DESCRIPTION
#_______________________________________________________________________________
STRT               .м        0.7                           : First reference value
STOP               .м        869.3                         : Last reference value
STEP               .м        0.1                           : Step increment
NULL               .         -9999                         : Missing value
COMP               .         ICPetroleum                   : Company
WELL               .         303                           : Well name
FLD                .         Karatobe                      : Field
LOC                .                                       : Location
SRVC               .         ТОО ГК ГИС Сервис             : Service Company
CTRY               .         KZ                            : Country
DATE               .         11.12..2021                   : Service Date
LATI               .         0                             : Latitude
LONG               .         0                             : Longitude
GDAT               .         WGS 84                        : Geodetic Datum
COORDIN            .                                       : Grid System
COUNT              .         KAZAKHSTAN                    : Country
COUNTRY            .         Kazakhstan                    : 
COUNTRY            .         Kazakhstan                    : 
EREF               .m        139.5                         : 
KB                 .         139.4                         : KB Elevation
ORIGINALWELLNAME   .         303                           : 
PROV               .                                       : Province
RWS                .         -999                          : Def_Rw
UWI                .                                       : Уникальный идентификатор скважины
WST                .         -999                          : Def_Rwt
X                  .km       467028.67                     : 
XCOORD             .                                       : X or East-West Coordinate
Y                  .km       5308133.79                    : 
YCOORD             .                                       : Y or North-South Coordinate
~Parameter Information Block
#_______________________________________________________________________________
#
#PARAMETER_NAME    .UNIT     VALUE                         : DESCRIPTION
#_______________________________________________________________________________
SET                .         Las                           : 
DFL                .см3/мин  -999.250                      : Водоотдача промывочной жидкости
GSDD               .         NPHI                          : NPHI,0,DEPT,,,,,0
TDD                .м        868.0                         : Полная глубина по бурению
TDL                .м        868.0                         : Полная глубина по каротажу
TLFamily_DEPT      .         Measured Depth                : 
TLFamily_PHI_FINAL .         Porosity                      : 
TLFamily_SW_AR     .         Water Saturation              : 
TLFamily_VSH_FINAL .         Shale Volume                  : 
~Curve Information
#_______________________________________________________________________________
#
#LOGNAME           .UNIT     LOG_ID                        : DESCRIPTION
#_______________________________________________________________________________
DEPT               .м                                      : Колонка глубины {F}
PHI_FINAL          .m3/m3                                  : Porosity {F}
SW_AR              .m3/m3                                  :  {F}
VSH_FINAL          .unitless                               : Vshale {F}
~Ascii
# ...
253.2      0.008169674 1          1         
253.3      0.01113888 1          1         
253.4      0.01512283 1          1         
253.5      0.05987313 1          0.9113408 
253.6      0.04917979 1          0.9178123 
253.7      0.02131945 1          1         
253.8      0.02623284 1          1         
253.9      0.0227835  1          1         
254        0.02516134 1          1         
254.1      0.06239934 1          0.9169177 
254.2      0.0334313  1          1         
254.3      0.04153606 1          1         
254.4      0.0483995  1          1         
254.5      0.05220902 1          1         
254.6      0.04391561 1          1         
254.7      0.02298901 1          1         
254.8      0.0187242  1          1         
254.9      0.02004433 1          1         
255        0.02167491 1          1         
255.1      0.012464   1          1         
255.2      0.01513358 1          1         
255.3      0.01539807 1          0.9905857 
255.4      0.01122994 1          0.9975573 
255.5      0.03482289 1          0.9277881 
255.6      0.04999971 1          0.9142432 
255.7      0.07446811 1          0.8814324 
255.8      0.09554    1          0.8559335 
255.9      0.120696   1          0.7895092 
256        0.1336561  1          0.7441393 
256.1      0.1328855  1          0.7222837 
256.2      0.144314   1          0.6703295 
256.3      0.1740357  1          0.5941587 
256.4      0.1661395  1          0.5940568 
256.5      0.1840766  1          0.5674705 
256.6      0.1592858  1          0.5938532 
256.7      0.155477   1          0.5937513 
256.8      0.1094644  1          0.6696151 
256.9      0.0497398  1          0.7651764 
257        0.005608502 1          0.9801497 
257.1      0.005550465 1          1         
257.2      0.0201375  1          0.9450151 
257.3      0.1263273  1          0.6492878 
257.4      0.227809   0.9953305  0.4018753 
257.5      0.2236089  0.9967487  0.3706372 
257.6      0.2252105  0.9936188  0.3705821 
257.7      0.2237984  0.9910052  0.4049233 
257.8      0.1663699  1          0.5450074 
257.9      0.1813429  1          0.5163786 
258        0.1286077  1          0.6533654 
258.1      0.1375656  1          0.6151395 
258.2      0.1137062  1          0.6679534 
258.3      0.1676912  1          0.5200319 
258.4      0.2068682  1          0.4484568 
258.5      0.2109223  1          0.4142383 
258.6      0.2188046  1          0.4447985 
258.7      0.2056923  1          0.462546  
258.8      0.2232448  1          0.4274268 
258.9      0.2343623  1          0.3945728 
259        0.2830418  0.8745103  0.3435453 
259.1      0.2566007  0.9921541  0.4204976 
259.2      0.2327442  1          0.4694653 
259.3      0.1174921  1          0.7181047 
259.4      0.02815254 1          0.8944626 
259.5      0.03309289 1          0.8878251 
259.6      0.09296317 1          0.7124187 
259.7      0.1518027  1          0.5862543 
259.8      0.181527   1          0.5515578 
259.9      0.1755232  1          0.5728682 
260        0.1612964  1          0.6271171 
260.1      0.07856703 1          0.7949379 
260.2      0.001059619 1          1         
260.3      0          1          1         
260.4      0          1          1         
260.5      0.009286064 1          0.7380438 
260.6      0.08122792 1          0.4031348 
260.7      0.1101491  1          0.2923019 
260.8      0.1282021  1          0.2728731 
260.9      0.1294283  1          0.2681485 
261        0.1702551  1          0.3397363 
261.1      0.2247921  1          0.3481781 
261.2      0.1757285  1          0.529622  
261.3      0.1430511  1          0.7049972 
261.4      0.0280687  1          1         
261.5      0.02874986 1          1         
261.6      0.04434296 1          0.943697  
261.7      0.02583505 1          0.9435126 
261.8      0.01583891 1          0.9639348 
261.9      0.06783893 1          0.809852  
262        0.1149049  1          0.69375   
262.1      0.09699269 1          0.7251181 
262.2      0.04159734 1          0.8642204 
262.3      0.06830389 1          0.8271545 
262.4      0.01508293 1          1         
262.5      0.0146243  1          1         
262.6      0.02082858 1          1         
262.7      0.02411287 1          1         
262.8      0.107765   1          0.8084906 
262.9      0.08436338 1          0.8884599 
263        0.08373559 1          0.8818799 
263.1      0.02817712 1          1         
263.2      0.01579007 1          1         
263.3      0.01061582 1          1         
263.4      0.004659576 1          1         
263.5      0.03989213 1          0.8435045 
263.6      0.00420093 1          0.9956397 
263.7      0.0009462156 1          1         
263.8      0.002158339 1          1         
263.9      0.001097738 1          1         
264        0.001855331 1          1         
264.1      0.007735162 1          1         
264.2      0.01546331 1          1         
264.3      0.01608657 1          0.9592153 
264.4      0.02198363 1          0.9521579 
264.5      0.02662035 1          0.8986366 
264.6      0.01200028 1          0.9449652 
264.7      0          1          1         
264.8      0.0007947118 1          1         
264.9      0          1          1         
265        0          1          1         
265.1      0.0512613  1          0.847088  
265.2      0.05604758 1          0.8974278 
265.3      0.05488138 1          1         
265.4      0.07057256 1          1         
265.5      0.0839816  1          1         
265.6      0.08102513 1          1         
265.7      0.2501949  1          0.5461568 
265.8      0.2084663  1          0.630211  
265.9      0.2293451  1          0.620741  
266        0.2202616  1          0.6347187 
266.1      0.2052733  1          0.6346084 
266.2      0.1982614  1          0.6344982 
266.3      0.1762487  1          0.6535943 
266.4      0.146978   1          0.6682176 
266.5      0.08760743 1          0.832676  
266.6      0.02686726 1          0.9897486 
266.7      0.04747974 1          0.9547203 
266.8      0.1279868  1          0.745908  
266.9      0.1853486  1          0.6196712 
267        0.1887362  1          0.5922794 
267.1      0.1387732  1          0.6773667 
267.2      0.1052791  1          0.7079606 
267.3      0.1029991  1          0.7562354 
267.4      0.06709928 1          0.8434179 
267.5      0.04369012 1          0.8870517 
267.6      0.009879743 1          1         
267.7      0.00758965 1          1         
267.8      0.007869544 1          1         
267.9      0.02325637 1          0.8799994 
268        0.006993965 1          1         
268.1      0.009535514 1          1         
268.2      0.01941881 1          1         
268.3      0.03142464 1          1         
268.4      0.05377592 1          1         
268.5      0.05425915 1          1         
268.6      0.03330614 1          1         
268.7      0.01090522 1          1         
268.8      0.003673179 1          1         
268.9      0.005848813 1          1         
269        0          1          1         
269.1      0.003949457 1          0.9434708 
269.2      0          1          1         
269.3      0          1          1         
269.4      0          1          1         
269.5      0          1          1         
269.6      0.001710156 1          1         
269.7      0.02607647 1          1         
269.8      0.03512157 1          1         
269.9      0.1609868  1          0.725579  
270        0.1938895  1          0.6789093 
270.1      0.1860475  1          0.7200107 
270.2      0.09242296 1          0.9482269 
270.3      0.06345734 1          1         
270.4      0.06946477 1          1         
270.5      0.06624749 1          1         
270.6      0.0615251  1          1         
270.7      0.05492779 1          1         
270.8      0.04422731 1          1         
270.9      0.04815201 1          1         
271        0.05174043 1          1         
271.1      0.04941573 1          1         
271.2      0.05399985 1          1         
271.3      0.06218623 1          1         
