~Version
 VERS              .         3.0                           : CWLS LOG ASCII STANDARD - VERSION 3.0
 WRAP              .         NO                            : ONE LINE PER DEPTH STEP
 DLM               .         SPACE                         : DELIMITING CHARACTER(SPACE TAB OR COMMA)
~Well Information
#_______________________________________________________________________________
#
#PARAMETER_NAME    .UNIT     VALUE                         : DESCRIPTION
#_______________________________________________________________________________
STRT               .м        0.7                           : First reference value
STOP               .м        869.3                         : Last reference value
STEP               .м        0.1                           : Step increment
NULL               .         -9999                         : Missing value
COMP               .         ICPetroleum                   : Company
WELL               .         303                           : Well name
FLD                .         Karatobe                      : Field
LOC                .                                       : Location
SRVC               .         ТОО ГК ГИС Сервис             : Service Company
CTRY               .         KZ                            : Country
DATE               .         11.12..2021                   : Service Date
LATI               .         0                             : Latitude
LONG               .         0                             : Longitude
GDAT               .         WGS 84                        : Geodetic Datum
COORDIN            .                                       : Grid System
COUNT              .         KAZAKHSTAN                    : Country
COUNTRY            .         Kazakhstan                    : 
COUNTRY            .         Kazakhstan                    : 
EREF               .m        139.5                         : 
KB                 .         139.4                         : KB Elevation
ORIGINALWELLNAME   .         303                           : 
PROV               .                                       : Province
RWS                .         -999                          : Def_Rw
UWI                .                                       : Уникальный идентификатор скважины
WST                .         -999                          : Def_Rwt
X                  .km       467028.67                     : 
XCOORD             .                                       : X or East-West Coordinate
Y                  .km       5308133.79                    : 
YCOORD             .                                       : Y or North-South Coordinate
~Parameter Information Block
#_______________________________________________________________________________
#
#PARAMETER_NAME    .UNIT     VALUE                         : DESCRIPTION
#_______________________________________________________________________________
SET                .         Las                           : 
DFL                .см3/мин  -999.250                      : Водоотдача промывочной жидкости
GSDD               .         NPHI                          : NPHI,0,DEPT,,,,,0
TDD                .м        868.0                         : Полная глубина по бурению
TDL                .м        868.0                         : Полная глубина по каротажу
TLFamily_DEPT      .         Measured Depth                : 
TLFamily_PHI_FINAL .         Porosity                      : 
TLFamily_SW_AR     .         Water Saturation              : 
TLFamily_VSH_FINAL .         Shale Volume                  : 
~Curve Information
#_______________________________________________________________________________
#
#LOGNAME           .UNIT     LOG_ID                        : DESCRIPTION
#_______________________________________________________________________________
DEPT               .м                                      : Колонка глубины {F}
PHI_FINAL          .m3/m3                                  : Porosity {F}
SW_AR              .m3/m3                                  :  {F}
VSH_FINAL          .unitless                               : Vshale {F}
~Ascii
# ...
708.2      0.1965223  1          0.2321755 
708.3      0.1972432  1          0.2607531 
708.4      0.1841423  1          0.2800141 
708.5      0.1372773  1          0.2782375 
708.6      0.1478738  1          0.2642093 
708.7      0.1098625  1          0.2454474 
708.8      0.06493258 1          0.2642093 
708.9      0.07401859 1          0.2573171 
709        0.09016903 1          0.265945  
709.1      0.07503398 1          0.248814  
709.2      0.07003146 1          0.2471282 
709.3      0.1062266  1          0.2256548 
709.4      0.1441421  1          0.2160153 
709.5      0.1690405  1          0.2305382 
709.6      0.1586528  1          0.248814  
709.7      0.1519237  1          0.2642093 
709.8      0.1860549  1          0.2590326 
709.9      0.2025285  1          0.2573171 
710        0.2074931  1          0.283583  
710.1      0.2100899  1          0.3091566 
710.2      0.1871148  1          0.3299957 
710.3      0.2174958  1          0.3035883 
710.4      0.2192268  1          0.2889754 
710.5      0.1970181  1          0.2624787 
710.6      0.1772881  1          0.2522004 
710.7      0.1455209  1          0.2642093 
710.8      0.09813618 1          0.2573171 
710.9      0.1325042  1          0.2764659 
711        0.09786545 1          0.2782375 
711.1      0.1089896  1          0.2944154 
711.2      0.03758756 1          0.2711824 
711.3      0.007713828 1          0.2607531 
711.4      0.1256748  1          0.2676857 
711.5      0.08672408 1          0.3555014 
711.6      0.04234676 1          0.4380865 
711.7      0.01690914 1          0.4794891 
711.8      0.1012651  1          0.396679  
711.9      0.1355837  1          0.3299957 
712        0.1690246  1          0.3110236 
712.1      0.1567156  1          0.3319235 
712.2      0.1390683  1          0.3319235 
712.3      0.1487761  1          0.3299957 
712.4      0.06578973 1          0.3072951 
712.5      0.1399433  1          0.2871727 
712.6      0.1115874  1          0.283583  
712.7      0.08438575 1          0.2980685 
712.8      0.1192329  1          0.3035883 
712.9      0.1422179  1          0.305439  
713        0.1257474  1          0.305439  
713.1      0.1350112  1          0.3261569 
713.2      0.1406684  1          0.3436093 
713.3      0.08982595 1          0.3655717 
713.4      0.09268492 1          0.3778515 
713.5      0.1031828  1          0.3861583 
713.6      0.06325326 1          0.3799191 
713.7      0.03786175 1          0.3882502 
713.8      0.1019847  1          0.3696412 
713.9      0.1120106  1          0.3280735 
714        0.1139101  1          0.2676857 
714.1      0.1313064  1          0.2305382 
714.2      0.1473364  1          0.2240365 
714.3      0.1595757  1          0.2224229 
714.4      0.1569163  1          0.2354645 
714.5      0.1255126  1          0.2782375 
714.6      0.137863   1          0.3242458 
714.7      0.1430866  1          0.3185461 
714.8      0.1711313  1          0.2782375 
714.9      0.1832967  1          0.2437714 
715        0.1498626  1          0.2454474 
715.1      0.1621687  1          0.2556065 
715.2      0.1393523  1          0.2711824 
715.3      0.1134699  1          0.2711824 
715.4      0.1627977  1          0.2764659 
715.5      0.1551592  1          0.305439  
715.6      0.1488483  1          0.312896  
715.7      0.1597601  1          0.2817959 
715.8      0.1533869  1          0.2354645 
715.9      0.1700489  1          0.220814  
716        0.1623748  1          0.2289056 
716.1      0.1416222  1          0.2354645 
716.2      0.1434895  1          0.2371162 
716.3      0.1789962  1          0.2556065 
716.4      0.1318135  1          0.248814  
716.5      0.1206549  1          0.2607531 
716.6      0.1452787  1          0.2590326 
716.7      0.102519   1          0.2944154 
716.8      0.08615047 1          0.2980685 
716.9      0.09353084 1          0.2889754 
717        0.1368513  1          0.2676857 
717.1      0.08191224 1          0.2624787 
717.2      0.1244732  1          0.2437714 
717.3      0.1370188  1          0.2371162 
717.4      0.1341395  1          0.2289056 
717.5      0.1600489  1          0.248814  
717.6      0.1541527  1          0.2590326 
717.7      0.1371413  1          0.2746997 
717.8      0.1455782  1          0.2800141 
717.9      0.1128845  1          0.2871727 
718        0.1433522  1          0.283583  
718.1      0.145352   1          0.2907834 
718.2      0.1478132  1          0.2944154 
718.3      0.1112892  1          0.2925968 
718.4      0.1114032  1          0.2642093 
718.5      0.1423375  1          0.2590326 
718.6      0.1574868  1          0.2817959 
718.7      0.1402317  1          0.3280735 
718.8      0.1423778  1          0.312896  
718.9      0.1338462  1          0.2999031 
719        0.1485836  1          0.2817959 
719.1      0.1300013  1          0.2889754 
719.2      0.07493255 1          0.2642093 
719.3      0.1676959  1          0.248814  
719.4      0.19346    1          0.2454474 
719.5      0.1345684  1          0.2454474 
719.6      0.1409689  1          0.2676857 
719.7      0.09346993 1          0.2711824 
719.8      0.06759042 1          0.2871727 
719.9      0.1404711  1          0.2676857 
720        0.1344732  1          0.2437714 
720.1      0.08697128 1          0.2272778 
720.2      0.1011983  1          0.2289056 
720.3      0.1628976  1          0.2471282 
720.4      0.06398483 1          0.2694315 
720.5      0.06846202 1          0.2642093 
720.6      0.1337588  1          0.2522004 
720.7      0.1940876  1          0.2421003 
720.8      0.1766805  1          0.2454474 
720.9      0.1624241  1          0.2573171 
721        0.1436693  1          0.2505047 
721.1      0.1366104  1          0.2505047 
721.2      0.1664552  1          0.2590326 
721.3      0.1432894  1          0.2817959 
721.4      0.1812343  1          0.2907834 
721.5      0.122637   1          0.2800141 
721.6      0.1522963  1          0.2871727 
721.7      0.1131591  1          0.2962393 
721.8      0.103657   1          0.3185461 
721.9      0.1025117  1          0.3204405 
722        0.09189234 1          0.3185461 
722.1      0.1116721  1          0.3072951 
722.2      0.1003483  1          0.2817959 
722.3      0.1271256  1          0.2607531 
722.4      0.09132777 1          0.2764659 
722.5      0.119458   1          0.2871727 
722.6      0.06853636 1          0.3072951 
722.7      0.06086413 1          0.2817959 
722.8      0.07108223 1          0.2764659 
722.9      0.0643361  1          0.2782375 
723        0.1495511  1          0.2711824 
723.1      0.1778326  1          0.2471282 
723.2      0.1636594  1          0.2305382 
723.3      0.1542783  1          0.2404341 
723.4      0.1338135  1          0.2800141 
723.5      0.1293991  1          0.3110236 
723.6      0.08160762 1          0.3515143 
723.7      0.1263162  1          0.3535049 
723.8      0.1257146  1          0.3475503 
723.9      0.126149   1          0.3280735 
724        0.1041424  1          0.312896  
724.1      0.1206707  1          0.2746997 
724.2      0.1390823  1          0.2421003 
724.3      0.1676959  1          0.248814  
724.4      0.1256748  1          0.2676857 
724.5      0.1070603  1          0.2889754 
724.6      0.1202841  1          0.2800141 
724.7      0.08152472 1          0.2817959 
724.8      0.06067066 1          0.2746997 
724.9      0.06882328 1          0.2505047 
725        0.05832    1          0.2421003 
725.1      0.06930907 1          0.2642093 
725.2      0.07637325 1          0.3185461 
725.3      0.1103501  1          0.37579   
725.4      0.08400767 1          0.4073542 
725.5      0.0747944  1          0.396679  
725.6      0.08659339 1          0.3945626 
725.7      0.09365194 1          0.4225636 
725.8      0.1015688  1          0.4516466 
725.9      0.0986356  1          0.433619  
726        0.1390653  1          0.3861583 
726.1      0.1098167  1          0.3676035 
726.2      0.1103664  1          0.3737344 
726.3      0.1557083  1          0.3655717 
