~Version
 VERS              .         3.0                           : CWLS LOG ASCII STANDARD - VERSION 3.0
 WRAP              .         NO                            : ONE LINE PER DEPTH STEP
 DLM               .         SPACE                         : DELIMITING CHARACTER(SPACE TAB OR COMMA)
~Well Information
#_______________________________________________________________________________
#
#PARAMETER_NAME    .UNIT     VALUE                         : DESCRIPTION
#_______________________________________________________________________________
STRT               .м        0.7                           : First reference value
STOP               .м        869.3                         : Last reference value
STEP               .м        0.1                           : Step increment
NULL               .         -9999                         : Missing value
COMP               .         ICPetroleum                   : Company
WELL               .         303                           : Well name
FLD                .         Karatobe                      : Field
LOC                .                                       : Location
SRVC               .         ТОО ГК ГИС Сервис             : Service Company
CTRY               .         KZ                            : Country
DATE               .         11.12..2021                   : Service Date
LATI               .         0                             : Latitude
LONG               .         0                             : Longitude
GDAT               .         WGS 84                        : Geodetic Datum
COORDIN            .                                       : Grid System
COUNT              .         KAZAKHSTAN                    : Country
COUNTRY            .         Kazakhstan                    : 
COUNTRY            .         Kazakhstan                    : 
EREF               .m        139.5                         : 
KB                 .         139.4                         : KB Elevation
ORIGINALWELLNAME   .         303                           : 
PROV               .                                       : Province
RWS                .         -999                          : Def_Rw
UWI                .                                       : Уникальный идентификатор скважины
WST                .         -999                          : Def_Rwt
X                  .km       467028.67                     : 
XCOORD             .                                       : X or East-West Coordinate
Y                  .km       5308133.79                    : 
YCOORD             .                                       : Y or North-South Coordinate
~Parameter Information Block
#_______________________________________________________________________________
#
#PARAMETER_NAME    .UNIT     VALUE                         : DESCRIPTION
#_______________________________________________________________________________
SET                .         Las                           : 
DFL                .см3/мин  -999.250                      : Водоотдача промывочной жидкости
GSDD               .         NPHI                          : NPHI,0,DEPT,,,,,0
TDD                .м        868.0                         : Полная глубина по бурению
TDL                .м        868.0                         : Полная глубина по каротажу
TLFamily_DEPT      .         Measured Depth                : 
TLFamily_PHI_FINAL .         Porosity                      : 
TLFamily_SW_AR     .         Water Saturation              : 
TLFamily_VSH_FINAL .         Shale Volume                  : 
~Curve Information
#_______________________________________________________________________________
#
#LOGNAME           .UNIT     LOG_ID                        : DESCRIPTION
#_______________________________________________________________________________
DEPT               .м                                      : Колонка глубины {F}
PHI_FINAL          .m3/m3                                  : Porosity {F}
SW_AR              .m3/m3                                  :  {F}
VSH_FINAL          .unitless                               : Vshale {F}
~Ascii
# ...
762.8      0.1363897  1          0.3261569 
762.9      0.1421493  1          0.3091566 
763        0.1348705  1          0.3436093 
763.1      0.1119516  1          0.3696412 
763.2      0.1065111  1          0.3575037 
763.3      0.1120442  1          0.3377408 
763.4      0.1245423  1          0.3357961 
763.5      0.126388   1          0.3515143 
763.6      0.1037735  1          0.3655717 
763.7      0.08214563 1          0.3716848 
763.8      0.09332214 1          0.3716848 
763.9      0.1226425  1          0.3299957 
764        0.1122603  1          0.3072951 
764.1      0.1458257  1          0.2871727 
764.2      0.1456424  1          0.2817959 
764.3      0.138906   1          0.2746997 
764.4      0.1820932  1          0.283583  
764.5      0.1465983  1          0.3185461 
764.6      0.1477225  1          0.3377408 
764.7      0.1151634  1          0.361526  
764.8      0.08995952 1          0.3945626 
764.9      0.06032092 1          0.4562196 
765        0.05397977 1          0.4724368 
765.1      0.06874075 1          0.431395  
765.2      0.105608   1          0.3575037 
765.3      0.09901176 1          0.3223404 
765.4      0.1531646  1          0.2999031 
765.5      0.1633273  1          0.305439  
765.6      0.1412371  1          0.3147738 
765.7      0.1592791  1          0.3396913 
765.8      0.1681043  1          0.3280735 
765.9      0.1474357  1          0.3655717 
766        0.1132154  1          0.4358495 
766.1      0.1041609  1          0.4448369 
766.2      0.1293748  1          0.3924523 
766.3      0.1334384  1          0.361526  
766.4      0.1244188  1          0.3515143 
766.5      0.1334779  1          0.3261569 
766.6      0.1324402  1          0.2782375 
766.7      0.1699833  1          0.2782375 
766.8      0.170574   1          0.283583  
766.9      0.1578676  1          0.3091566 
767        0.1226169  1          0.3945626 
767.1      0.06022742 1          0.5458148 
767.2      0.04036422 1          0.5717359 
767.3      0.08780612 1          0.4889885 
767.4      0.1360299  1          0.37579   
767.5      0.1392481  1          0.3436093 
767.6      0.128009   1          0.3535049 
767.7      0.1120135  1          0.3819928 
767.8      0.08974876 1          0.4138345 
767.9      0.08974537 1          0.4291774 
768        0.1010435  1          0.4030655 
768.1      0.1245544  1          0.3655717 
768.2      0.1388143  1          0.333857  
768.3      0.1601845  1          0.3280735 
768.4      0.1510624  1          0.3495294 
768.5      0.1386266  1          0.3436093 
768.6      0.1509255  1          0.3261569 
768.7      0.1582089  1          0.3091566 
768.8      0.1665112  1          0.3035883 
768.9      0.1763885  1          0.2944154 
769        0.1774365  1          0.283583  
769.1      0.1644032  1          0.2999031 
769.2      0.1496852  1          0.3299957 
769.3      0.1440031  1          0.3416475 
769.4      0.1300709  1          0.3396913 
769.5      0.1238558  1          0.3455769 
769.6      0.09839864 1          0.3535049 
769.7      0.08159099 1          0.3475503 
769.8      0.1071951  1          0.3261569 
769.9      0.1022603  1          0.3072951 
770        0.1215403  1          0.301743  
770.1      0.1192688  1          0.2980685 
770.2      0.08085532 1          0.2907834 
770.3      0.09953087 1          0.2782375 
770.4      0.1495306  1          0.2505047 
770.5      0.1196484  1          0.2321755 
770.6      0.09078255 1          0.2003196 
770.7      0.03369262 1          0.214425  
770.8      0.04757949 1          0.2192097 
770.9      0.09976728 1          0.2437714 
771        0.06251351 1          0.2404341 
771.1      0.07473356 1          0.2421003 
771.2      0.06732224 1          0.2305382 
771.3      0.06411054 1          0.2224229 
771.4      0.02581167 1          0.2387727 
771.5      0          1          0.2889754 
771.6      0          1          0.3455769 
771.7      0          1          0.4203717 
771.8      0          1          0.5586808 
771.9      0          1          0.7631565 
772        0          1          1         
772.1      0          1          1         
772.2      0          1          1         
772.3      0          1          1         
772.4      0          1          0.8527244 
772.5      0.03547293 1          0.7102751 
772.6      0.05940484 1          0.6399451 
772.7      0.08999172 1          0.5535117 
772.8      0.1091696  1          0.5256152 
772.9      0.09687199 1          0.5256152 
773        0.05773509 1          0.5586808 
773.1      0.05686022 1          0.5876554 
773.2      0.05633155 1          0.6065837 
773.3      0.03477214 1          0.6371201 
773.4      0.05008717 1          0.6371201 
773.5      0.08607033 1          0.5743698 
773.6      0.0764692  1          0.5010198 
773.7      0.05945904 1          0.4608193 
773.8      0.09416494 1          0.4608193 
773.9      0.07913242 1          0.4539298 
774        0.07347145 1          0.4291774 
774.1      0.1072168  1          0.409508  
774.2      0.1012745  1          0.4030655 
774.3      0.1052066  1          0.3778515 
774.4      0.1141107  1          0.3535049 
774.5      0.1285507  1          0.333857  
774.6      0.1466679  1          0.3280735 
774.7      0.1519209  1          0.3396913 
774.8      0.155066   1          0.3495294 
774.9      0.1469749  1          0.3575037 
775        0.1686888  1          0.3357961 
775.1      0.1824429  1          0.301743  
775.2      0.1843366  1          0.2907834 
775.3      0.1841684  1          0.3185461 
775.4      0.1424695  1          0.3436093 
775.5      0.1669301  1          0.3635459 
775.6      0.1751219  1          0.3319235 
775.7      0.1425149  1          0.3242458 
775.8      0.167608   1          0.3185461 
775.9      0.1372639  1          0.3555014 
776        0.1158323  1          0.4116681 
776.1      0.101106   1          0.4448369 
776.2      0.1025698  1          0.4724368 
776.3      0.05800307 1          0.4677695 
776.4      0.0270564  1          0.4889885 
776.5      0          1          0.4866033 
776.6      0          1          0.4608193 
776.7      0.01080259 1          0.4009305 
776.8      0.005974802 1          0.3396913 
776.9      0.00538394 1          0.3110236 
777        0.04634012 1          0.312896  
777.1      0.09564218 1          0.3319235 
777.2      0.1293008  1          0.3635459 
777.3      0.1342876  1          0.37579   
777.4      0.1401748  1          0.3882502 
777.5      0.1464403  1          0.4403301 
777.6      0.08613693 1          0.5281145 
777.7      0.09745449 1          0.5930241 
777.8      0.07882632 1          0.6314949 
777.9      0.02407654 1          0.6371201 
778        0          1          0.6093194 
778.1      0.02852641 1          0.5156909 
778.2      0.08600625 1          0.4358495 
778.3      0.07425642 1          0.4138345 
778.4      0.1110149  1          0.3861583 
778.5      0.1301882  1          0.3515143 
778.6      0.1329568  1          0.3166572 
778.7      0.1258842  1          0.3223404 
778.8      0.134219   1          0.3696412 
778.9      0.06862112 1          0.4116681 
779        0.00947602 1          0.4247617 
779.1      0.04359359 1          0.4247617 
779.2      0.04046625 1          0.431395  
779.3      0.03827745 1          0.4448369 
779.4      0.03115141 1          0.4030655 
779.5      0.1075926  1          0.3716848 
779.6      0.1112503  1          0.3861583 
779.7      0.1041993  1          0.4009305 
779.8      0.07938671 1          0.4030655 
779.9      0.06680248 1          0.3778515 
780        0.0797022  1          0.3819928 
780.1      0.1027519  1          0.3861583 
780.2      0.05967877 1          0.3840725 
780.3      0.05547992 1          0.3903482 
780.4      0.1152174  1          0.4052067 
780.5      0.09555726 1          0.4247617 
780.6      0.08273916 1          0.431395  
780.7      0.08155219 1          0.4585161 
780.8      0.06501921 1          0.5058817 
780.9      0.02855602 1          0.6148149 
