~Version
 VERS              .         3.0                           : CWLS LOG ASCII STANDARD - VERSION 3.0
 WRAP              .         NO                            : ONE LINE PER DEPTH STEP
 DLM               .         SPACE                         : DELIMITING CHARACTER(SPACE TAB OR COMMA)
~Well Information
#_______________________________________________________________________________
#
#PARAMETER_NAME    .UNIT     VALUE                         : DESCRIPTION
#_______________________________________________________________________________
STRT               .м        0.7                           : First reference value
STOP               .м        869.3                         : Last reference value
STEP               .м        0.1                           : Step increment
NULL               .         -9999                         : Missing value
COMP               .         ICPetroleum                   : Company
WELL               .         303                           : Well name
FLD                .         Karatobe                      : Field
LOC                .                                       : Location
SRVC               .         ТОО ГК ГИС Сервис             : Service Company
CTRY               .         KZ                            : Country
DATE               .         11.12..2021                   : Service Date
LATI               .         0                             : Latitude
LONG               .         0                             : Longitude
GDAT               .         WGS 84                        : Geodetic Datum
COORDIN            .                                       : Grid System
COUNT              .         KAZAKHSTAN                    : Country
COUNTRY            .         Kazakhstan                    : 
COUNTRY            .         Kazakhstan                    : 
EREF               .m        139.5                         : 
KB                 .         139.4                         : KB Elevation
ORIGINALWELLNAME   .         303                           : 
PROV               .                                       : Province
RWS                .         -999                          : Def_Rw
UWI                .                                       : Уникальный идентификатор скважины
WST                .         -999                          : Def_Rwt
X                  .km       467028.67                     : 
XCOORD             .                                       : X or East-West Coordinate
Y                  .km       5308133.79                    : 
YCOORD             .                                       : Y or North-South Coordinate
~Parameter Information Block
#_______________________________________________________________________________
#
#PARAMETER_NAME    .UNIT     VALUE                         : DESCRIPTION
#_______________________________________________________________________________
SET                .         Las                           : 
DFL                .см3/мин  -999.250                      : Водоотдача промывочной жидкости
GSDD               .         NPHI                          : NPHI,0,DEPT,,,,,0
TDD                .м        868.0                         : Полная глубина по бурению
TDL                .м        868.0                         : Полная глубина по каротажу
TLFamily_DEPT      .         Measured Depth                : 
TLFamily_PHI_FINAL .         Porosity                      : 
TLFamily_SW_AR     .         Water Saturation              : 
TLFamily_VSH_FINAL .         Shale Volume                  : 
~Curve Information
#_______________________________________________________________________________
#
#LOGNAME           .UNIT     LOG_ID                        : DESCRIPTION
#_______________________________________________________________________________
DEPT               .м                                      : Колонка глубины {F}
PHI_FINAL          .m3/m3                                  : Porosity {F}
SW_AR              .m3/m3                                  :  {F}
VSH_FINAL          .unitless                               : Vshale {F}
~Ascii
# ...
398.8      0.06803013 1          0.8765991 
398.9      0.04727207 1          0.9300025 
399        0.0323072  1          1         
399.1      0.03874633 1          1         
399.2      0.03000806 1          1         
399.3      0.01071325 1          0.9603496 
399.4      0          1          0.9476659 
399.5      0          1          1         
399.6      0          1          1         
399.7      0          1          1         
399.8      0          1          1         
399.9      0          1          1         
400        0          1          0.5487338 
400.1      0.05282392 1          0.2907826 
400.2      0.1112113  1          0.2543305 
400.3      0.1731108  1          0.3187527 
400.4      0.1898555  1          0.4471115 
400.5      0.1513718  1          0.5795133 
400.6      0.1019157  1          0.6965204 
400.7      0.06747087 1          0.8341728 
400.8      0.0380224  1          0.9515237 
400.9      0.0362541  1          1         
401        0.04006011 1          1         
401.1      0.04095    1          1         
401.2      0.05907084 1          0.9697068 
401.3      0.1131611  1          0.8333144 
401.4      0.1441121  1          0.724278  
401.5      0.1423907  1          0.733944  
401.6      0.1683781  1          0.654305  
401.7      0.1703554  1          0.632326  
401.8      0.1856573  1          0.5863689 
401.9      0.1614883  1          0.6451662 
402        0.1398421  1          0.6856199 
402.1      0.1332098  1          0.7186015 
402.2      0.1116378  1          0.7733766 
402.3      0.09987288 1          0.7994205 
402.4      0.101945   1          0.7887235 
402.5      0.1272032  1          0.7085401 
402.6      0.03703932 1          0.9484795 
402.7      0.02747112 1          1         
402.8      0.03177012 1          1         
402.9      0.03900959 1          1         
403        0.09880789 1          0.8644993 
403.1      0.1310281  1          0.8036591 
403.2      0.1738515  1          0.693581  
403.3      0.1814575  1          0.6569712 
403.4      0.1531107  1          0.702756  
403.5      0.08577376 1          0.8637513 
403.6      0.08264467 1          0.8579236 
403.7      0.1239369  1          0.746114  
403.8      0.1557572  1          0.6744567 
403.9      0.1442522  1          0.6927932 
404        0.1149295  1          0.7813841 
404.1      0.1256536  1          0.7607071 
404.2      0.1043153  1          0.7759397 
404.3      0.1287622  1          0.7404048 
404.4      0.07551156 1          0.8738473 
404.5      0.03474716 1          0.9959607 
404.6      0.0400344  1          1         
404.7      0.05992717 1          0.938786  
404.8      0.1072439  1          0.8066815 
404.9      0.1405984  1          0.7347397 
405        0.143082   1          0.7248474 
405.1      0.135112   1          0.7198874 
405.2      0.1453643  1          0.6820813 
405.3      0.1519328  1          0.6416911 
405.4      0.1764641  1          0.5633993 
405.5      0.1934094  1          0.5256172 
405.6      0.2151264  1          0.4764382 
405.7      0.1888626  1          0.5218151 
405.8      0.1882763  1          0.5748064 
405.9      0.1724085  1          0.6410813 
406        0.1638703  1          0.6630566 
406.1      0.1613416  1          0.6856954 
406.2      0.165856   1          0.6583776 
406.3      0.2024661  1          0.5743658 
406.4      0.2247456  1          0.4998832 
406.5      0.2408267  1          0.4338477 
406.6      0.2468414  1          0.3978558 
406.7      0.2633474  1          0.3563873 
406.8      0.2498772  1          0.380735  
406.9      0.2295558  1          0.4305108 
407        0.2164302  1          0.472129  
407.1      0.2249406  1          0.4588907 
407.2      0.2239286  1          0.4491549 
407.3      0.2133843  1          0.4752653 
407.4      0.2234363  1          0.4751965 
407.5      0.2340536  1          0.4784873 
407.6      0.2515194  1          0.4331755 
407.7      0.2707137  1          0.4030538 
407.8      0.2784531  1          0.3611652 
407.9      0.2609465  1          0.3942737 
408        0.245255   1          0.4267777 
408.1      0.22658    1          0.4390977 
408.2      0.2244906  1          0.4205796 
408.3      0.228815   1          0.4205209 
408.4      0.211257   1          0.4711749 
408.5      0.1991224  1          0.4777938 
408.6      0.2265202  1          0.4579057 
408.7      0.2574521  1          0.4024987 
408.8      0.2520874  1          0.4172191 
408.9      0.2155649  1          0.5229583 
409        0.1903697  1          0.5838847 
409.1      0.1921516  1          0.5679939 
409.2      0.1839552  1          0.5757589 
409.3      0.1520065  1          0.6507213 
409.4      0.1382055  1          0.659466  
409.5      0.1956906  1          0.5484371 
409.6      0.2308077  1          0.4736864 
409.7      0.2100457  1          0.5259749 
409.8      0.1904316  1          0.5596392 
409.9      0.1534562  1          0.6074618 
410        0.1521438  1          0.6156904 
410.1      0.1524483  1          0.628265  
410.2      0.1910321  1          0.5631593 
410.3      0.2245023  1          0.4799121 
410.4      0.2180093  1          0.4731394 
410.5      0.2103034  1          0.5038722 
410.6      0.1830858  1          0.5666966 
410.7      0.1756563  1          0.5783882 
410.8      0.140645   1          0.6361371 
410.9      0.1335859  1          0.6447005 
411        0.1565452  1          0.5982163 
411.1      0.1861152  1          0.5396144 
411.2      0.1765848  1          0.5623041 
411.3      0.116631   1          0.6938027 
411.4      0.07351541 1          0.8354316 
411.5      0.06012177 1          0.8977923 
411.6      0.05524817 1          0.8630415 
411.7      0.118541   1          0.71694   
411.8      0.1417582  1          0.6394472 
411.9      0.1394401  1          0.6524324 
412        0.1006327  1          0.776121  
412.1      0.1060224  1          0.7607085 
412.2      0.1683154  1          0.601189  
412.3      0.2097138  1          0.4818937 
412.4      0.2402798  1          0.4333436 
412.5      0.2461271  1          0.4363805 
412.6      0.2488739  1          0.3945988 
412.7      0.2584828  1          0.3749623 
412.8      0.2660849  1          0.3804225 
412.9      0.2604705  1          0.4059968 
413        0.2547745  1          0.426844  
413.1      0.2425238  1          0.4647114 
413.2      0.2473637  1          0.4581342 
413.3      0.26614    1          0.4645781 
413.4      0.2990916  0.9672599  0.4358284 
413.5      0.2822765  1          0.4912644 
413.6      0.2255318  1          0.5877503 
413.7      0.1376005  1          0.6728304 
413.8      0.1149737  1          0.7337888 
413.9      0.1158229  1          0.7336684 
414        0.09106733 1          0.7633605 
414.1      0.09139849 1          0.7581916 
414.2      0.1040964  1          0.7480739 
414.3      0.1394472  1          0.6904532 
414.4      0.162797   1          0.6240459 
414.5      0.1917143  1          0.5789806 
414.6      0.1824871  1          0.5989621 
414.7      0.1487212  1          0.6672605 
414.8      0.1363268  1          0.6807188 
414.9      0.1224939  1          0.6537275 
415        0.1100212  1          0.623461  
415.1      0.1027496  1          0.606689  
415.2      0.06901647 1          0.5984076 
415.3      0.05786571 1          0.5288803 
415.4      0.06805296 1          0.373605  
415.5      0.06323362 1          0.230421  
415.6      0.07635041 1          0.1426732 
415.7      0.09182455 1          0.1270578 
415.8      0.1324282  1          0.1453543 
415.9      0.1979094  1          0.1697273 
416        0.2451046  1          0.2359475 
416.1      0.2368766  1          0.3572046 
416.2      0.1651413  1          0.539214  
416.3      0.1414528  1          0.6349362 
416.4      0.1587745  1          0.605469  
416.5      0.1687625  1          0.5389721 
416.6      0.1771369  1          0.5501238 
416.7      0.1281942  1          0.6696161 
416.8      0.07823892 1          0.8169945 
416.9      0.06518322 1          0.8721703 
