~Version
 VERS              .         3.0                           : CWLS LOG ASCII STANDARD - VERSION 3.0
 WRAP              .         NO                            : ONE LINE PER DEPTH STEP
 DLM               .         SPACE                         : DELIMITING CHARACTER(SPACE TAB OR COMMA)
~Well Information
#_______________________________________________________________________________
#
#PARAMETER_NAME    .UNIT     VALUE                         : DESCRIPTION
#_______________________________________________________________________________
STRT               .м        0.7                           : First reference value
STOP               .м        869.3                         : Last reference value
STEP               .м        0.1                           : Step increment
NULL               .         -9999                         : Missing value
COMP               .         ICPetroleum                   : Company
WELL               .         303                           : Well name
FLD                .         Karatobe                      : Field
LOC                .                                       : Location
SRVC               .         ТОО ГК ГИС Сервис             : Service Company
CTRY               .         KZ                            : Country
DATE               .         11.12..2021                   : Service Date
LATI               .         0                             : Latitude
LONG               .         0                             : Longitude
GDAT               .         WGS 84                        : Geodetic Datum
COORDIN            .                                       : Grid System
COUNT              .         KAZAKHSTAN                    : Country
COUNTRY            .         Kazakhstan                    : 
COUNTRY            .         Kazakhstan                    : 
EREF               .m        139.5                         : 
KB                 .         139.4                         : KB Elevation
ORIGINALWELLNAME   .         303                           : 
PROV               .                                       : Province
RWS                .         -999                          : Def_Rw
UWI                .                                       : Уникальный идентификатор скважины
WST                .         -999                          : Def_Rwt
X                  .km       467028.67                     : 
XCOORD             .                                       : X or East-West Coordinate
Y                  .km       5308133.79                    : 
YCOORD             .                                       : Y or North-South Coordinate
~Parameter Information Block
#_______________________________________________________________________________
#
#PARAMETER_NAME    .UNIT     VALUE                         : DESCRIPTION
#_______________________________________________________________________________
SET                .         Las                           : 
DFL                .см3/мин  -999.250                      : Водоотдача промывочной жидкости
GSDD               .         NPHI                          : NPHI,0,DEPT,,,,,0
TDD                .м        868.0                         : Полная глубина по бурению
TDL                .м        868.0                         : Полная глубина по каротажу
TLFamily_DEPT      .         Measured Depth                : 
TLFamily_PHI_FINAL .         Porosity                      : 
TLFamily_SW_AR     .         Water Saturation              : 
TLFamily_VSH_FINAL .         Shale Volume                  : 
~Curve Information
#_______________________________________________________________________________
#
#LOGNAME           .UNIT     LOG_ID                        : DESCRIPTION
#_______________________________________________________________________________
DEPT               .м                                      : Колонка глубины {F}
PHI_FINAL          .m3/m3                                  : Porosity {F}
SW_AR              .m3/m3                                  :  {F}
VSH_FINAL          .unitless                               : Vshale {F}
~Ascii
# ...
435.2      0.3143048  0.2321213  0.311866  
435.3      0.3102306  0.1864389  0.2597327 
435.4      0.3228343  0.1980973  0.230698  
435.5      0.3007778  0.2710036  0.2343916 
435.6      0.2872698  0.4316266  0.216198  
435.7      0.2561495  0.6078753  0.1941058 
435.8      0.2366184  0.7034495  0.1575363 
435.9      0.2499197  0.7011547  0.1320409 
436        0.2666517  0.6975133  0.1161698 
436.1      0.2935125  0.6812387  0.1161587 
436.2      0.2827014  0.7391389  0.139739  
436.3      0.2827536  0.7633311  0.1859378 
436.4      0.276982   0.7891001  0.2107647 
436.5      0.2885599  0.7431469  0.2159788 
436.6      0.3098807  0.667599   0.2089925 
436.7      0.2962205  0.6770324  0.2340674 
436.8      0.2907091  0.6789652  0.2715824 
436.9      0.2922752  0.6646888  0.2997625 
437        0.3043029  0.6201693  0.2694353 
437.1      0.3130175  0.5824257  0.2339595 
437.2      0.3262485  0.5415372  0.2071391 
437.3      0.3360607  0.5318497  0.2320451 
437.4      0.3079167  0.6087536  0.2713864 
437.5      0.2829071  0.7053719  0.3203561 
437.6      0.2557683  0.800494   0.384265  
437.7      0.2180224  0.9081594  0.4810606 
437.8      0.1735088  1          0.5781437 
437.9      0.1678254  1          0.5898333 
438        0.2029687  0.8042421  0.5115278 
438.1      0.248438   0.6544064  0.3951332 
438.2      0.2847421  0.6128753  0.3296737 
438.3      0.2939281  0.6196969  0.3106568 
438.4      0.2763484  0.6793559  0.3756868 
438.5      0.2606966  0.6984996  0.4150155 
438.6      0.2372101  0.6844974  0.480444  
438.7      0.280183   0.5137766  0.4149023 
438.8      0.2998342  0.4788756  0.378193  
438.9      0.3113124  0.5207897  0.33426   
439        0.2789878  0.6775118  0.4118138 
439.1      0.2225182  0.9041916  0.5142141 
439.2      0.1955774  1          0.5730577 
439.3      0.1884285  1          0.5965303 
439.4      0.1884782  1          0.5964398 
439.5      0.1878989  1          0.6207445 
439.6      0.2006907  0.9640064  0.5922767 
439.7      0.221326   0.7944571  0.5573893 
439.8      0.2391701  0.724637   0.4829414 
439.9      0.26611    0.6774126  0.4055327 
440        0.2843736  0.6753228  0.3437066 
440.1      0.2927681  0.7044544  0.3076557 
440.2      0.2970326  0.750661   0.3240232 
440.3      0.269109   0.8891536  0.3996073 
440.4      0.2369902  1          0.4759207 
440.5      0.2259039  1          0.5273489 
440.6      0.2222642  1          0.5166085 
440.7      0.2185347  1          0.5026074 
440.8      0.2338976  1          0.4594786 
440.9      0.2469086  0.9705587  0.4165876 
441        0.2433834  1          0.4467544 
441.1      0.2229132  1          0.4988895 
441.2      0.2177888  1          0.5268095 
441.3      0.2526361  1          0.4655625 
441.4      0.279698   0.9191946  0.4163039 
441.5      0.2800652  0.8766608  0.3583232 
441.6      0.2562435  0.9764562  0.3505708 
441.7      0.245746   1          0.3404618 
441.8      0.2404616  1          0.3686674 
441.9      0.2455836  1          0.3793504 
442        0.2286366  1          0.413043  
442.1      0.2468376  1          0.4307678 
442.2      0.241771   1          0.5049636 
442.3      0.2243553  1          0.5704027 
442.4      0.1497557  1          0.7240248 
442.5      0.1218344  1          0.7827854 
442.6      0.1317592  1          0.7429553 
442.7      0.1305861  1          0.718957  
442.8      0.1156634  1          0.7573792 
442.9      0.04620351 1          0.9367672 
443        0.02406855 1          0.9982147 
443.1      0.02254532 1          1         
443.2      0.0213741  1          1         
443.3      0.01270273 1          1         
443.4      0.02118062 1          1         
443.5      0.0217065  1          1         
443.6      0.0180963  1          1         
443.7      0.01916094 1          1         
443.8      0.008493057 1          1         
443.9      0.01888198 1          0.9532203 
444        0.04440665 1          0.9231224 
444.1      0.02823993 1          0.9528896 
444.2      0.02713295 1          0.9110809 
444.3      0.03707448 1          0.89934   
444.4      0.07289442 1          0.800834  
444.5      0.08993498 1          0.7503928 
444.6      0.1149125  1          0.6624587 
444.7      0.1119583  1          0.6579998 
444.8      0.1279181  1          0.6075845 
444.9      0.1336614  1          0.6156321 
445        0.1416317  1          0.6237726 
445.1      0.123375   1          0.6840887 
445.2      0.1648438  1          0.6574878 
445.3      0.2210437  1          0.5380532 
445.4      0.2610546  1          0.4409547 
445.5      0.2971536  0.9647174  0.3513462 
445.6      0.2822593  1          0.3774991 
445.7      0.305578   0.9466634  0.3828747 
445.8      0.3216099  0.9222941  0.3994838 
445.9      0.3608324  0.8408086  0.3217012 
446        0.3782853  0.8081218  0.2898092 
446.1      0.3492351  0.8606407  0.3239965 
446.2      0.3073146  0.9289122  0.4049503 
446.3      0.2523727  1          0.5409073 
446.4      0.2132463  1          0.6519461 
446.5      0.1506135  1          0.8403116 
446.6      0.1225318  1          0.9248954 
446.7      0.1993251  1          0.8081772 
446.8      0.343376   0.8156966  0.4982206 
446.9      0.4226465  0.6578143  0.248346  
447        0.4343023  0.6371743  0.1395446 
447.1      0.4311162  0.6431733  0.1126496 
447.2      0.4194039  0.6743196  0.133101  
447.3      0.3947448  0.7457885  0.2221791 
447.4      0.3411306  0.8911457  0.3958182 
447.5      0.2579876  1          0.5813631 
447.6      0.2109843  1          0.6681062 
447.7      0.1873564  1          0.6592671 
447.8      0.1611859  1          0.6678976 
447.9      0.1769955  1          0.6334721 
448        0.1868532  1          0.5966428 
448.1      0.1432816  1          0.6632081 
448.2      0.1140297  1          0.7459216 
448.3      0.08614619 1          0.8060463 
448.4      0.1170004  1          0.6940607 
448.5      0.1555153  1          0.6204415 
448.6      0.21052    1          0.5354593 
448.7      0.1948213  1          0.5463219 
448.8      0.1823737  1          0.542574  
448.9      0.1612168  1          0.6078414 
449        0.1636555  1          0.6450576 
449.1      0.1724522  1          0.644958  
449.2      0.1745265  1          0.603541  
449.3      0.1945777  1          0.5495257 
449.4      0.2030579  1          0.5205605 
449.5      0.1936134  1          0.5134738 
449.6      0.2002991  1          0.5168946 
449.7      0.1812846  1          0.5345995 
449.8      0.1571258  1          0.5565504 
449.9      0.1303923  1          0.5831581 
450        0.1520907  1          0.556386  
450.1      0.1699459  1          0.502677  
450.2      0.1785245  1          0.5129557 
450.3      0.1750346  1          0.643765  
450.4      0.1256871  1          0.8675974 
450.5      0.116474   1          0.9851918 
450.6      0.1682603  1          0.8954582 
450.7      0.2337283  1          0.7098509 
450.8      0.2698568  1          0.5670147 
450.9      0.2902166  0.9612154  0.4819617 
451        0.2881952  0.9759496  0.4051882 
451.1      0.2830037  1          0.3616094 
451.2      0.2895082  1          0.3855397 
451.3      0.2657988  1          0.4559292 
451.4      0.2335214  1          0.5552374 
451.5      0.2259149  1          0.6258351 
451.6      0.2280914  1          0.6552885 
451.7      0.2670904  1          0.6215209 
451.8      0.3294458  0.8389387  0.4879727 
451.9      0.3381456  0.8123447  0.4133098 
452        0.2997771  0.899119   0.3933971 
452.1      0.2303161  1          0.4713579 
452.2      0.1844895  1          0.5290738 
452.3      0.1579734  1          0.5967432 
452.4      0.1452854  1          0.5887715 
452.5      0.1399865  1          0.6126027 
452.6      0.1135414  1          0.6940038 
452.7      0.110917   1          0.7122283 
452.8      0.09207144 1          0.730878  
452.9      0.1047518  1          0.6496869 
453        0.09020797 1          0.6981078 
453.1      0.09748954 1          0.6979976 
453.2      0.08273219 1          0.720983  
453.3      0.08295061 1          0.7208682 
