~Version
 VERS              .         3.0                           : CWLS LOG ASCII STANDARD - VERSION 3.0
 WRAP              .         NO                            : ONE LINE PER DEPTH STEP
 DLM               .         SPACE                         : DELIMITING CHARACTER(SPACE TAB OR COMMA)
~Well Information
#_______________________________________________________________________________
#
#PARAMETER_NAME    .UNIT     VALUE                         : DESCRIPTION
#_______________________________________________________________________________
STRT               .м        0.7                           : First reference value
STOP               .м        869.3                         : Last reference value
STEP               .м        0.1                           : Step increment
NULL               .         -9999                         : Missing value
COMP               .         ICPetroleum                   : Company
WELL               .         303                           : Well name
FLD                .         Karatobe                      : Field
LOC                .                                       : Location
SRVC               .         ТОО ГК ГИС Сервис             : Service Company
CTRY               .         KZ                            : Country
DATE               .         11.12..2021                   : Service Date
LATI               .         0                             : Latitude
LONG               .         0                             : Longitude
GDAT               .         WGS 84                        : Geodetic Datum
COORDIN            .                                       : Grid System
COUNT              .         KAZAKHSTAN                    : Country
COUNTRY            .         Kazakhstan                    : 
COUNTRY            .         Kazakhstan                    : 
EREF               .m        139.5                         : 
KB                 .         139.4                         : KB Elevation
ORIGINALWELLNAME   .         303                           : 
PROV               .                                       : Province
RWS                .         -999                          : Def_Rw
UWI                .                                       : Уникальный идентификатор скважины
WST                .         -999                          : Def_Rwt
X                  .km       467028.67                     : 
XCOORD             .                                       : X or East-West Coordinate
Y                  .km       5308133.79                    : 
YCOORD             .                                       : Y or North-South Coordinate
~Parameter Information Block
#_______________________________________________________________________________
#
#PARAMETER_NAME    .UNIT     VALUE                         : DESCRIPTION
#_______________________________________________________________________________
SET                .         Las                           : 
DFL                .см3/мин  -999.250                      : Водоотдача промывочной жидкости
GSDD               .         NPHI                          : NPHI,0,DEPT,,,,,0
TDD                .м        868.0                         : Полная глубина по бурению
TDL                .м        868.0                         : Полная глубина по каротажу
TLFamily_DEPT      .         Measured Depth                : 
TLFamily_PHI_FINAL .         Porosity                      : 
TLFamily_SW_AR     .         Water Saturation              : 
TLFamily_VSH_FINAL .         Shale Volume                  : 
~Curve Information
#_______________________________________________________________________________
#
#LOGNAME           .UNIT     LOG_ID                        : DESCRIPTION
#_______________________________________________________________________________
DEPT               .м                                      : Колонка глубины {F}
PHI_FINAL          .m3/m3                                  : Porosity {F}
SW_AR              .m3/m3                                  :  {F}
VSH_FINAL          .unitless                               : Vshale {F}
~Ascii
# ...
125.8      -9999      -9999      0.0984014 
125.9      -9999      -9999      0.1150886 
126        -9999      -9999      0.1317263 
126.1      -9999      -9999      0.1079266 
126.2      -9999      -9999      0.07826913
126.3      -9999      -9999      0.06685361
126.4      -9999      -9999      0.07358931
126.5      -9999      -9999      0.08426725
126.6      -9999      -9999      0.07823526
126.7      -9999      -9999      0.09435512
126.8      -9999      -9999      0.1064443 
126.9      -9999      -9999      0.1284571 
127        -9999      -9999      0.1178629 
127.1      -9999      -9999      0.1149252 
127.2      -9999      -9999      0.1022749 
127.3      -9999      -9999      0.1091795 
127.4      -9999      -9999      0.1091668 
127.5      -9999      -9999      0.1177928 
127.6      -9999      -9999      0.1119783 
127.7      -9999      -9999      0.1283322 
127.8      -9999      -9999      0.1192272 
127.9      -9999      -9999      0.122198  
128        -9999      -9999      0.1035426 
128.1      -9999      -9999      0.1049022 
128.2      -9999      -9999      0.1048901 
128.3      -9999      -9999      0.1090522 
128.4      -9999      -9999      0.1048659 
128.5      -9999      -9999      0.1076255 
128.6      -9999      -9999      0.1034711 
128.7      -9999      -9999      0.1132657 
128.8      -9999      -9999      0.1132524 
128.9      -9999      -9999      0.1020754 
129        -9999      -9999      0.08160835
129.1      -9999      -9999      0.06886528
129.2      -9999      -9999      0.08279973
129.3      -9999      -9999      0.08647118
129.4      -9999      -9999      0.09799906
129.5      -9999      -9999      0.1020052 
129.6      -9999      -9999      0.1102962 
129.7      -9999      -9999      0.1131325 
129.8      -9999      -9999      0.1019701 
129.9      -9999      -9999      0.1019584 
130        -9999      -9999      0.092715  
130.1      -9999      -9999      0.08516039
130.2      -9999      -9999      0.06658164
130.3      -9999      -9999      0.06989256
130.4      -9999      -9999      0.07791489
130.5      -9999      -9999      0.1005413 
130.6      -9999      -9999      0.1046    
130.7      -9999      -9999      0.08145743
130.8      -9999      -9999      0.06874243
130.9      -9999      -9999      0.0601165 
131        -9999      -9999      0.07437558
131.1      -9999      -9999      0.09518646
131.2      -9999      -9999      0.1100904 
131.3      -9999      -9999      0.1158045 
131.4      -9999      -9999      0.1086592 
131.5      -9999      -9999      0.0875029 
131.6      -9999      -9999      0.08137774
131.7      -9999      -9999      0.07547354
131.8      -9999      -9999      0.09511145
131.9      -9999      -9999      0.1017252 
132        -9999      -9999      0.1003694 
132.1      -9999      -9999      0.100358  
132.2      -9999      -9999      0.1016903 
132.3      -9999      -9999      0.1030321 
132.4      -9999      -9999      0.08992268
132.5      -9999      -9999      0.08010312
132.6      -9999      -9999      0.0789082 
132.7      -9999      -9999      0.06750302
132.8      -9999      -9999      0.06423646
132.9      -9999      -9999      0.07537682
133        -9999      -9999      0.09498312
133.1      -9999      -9999      0.1029376 
133.2      -9999      -9999      0.0861005 
133.3      -9999      -9999      0.07079031
133.4      -9999      -9999      0.0599633 
133.5      -9999      -9999      0.05686265
133.6      -9999      -9999      0.0578808 
133.7      0.1370661  -9999      0.05583487
133.8      0.07840218 -9999      0.05993886
133.9      0.05779351 -9999      0.07074558
134        0.07650255 -9999      0.08479681
134.1      0.07828998 -9999      0.09229083
134.2      0.08049896 -9999      0.09100726
134.3      0.08215841 -9999      0.07758874
134.4      0.08424895 -9999      0.05478751
134.5      0.08717024 -9999      0.04232559
134.6      0.09174103 -9999      0.04323828
134.7      0.09444946 -9999      0.05179154
134.8      0.09536575 -9999      0.05577317
134.9      0.0916814  -9999      0.05987175
135        0.08530184 -9999      0.07066372
135.1      0.08099043 -9999      0.08106929
135.2      0.07805359 -9999      0.08714663
135.3      0.07967123 -9999      0.0859022 
135.4      0.075665   -9999      0.0834502 
135.5      0.07679916 -9999      0.08711787
135.6      0.08100813 -9999      0.08587394
135.7      0.08612772 -9999      0.08586452
135.8      0.08588731 -9999      0.0999364 
135.9      0.07386813 -9999      0.1137408 
136        0.07744793 -9999      0.09858687
136.1      0.07925566 -9999      0.07058205
136.2      0.08628078 -9999      0.06083585
136.3      0.08527756 -9999      0.07742251
136.4      0.08526957 -9999      0.09722577
136.5      0.08894211 -9999      0.09204427
136.6      0.08899809 -9999      0.07974915
136.7      0.08329894 -9999      0.07738935
136.8      0.07163848 -9999      0.1025029 
136.9      0.0661087  -9999      0.1194133 
137        0.06697087 -9999      0.1011351 
137.1      0.07736564 -9999      0.06719431
137.2      0.07778092 -9999      0.04780198
137.3      0.08339144 -9999      0.05165838
137.4      0.08169611 -9999      0.06393245
137.5      0.0831803  -9999      0.08205502
137.6      0.08271297 -9999      0.08940615
137.7      0.08135779 -9999      0.09319794
137.8      0.0842638  -9999      0.0893864 
137.9      0.0836728  -9999      0.08688843
138        0.08395858 -9999      0.08811824
138.1      0.08642377 -9999      0.08441783
138.2      0.0905472  -9999      0.08319633
138.3      0.08830076 -9999      0.0682055 
138.4      0.08526909 -9999      0.06493786
138.5      0.08379006 -9999      0.06174136
138.6      0.08806249 -9999      0.07492065
138.7      0.0877128  -9999      0.07956903
138.8      0.08434591 -9999      0.08314212
138.9      0.0768382  -9999      0.08679317
139        0.07364652 -9999      0.08555494
139.1      0.07238691 -9999      0.08191296
139.2      0.07610174 -9999      0.06488433
139.3      0.07689439 -9999      0.06274548
139.4      0.08039294 -9999      0.06063792
139.5      0.08277088 -9999      0.06273264
139.6      0.08475904 -9999      0.06272622
139.7      0.08368929 -9999      0.0670132 
139.8      0.07670946 -9999      0.079475  
139.9      0.07076754 -9999      0.07596701
140        0.07151511 -9999      0.06270055
140.1      0.07425147 -9999      0.05648636
140.2      0.07749616 -9999      0.06268772
140.3      0.0806538  -9999      0.06588729
140.4      0.08302265 -9999      0.06162181
140.5      0.08432232 -9999      0.04859982
140.6      0.08432409 -9999      0.04390746
140.7      0.08502346 -9999      0.03938311
140.8      0.08897585 -9999      0.04763464
140.9      0.0821035  -9999      0.05543344
141        0.07555111 -9999      0.06369648
141.1      0.07216603 -9999      0.06053327
141.2      0.07609811 -9999      0.05145991
141.3      0.08853116 -9999      0.04296141
141.4      0.09119818 -9999      0.04387377
141.5      0.09631615 -9999      0.03414571
141.6      0.09169578 -9999      0.03245656
141.7      0.08961865 -9999      0.03584982
141.8      0.08400808 -9999      0.049495  
141.9      0.08329009 -9999      0.05638458
142        0.08470692 -9999      0.05637894
142.1      0.08353658 -9999      0.06469098
142.2      0.07953644 -9999      0.06468434
142.3      0.07633422 -9999      0.07235997
142.4      0.07432776 -9999      0.07576548
142.5      0.07203625 -9999      0.08280935
142.6      0.07468942 -9999      0.06899826
142.7      0.07756677 -9999      0.06465113
142.8      0.07910525 -9999      0.06042898
142.9      0.07675312 -9999      0.06146519
143        0.07293557 -9999      0.06145894
143.1      0.07136019 -9999      0.06462459
143.2      0.07401334 -9999      0.05937005
143.3      0.07937426 -9999      0.05430334
143.4      0.08228838 -9999      0.05232462
143.5      0.07821012 1          0.06247685
143.6      0.07502344 1          0.06783097
143.7      0.06971128 1          0.07113417
143.8      0.06824812 1          0.07913487
143.9      0.06850614 1          0.07795754
