~Version
 VERS              .         3.0                           : CWLS LOG ASCII STANDARD - VERSION 3.0
 WRAP              .         NO                            : ONE LINE PER DEPTH STEP
 DLM               .         SPACE                         : DELIMITING CHARACTER(SPACE TAB OR COMMA)
~Well Information
#_______________________________________________________________________________
#
#PARAMETER_NAME    .UNIT     VALUE                         : DESCRIPTION
#_______________________________________________________________________________
STRT               .м        0.7                           : First reference value
STOP               .м        869.3                         : Last reference value
STEP               .м        0.1                           : Step increment
NULL               .         -9999                         : Missing value
COMP               .         ICPetroleum                   : Company
WELL               .         303                           : Well name
FLD                .         Karatobe                      : Field
LOC                .                                       : Location
SRVC               .         ТОО ГК ГИС Сервис             : Service Company
CTRY               .         KZ                            : Country
DATE               .         11.12..2021                   : Service Date
LATI               .         0                             : Latitude
LONG               .         0                             : Longitude
GDAT               .         WGS 84                        : Geodetic Datum
COORDIN            .                                       : Grid System
COUNT              .         KAZAKHSTAN                    : Country
COUNTRY            .         Kazakhstan                    : 
COUNTRY            .         Kazakhstan                    : 
EREF               .m        139.5                         : 
KB                 .         139.4                         : KB Elevation
ORIGINALWELLNAME   .         303                           : 
PROV               .                                       : Province
RWS                .         -999                          : Def_Rw
UWI                .                                       : Уникальный идентификатор скважины
WST                .         -999                          : Def_Rwt
X                  .km       467028.67                     : 
XCOORD             .                                       : X or East-West Coordinate
Y                  .km       5308133.79                    : 
YCOORD             .                                       : Y or North-South Coordinate
~Parameter Information Block
#_______________________________________________________________________________
#
#PARAMETER_NAME    .UNIT     VALUE                         : DESCRIPTION
#_______________________________________________________________________________
SET                .         Las                           : 
DFL                .см3/мин  -999.250                      : Водоотдача промывочной жидкости
GSDD               .         NPHI                          : NPHI,0,DEPT,,,,,0
TDD                .м        868.0                         : Полная глубина по бурению
TDL                .м        868.0                         : Полная глубина по каротажу
TLFamily_DEPT      .         Measured Depth                : 
TLFamily_PHI_FINAL .         Porosity                      : 
TLFamily_SW_AR     .         Water Saturation              : 
TLFamily_VSH_FINAL .         Shale Volume                  : 
~Curve Information
#_______________________________________________________________________________
#
#LOGNAME           .UNIT     LOG_ID                        : DESCRIPTION
#_______________________________________________________________________________
DEPT               .м                                      : Колонка глубины {F}
PHI_FINAL          .m3/m3                                  : Porosity {F}
SW_AR              .m3/m3                                  :  {F}
VSH_FINAL          .unitless                               : Vshale {F}
~Ascii
# ...
216.8      0.2970322  0.8027424  0.3276298 
216.9      0.336197   0.71671    0.2490724 
217        0.3465562  0.7016733  0.2270698 
217.1      0.3384085  0.7229968  0.2400377 
217.2      0.3347049  0.7251533  0.2467061 
217.3      0.3274437  0.7229993  0.2724491 
217.4      0.3320875  0.7047074  0.2675797 
217.5      0.3133417  0.7547583  0.3162131 
217.6      0.2976906  0.8050892  0.3562953 
217.7      0.2844773  0.8320717  0.3841383 
217.8      0.2942674  0.7940218  0.3745902 
217.9      0.3118063  0.7563627  0.3243018 
218        0.3041854  0.7561859  0.315982  
218.1      0.2967844  0.7701848  0.344177  
218.2      0.2861099  0.8235158  0.3681465 
218.3      0.2691935  0.8778911  0.3869846 
218.4      0.2869112  0.8244098  0.3353513 
218.5      0.3087669  0.7606     0.3103352 
218.6      0.3187297  0.7426835  0.3184404 
218.7      0.3050371  0.7770685  0.3380706 
218.8      0.2895297  0.8204308  0.3709013 
218.9      0.3147524  0.7704613  0.3294248 
219        0.3150345  0.787204   0.312806  
219.1      0.3108295  0.7972744  0.3237295 
219.2      0.306677   0.7985623  0.3407047 
219.3      0.3028372  0.7991067  0.3377686 
219.4      0.3262895  0.7493085  0.2814777 
219.5      0.3334326  0.7406198  0.2667993 
219.6      0.3187846  0.7659847  0.312533  
219.7      0.308716   0.7778642  0.33186   
219.8      0.3184926  0.7600234  0.3233964 
219.9      0.3306737  0.7326121  0.2862899 
220        0.3374738  0.7239885  0.2571917 
220.1      0.3525194  0.7060983  0.243499  
220.2      0.340163   0.748772   0.2713471 
220.3      0.3126927  0.8077592  0.334406  
220.4      0.2905751  0.8424886  0.3921718 
220.5      0.2924655  0.8218342  0.3761649 
220.6      0.291049   0.818344   0.3546822 
220.7      0.293166   0.7948675  0.3093458 
220.8      0.2999995  0.76044    0.2735457 
220.9      0.3306154  0.679983   0.228015  
221        0.3373569  0.6671221  0.2114597 
221.1      0.3440374  0.6581854  0.1901381 
221.2      0.3510879  0.6480765  0.1845797 
221.3      0.3489466  0.6690551  0.1827371 
221.4      0.340944   0.6985956  0.2014774 
221.5      0.3552815  0.668508   0.2257203 
221.6      0.3628026  0.6537473  0.252025  
221.7      0.3710986  0.6407709  0.2407573 
221.8      0.3675687  0.6457258  0.2320115 
221.9      0.3622747  0.660406   0.2235034 
222        0.3418948  0.7018862  0.2518875 
222.1      0.3473191  0.7054383  0.2192931 
222.2      0.346991   0.719375   0.2234151 
222.3      0.3521988  0.7245443  0.2111037 
222.4      0.3506367  0.7384299  0.2427441 
222.5      0.3459385  0.7479129  0.2540057 
222.6      0.330709   0.7698911  0.2704413 
222.7      0.3314985  0.7501701  0.2752546 
222.8      0.3293388  0.7299352  0.2752162 
222.9      0.3226674  0.7187356  0.2800936 
223        0.3035323  0.7749419  0.3083175 
223.1      0.2947198  0.8037328  0.2824971 
223.2      0.333727   0.710116   0.1915008 
223.3      0.3520048  0.688857   0.1317715 
223.4      0.359736   0.6935815  0.1043993 
223.5      0.3765344  0.6801688  0.1148843 
223.6      0.3868378  0.6482412  0.1317265 
223.7      0.3851707  0.623952   0.1630485 
223.8      0.3554884  0.6525296  0.2208686 
223.9      0.3495463  0.6646211  0.2126739 
224        0.3555459  0.6581602  0.1839366 
224.1      0.3721298  0.6453854  0.1452184 
224.2      0.3778995  0.6449097  0.1272966 
224.3      0.369781   0.6631833  0.1230306 
224.4      0.3680115  0.6762158  0.1420819 
224.5      0.3568098  0.6962807  0.1838223 
224.6      0.342077   0.7201628  0.1911638 
224.7      0.3473383  0.7080548  0.1713636 
224.8      0.3624447  0.6784048  0.152996  
224.9      0.3486731  0.7107347  0.15949   
225        0.3618581  0.6939489  0.1359415 
225.1      0.3725695  0.6853068  0.1229207 
225.2      0.3509147  0.7388968  0.1257282 
225.3      0.3427316  0.7489385  0.151306  
225.4      0.3436683  0.7278337  0.1747    
225.5      0.345933   0.7072303  0.1729317 
225.6      0.331682   0.7296103  0.1660414 
225.7      0.3573199  0.6841916  0.1560633 
225.8      0.3753726  0.6620977  0.128501  
225.9      0.3747538  0.6655516  0.113243  
226        0.3750746  0.6641641  0.1028406 
226.1      0.3532197  0.6960238  0.1186283 
226.2      0.3512235  0.6954202  0.1387498 
226.3      0.3529344  0.6956847  0.1464009 
226.4      0.3582944  0.6969892  0.1298562 
226.5      0.3685114  0.6888998  0.1241321 
226.6      0.3710456  0.6820011  0.1241182 
226.7      0.3548342  0.7078567  0.1447792 
226.8      0.3626093  0.6960862  0.1447623 
226.9      0.3581025  0.7070248  0.1607603 
227        0.3592586  0.7066079  0.1832523 
227.1      0.3351957  0.7592641  0.2038905 
227.2      0.3345982  0.765256   0.2058201 
227.3      0.3604311  0.7123033  0.1980515 
227.4      0.3729517  0.6931573  0.1742728 
227.5      0.373499   0.7000285  0.165661  
227.6      0.376391   0.6889158  0.1673356 
227.7      0.3657499  0.6921191  0.1849067 
227.8      0.3551603  0.7037127  0.1922605 
227.9      0.354673   0.7098805  0.199815  
228        0.3543955  0.7130771  0.2095555 
228.1      0.3687835  0.6954197  0.1903259 
228.2      0.3761443  0.6919278  0.158863  
228.3      0.3801853  0.6952002  0.1281394 
228.4      0.3665303  0.7205541  0.1383993 
228.5      0.3726943  0.7111602  0.1621113 
228.6      0.3700287  0.7079335  0.168837  
228.7      0.3748953  0.671973   0.1555089 
228.8      0.3766348  0.6436995  0.135352  
228.9      0.3803455  0.6385325  0.1353365 
229        0.3685807  0.6677166  0.1459408 
229.1      0.3512395  0.7111412  0.1603382 
229.2      0.3728705  0.6855693  0.1653221 
229.3      0.3703799  0.7064497  0.1827309 
229.4      0.3617361  0.7242922  0.2013574 
229.5      0.3496053  0.7432789  0.2254424 
229.6      0.3584321  0.7259527  0.2032409 
229.7      0.3689768  0.7081417  0.1790618 
229.8      0.365996   0.7030069  0.1720274 
229.9      0.379044   0.6650137  0.1585418 
230        0.3765437  0.6634076  0.165163  
230.1      0.3918319  0.6404228  0.1634664 
230.2      0.3823737  0.6611359  0.175424  
230.3      0.3958475  0.6342756  0.1504193 
230.4      0.4001124  0.6286885  0.1264129 
230.5      0.3982998  0.6393363  0.1263987 
230.6      0.3687037  0.6911786  0.1535511 
230.7      0.3627737  0.6897344  0.195309  
230.8      0.3468489  0.7116853  0.2378413 
230.9      0.3477359  0.7020162  0.2579823 
231        0.3466398  0.6954257  0.2579471 
231.1      0.353064   0.6800471  0.2167359 
231.2      0.3822393  0.634768   0.1989808 
231.3      0.3959194  0.6240188  0.1895658 
231.4      0.4009051  0.6205644  0.2106242 
231.5      0.3819852  0.6455307  0.2146011 
231.6      0.3735606  0.6511962  0.202724  
231.7      0.3823264  0.6283421  0.1682053 
231.8      0.3828509  0.6362385  0.1533342 
231.9      0.3738165  0.6523702  0.1304937 
232        0.3769456  0.6375831  0.1276078 
232.1      0.3954403  0.5974192  0.1085503 
232.2      0.406079   0.5847211  0.1009149 
232.3      0.4090632  0.5901257  0.08655677
232.4      0.4055475  0.6099958  0.07980044
232.5      0.3954281  0.6404709  0.08201095
232.6      0.3936999  0.6610093  0.09963206
232.7      0.3781086  0.7023863  0.1110893 
232.8      0.3804039  0.6795093  0.1246639 
232.9      0.378323   0.6213253  0.1422128 
233        0.3586919  0.6095145  0.1966302 
233.1      0.2939515  0.761815   0.2689147 
233.2      0.212875   1          0.3689489 
233.3      0.1690421  1          0.5380138 
233.4      0.1311089  1          0.7588182 
233.5      0.09063073 1          0.8937017 
233.6      0.1434003  1          0.7642438 
233.7      0.1620376  1          0.6875859 
233.8      0.1511935  1          0.6822691 
233.9      0.09333375 1          0.7988722 
234        0.08203492 1          0.8603906 
234.1      0.05039759 1          0.9330356 
234.2      0.04367897 1          0.9677705 
234.3      0.04543843 1          0.9534698 
234.4      0.04331006 1          1         
234.5      0.05177121 1          1         
234.6      0.04813441 1          1         
234.7      0.0392966  1          1         
234.8      0.0288257  1          1         
234.9      0.03147429 1          1         
