~Version
 VERS              .         3.0                           : CWLS LOG ASCII STANDARD - VERSION 3.0
 WRAP              .         NO                            : ONE LINE PER DEPTH STEP
 DLM               .         SPACE                         : DELIMITING CHARACTER(SPACE TAB OR COMMA)
~Well Information
#_______________________________________________________________________________
#
#PARAMETER_NAME    .UNIT     VALUE                         : DESCRIPTION
#_______________________________________________________________________________
STRT               .м        0.7                           : First reference value
STOP               .м        869.3                         : Last reference value
STEP               .м        0.1                           : Step increment
NULL               .         -9999                         : Missing value
COMP               .         ICPetroleum                   : Company
WELL               .         303                           : Well name
FLD                .         Karatobe                      : Field
LOC                .                                       : Location
SRVC               .         ТОО ГК ГИС Сервис             : Service Company
CTRY               .         KZ                            : Country
DATE               .         11.12..2021                   : Service Date
LATI               .         0                             : Latitude
LONG               .         0                             : Longitude
GDAT               .         WGS 84                        : Geodetic Datum
COORDIN            .                                       : Grid System
COUNT              .         KAZAKHSTAN                    : Country
COUNTRY            .         Kazakhstan                    : 
COUNTRY            .         Kazakhstan                    : 
EREF               .m        139.5                         : 
KB                 .         139.4                         : KB Elevation
ORIGINALWELLNAME   .         303                           : 
PROV               .                                       : Province
RWS                .         -999                          : Def_Rw
UWI                .                                       : Уникальный идентификатор скважины
WST                .         -999                          : Def_Rwt
X                  .km       467028.67                     : 
XCOORD             .                                       : X or East-West Coordinate
Y                  .km       5308133.79                    : 
YCOORD             .                                       : Y or North-South Coordinate
~Parameter Information Block
#_______________________________________________________________________________
#
#PARAMETER_NAME    .UNIT     VALUE                         : DESCRIPTION
#_______________________________________________________________________________
SET                .         Las                           : 
DFL                .см3/мин  -999.250                      : Водоотдача промывочной жидкости
GSDD               .         NPHI                          : NPHI,0,DEPT,,,,,0
TDD                .м        868.0                         : Полная глубина по бурению
TDL                .м        868.0                         : Полная глубина по каротажу
TLFamily_DEPT      .         Measured Depth                : 
TLFamily_PHI_FINAL .         Porosity                      : 
TLFamily_SW_AR     .         Water Saturation              : 
TLFamily_VSH_FINAL .         Shale Volume                  : 
~Curve Information
#_______________________________________________________________________________
#
#LOGNAME           .UNIT     LOG_ID                        : DESCRIPTION
#_______________________________________________________________________________
DEPT               .м                                      : Колонка глубины {F}
PHI_FINAL          .m3/m3                                  : Porosity {F}
SW_AR              .m3/m3                                  :  {F}
VSH_FINAL          .unitless                               : Vshale {F}
~Ascii
# ...
162.2      0.421647   0.4222249  0.3656403 
162.3      0.4405913  0.4065684  0.3655821 
162.4      0.4681892  0.3999644  0.3752248 
162.5      0.4483986  0.4395223  0.4342235 
162.6      0.3977671  0.4898301  0.535084  
162.7      0.3639376  0.5094558  0.5712691 
162.8      0.3465524  0.5089401  0.5665174 
162.9      0.3291405  0.5192941  0.5852026 
163        0.3162507  0.5359495  0.5709577 
163.1      0.3155743  0.5310749  0.570854  
163.2      0.3226052  0.5111247  0.5389299 
163.3      0.3262998  0.479904   0.5568181 
163.4      0.3154688  0.4832681  0.5659016 
163.5      0.2848895  0.5497029  0.6137244 
163.6      0.2003286  0.7932547  0.7735257 
163.7      0.08523842 1          1         
163.8      0.09188482 1          1         
163.9      0.09207284 1          1         
164        0.08841394 1          1         
164.1      0.0769233  1          1         
164.2      0.06736504 1          1         
164.3      0.057801   1          1         
164.4      0.1188953  1          0.8755279 
164.5      0.1277904  1          0.8158537 
164.6      0.0472897  1          0.9169921 
164.7      0.01550904 1          0.9530355 
164.8      0.01020231 1          0.9827577 
164.9      0.0231701  1          0.9825488 
165        0.1149113  1          0.8881775 
165.1      0.2625451  0.7229768  0.684723  
165.2      0.3294782  0.5897878  0.6117938 
165.3      0.2888624  0.6729092  0.729424  
165.4      0.2071089  0.9150081  0.9013554 
165.5      0.2161128  0.8810662  0.8872619 
165.6      0.2714051  0.7058086  0.7826964 
165.7      0.2585488  0.7426704  0.8075268 
165.8      0.1941078  0.9764152  0.9435034 
165.9      0.1709362  1          1         
166        0.1948005  0.992765   0.9727214 
166.1      0.2244116  0.9003569  0.9212511 
166.2      0.2032543  1          0.9648311 
166.3      0.18201    1          1         
166.4      0.1801703  1          1         
166.5      0.2108071  0.9576004  0.934856  
166.6      0.2831275  0.7180882  0.7935177 
166.7      0.3169732  0.6178542  0.7332204 
166.8      0.2932843  0.6591877  0.7869948 
166.9      0.2436049  0.7867089  0.8778521 
167        0.1883208  1          1         
167.1      0.2182702  0.8695707  1         
167.2      0.2762785  0.6761367  1         
167.3      0.284691   0.6466617  1         
167.4      0.2796954  0.6600603  0.9476414 
167.5      0.2005626  0.8984845  0.9401476 
167.6      0.1590219  1          0.9327091 
167.7      0.1059855  1          0.9767338 
167.8      0.08825579 1          1         
167.9      0.0794004  1          1         
168        0.08022824 1          1         
168.1      0.0835828  1          1         
168.2      0.08914343 1          1         
168.3      0.08984445 1          1         
168.4      0.09091716 1          1         
168.5      0.1529455  1          0.8681982 
168.6      0.2164205  0.786656   0.6855996 
168.7      0.1451333  1          0.6964563 
168.8      0.05938997 1          0.6799036 
168.9      0.04987604 1          0.5291319 
169        0.03930328 1          0.4012515 
169.1      0.03280329 1          0.2789578 
169.2      0.03268623 0.8151628  0.2332707 
169.3      0.04368947 0.7411068  0.2115785 
169.4      0.06398064 1          0.213647  
169.5      0.1263185  0.97101    0.2287195 
169.6      0.2622526  0.6202008  0.2242972 
169.7      0.3891512  0.4675836  0.2308748 
169.8      0.4486786  0.4237144  0.2864503 
169.9      0.4328143  0.4302782  0.3457312 
170        0.3801808  0.4570622  0.4587022 
170.1      0.3134242  0.5142849  0.5729094 
170.2      0.2403592  0.6496189  0.6944575 
170.3      0.2343911  0.7018653  0.6888331 
170.4      0.3070509  0.5879989  0.5452977 
170.5      0.3667613  0.5250016  0.4544905 
170.6      0.4244705  0.4532258  0.3703462 
170.7      0.4326404  0.4172244  0.3899791 
170.8      0.4174758  0.412664   0.4466992 
170.9      0.3679512  0.4638391  0.5492769 
171        0.2841141  0.6073544  0.6989163 
171.1      0.1838053  0.9506286  0.8636028 
171.2      0.1055477  1          1         
171.3      0.1010444  1          1         
171.4      0.152279   1          0.9041525 
171.5      0.2104481  0.8157951  0.7858223 
171.6      0.2669724  0.66366    0.6816915 
171.7      0.255829   0.6833246  0.7035304 
171.8      0.2113784  0.8154886  0.7915265 
171.9      0.1510652  1          0.9102281 
172        0.1087283  1          0.9829004 
172.1      0.13857    1          0.945628  
172.2      0.1699395  1          0.8888038 
172.3      0.2385345  0.7569388  0.7723814 
172.4      0.2385108  0.7467046  0.742491  
172.5      0.2320715  0.7530311  0.7250063 
172.6      0.232239   0.7610192  0.6967787 
172.7      0.268537   0.6633393  0.6281212 
172.8      0.3217468  0.5549252  0.53856   
172.9      0.3252462  0.5708524  0.5517974 
173        0.3287775  0.5728447  0.5516989 
173.1      0.3309279  0.5601951  0.5606431 
173.2      0.3701755  0.4957415  0.512365  
173.3      0.3463404  0.5259948  0.5883379 
173.4      0.3153971  0.5825914  0.6686566 
173.5      0.215582   0.8443925  0.8593966 
173.6      0.157636   1          0.9499505 
173.7      0.1155893  1          1         
173.8      0.1006831  1          0.9791741 
173.9      0.1546727  1          0.8259907 
174        0.1983597  0.8627479  0.6839955 
174.1      0.2479955  0.6489884  0.5641985 
174.2      0.2952548  0.5509739  0.5031269 
174.3      0.3597474  0.4931329  0.4440877 
174.4      0.4246717  0.4348042  0.3843501 
174.5      0.4521081  0.4042302  0.3554932 
174.6      0.4421572  0.4128306  0.384227  
174.7      0.3475113  0.512049   0.5635913 
174.8      0.2327152  0.7398942  0.786834  
174.9      0.1719984  0.9837164  0.9046119 
175        0.217677   0.7911425  0.8177841 
175.1      0.2634444  0.6754628  0.7386019 
175.2      0.2775863  0.6549766  0.7155747 
175.3      0.2535954  0.7179006  0.7678364 
175.4      0.2536013  0.7232752  0.7616995 
175.5      0.2953929  0.6167896  0.6820506 
175.6      0.371168   0.4841376  0.5272202 
175.7      0.3911197  0.4601926  0.481535  
175.8      0.3695562  0.487938   0.5058764 
175.9      0.3265128  0.5398027  0.5903037 
176        0.3027218  0.5613943  0.6343524 
176.1      0.2832503  0.6082974  0.6652619 
176.2      0.2561237  0.6997628  0.7198469 
176.3      0.2663442  0.6802425  0.7028919 
176.4      0.2836456  0.6189694  0.6808882 
176.5      0.3258142  0.5429114  0.5896607 
176.6      0.3557553  0.5090024  0.526295  
176.7      0.3488697  0.5146441  0.5348595 
176.8      0.3053623  0.5644629  0.618409  
176.9      0.2443371  0.6857702  0.724554  
177        0.2686733  0.6499569  0.6801152 
177.1      0.3222349  0.55275    0.5749491 
177.2      0.4181664  0.4218872  0.4096602 
177.3      0.4350772  0.3988219  0.3760528 
177.4      0.4165145  0.4135649  0.416522  
177.5      0.369535   0.4636862  0.4961624 
177.6      0.3649616  0.4733044  0.5084554 
177.7      0.3928262  0.4571199  0.4565795 
177.8      0.3761311  0.4751153  0.495906  
177.9      0.3326393  0.5218568  0.5695061 
178        0.3339742  0.5147446  0.560272  
178.1      0.3550566  0.493112   0.5206431 
178.2      0.3640949  0.4844928  0.5163139 
178.3      0.3559904  0.4876215  0.5247286 
178.4      0.339761   0.5014399  0.550876  
178.5      0.3676671  0.4705774  0.4993975 
178.6      0.3326471  0.5363696  0.5827134 
178.7      0.2989077  0.6099269  0.646441  
178.8      0.3060435  0.5854022  0.6260585 
178.9      0.337074   0.5218098  0.563913  
179        0.3464163  0.5072622  0.5458449 
179.1      0.3163789  0.5527058  0.6011918 
179.2      0.2864799  0.6048541  0.6509902 
179.3      0.2548571  0.6664269  0.7099684 
179.4      0.2560818  0.6659006  0.7042701 
179.5      0.303351   0.5801271  0.6153486 
179.6      0.377413   0.4825063  0.4823067 
179.7      0.4090674  0.4471113  0.4291799 
179.8      0.4020928  0.4483039  0.4511993 
179.9      0.3847612  0.4587336  0.4900699 
180        0.3580073  0.4997118  0.5493139 
180.1      0.3339067  0.5465339  0.6000981 
180.2      0.3179062  0.5862135  0.6344713 
180.3      0.3268597  0.5753272  0.6095569 
