~Version
 VERS              .         3.0                           : CWLS LOG ASCII STANDARD - VERSION 3.0
 WRAP              .         NO                            : ONE LINE PER DEPTH STEP
 DLM               .         SPACE                         : DELIMITING CHARACTER(SPACE TAB OR COMMA)
~Well Information
#_______________________________________________________________________________
#
#PARAMETER_NAME    .UNIT     VALUE                         : DESCRIPTION
#_______________________________________________________________________________
STRT               .м        0.7                           : First reference value
STOP               .м        869.3                         : Last reference value
STEP               .м        0.1                           : Step increment
NULL               .         -9999                         : Missing value
COMP               .         ICPetroleum                   : Company
WELL               .         303                           : Well name
FLD                .         Karatobe                      : Field
LOC                .                                       : Location
SRVC               .         ТОО ГК ГИС Сервис             : Service Company
CTRY               .         KZ                            : Country
DATE               .         11.12..2021                   : Service Date
LATI               .         0                             : Latitude
LONG               .         0                             : Longitude
GDAT               .         WGS 84                        : Geodetic Datum
COORDIN            .                                       : Grid System
COUNT              .         KAZAKHSTAN                    : Country
COUNTRY            .         Kazakhstan                    : 
COUNTRY            .         Kazakhstan                    : 
EREF               .m        139.5                         : 
KB                 .         139.4                         : KB Elevation
ORIGINALWELLNAME   .         303                           : 
PROV               .                                       : Province
RWS                .         -999                          : Def_Rw
UWI                .                                       : Уникальный идентификатор скважины
WST                .         -999                          : Def_Rwt
X                  .km       467028.67                     : 
XCOORD             .                                       : X or East-West Coordinate
Y                  .km       5308133.79                    : 
YCOORD             .                                       : Y or North-South Coordinate
~Parameter Information Block
#_______________________________________________________________________________
#
#PARAMETER_NAME    .UNIT     VALUE                         : DESCRIPTION
#_______________________________________________________________________________
SET                .         Las                           : 
DFL                .см3/мин  -999.250                      : Водоотдача промывочной жидкости
GSDD               .         NPHI                          : NPHI,0,DEPT,,,,,0
TDD                .м        868.0                         : Полная глубина по бурению
TDL                .м        868.0                         : Полная глубина по каротажу
TLFamily_DEPT      .         Measured Depth                : 
TLFamily_PHI_FINAL .         Porosity                      : 
TLFamily_SW_AR     .         Water Saturation              : 
TLFamily_VSH_FINAL .         Shale Volume                  : 
~Curve Information
#_______________________________________________________________________________
#
#LOGNAME           .UNIT     LOG_ID                        : DESCRIPTION
#_______________________________________________________________________________
DEPT               .м                                      : Колонка глубины {F}
PHI_FINAL          .m3/m3                                  : Porosity {F}
SW_AR              .m3/m3                                  :  {F}
VSH_FINAL          .unitless                               : Vshale {F}
~Ascii
# ...
344.2      0.1304027  1          0.6383937 
344.3      0.132294   1          0.6382886 
344.4      0.1098028  1          0.6944189 
344.5      0.07418685 1          0.7654597 
344.6      0.0910314  1          0.7392004 
344.7      0.1109909  1          0.6654404 
344.8      0.1784642  1          0.533417  
344.9      0.221788   1          0.4540965 
345        0.243015   1          0.447353  
345.1      0.2107719  1          0.5217142 
345.2      0.1450952  1          0.6373429 
345.3      0.09744846 1          0.7031353 
345.4      0.06608374 1          0.791172  
345.5      0.04311558 1          0.882995  
345.6      0.01681507 1          1         
345.7      0.008239065 1          1         
345.8      0.007085437 1          1         
345.9      0.01409761 1          1         
346        0.0405445  1          0.9253642 
346.1      0.06346389 1          0.900302  
346.2      0.04953608 1          0.9313443 
346.3      0.06292984 1          0.912337  
346.4      0.1117766  1          0.7576697 
346.5      0.1018354  1          0.8006222 
346.6      0.04284338 1          0.9370137 
346.7      0.02735582 1          1         
346.8      0.02671071 1          1         
346.9      0.0120555  1          1         
347        0.01102179 1          1         
347.1      0.02086794 1          1         
347.2      0.01940259 1          1         
347.3      0.02410395 1          1         
347.4      0.0791619  1          0.8620955 
347.5      0.1242698  1          0.7562298 
347.6      0.1554579  1          0.7152162 
347.7      0.1749544  1          0.6392241 
347.8      0.1759605  1          0.6301587 
347.9      0.1766878  1          0.6480844 
348        0.1267118  1          0.7555769 
348.1      0.07191163 1          0.8493025 
348.2      0.08534853 1          0.7765078 
348.3      0.1273253  1          0.6522307 
348.4      0.171174   1          0.5266153 
348.5      0.2123213  1          0.4162054 
348.6      0.2345929  1          0.3801371 
348.7      0.2480809  1          0.3743411 
348.8      0.2276874  1          0.4823406 
348.9      0.1852727  1          0.5613885 
349        0.1831215  1          0.533772  
349.1      0.2142202  1          0.4613634 
349.2      0.2083394  1          0.4855841 
349.3      0.1993976  1          0.5570294 
349.4      0.2084492  1          0.5609449 
349.5      0.2430483  1          0.4818304 
349.6      0.2504067  1          0.4852901 
349.7      0.2534053  1          0.4923463 
349.8      0.2558324  1          0.4746158 
349.9      0.2767378  0.9795328  0.4122664 
350        0.2843315  0.9617636  0.3881172 
350.1      0.2872082  0.9575648  0.3764625 
350.2      0.280188   0.9837894  0.3650977 
350.3      0.2778509  0.9954523  0.3879523 
350.4      0.2562891  1          0.4811759 
350.5      0.2243525  1          0.5721037 
350.6      0.1288287  1          0.7367293 
350.7      0.04582751 1          0.8570144 
350.8      0.02615072 1          0.8686454 
350.9      0.05142745 1          0.7944686 
351        0.1087338  1          0.681969  
351.1      0.1651167  1          0.5797643 
351.2      0.2203877  1          0.4736183 
351.3      0.234576   1          0.4334683 
351.4      0.2041347  1          0.505557  
351.5      0.1618397  1          0.5752826 
351.6      0.1545047  1          0.5793023 
351.7      0.1692532  1          0.5201616 
351.8      0.1896601  1          0.4836782 
351.9      0.2134843  1          0.459443  
352        0.2125953  1          0.4661698 
352.1      0.1935357  1          0.512382  
352.2      0.1311755  1          0.6390018 
352.3      0.09395917 1          0.7194666 
352.4      0.09610981 1          0.6996172 
352.5      0.1187239  1          0.6297609 
352.6      0.1225435  1          0.5950492 
352.7      0.09612538 1          0.634003  
352.8      0.1162625  1          0.6119401 
352.9      0.1604014  1          0.5658796 
353        0.1840701  1          0.5006789 
353.1      0.1708652  1          0.5497584 
353.2      0.1610196  1          0.6469806 
353.3      0.1311928  1          0.7591242 
353.4      0.133508   1          0.7910074 
353.5      0.09654389 1          0.8703638 
353.6      0.08947295 1          0.8881574 
353.7      0.05373362 1          1         
353.8      0.06150758 1          1         
353.9      0.06926472 1          1         
354        0.09673418 1          0.9057881 
354.1      0.09970815 1          0.8753676 
354.2      0.07445166 1          0.9116234 
354.3      0.05637356 1          0.9621575 
354.4      0.05560645 1          1         
354.5      0.06544312 1          1         
354.6      0.03623935 1          1         
354.7      0.02832206 1          1         
354.8      0.02257511 1          1         
354.9      0.02440797 1          1         
355        0.01806016 1          1         
355.1      0.01853196 1          0.9870014 
355.2      0.06159276 1          0.8618308 
355.3      0.1082037  1          0.7565153 
355.4      0.1344827  1          0.6675984 
355.5      0.1458092  1          0.6007304 
355.6      0.1543067  1          0.5674995 
355.7      0.1440785  1          0.5633835 
355.8      0.1542801  1          0.5632948 
355.9      0.1761271  1          0.5168083 
356        0.215946   1          0.4566562 
356.1      0.2284875  1          0.4272667 
356.2      0.2255658  1          0.4209095 
356.3      0.2088235  1          0.4531152 
356.4      0.1502825  1          0.587265  
356.5      0.04795776 1          0.8253698 
356.6      0.01814299 1          1         
356.7      0.02303764 1          1         
356.8      0.03593537 1          1         
356.9      0.05131874 1          1         
357        0.06470855 1          1         
357.1      0.06052885 1          1         
357.2      0.06072247 1          0.9898011 
357.3      0.05180826 1          1         
357.4      0.04955947 1          1         
357.5      0.04967504 1          1         
357.6      0.04313933 1          1         
357.7      0.05617782 1          1         
357.8      0.06073997 1          1         
357.9      0.05685917 1          1         
358        0.1093166  1          0.8692759 
358.1      0.1051276  1          0.8457992 
358.2      0.122424   1          0.7684485 
358.3      0.06902681 1          0.874729  
358.4      0.02966466 1          0.9613837 
358.5      0.01238182 1          1         
358.6      0.008508723 1          1         
358.7      0.00713548 1          1         
358.8      0.0102512  1          1         
358.9      0.01347279 1          1         
359        0.01884702 1          1         
359.1      0.01507695 1          1         
359.2      0.03072245 1          1         
359.3      0.03517332 1          1         
359.4      0.0333772  1          1         
359.5      0.02316999 1          1         
359.6      0.04182086 1          0.9528316 
359.7      0.1065459  1          0.7986253 
359.8      0.115747   1          0.7876357 
359.9      0.05065694 1          0.9207441 
360        0.01522453 1          1         
360.1      0.01918348 1          1         
360.2      0.01263463 1          0.9711843 
360.3      0.04234499 1          0.8540424 
360.4      0.0969404  1          0.7295592 
360.5      0.1239784  1          0.6712753 
360.6      0.1402245  1          0.6347305 
360.7      0.1204266  1          0.666401  
360.8      0.107738   1          0.6803322 
360.9      0.08984469 1          0.6993468 
361        0.05878377 1          0.7647544 
361.1      0.03486158 1          0.8586398 
361.2      0.002981279 1          1         
361.3      0.006844026 1          1         
361.4      0.01596852 1          1         
361.5      0.01780638 1          1         
361.6      0.04124164 1          0.8814468 
361.7      0.08869507 1          0.8067908 
361.8      0.1066418  1          0.8402829 
361.9      0.1458972  1          0.7480121 
362        0.1606552  1          0.7077808 
362.1      0.1474455  1          0.7175006 
362.2      0.0767229  1          0.8745624 
362.3      0.03743512 1          0.9739559 
