~Version
 VERS              .         3.0                           : CWLS LOG ASCII STANDARD - VERSION 3.0
 WRAP              .         NO                            : ONE LINE PER DEPTH STEP
 DLM               .         SPACE                         : DELIMITING CHARACTER(SPACE TAB OR COMMA)
~Well Information
#_______________________________________________________________________________
#
#PARAMETER_NAME    .UNIT     VALUE                         : DESCRIPTION
#_______________________________________________________________________________
STRT               .м        0.7                           : First reference value
STOP               .м        869.3                         : Last reference value
STEP               .м        0.1                           : Step increment
NULL               .         -9999                         : Missing value
COMP               .         ICPetroleum                   : Company
WELL               .         303                           : Well name
FLD                .         Karatobe                      : Field
LOC                .                                       : Location
SRVC               .         ТОО ГК ГИС Сервис             : Service Company
CTRY               .         KZ                            : Country
DATE               .         11.12..2021                   : Service Date
LATI               .         0                             : Latitude
LONG               .         0                             : Longitude
GDAT               .         WGS 84                        : Geodetic Datum
COORDIN            .                                       : Grid System
COUNT              .         KAZAKHSTAN                    : Country
COUNTRY            .         Kazakhstan                    : 
COUNTRY            .         Kazakhstan                    : 
EREF               .m        139.5                         : 
KB                 .         139.4                         : KB Elevation
ORIGINALWELLNAME   .         303                           : 
PROV               .                                       : Province
RWS                .         -999                          : Def_Rw
UWI                .                                       : Уникальный идентификатор скважины
WST                .         -999                          : Def_Rwt
X                  .km       467028.67                     : 
XCOORD             .                                       : X or East-West Coordinate
Y                  .km       5308133.79                    : 
YCOORD             .                                       : Y or North-South Coordinate
~Parameter Information Block
#_______________________________________________________________________________
#
#PARAMETER_NAME    .UNIT     VALUE                         : DESCRIPTION
#_______________________________________________________________________________
SET                .         Las                           : 
DFL                .см3/мин  -999.250                      : Водоотдача промывочной жидкости
GSDD               .         NPHI                          : NPHI,0,DEPT,,,,,0
TDD                .м        868.0                         : Полная глубина по бурению
TDL                .м        868.0                         : Полная глубина по каротажу
TLFamily_DEPT      .         Measured Depth                : 
TLFamily_PHI_FINAL .         Porosity                      : 
TLFamily_SW_AR     .         Water Saturation              : 
TLFamily_VSH_FINAL .         Shale Volume                  : 
~Curve Information
#_______________________________________________________________________________
#
#LOGNAME           .UNIT     LOG_ID                        : DESCRIPTION
#_______________________________________________________________________________
DEPT               .м                                      : Колонка глубины {F}
PHI_FINAL          .m3/m3                                  : Porosity {F}
SW_AR              .m3/m3                                  :  {F}
VSH_FINAL          .unitless                               : Vshale {F}
~Ascii
# ...
489.8      0.1063323  1          0.7120612 
489.9      0.1758196  1          0.6551937 
490        0.2682073  1          0.5285826 
490.1      0.3502398  0.8300253  0.4413193 
490.2      0.433081   0.6138544  0.3113114 
490.3      0.4691121  0.5496255  0.2085253 
490.4      0.5096823  0.5177673  0.1171562 
490.5      0.5180634  0.5345073  0.08379675
490.6      0.4948408  0.5896826  0.08958784
490.7      0.4826562  0.5947684  0.09762497
490.8      0.4315506  0.6106116  0.1103908 
490.9      0.3405957  0.7358176  0.1060258 
491        0.245245   0.9110863  0.1159553 
491.1      0.2014681  1          0.1205275 
491.2      0.2161571  1          0.1399263 
491.3      0.2637136  0.9454083  0.1463493 
491.4      0.3036873  0.8858734  0.146335  
491.5      0.3209015  0.8783011  0.1583753 
491.6      0.3348105  0.8596755  0.1798722 
491.7      0.3429988  0.8507559  0.2082108 
491.8      0.3174845  0.9186958  0.2396005 
491.9      0.321449   0.9217884  0.2784599 
492        0.3226852  0.9357794  0.3196966 
492.1      0.3467924  0.8870975  0.3265902 
492.2      0.3300518  0.9377802  0.4055528 
492.3      0.2856807  1          0.5234022 
492.4      0.1898879  1          0.7555784 
492.5      0.1215168  1          0.8781213 
492.6      0.1004447  1          0.9458662 
492.7      0.1408807  1          0.8298815 
492.8      0.1814158  1          0.7316039 
492.9      0.2450521  1          0.5844731 
493        0.2207174  1          0.5881946 
493.1      0.1990049  1          0.573015  
493.2      0.1361712  1          0.591849  
493.3      0.1295913  1          0.4763184 
493.4      0.1657083  1          0.2947697 
493.5      0.2065168  0.9836401  0.1553341 
493.6      0.2090486  1          0.08837865
493.7      0.2573183  1          0.08075205
493.8      0.2928509  0.9411612  0.09838653
493.9      0.3068421  0.9243101  0.1156464 
494        0.3259051  0.8940097  0.1272526 
494.1      0.347385   0.8426704  0.148567  
494.2      0.3387328  0.8587732  0.1720392 
494.3      0.314665   0.9116504  0.2160054 
494.4      0.2866981  0.99198    0.2577249 
494.5      0.2553279  1          0.3164478 
494.6      0.22126    1          0.3799911 
494.7      0.1934606  1          0.4566907 
494.8      0.1732918  1          0.5389772 
494.9      0.1323115  1          0.6019524 
495        0.1125578  1          0.6670222 
495.1      0.09882705 1          0.6711926 
495.2      0.1106777  1          0.6416993 
495.3      0.1512507  1          0.5564977 
495.4      0.1569861  1          0.5211182 
495.5      0.1583403  1          0.4877    
495.6      0.1564167  1          0.538364  
495.7      0.1150349  1          0.6249561 
495.8      0.07164451 1          0.7190369 
495.9      0.05389304 1          0.7609634 
496        0.07084516 1          0.7052746 
496.1      0.0678188  1          0.7141647 
496.2      0.0755486  1          0.7416664 
496.3      0.04107851 1          0.8250737 
496.4      0.0424885  1          0.7846395 
496.5      0.05610783 1          0.7274041 
496.6      0.05264736 1          0.7001667 
496.7      0.06182186 1          0.7600059 
496.8      0.03973735 1          0.8452386 
496.9      0.03006385 1          0.8718076 
497        0.0235693  1          0.9447346 
497.1      0.02452978 1          0.9445763 
497.2      0.03824067 1          0.8768085 
497.3      0.09688554 1          0.7688988 
497.4      0.1626125  1          0.6774338 
497.5      0.203642   1          0.6518927 
497.6      0.1917777  1          0.699093  
497.7      0.1641008  1          0.7684141 
497.8      0.1571505  1          0.8027631 
497.9      0.1782262  1          0.7585737 
498        0.1775419  1          0.6854813 
498.1      0.1519076  1          0.6030094 
498.2      0.1582883  1          0.5651171 
498.3      0.1647725  1          0.5398245 
498.4      0.1387754  1          0.5835813 
498.5      0.1282358  1          0.606553  
498.6      0.08423945 1          0.698022  
498.7      0.08135997 1          0.7023534 
498.8      0.07952624 1          0.7433344 
498.9      0.1111197  1          0.7110864 
499        0.1086225  1          0.7020298 
499.1      0.1470864  1          0.6178302 
499.2      0.1533709  1          0.5570109 
499.3      0.1807257  1          0.4883803 
499.4      0.2087039  1          0.4271161 
499.5      0.2569406  1          0.3353285 
499.6      0.2666891  1          0.3144984 
499.7      0.2588874  1          0.3235677 
499.8      0.2386538  1          0.3722853 
499.9      0.2198079  1          0.3960425 
500        0.2177314  1          0.426777  
500.1      0.2204524  1          0.4354536 
500.2      0.2207571  1          0.4442766 
500.3      0.2074342  1          0.4717783 
500.4      0.1985816  1          0.4812159 
500.5      0.2151494  1          0.4322961 
500.6      0.2470862  1          0.3468712 
500.7      0.2560568  1          0.3163347 
500.8      0.2377138  1          0.3641552 
500.9      0.2342658  1          0.3901443 
501        0.2270296  1          0.4204817 
501.1      0.2282553  1          0.4175855 
501.2      0.2464761  1          0.3899937 
501.3      0.2575909  1          0.3465696 
501.4      0.2767387  1          0.3093503 
501.5      0.2839075  1          0.2962191 
501.6      0.2877148  1          0.2856084 
501.7      0.3011478  1          0.2834957 
501.8      0.3072167  1          0.2772963 
501.9      0.3055938  1          0.2555318 
502        0.2648855  1          0.2555027 
502.1      0.2449724  1          0.2691424 
502.2      0.2237429  1          0.2833299 
502.3      0.2204301  1          0.273085  
502.4      0.2245581  1          0.2771029 
502.5      0.2273099  1          0.2690184 
502.6      0.2133766  1          0.2936973 
502.7      0.1996165  1          0.2979456 
502.8      0.1812938  1          0.3044254 
502.9      0.1898597  1          0.2552419 
503        0.1767868  1          0.2728639 
503.1      0.1670467  1          0.3245286 
503.2      0.1693407  1          0.370683  
503.3      0.2119638  1          0.3408915 
503.4      0.2553839  1          0.2912986 
503.5      0.2770497  1          0.2870582 
503.6      0.2712022  1          0.295483  
503.7      0.2638662  1          0.2911955 
503.8      0.2762392  1          0.2746263 
503.9      0.2790232  1          0.2400188 
504        0.2623052  1          0.2257202 
504.1      0.2797251  1          0.2137275 
504.2      0.2973854  1          0.2399387 
504.3      0.288257   1          0.2704521 
504.4      0.2891725  1          0.2867552 
504.5      0.2904513  1          0.2744039 
504.6      0.3016377  1          0.2362063 
504.7      0.2951854  1          0.2119195 
504.8      0.310907   1          0.2069436 
504.9      0.2987475  1          0.2434169 
505        0.2895998  1          0.2662679 
505.1      0.2810687  1          0.2823715 
505.2      0.2606087  1          0.2844066 
505.3      0.2296259  1          0.3448543 
505.4      0.1727312  1          0.4592576 
505.5      0.1095245  1          0.5965174 
505.6      0.09544004 1          0.6481524 
505.7      0.104563   1          0.6197401 
505.8      0.1062818  1          0.6397557 
505.9      0.09672734 1          0.6645451 
506        0.1118042  1          0.6274378 
506.1      0.1325139  1          0.5808447 
506.2      0.1471106  1          0.5659505 
506.3      0.1405479  1          0.5920046 
506.4      0.1591399  1          0.5585097 
506.5      0.1551377  1          0.5476675 
506.6      0.1422248  1          0.5583501 
506.7      0.08566289 1          0.6679702 
506.8      0.07001064 1          0.6981037 
506.9      0.09799474 1          0.6306166 
507        0.1115607  1          0.4994362 
507.1      0.147569   1          0.4612672 
507.2      0.1567469  1          0.4992982 
507.3      0.1285806  1          0.5949567 
507.4      0.1110056  1          0.650538  
507.5      0.08406167 1          0.6929727 
507.6      0.07322238 1          0.6713057 
507.7      0.08850686 1          0.6669656 
507.8      0.1218291  1          0.6257721 
507.9      0.1381186  1          0.5982666 
