~Version information
  VERS.                           2.00 : CWLS log ASCII Standard -Version 2.00
  WRAP.                             NO : One line per depth step
~Well information
#MNEM.UNIT              Data Type        Information
#----------------------------------------------------------------------
  STRT.M                         0.700 : 
  STOP.M                       819.000 : 
  STEP.M                         0.100 : 
  NULL.                      -999.2500 : 
  COMP.                           CIOC : Company Name
  WELL.                            303 : Well Name
  FLD .                       KARATUBE : Field Name
  CTRY.                     KAZAKHSTAN : Country
  SRVC.         JSC"KAZPROMGEOPHYSICA" : Service company
  DATE.                      30.05.04. : Log date
~Curve information
#MNEM.UNIT                               Curve Description
#----------------------------------------------------------------------
  DEPT.M                               : Depth Curve
  MLL .OHMM                            : Microlaterolog sonde
  LL3 .OHMM                            : Appar.resist.laterolog,3 electrodes
  RHOB.G/C3                            : Bulk density by gamma-gamma log
  GR  .UR/H                            : Gamma-ray log
  NGL .UE                              : Neutron-gamma log
  GZ3 .OHMM                            : App.resistivity by lateral A2.0M0.5N
  GZ3B.OHMM                            : App.resistivity by lateral N0.5M2.0A
  SP  .MV                              : Spontaneous potential
  CALI.MM                              : Caliper
  C1  .MM                              : Diameter from profile1
  C2  .MM                              : Diameter from profile2
  CILR.MMHO                            : Conduct. by sonde 7I1.6,react.signal
  CILA.MMHO                            : Conduct. by sonde 7I1.6,active signal
  DTP .US/M                            : Interval travel time (P-wave)
  T1  .US                              : Travel time1
  T2  .US                              : Travel time2
~Parameter information
#MNEM.UNIT              Value            Description
#----------------------------------------------------------------------
#----------------------------------------------------------------------
  DFV .SEK                       40.00 : Viscosity
  TDL .M                        816.00 : Total Depth-Logger
  BS  .MM                       215.90 : Bit Size
  DFD .G/C3                       1.12 : Drilling Fluid Density
~Ascii Log Data
# ...
  178.300 1.4680 5.7540 2.1340 7.6800 1.1760 10.1070 10.9230 101.1820 218.3900 211.3080 225.4720 1.5590 118.1710 512.6020 1222.7300 1017.6900
  178.400 1.3170 5.9290 2.0710 7.8000 1.2050 10.5020 11.0630 100.8280 215.5580 208.9410 222.1750 -0.7440 119.0790 513.2510 1223.4200 1018.1200
  178.500 1.5060 5.8080 2.0210 7.5600 1.2130 10.7730 11.1820 99.9440 215.5580 211.3080 219.8080 2.2020 119.0790 514.4850 1224.0400 1018.2400
  178.600 1.6190 5.4320 2.0630 7.9400 1.1650 10.9200 11.1170 100.9160 218.3900 210.7160 226.0640 0.7290 118.3980 515.9850 1224.3400 1017.9500
  178.700 1.5440 5.1640 2.0350 8.2000 1.1650 10.9760 10.9660 100.5630 216.6910 211.3080 222.0740 2.8710 118.1250 515.7000 1224.1000 1017.8300
  178.800 1.4300 5.3460 2.0310 8.1200 1.1840 11.0100 10.7170 100.2090 216.6910 209.5330 223.8490 0.6220 119.3970 515.0440 1223.3900 1017.3700
  178.900 1.4300 5.5850 2.0530 7.8600 1.1870 10.8630 10.6520 99.0600 217.2570 209.5330 224.9820 3.0050 124.3930 514.4060 1222.6300 1016.8700
  179.000 1.5440 5.6100 2.0290 7.7800 1.1730 10.8750 10.8470 97.4690 217.2570 210.7160 223.7980 1.0500 118.1250 513.2570 1222.7000 1017.4000
  179.100 1.7330 5.6100 2.0490 8.0200 1.1760 10.8410 10.9230 96.0550 217.8240 210.7160 224.9310 -1.1180 125.8010 512.7940 1223.3800 1018.2700
  179.200 1.6570 5.6490 2.0890 8.2200 1.1870 10.8070 10.8900 95.4360 216.1240 208.9410 223.3080 0.5950 121.9400 511.2570 1224.5699 1020.0700
  179.300 1.5810 5.7940 2.0980 8.4400 1.1920 10.9420 10.9770 95.3480 216.1240 208.9410 223.3080 -0.2350 125.9370 511.1330 1225.5100 1021.0600
  179.400 1.4680 5.7540 2.0860 8.4200 1.2400 11.2130 10.9230 97.1160 216.1240 212.4910 219.7570 3.0850 118.3980 513.6330 1225.9800 1020.5200
  179.500 1.2030 5.5210 2.0720 8.0800 1.2670 11.0330 10.5330 98.1760 216.1240 212.4910 219.7570 0.2740 119.9420 516.0780 1226.4000 1019.9700
  179.600 1.3550 5.2970 2.0290 7.4800 1.2720 10.5130 9.9480 99.2370 217.8240 208.9410 226.7060 3.6740 118.4430 519.2680 1226.5300 1018.8300
  179.700 1.2410 5.2970 2.0260 7.2000 1.2510 9.9490 9.3530 98.1770 219.5230 209.5330 229.5130 1.6130 120.6690 520.1940 1226.9000 1018.8300
  179.800 1.2410 5.4320 2.0060 7.3200 1.2190 9.4970 8.9090 96.4970 218.3900 213.0830 223.6970 2.9250 120.9870 520.6330 1226.7400 1018.4900
  179.900 1.3550 5.6230 2.0600 7.5200 1.2030 9.3500 8.8880 95.7900 216.6910 213.0830 220.2980 1.3450 125.6190 521.2470 1226.4900 1017.9900
  180.000 1.5810 5.4450 2.0550 7.8000 1.1680 9.4860 9.1260 92.6080 218.3900 210.7160 226.0640 4.4510 128.7990 521.0810 1225.6100 1017.1700
  180.100 1.6190 5.2120 2.0420 8.0200 1.1600 9.8920 9.5050 90.9290 215.5580 211.3080 219.8080 2.8440 129.9340 521.9200 1224.2800 1015.5100
  180.200 1.6190 4.9890 2.0710 8.1600 1.1470 10.3780 9.9480 90.1330 215.5580 212.4910 218.6240 3.6480 129.5250 522.0550 1222.1600 1013.3300
  180.300 1.5440 4.9200 2.0630 8.0600 1.1600 10.7500 10.3600 91.1060 215.5580 211.3080 219.8080 2.8180 130.9790 520.6280 1219.0699 1010.8100
  180.400 1.5060 5.1520 2.0550 7.9600 1.1680 10.8520 10.5980 92.1660 214.9910 209.5330 220.4500 3.6740 130.8420 517.3510 1214.6400 1007.7000
  180.500 1.6570 5.2850 2.0890 8.0200 1.1890 10.8410 10.8360 89.6910 216.1240 211.8990 220.3490 1.0770 128.9800 513.9250 1208.9800 1003.4100
  180.600 1.7700 5.3950 2.0860 8.3400 1.1810 10.8290 11.0740 90.8400 218.9560 211.8990 226.0130 0.5680 128.9350 512.7580 1203.1801 998.0740
  180.700 1.7700 5.1640 2.0490 8.4600 1.1570 10.7050 11.2690 91.7240 218.3900 209.5330 227.2470 0.8360 128.7990 513.2580 1198.7100 993.4070
  180.800 1.6570 4.9550 2.0710 8.2800 1.1630 10.6600 11.3770 94.4640 218.3900 208.3490 228.4310 1.2110 127.3450 515.4420 1196.8400 990.6670
  180.900 1.5810 5.0820 2.0830 7.9400 1.2050 10.5920 11.3340 94.8180 217.2570 211.3080 223.2060 1.5320 126.4370 513.9420 1196.5800 991.0000
  181.000 1.5440 5.3090 2.1150 7.8200 1.2400 10.3210 11.3230 92.6080 214.9910 210.7160 219.2670 1.9340 126.9820 513.2200 1197.0900 991.8000
  181.100 1.7700 5.4070 2.0330 7.9600 1.2510 10.1860 11.5510 91.9010 215.5580 209.5330 221.5830 2.1750 128.7530 509.9420 1197.1100 993.1330
  181.200 1.8080 5.3830 2.0690 8.0800 1.2240 10.0840 11.8210 91.2820 216.1240 210.1240 222.1240 2.4700 126.8460 509.1090 1197.3300 993.6890
  181.300 1.8080 5.3580 2.0620 8.2800 1.2400 9.8240 12.0810 93.3150 217.8240 211.8990 223.7480 0.5420 127.4810 508.1000 1197.6300 994.3890
  181.400 1.8080 5.2850 2.1050 8.1800 1.2270 9.8470 12.2650 93.6690 218.9560 212.4910 225.4220 1.8270 124.9830 508.9330 1197.8101 994.2410
  181.500 1.6950 5.2600 2.0960 8.6000 1.2290 10.0500 12.5250 93.1380 217.2570 210.1240 224.3900 1.5590 124.8020 509.3220 1197.1600 993.4260
  181.600 1.6190 5.2600 2.1450 8.7400 1.2080 10.0050 12.6010 92.2540 216.6910 210.7160 222.6650 2.4700 122.8030 506.0000 1195.5400 993.1380
  181.700 1.6570 5.3580 2.0820 9.0200 1.2560 9.8580 12.6980 92.6960 217.2570 212.4910 222.0230 1.9070 123.2580 501.1900 1193.4800 993.0000
  181.800 1.6190 5.5080 2.0530 8.8200 1.2370 9.8020 12.8820 92.7850 215.5580 210.1240 220.9910 2.7100 127.8450 494.4810 1191.9000 994.1120
  181.900 1.7330 5.7020 2.0540 8.6200 1.2270 9.7900 13.0340 94.0220 216.1240 209.5330 222.7160 1.8270 126.0280 490.3470 1191.3000 995.1560
  182.000 1.6190 5.6490 2.0510 8.5600 1.1950 9.6890 13.0770 93.8450 216.6910 210.7160 222.6650 0.8630 123.7570 486.8080 1191.7400 997.0170
  182.100 1.6190 5.6360 2.0650 8.4400 1.2030 9.5420 12.9360 95.1710 218.3900 211.8990 224.8810 -0.3950 117.3990 487.8050 1192.9500 997.8320
  182.200 1.6190 5.6230 2.1160 8.2200 1.1760 9.1810 12.6220 94.1990 218.9560 211.3080 226.6050 -0.7700 117.8530 490.0510 1194.2600 998.2420
  182.300 1.5810 5.5460 2.1310 7.7200 1.1390 8.8300 12.2110 95.1720 216.1240 209.5330 222.7160 0.1670 111.0400 495.4250 1195.8700 997.7040
  182.400 1.4680 5.5980 2.1510 7.3800 1.1650 8.5710 11.8320 96.5860 216.1240 210.1240 222.1240 -0.7700 114.6280 497.7790 1197.0800 997.9700
  182.500 1.4300 5.7680 2.0910 7.4800 1.2000 8.4470 11.4960 98.6180 217.8240 209.5330 226.1150 2.2290 115.5820 500.6220 1198.5800 998.3340
  182.600 1.4300 6.0530 2.1040 7.9000 1.1870 8.3450 11.2150 98.9720 218.3900 211.3080 225.4720 -0.1010 119.4880 500.5970 1199.3101 999.0750
  182.700 1.5810 6.4860 2.1790 7.8800 1.1280 8.4470 11.2040 97.5580 219.5230 213.0830 225.9630 1.4520 119.4880 502.4960 1199.7000 998.7020
  182.800 1.6190 6.3680 2.1820 7.7000 1.0850 8.6610 11.3120 97.5580 215.5580 209.5330 221.5830 -1.1990 119.0790 502.3980 1199.0400 998.0840
  182.900 1.5810 5.8750 2.1040 7.4800 1.1010 8.7630 11.3560 97.2930 216.6910 211.3080 222.0740 2.3360 116.8990 501.8370 1198.4700 997.7320
  183.000 1.4680 5.3090 2.0160 7.3800 1.1470 8.8420 11.1500 97.2040 217.2570 212.4910 222.0230 0.1400 111.1310 500.7610 1198.8300 998.5290
  183.100 1.3170 4.8190 2.0000 7.3600 1.1920 8.8980 10.6300 96.1440 218.3900 209.5330 227.2470 -0.0470 111.4490 500.5410 1199.9399 999.7280
  183.200 1.3170 5.0580 2.0150 7.2200 1.2240 8.8530 10.1430 97.2040 218.9560 211.3080 226.6050 -0.0470 112.7210 500.6600 1200.6100 1000.3500
  183.300 1.2790 5.8340 2.0060 7.3400 1.1760 8.7290 9.9270 99.0600 217.8240 210.1240 225.5230 0.5950 118.9430 500.0270 1199.7800 999.7670
  183.400 1.5440 5.9020 2.0460 7.5200 1.1120 8.7060 10.1220 101.3580 216.6910 210.7160 222.6650 0.4080 117.3530 499.1760 1197.7100 998.0440
  183.500 1.6570 5.9160 2.1880 7.6800 1.0750 8.7970 10.3920 101.3580 215.5580 213.0830 218.0330 -0.4490 124.7560 497.2220 1194.3800 995.4910
  183.600 1.6190 5.9020 2.1580 7.6400 1.0880 9.0900 10.6840 101.2700 216.1240 212.4910 219.7570 3.2190 124.7110 498.6910 1192.3800 992.9040
  183.700 1.7330 6.0260 2.1480 7.6200 1.1410 9.4970 10.9550 98.1770 217.8240 209.5330 226.1150 0.4350 126.0280 499.7860 1191.2000 991.2850
  183.800 1.6570 6.0260 2.1070 7.6600 1.1630 9.9490 11.0850 97.4690 217.8240 210.1240 225.5230 2.7910 122.6670 503.1280 1192.5300 991.2820
  183.900 1.7700 5.7150 2.1070 8.0400 1.1600 10.1630 11.0630 96.5850 217.2570 209.5330 224.9820 0.4880 122.9850 503.1520 1194.0000 992.7390
  184.000 1.7700 5.5850 2.0770 8.3200 1.1390 10.3550 11.0420 98.2650 217.2570 209.5330 224.9820 1.9880 122.8940 502.2070 1195.4700 994.5840
