~Version information
  VERS.                           2.00 : CWLS log ASCII Standard -Version 2.00
  WRAP.                             NO : One line per depth step
~Well information
#MNEM.UNIT              Data Type        Information
#----------------------------------------------------------------------
  STRT.M                         0.700 : 
  STOP.M                       819.000 : 
  STEP.M                         0.100 : 
  NULL.                      -999.2500 : 
  COMP.                           CIOC : Company Name
  WELL.                            303 : Well Name
  FLD .                       KARATUBE : Field Name
  CTRY.                     KAZAKHSTAN : Country
  SRVC.         JSC"KAZPROMGEOPHYSICA" : Service company
  DATE.                      30.05.04. : Log date
~Curve information
#MNEM.UNIT                               Curve Description
#----------------------------------------------------------------------
  DEPT.M                               : Depth Curve
  MLL .OHMM                            : Microlaterolog sonde
  LL3 .OHMM                            : Appar.resist.laterolog,3 electrodes
  RHOB.G/C3                            : Bulk density by gamma-gamma log
  GR  .UR/H                            : Gamma-ray log
  NGL .UE                              : Neutron-gamma log
  GZ3 .OHMM                            : App.resistivity by lateral A2.0M0.5N
  GZ3B.OHMM                            : App.resistivity by lateral N0.5M2.0A
  SP  .MV                              : Spontaneous potential
  CALI.MM                              : Caliper
  C1  .MM                              : Diameter from profile1
  C2  .MM                              : Diameter from profile2
  CILR.MMHO                            : Conduct. by sonde 7I1.6,react.signal
  CILA.MMHO                            : Conduct. by sonde 7I1.6,active signal
  DTP .US/M                            : Interval travel time (P-wave)
  T1  .US                              : Travel time1
  T2  .US                              : Travel time2
~Parameter information
#MNEM.UNIT              Value            Description
#----------------------------------------------------------------------
#----------------------------------------------------------------------
  DFV .SEK                       40.00 : Viscosity
  TDL .M                        816.00 : Total Depth-Logger
  BS  .MM                       215.90 : Bit Size
  DFD .G/C3                       1.12 : Drilling Fluid Density
~Ascii Log Data
# ...
  543.500 1.4680 1.8970 2.1810 9.2200 1.2770 1.9750 2.4570 64.7660 215.5580 211.3080 219.8080 95.2730 280.9490 425.1910 1033.1300 863.0570
  543.600 1.5440 1.9680 2.1790 9.4800 1.3040 1.8630 2.5330 68.0380 216.1240 208.3490 223.8990 94.6040 282.2210 428.0870 1031.6899 860.4540
  543.700 1.6190 2.0510 2.1120 9.4800 1.3360 1.8400 2.6310 71.3950 215.5580 209.5330 221.5830 95.8890 292.8030 437.3570 1030.6200 855.6800
  543.800 1.5810 2.1180 1.9930 9.1600 1.2930 1.8060 2.7820 73.1630 222.3550 219.0000 225.7100 93.3720 278.3600 446.7260 1027.6899 848.9980
  543.900 1.6190 2.1730 1.7470 8.6800 1.1680 1.8630 2.9550 73.5170 216.1240 211.3080 220.9410 89.4900 276.7250 464.0930 1025.4700 839.8300
  544.000 1.6950 2.1680 1.5790 8.6000 1.0670 1.9980 3.2800 76.3440 217.2570 209.5330 224.9820 88.6860 269.0490 471.8610 1015.3300 826.5860
  544.100 1.6570 2.2960 1.6100 8.1800 1.0400 2.0660 3.5290 73.6040 217.8240 212.4910 223.1560 90.8280 262.2370 455.3520 993.0000 810.8590
  544.200 1.6950 2.5290 1.8370 7.7800 1.0610 2.2130 3.8100 75.1070 216.6910 208.3490 225.0320 86.3840 255.0150 434.6560 967.4270 793.5650
  544.300 1.9590 2.4150 2.1780 7.0400 1.0670 2.4840 4.0050 71.9250 217.8240 208.9410 226.7060 86.6510 247.7480 403.9550 938.8830 777.3020
  544.400 1.8460 2.2280 2.2080 7.1400 1.0480 2.7100 3.9840 72.7200 217.2570 208.3490 226.1650 81.1090 247.2030 400.4970 920.6320 760.4330
  544.500 1.5440 2.1680 2.2030 7.6600 1.0930 2.8680 3.6810 71.0420 215.5580 211.3080 219.8080 79.6630 248.1120 396.3970 907.3710 748.8120
  544.600 1.6950 2.1090 2.2250 8.5000 1.1600 2.9920 3.2260 72.8100 214.9910 211.8990 218.0830 76.6640 240.1180 405.4010 908.1140 745.9530
  544.700 1.6190 2.0280 2.1570 8.8000 1.2670 2.9580 2.8250 73.4280 214.4250 208.9410 219.9090 74.4690 239.2100 407.6270 915.0110 751.9600
  544.800 1.6570 1.9320 2.1590 9.0200 1.2930 2.7660 2.4790 73.0750 216.1240 207.7570 224.4910 75.5130 242.2530 407.9530 924.5130 761.3310
  544.900 1.5810 1.8790 2.1950 9.0200 1.3360 2.5970 2.1760 65.1180 213.8580 207.7570 219.9590 77.0390 249.8380 408.6150 934.4060 770.9600
  545.000 1.5440 1.8840 2.1270 9.2400 1.3680 2.3930 1.9490 62.8230 216.1240 208.9410 223.3080 78.2440 255.9690 409.0000 943.6810 780.0800
  545.100 1.5440 1.8880 2.2080 8.9000 1.3520 2.2350 1.8290 62.9130 221.2220 212.4910 229.9530 79.6630 263.6450 408.8890 951.9620 788.4070
  545.200 1.5810 1.8970 2.2790 8.6400 1.2990 2.1670 1.7540 69.5400 217.8240 208.9410 226.7060 80.2790 272.2740 407.3630 956.8450 793.9010
  545.300 1.6190 1.9450 2.2470 8.2600 1.2400 2.0880 1.7320 72.1030 217.2570 208.3490 226.1650 80.0650 277.9510 404.2500 957.8480 796.1480
  545.400 1.5060 2.0840 2.2570 8.3200 1.2800 2.0550 1.7540 71.8370 216.1240 208.3490 223.8990 79.9840 268.6410 400.8190 955.3980 795.0710
  545.500 1.8080 2.1280 2.2600 8.2800 1.3230 2.0660 1.7970 69.3630 215.5580 208.9410 222.1750 75.8610 272.0920 398.2540 952.3690 793.0680
  545.600 1.7700 2.1630 2.3380 8.6000 1.3310 2.0210 1.8620 69.3620 216.6910 209.5330 223.8490 79.9580 263.7810 393.6650 950.3820 792.9160
  545.700 1.7700 2.2490 2.3890 8.7800 1.3040 2.0430 1.9700 69.8930 218.9560 212.4910 225.4220 79.1810 262.1910 383.1540 950.1610 796.8990
  545.800 1.8840 2.3280 2.3400 9.1400 1.2930 2.0770 2.0890 72.8970 216.6910 209.5330 223.8490 80.6810 252.2450 359.4280 950.8290 807.0590
  545.900 1.8460 2.4830 2.6020 9.5400 1.3680 2.1000 2.2730 72.5440 219.5230 209.5330 229.5130 81.6980 251.5180 324.2380 952.1760 822.4820
  546.000 1.8460 3.1770 2.6270 9.4600 1.4530 2.2690 2.5330 72.6330 218.3900 210.7160 226.0640 80.4400 246.3400 279.6990 954.8120 842.9320
  546.100 2.1860 5.1520 2.5610 8.6800 1.5150 2.3710 2.8900 74.6670 218.9560 212.4910 225.4220 80.9480 242.8890 244.2620 961.6670 863.9620
  546.200 6.9490 8.8310 2.6590 7.4000 1.5630 2.6190 3.2800 74.4000 218.9560 210.1240 227.7890 79.5830 224.4940 227.9270 973.9510 882.7790
  546.300 12.3170 9.6600 2.6160 6.3800 1.5630 3.1050 3.6590 71.5740 225.1870 213.6750 236.7000 76.6640 217.5450 241.9190 991.8250 895.0570
  546.400 10.8430 6.2090 2.4140 6.2200 1.5070 3.4770 3.8650 67.9480 232.5510 219.5920 245.5110 77.9760 205.6460 281.0980 1012.9400 900.4990
  546.500 10.9940 3.1700 2.2230 6.6200 1.3550 4.0530 3.9730 70.4220 228.5860 216.6330 240.5390 79.3150 200.6500 335.7650 1034.8700 900.5600
  546.600 4.7950 2.1980 2.0550 7.8200 1.2510 4.5500 3.8860 75.1090 220.6560 209.5330 231.7790 80.4930 199.9230 392.2830 1054.3300 897.4120
  546.700 1.8840 1.9010 1.9780 8.7400 1.1630 4.7420 3.5830 78.7320 219.5230 213.0830 225.9630 84.4830 206.3720 437.0150 1066.8800 892.0690
  546.800 1.6190 1.8110 1.9730 9.2200 1.1010 4.7870 3.2690 76.2580 218.3900 213.0830 223.6970 89.0610 217.8180 467.3900 1071.9700 885.0130
  546.900 1.5060 1.7300 2.0570 9.3000 1.0770 4.6410 3.0090 74.9300 220.0890 213.0830 227.0960 95.5940 227.7190 482.5890 1071.2200 878.1830
  547.000 1.2790 1.6710 2.0950 9.8800 1.0960 4.3130 2.7170 73.2510 218.3900 210.7160 226.0640 100.0120 237.8470 485.3100 1067.8700 873.7450
  547.100 1.3170 1.6480 2.0490 10.0400 1.1570 3.7150 2.4900 74.4880 217.2570 207.7570 226.7570 106.7870 248.9750 475.4160 1062.3000 872.1300
  547.200 1.2030 1.6870 2.0970 10.2600 1.1790 3.3310 2.3820 75.0190 216.6910 207.7570 225.6240 115.8900 255.1510 457.8410 1054.7800 871.6480
  547.300 1.3170 1.8030 2.1040 10.2600 1.2690 3.0140 2.2520 76.1670 217.2570 209.5330 224.9820 121.2180 258.1490 439.7160 1046.9100 871.0220
  547.400 1.3170 1.8200 2.1000 10.6600 1.3360 2.6640 2.1540 74.9300 216.1240 207.7570 224.4910 128.9570 262.7820 428.6140 1041.4200 869.9750
  547.500 1.6190 1.7100 2.0720 10.6600 1.3680 2.4160 2.0240 69.8060 215.5580 208.3490 222.7660 129.6800 266.4150 424.5860 1038.8900 869.0570
  547.600 1.3920 1.6370 2.0520 10.3400 1.3440 2.2350 1.9050 62.4670 218.9560 208.9410 228.9720 133.2410 280.9030 424.5400 1038.2200 868.4020
  547.700 1.4300 1.5850 2.0920 10.4200 1.3470 2.0660 1.7650 62.6450 217.2570 208.3490 226.1650 134.3650 277.1790 424.6510 1037.9100 868.0510
  547.800 1.3920 1.5560 2.0460 10.3800 1.3870 1.9080 1.6560 65.5600 218.9560 208.3490 229.5640 136.8020 279.3590 425.1200 1037.9600 867.9090
  547.900 1.3170 1.5450 2.0750 10.3200 1.4030 1.6930 1.5590 70.3350 218.3900 210.1240 226.6560 140.8980 281.1760 427.6230 1038.6300 867.5770
  548.000 1.3550 1.5420 2.1030 9.7400 1.3440 1.6030 1.4940 69.8040 217.8240 209.5330 226.1150 150.1890 281.0400 430.3550 1039.9100 867.7690
  548.100 1.3920 1.5280 2.1760 9.2800 1.3280 1.4670 1.4510 68.0360 216.6910 206.5740 226.8070 149.4130 285.1270 432.3700 1041.0200 868.0720
  548.200 1.3170 1.5350 2.0750 8.8400 1.3040 1.4790 1.4400 65.7380 215.5580 208.9410 222.1750 155.9730 288.4880 433.9090 1041.4700 867.9070
  548.300 1.3550 1.5350 2.0270 8.5800 1.3070 1.4330 1.4720 64.7660 217.8240 208.3490 227.2980 152.7600 292.4400 435.2750 1041.0900 866.9810
  548.400 1.3550 1.5240 2.0790 8.6200 1.2640 1.4670 1.4720 65.2970 216.6910 207.7570 225.6240 154.2060 298.2080 435.8000 1040.5400 866.2220
  548.500 1.3550 1.5280 2.1090 8.7200 1.2930 1.5240 1.4830 64.3250 218.3900 206.5740 230.2060 152.0370 290.7140 434.0180 1040.3101 866.7060
  548.600 1.3170 1.5200 2.1340 8.9000 1.3390 1.6250 1.5050 65.0320 217.8240 208.9410 226.7060 151.3410 288.2160 431.1060 1040.5601 868.1220
  548.700 1.4300 1.5240 2.1090 8.9400 1.3440 1.7950 1.5370 65.4740 214.9910 208.9410 221.0420 153.4290 285.9900 428.5020 1041.1801 869.7780
  548.800 1.3920 1.5240 2.0490 8.9200 1.3120 1.8630 1.5700 66.7110 216.1240 210.1240 222.1240 156.6420 284.0370 426.6080 1041.5900 870.9440
  548.900 1.3550 1.5170 2.0330 8.7800 1.3010 2.0320 1.5910 63.0860 216.1240 208.9410 223.3080 157.1240 285.6720 425.3160 1041.2800 871.1490
  549.000 1.3920 1.5170 2.0530 8.6800 1.3250 2.0660 1.6020 62.9100 216.6910 207.1660 226.2160 158.0080 286.3540 424.2270 1040.9900 871.3040
  549.100 1.3550 1.5030 2.0220 8.5800 1.3760 2.0770 1.6130 64.8560 216.6910 209.5330 223.8490 156.3480 293.1210 423.6980 1041.1000 871.6180
  549.200 1.3170 1.4930 2.0550 8.6200 1.3890 2.0430 1.6350 69.0970 217.2570 209.5330 224.9820 155.2230 290.9860 422.5000 1042.0200 873.0200
