~Version information
  VERS.                           2.00 : CWLS log ASCII Standard -Version 2.00
  WRAP.                             NO : One line per depth step
~Well information
#MNEM.UNIT              Data Type        Information
#----------------------------------------------------------------------
  STRT.M                         0.700 : 
  STOP.M                       819.000 : 
  STEP.M                         0.100 : 
  NULL.                      -999.2500 : 
  COMP.                           CIOC : Company Name
  WELL.                            303 : Well Name
  FLD .                       KARATUBE : Field Name
  CTRY.                     KAZAKHSTAN : Country
  SRVC.         JSC"KAZPROMGEOPHYSICA" : Service company
  DATE.                      30.05.04. : Log date
~Curve information
#MNEM.UNIT                               Curve Description
#----------------------------------------------------------------------
  DEPT.M                               : Depth Curve
  MLL .OHMM                            : Microlaterolog sonde
  LL3 .OHMM                            : Appar.resist.laterolog,3 electrodes
  RHOB.G/C3                            : Bulk density by gamma-gamma log
  GR  .UR/H                            : Gamma-ray log
  NGL .UE                              : Neutron-gamma log
  GZ3 .OHMM                            : App.resistivity by lateral A2.0M0.5N
  GZ3B.OHMM                            : App.resistivity by lateral N0.5M2.0A
  SP  .MV                              : Spontaneous potential
  CALI.MM                              : Caliper
  C1  .MM                              : Diameter from profile1
  C2  .MM                              : Diameter from profile2
  CILR.MMHO                            : Conduct. by sonde 7I1.6,react.signal
  CILA.MMHO                            : Conduct. by sonde 7I1.6,active signal
  DTP .US/M                            : Interval travel time (P-wave)
  T1  .US                              : Travel time1
  T2  .US                              : Travel time2
~Parameter information
#MNEM.UNIT              Value            Description
#----------------------------------------------------------------------
#----------------------------------------------------------------------
  DFV .SEK                       40.00 : Viscosity
  TDL .M                        816.00 : Total Depth-Logger
  BS  .MM                       215.90 : Bit Size
  DFD .G/C3                       1.12 : Drilling Fluid Density
~Ascii Log Data
# ...
  723.000 2.6400 3.4590 2.3090 5.5200 1.4480 3.8730 4.9250 102.3300 239.3490 223.7340 254.9630 46.6490 218.3170 311.2160 842.4740 717.9870
  723.100 2.4510 3.0410 2.2750 5.2400 1.4880 4.0650 5.0120 103.0380 234.8170 223.1420 246.4920 46.8900 216.8640 323.4310 841.9930 712.6200
  723.200 1.6190 2.8640 2.3290 5.0400 1.5170 4.2120 4.9250 102.4190 239.9150 223.1420 256.6880 44.6680 207.8260 327.1020 838.8410 708.0000
  723.300 1.5060 2.8380 2.3400 5.1600 1.5200 4.3700 4.6330 102.1540 236.5160 222.5500 250.4820 43.9180 204.5560 327.7960 838.5360 707.4180
  723.400 1.4680 2.6980 2.3550 5.6200 1.5170 4.3920 4.2540 99.0590 231.9850 220.1830 243.7860 46.4620 202.8300 334.5460 843.6790 709.8610
  723.500 1.6570 2.6360 2.3470 5.9600 1.4430 4.2790 3.8970 96.3210 228.5860 217.8170 239.3560 47.8540 206.0550 335.9640 848.6780 714.2930
  723.600 1.5440 2.5760 2.4080 6.3800 1.4080 4.0530 3.6050 95.1710 231.4180 219.5920 243.2450 48.6840 211.1410 339.8510 854.0480 718.1080
  723.700 1.3550 2.5820 2.3310 6.4000 1.4290 3.8610 3.4100 95.4360 229.7190 220.1830 239.2540 49.9420 222.0420 340.3220 857.8660 721.7370
  723.800 1.3550 2.5880 2.3350 6.3400 1.4450 3.7710 3.3020 97.4690 238.2160 221.3670 255.0650 49.2190 221.0880 341.2240 861.4680 724.9780
  723.900 1.4300 2.6180 2.3440 6.1400 1.4430 3.6580 3.2580 98.8840 242.7470 223.1420 262.3530 47.7200 223.3590 343.5370 864.3320 726.9180
  724.000 1.4300 2.6420 2.3890 5.9800 1.3870 3.5450 3.2150 100.9160 226.8870 215.4500 238.3240 49.3530 220.5880 340.3670 863.9980 727.8510
  724.100 1.4300 2.7420 2.3800 5.5600 1.3410 3.4890 3.2260 96.3190 229.7190 219.0000 240.4380 49.5940 226.5380 337.4950 862.9970 727.9990
  724.200 1.3170 2.7860 2.3650 5.1800 1.3390 3.4660 3.2800 89.3380 225.7540 216.6330 234.8740 53.6640 222.8590 331.8480 861.9970 729.2580
  724.300 1.3550 2.9920 2.3130 5.2600 1.3410 3.4890 3.3770 85.2720 230.2850 219.0000 241.5710 54.9760 228.4460 328.0500 863.2200 732.0000
  724.400 1.5440 3.1050 2.3750 5.4800 1.3710 3.5340 3.4970 90.0460 238.7820 225.5090 252.0550 57.3320 231.1250 327.7730 867.3290 736.2210
  724.500 1.7700 3.0620 2.3960 5.7200 1.3950 3.6580 3.6160 97.1140 242.7470 226.1010 259.3940 56.3680 228.6730 329.9710 873.4210 741.4320
  724.600 1.9220 2.9380 2.3780 5.6200 1.4000 3.7940 3.6810 101.5350 236.5160 221.9590 251.0740 56.3150 224.7670 319.0570 875.2860 747.6640
  724.700 1.5810 2.6420 2.4430 5.6400 1.3790 3.9180 3.7240 102.4190 238.7820 223.1420 254.4220 57.0910 222.4050 302.3150 875.2650 754.3390
  724.800 1.3170 2.5940 2.4820 5.5600 1.3630 4.0760 3.7020 102.4190 230.2850 220.7750 239.7960 60.2780 219.3620 274.7750 873.7310 763.8210
  724.900 1.2030 2.6610 2.4540 5.2800 1.4320 4.0650 3.6590 101.8000 219.5230 214.8580 224.1880 61.0010 221.4060 265.6940 881.0840 774.8060
  725.000 1.2790 2.9720 2.4050 5.1800 1.5470 3.9970 3.6260 101.6230 230.8520 223.1420 238.5620 62.5270 224.7670 258.3570 890.9780 787.6350
  725.100 1.3550 3.7930 2.3080 5.4400 1.5840 3.9520 3.6700 101.0050 250.1110 233.7930 266.4290 64.5080 232.7150 269.3290 904.1380 796.4070
  725.200 1.7700 4.1110 2.3560 6.0400 1.5550 3.9740 3.8210 100.9160 251.8100 235.5680 268.0530 65.9270 224.7210 286.3130 914.7660 800.2400
  725.300 3.3200 3.2430 2.3470 6.6200 1.4640 4.2000 4.0920 99.4140 256.3420 238.5270 274.1570 61.8570 227.9910 317.5020 925.4070 798.4060
  725.400 2.4130 2.3550 2.3760 6.9200 1.4110 4.6070 4.2540 99.0600 242.7470 227.2840 258.2110 66.9180 220.9970 349.1280 933.6700 794.0190
  725.500 1.0900 1.9910 2.3970 6.8200 1.3710 5.0130 4.2760 99.2370 250.1110 234.9760 265.2460 62.9820 225.8110 373.2580 938.1160 788.8130
  725.600 1.0900 1.9320 2.3780 6.8000 1.3410 5.2390 4.0270 99.3250 243.8800 229.0590 258.7010 69.1400 225.1760 389.8130 938.6280 782.7030
  725.700 0.9010 1.9230 2.3520 7.0600 1.3570 5.1150 3.7560 98.5300 224.6210 220.1830 229.0580 69.0330 235.9850 390.1280 932.9940 776.9420
  725.800 0.9770 1.8580 2.3240 7.3200 1.3010 4.7200 3.4640 96.2320 230.8520 223.7340 237.9700 74.7360 249.9740 383.2720 924.4500 771.1410
  725.900 0.9010 1.8840 2.3380 7.1600 1.2560 4.2000 3.2370 94.9940 241.0480 226.1010 255.9950 76.7980 257.9220 367.4580 913.7350 766.7510
  726.000 1.0520 2.0510 2.2930 6.7200 1.1950 3.6810 2.9550 92.1670 233.6840 221.9590 245.4100 78.9400 266.4610 354.8460 906.1230 764.1850
  726.100 0.9770 2.1880 2.3520 6.5400 1.2000 3.3530 2.8580 92.6970 224.0540 217.2250 230.8840 81.6440 269.7310 343.2210 900.9610 763.6720
  726.200 1.2030 2.1980 2.3480 6.6000 1.2480 3.1840 2.8900 94.0220 229.7190 221.9590 237.4790 84.3220 269.5490 335.8930 899.0350 764.6780
  726.300 1.1660 2.2130 2.2750 6.5200 1.3090 3.0710 2.9120 96.8500 230.2850 219.0000 241.5710 84.8040 268.6860 340.6830 902.4430 766.1700
  726.400 1.1280 2.1930 2.2960 6.6000 1.3250 2.9810 2.8580 98.7950 231.9850 223.1420 240.8270 82.3940 265.7790 351.3790 906.0710 765.5190
  726.500 1.2410 2.1580 2.2700 6.4400 1.2800 2.9240 2.8690 99.7670 229.1530 224.3250 233.9800 80.1450 268.4140 366.7960 909.7010 762.9820
  726.600 1.2030 2.0090 2.3410 6.3800 1.2370 2.9350 2.9230 99.4130 224.6210 221.9590 227.2830 76.2630 256.0600 374.2280 906.5900 756.8990
  726.700 1.0140 1.8530 2.3150 6.3800 1.2320 2.9810 2.9550 95.3480 232.5510 223.7340 241.3690 71.6040 258.1940 384.6760 905.2570 751.3870
  726.800 0.8630 1.8840 2.2820 6.8600 1.2610 2.9470 2.9010 93.0500 224.6210 216.6330 232.6090 72.9420 254.4700 398.3990 905.9250 746.5650
  726.900 0.8630 1.9590 2.3430 7.4400 1.2450 2.9130 2.8470 92.2550 228.0200 217.2250 238.8140 71.6840 258.6940 414.8860 908.8860 742.9310
  727.000 1.0520 1.9630 2.3010 7.7200 1.2240 2.8900 2.8250 95.8780 228.5860 218.4080 238.7640 75.6470 258.4670 421.7680 909.4460 740.7400
  727.100 1.0900 1.9230 2.2880 7.7000 1.2080 2.8900 2.9010 97.2930 233.1180 221.9590 244.2770 75.1650 267.2780 416.6880 906.4520 739.7770
  727.200 0.9770 1.9360 2.4150 7.8000 1.2290 2.8450 2.9010 99.1490 226.8870 219.0000 234.7730 75.6740 274.4090 407.3330 902.8210 739.8880
  727.300 1.0520 1.9860 2.4280 7.9200 1.2450 2.7890 2.9440 98.3530 228.5860 220.7750 236.3970 72.8890 272.3190 400.0950 899.1040 739.0650
  727.400 1.0900 2.0180 2.4430 8.0800 1.2450 2.8220 3.0740 97.9990 237.0830 222.5500 251.6150 71.2290 267.8680 392.6770 895.0180 737.9480
  727.500 0.9770 2.1140 2.4250 8.0000 1.2610 2.8790 3.2580 96.2320 220.6560 216.6330 224.6780 71.4430 265.7790 378.7800 890.1190 738.6070
  727.600 1.0520 2.1280 2.3790 7.8400 1.3010 2.9350 3.4420 96.2320 228.0200 217.8170 238.2230 72.1120 262.1910 354.9240 883.1910 741.2220
  727.700 1.2410 2.3170 2.4980 7.6800 1.3410 3.0140 3.6260 96.1430 250.1110 227.8760 272.3460 72.8890 259.8750 331.6240 876.5600 743.9100
  727.800 1.1660 2.8380 2.4590 7.7800 1.4000 3.1500 3.8100 97.9110 245.0130 227.2840 262.7420 70.0510 256.3780 316.0240 872.2870 745.8770
  727.900 1.7330 2.7860 2.3940 7.6200 1.4400 3.3190 4.1350 99.4140 239.9150 224.9170 254.9130 68.6320 257.3320 315.2450 872.6080 746.5100
  728.000 2.0730 2.5290 2.3990 7.3600 1.5230 3.4890 4.3730 101.0930 237.6490 221.9590 253.3400 65.1510 240.7540 323.2100 876.5170 747.2330
  728.100 1.3920 2.7230 2.3360 6.6400 1.5250 3.5570 4.4490 101.8000 238.7820 224.9170 252.6470 59.3400 239.4370 332.6430 881.0490 747.9920
  728.200 1.3920 2.8770 2.2670 6.4400 1.5120 3.5450 4.4600 102.1540 255.2090 230.8340 279.5840 61.2950 227.5830 339.7260 885.2860 749.3950
  728.300 1.4300 2.7230 2.2410 6.4000 1.4770 3.6130 4.4380 101.9770 266.5380 238.5270 294.5500 57.8680 226.4020 343.6900 887.8350 750.3590
  728.400 1.3170 2.6060 2.3080 6.2800 1.4130 3.5900 4.3300 101.8890 243.3140 224.9170 261.7100 61.8040 222.1330 346.5970 888.4190 749.7800
  728.500 1.3550 2.3880 2.3330 6.0800 1.3710 3.3760 4.1680 101.4470 263.1390 232.6090 293.6690 59.8760 227.6280 347.7100 886.1130 747.0290
  728.600 1.2410 2.3230 2.3730 6.1400 1.3390 3.1840 4.0490 101.6230 261.4400 230.2430 292.6380 59.6620 232.3060 347.7870 882.2830 743.1690
  728.700 1.1660 2.3390 2.3120 6.2400 1.3310 3.1160 3.9510 101.2700 238.7820 221.9590 255.6060 59.5010 232.2150 346.9880 878.7370 739.9420
