~Version information
  VERS.                           2.00 : CWLS log ASCII Standard -Version 2.00
  WRAP.                             NO : One line per depth step
~Well information
#MNEM.UNIT              Data Type        Information
#----------------------------------------------------------------------
  STRT.M                         0.700 : 
  STOP.M                       819.000 : 
  STEP.M                         0.100 : 
  NULL.                      -999.2500 : 
  COMP.                           CIOC : Company Name
  WELL.                            303 : Well Name
  FLD .                       KARATUBE : Field Name
  CTRY.                     KAZAKHSTAN : Country
  SRVC.         JSC"KAZPROMGEOPHYSICA" : Service company
  DATE.                      30.05.04. : Log date
~Curve information
#MNEM.UNIT                               Curve Description
#----------------------------------------------------------------------
  DEPT.M                               : Depth Curve
  MLL .OHMM                            : Microlaterolog sonde
  LL3 .OHMM                            : Appar.resist.laterolog,3 electrodes
  RHOB.G/C3                            : Bulk density by gamma-gamma log
  GR  .UR/H                            : Gamma-ray log
  NGL .UE                              : Neutron-gamma log
  GZ3 .OHMM                            : App.resistivity by lateral A2.0M0.5N
  GZ3B.OHMM                            : App.resistivity by lateral N0.5M2.0A
  SP  .MV                              : Spontaneous potential
  CALI.MM                              : Caliper
  C1  .MM                              : Diameter from profile1
  C2  .MM                              : Diameter from profile2
  CILR.MMHO                            : Conduct. by sonde 7I1.6,react.signal
  CILA.MMHO                            : Conduct. by sonde 7I1.6,active signal
  DTP .US/M                            : Interval travel time (P-wave)
  T1  .US                              : Travel time1
  T2  .US                              : Travel time2
~Parameter information
#MNEM.UNIT              Value            Description
#----------------------------------------------------------------------
#----------------------------------------------------------------------
  DFV .SEK                       40.00 : Viscosity
  TDL .M                        816.00 : Total Depth-Logger
  BS  .MM                       215.90 : Bit Size
  DFD .G/C3                       1.12 : Drilling Fluid Density
~Ascii Log Data
# ...
  769.400 1.6950 2.1630 2.3040 6.2600 1.5360 2.4950 4.4920 93.8450 218.3900 211.8990 224.8810 64.1070 252.5630 330.0160 732.3900 600.3830
  769.500 1.6570 2.0990 2.3250 6.3200 1.5200 2.4950 4.6330 93.3150 217.2570 213.0830 221.4310 62.5540 250.3830 317.6770 721.9630 594.8910
  769.600 1.5060 2.1230 2.3190 6.4000 1.4640 2.4840 4.7410 93.8460 218.9560 214.2660 223.6470 60.2780 256.7410 305.9890 711.5420 589.1460
  769.700 1.7330 2.1180 2.3010 6.3400 1.3790 2.4610 4.7960 94.7300 219.5230 215.4500 223.5960 57.5470 257.7860 296.1030 701.1210 582.6800
  769.800 1.6950 2.1230 2.3610 6.1200 1.3810 2.4610 4.8170 94.5530 220.6560 215.4500 225.8620 53.2890 254.7880 303.6230 690.6940 569.2450
  769.900 1.6190 2.1180 2.3950 5.9200 1.4530 2.3710 4.8060 94.4640 222.3550 218.4080 226.3020 49.9960 250.7910 316.0900 690.3500 563.9150
  770.000 1.6950 2.1280 2.3650 5.8600 1.4960 2.2920 4.7410 93.2270 219.5230 216.6330 222.4130 48.7640 250.5640 315.8520 694.2470 567.9070
  770.100 1.6190 2.2390 2.3640 5.8200 1.5010 2.2240 4.6870 92.8730 220.6560 216.6330 224.6780 48.1750 245.2050 302.7140 704.8190 583.7330
  770.200 1.6950 2.4950 2.3720 5.7400 1.5330 2.1340 4.6440 93.4040 220.6560 216.0410 225.2700 45.3370 247.1120 281.6850 713.7190 601.0460
  770.300 1.6570 3.1480 2.3090 5.6000 1.5870 2.1220 4.5900 94.2870 220.0890 214.2660 225.9120 45.4710 245.7040 287.9270 727.6000 612.4290
  770.400 1.9970 4.0740 2.2750 5.2800 1.6130 2.2010 4.6010 95.2590 221.7890 215.4500 228.1280 40.6780 236.3480 306.0880 744.3450 621.9090
  770.500 3.1310 4.9770 2.4030 5.0600 1.6190 2.3930 4.9360 95.7890 220.0890 214.2660 225.9120 37.7060 219.7250 324.7550 759.5530 629.6510
  770.600 2.9420 5.1760 2.4680 4.6600 1.6590 2.6760 5.1960 96.7620 220.0890 215.4500 224.7290 33.8240 202.3300 321.4470 770.8830 642.3050
  770.700 3.5850 5.0580 2.5580 4.8400 1.6960 2.9920 5.5210 96.1430 221.2220 216.0410 226.4030 32.9400 180.2120 311.2670 779.4650 654.9580
  770.800 3.3580 5.0580 2.5320 4.9000 1.6690 3.3530 5.6720 93.6700 220.6560 214.2660 227.0450 29.7540 164.5420 305.5030 789.8210 667.6200
  770.900 3.0930 5.1520 2.4310 5.2000 1.6670 3.6240 5.6070 92.6970 221.2220 216.6330 225.8110 28.8430 156.0950 292.0800 800.2920 683.4600
  771.000 3.0560 5.0820 2.4960 5.1600 1.7070 3.8280 5.4880 92.7850 220.0890 217.2250 222.9540 28.8430 151.2800 280.9460 810.8800 698.5010
  771.100 3.0560 4.9200 2.4160 5.1800 1.7550 3.9400 5.2500 94.9950 218.3900 216.0410 220.7390 29.8070 148.1470 266.5720 819.8930 713.2640
  771.200 2.7530 5.2480 2.4780 5.0400 1.7470 3.9970 5.1530 96.4090 218.9560 214.2660 223.6470 30.8780 149.1910 260.0010 828.3900 724.3890
  771.300 3.3200 5.0000 2.4950 4.9400 1.7230 4.0990 5.0340 95.6140 219.5230 216.0410 223.0040 35.9390 153.5970 256.3850 838.3750 735.8200
  771.400 2.8290 5.2720 2.3820 5.1400 1.7470 4.2000 5.0230 94.7290 219.5230 214.8580 224.1880 38.0270 154.5050 241.2630 845.5380 749.0320
  771.500 2.9040 6.2660 2.3390 5.7200 1.7920 4.3240 5.0230 93.8450 220.0890 213.6750 226.5040 39.3390 162.4530 234.6440 855.4990 761.6410
  771.600 4.4170 8.6300 2.4840 6.3200 1.8430 4.4600 5.0340 94.3760 220.0890 215.4500 224.7290 43.6500 167.5400 223.6470 864.6050 775.1460
  771.700 4.5300 10.0230 2.3260 7.0400 1.9330 4.6630 5.0770 94.4640 219.5230 216.6330 222.4130 44.9350 172.4910 226.5890 876.7430 786.1070
  771.800 6.4200 10.3040 2.1410 8.2000 2.0000 4.9790 5.1530 94.9940 222.3550 217.8170 226.8940 48.3890 169.9020 236.7680 887.4430 792.7360
  771.900 11.2590 7.9250 2.1060 9.6200 2.0320 5.3750 5.1740 96.3200 230.8520 227.8760 233.8280 48.1480 173.0810 256.5720 896.7870 794.1590
  772.000 6.4960 5.6620 2.0450 11.3400 1.9390 5.7930 5.1200 96.7620 231.4180 237.9350 224.9020 53.7980 172.9900 289.8480 904.8940 788.9550
  772.100 3.3580 4.4160 2.0580 12.2600 1.7810 6.2330 4.9800 95.2590 242.1810 240.8930 243.4680 54.3870 175.1250 323.7510 912.0190 782.5190
  772.200 3.9630 2.6240 2.2420 12.3600 1.6030 6.5830 4.8060 93.6690 246.7120 254.5030 238.9220 56.3950 181.0290 358.6310 917.1730 773.7210
  772.300 3.8870 1.8750 2.3250 11.2600 1.4590 6.7980 4.3840 91.9020 240.4810 253.9110 227.0520 58.4300 192.9290 376.1600 918.7740 768.3100
  772.400 1.5060 1.6140 2.2060 10.1600 1.3790 6.7190 3.9190 90.4870 230.8520 243.8520 217.8520 63.8660 204.4650 380.4350 916.7240 764.5500
  772.500 1.0520 1.5810 2.2010 9.2800 1.3870 6.3350 3.4210 91.4580 234.8170 243.2600 226.3740 67.2660 220.7250 373.1140 912.5560 763.3110
  772.600 1.1280 1.5600 2.2100 8.8000 1.3970 5.7020 2.9550 93.5810 234.8170 245.6270 224.0070 78.2710 237.3480 367.8610 907.8730 760.7290
  772.700 0.9770 1.6900 2.2490 8.1600 1.3920 4.9680 2.5760 93.8450 230.8520 245.0360 216.6680 85.0180 259.1480 365.3330 903.9600 757.8270
  772.800 0.8630 1.7820 2.2560 7.9400 1.3310 4.1890 2.3490 89.0740 229.1530 235.5680 222.7370 95.0590 274.9990 365.7100 900.0950 753.8100
  772.900 1.2410 1.7380 2.2950 7.9400 1.2880 3.6690 2.2620 87.6580 232.5510 237.9350 227.1670 94.4430 281.6300 365.9210 897.6020 751.2340
  773.000 1.2030 1.6560 2.3450 8.2000 1.2930 3.4770 2.3060 89.3360 239.3490 236.7510 241.9460 95.6750 296.5730 369.2450 896.2560 748.5580
  773.100 1.1660 1.7140 2.3320 8.4200 1.3360 3.4320 2.2840 94.3760 228.0200 233.7930 222.2460 93.6130 286.4440 373.5360 896.1450 746.7300
  773.200 1.0900 1.7260 2.3130 8.5600 1.3730 3.4440 2.3270 95.4360 222.3550 220.1830 224.5270 89.1420 284.3550 379.1790 894.8490 743.1770
  773.300 1.1660 1.7460 2.3200 8.7800 1.4240 3.5000 2.3380 95.1710 234.2510 230.2430 238.2580 94.1490 277.3610 381.2840 892.2180 739.7040
  773.400 1.0900 1.8280 2.2510 8.7800 1.4590 3.4100 2.3600 94.7290 222.9220 224.3250 221.5180 91.2570 280.1770 391.0940 886.4940 730.0570
  773.500 1.1280 1.8790 2.2120 8.3200 1.4750 3.3190 2.4360 95.4360 221.2220 222.5500 219.8940 92.4350 279.1320 399.4080 879.9650 720.2020
  773.600 1.1660 1.7180 2.3250 7.7400 1.4610 3.3080 2.5660 96.2320 221.7890 219.5920 223.9860 89.6500 283.7190 407.6380 872.7530 709.6980
  773.700 1.3170 1.6750 2.3910 7.4000 1.4240 3.4100 2.6850 96.2320 221.2220 220.1830 222.2610 88.3380 281.1760 393.5980 867.4440 710.0050
  773.800 1.0520 1.7460 2.3320 7.4000 1.3890 3.3980 2.7820 96.0550 218.3900 217.2250 219.5550 83.2240 276.8160 376.0370 862.9330 712.5180
  773.900 1.2410 1.7540 2.3610 7.3400 1.3970 3.4100 2.8360 95.7020 220.6560 217.2250 224.0870 83.9740 271.9560 357.9630 861.3330 718.1490
  774.000 1.1280 1.9010 2.3830 7.1200 1.4480 3.3870 2.8580 97.0270 221.2220 218.4080 224.0360 84.9380 272.7280 349.2290 861.4450 721.7530
  774.100 1.2790 2.2540 2.2900 6.9400 1.5630 3.2850 2.9340 97.4690 218.9560 217.2250 220.6880 89.5700 269.6400 346.3340 864.6670 726.1330
  774.200 1.2410 2.6360 2.2970 6.8800 1.6290 3.2290 3.0740 98.0000 219.5230 215.4500 223.5960 86.9730 271.9110 345.8510 867.7770 729.4360
  774.300 1.7330 2.8710 2.2950 6.6400 1.7040 3.2290 3.2800 96.6740 220.0890 217.2250 222.9540 87.6150 280.0860 335.5480 864.5720 730.3530
  774.400 1.8080 3.1480 2.2930 6.4000 1.7120 3.2970 3.5180 93.8450 220.0890 217.8170 222.3620 82.8230 267.1420 323.6120 859.1150 729.6700
  774.500 2.3750 3.1700 2.2100 6.2000 1.6830 3.4550 3.7780 93.4920 218.9560 216.0410 221.8710 79.2610 256.9230 321.5790 855.3360 726.7040
  774.600 2.5640 2.9040 2.1980 6.1400 1.6190 3.6240 4.0160 94.3770 222.9220 218.4080 227.4350 77.0930 245.3870 337.0990 855.4280 720.5880
  774.700 2.4130 2.6180 2.1930 6.2600 1.5970 3.7490 4.1570 95.9670 220.6560 218.4080 222.9030 76.2630 239.2100 349.8200 852.6680 712.7400
  774.800 2.0350 2.5350 2.1880 6.3600 1.5520 3.8390 4.2000 96.2320 217.8240 216.0410 219.6060 76.1020 235.0310 355.1640 844.7300 702.6650
  774.900 2.0350 2.6120 2.2430 6.4400 1.5280 3.7710 4.1680 94.2870 218.3900 216.6330 220.1470 76.3960 239.0730 353.3270 835.2890 693.9580
  775.000 1.9970 2.5760 2.1920 6.2200 1.5010 3.6470 4.0490 93.2280 217.8240 216.0410 219.6060 76.2090 242.9790 360.5480 826.6170 682.3980
  775.100 2.1110 2.4040 2.1490 5.8600 1.5120 3.4660 3.8650 90.3100 218.3900 214.8580 221.9220 76.3430 244.1600 361.7130 818.1520 673.4670
