~Version information
  VERS.                           2.00 : CWLS log ASCII Standard -Version 2.00
  WRAP.                             NO : One line per depth step
~Well information
#MNEM.UNIT              Data Type        Information
#----------------------------------------------------------------------
  STRT.M                         0.700 : 
  STOP.M                       819.000 : 
  STEP.M                         0.100 : 
  NULL.                      -999.2500 : 
  COMP.                           CIOC : Company Name
  WELL.                            303 : Well Name
  FLD .                       KARATUBE : Field Name
  CTRY.                     KAZAKHSTAN : Country
  SRVC.         JSC"KAZPROMGEOPHYSICA" : Service company
  DATE.                      30.05.04. : Log date
~Curve information
#MNEM.UNIT                               Curve Description
#----------------------------------------------------------------------
  DEPT.M                               : Depth Curve
  MLL .OHMM                            : Microlaterolog sonde
  LL3 .OHMM                            : Appar.resist.laterolog,3 electrodes
  RHOB.G/C3                            : Bulk density by gamma-gamma log
  GR  .UR/H                            : Gamma-ray log
  NGL .UE                              : Neutron-gamma log
  GZ3 .OHMM                            : App.resistivity by lateral A2.0M0.5N
  GZ3B.OHMM                            : App.resistivity by lateral N0.5M2.0A
  SP  .MV                              : Spontaneous potential
  CALI.MM                              : Caliper
  C1  .MM                              : Diameter from profile1
  C2  .MM                              : Diameter from profile2
  CILR.MMHO                            : Conduct. by sonde 7I1.6,react.signal
  CILA.MMHO                            : Conduct. by sonde 7I1.6,active signal
  DTP .US/M                            : Interval travel time (P-wave)
  T1  .US                              : Travel time1
  T2  .US                              : Travel time2
~Parameter information
#MNEM.UNIT              Value            Description
#----------------------------------------------------------------------
#----------------------------------------------------------------------
  DFV .SEK                       40.00 : Viscosity
  TDL .M                        816.00 : Total Depth-Logger
  BS  .MM                       215.90 : Bit Size
  DFD .G/C3                       1.12 : Drilling Fluid Density
~Ascii Log Data
# ...
  224.600 1.1280 2.9990 2.0420 5.5400 1.3440 5.0810 5.3910 88.4540 220.0890 217.8170 222.3620 29.4860 174.8520 466.2070 1147.2800 960.7970
  224.700 1.1280 3.0130 2.0580 5.3200 1.3200 4.9570 5.3150 87.8350 217.2570 216.6330 217.8810 27.9060 177.7140 462.8320 1148.8900 963.7550
  224.800 1.1660 3.0270 1.9870 5.1000 1.3310 4.8780 5.2940 88.7190 217.2570 215.4500 219.0640 30.8510 178.8040 462.2510 1151.1801 966.2840
  224.900 1.1660 2.9720 2.0510 5.1800 1.3950 4.7870 5.2940 88.9840 217.2570 212.4910 222.0230 28.0670 179.9390 463.8790 1153.5900 968.0400
  225.000 1.0900 2.9110 2.0190 4.8800 1.4210 4.7870 5.2830 90.1330 218.9560 211.8990 226.0130 30.7980 186.2980 466.0430 1156.4399 970.0260
  225.100 1.0900 2.8310 1.9840 4.7000 1.4210 4.7760 5.2390 89.5140 217.8240 214.8580 220.7890 27.4510 181.0290 467.7720 1159.3500 972.2450
  225.200 1.0900 2.7350 2.1110 4.7400 1.3790 4.7200 5.1960 88.3650 218.9560 214.8580 223.0550 28.1200 179.6210 468.1470 1162.4399 975.1850
  225.300 1.2410 2.7800 2.0940 5.0800 1.4110 4.6410 5.0550 87.6580 217.8240 215.4500 220.1970 26.7010 181.5290 466.8690 1165.3400 978.5930
  225.400 1.1280 2.9170 2.0460 5.3600 1.4080 4.6290 5.0340 87.1280 219.5230 215.4500 223.5960 31.9760 184.1630 465.7220 1168.5699 982.2830
  225.500 1.1280 3.0410 2.0230 5.3400 1.4350 4.5620 5.0450 86.9510 218.3900 217.8170 218.9630 29.7270 186.7970 466.1710 1172.2000 985.7340
  225.600 1.2410 3.0900 2.1250 5.2600 1.3970 4.5730 5.1310 87.3050 218.9560 219.5920 218.3210 33.1270 188.1140 469.7000 1176.3400 988.4560
  225.700 1.2790 3.0550 2.0510 5.1400 1.3730 4.6630 5.2940 88.1890 218.9560 217.8170 220.0960 30.1020 190.1130 473.0620 1180.3400 991.1170
  225.800 1.2410 2.9780 2.0130 4.7800 1.3650 4.7990 5.4020 88.7190 217.8240 214.2660 221.3810 32.0560 191.4750 475.7930 1184.2400 993.9240
  225.900 1.2790 2.9580 2.0520 4.5600 1.3870 4.9120 5.4560 89.2490 219.5230 215.4500 223.5960 28.4950 182.5730 477.2340 1187.9301 997.0400
  226.000 1.0900 2.9650 2.0720 4.4000 1.3890 4.9790 5.4780 89.3380 220.0890 218.4080 221.7700 27.9060 180.6660 480.1540 1191.3199 999.2620
  226.100 1.2030 3.0200 2.1350 4.6400 1.4110 4.9460 5.4450 89.3380 218.3900 214.8580 221.9220 28.0670 179.3030 482.7920 1194.1100 1000.9900
  226.200 1.2410 3.0550 2.1080 4.9200 1.4560 4.9230 5.3910 88.6310 218.3900 215.4500 221.3300 30.4770 179.9850 485.9270 1196.0800 1001.7100
  226.300 1.2790 3.0270 2.0920 5.0200 1.4640 4.9570 5.3800 88.0120 218.9560 214.2660 223.6470 30.1550 179.4850 488.0070 1197.5500 1002.3500
  226.400 1.2790 2.9380 2.1140 4.8000 1.4080 5.0020 5.3910 87.1280 218.3900 222.5500 214.2300 31.0920 180.3480 490.3620 1198.7600 1002.6100
  226.500 1.2410 2.8580 2.0950 4.7200 1.3650 5.0250 5.3800 87.1280 218.9560 218.4080 219.5050 30.1820 183.8000 491.3490 1199.5800 1003.0400
  226.600 1.2030 2.8770 2.0770 4.7200 1.4030 5.0470 5.3910 86.5090 218.9560 217.8170 220.0960 30.6100 184.6630 492.2160 1199.8700 1002.9800
  226.700 1.2030 2.9040 2.0980 5.0000 1.4510 5.0250 5.3800 86.3330 221.2220 216.6330 225.8110 28.6830 182.4830 491.9550 1199.6700 1002.8800
  226.800 1.0140 2.8840 2.0700 5.0000 1.4350 4.9460 5.3910 84.7420 220.6560 217.2250 224.0870 28.4950 182.3460 491.5050 1199.5100 1002.9100
  226.900 1.1280 2.8640 2.0770 5.2000 1.3710 4.9340 5.3480 84.5650 230.2850 222.5500 238.0210 29.7270 182.8910 490.2360 1199.4100 1003.3100
  227.000 1.2790 2.8510 2.0220 5.4600 1.3950 4.9230 5.2830 83.2390 222.9220 217.2250 228.6180 30.7440 182.5280 489.3030 1199.3500 1003.6300
  227.100 1.2410 2.8180 2.0990 5.6800 1.3810 4.8890 5.2070 84.9180 220.0890 214.8580 225.3210 31.2800 183.3460 489.6870 1199.4000 1003.5300
  227.200 1.2030 2.7860 2.0930 5.7000 1.4270 4.8210 5.1420 86.3320 223.4880 213.6750 233.3010 31.3070 184.2090 492.6160 1199.8199 1002.7700
  227.300 1.1660 2.7930 2.0260 5.6200 1.3680 4.7420 5.0990 88.9840 221.7890 213.6750 229.9030 31.7350 188.2960 498.4950 1200.6300 1001.2300
  227.400 1.1280 2.7670 2.0130 5.3600 1.4030 4.6970 5.0770 88.0120 215.5580 213.6750 217.4410 31.1460 183.3460 504.4970 1201.4100 999.6080
  227.500 1.1660 2.7100 2.0390 5.2600 1.3970 4.7080 5.0660 88.1890 215.5580 214.2660 216.8490 28.3610 183.8000 508.4930 1201.8800 998.4800
  227.600 1.0520 2.7540 2.0170 5.2800 1.4320 4.7080 5.0340 86.2440 221.2220 217.2250 225.2200 29.2720 183.0730 509.3450 1201.6200 997.8800
  227.700 1.1660 2.8710 2.0360 5.4800 1.4110 4.6520 5.0340 87.5700 229.7190 218.4080 241.0300 30.1820 187.8870 507.9060 1200.8500 997.6890
  227.800 1.2410 2.9310 2.0580 5.5600 1.4190 4.6290 5.0880 87.2170 223.4880 214.8580 232.1180 31.6280 186.5700 504.4900 1199.5100 997.7110
  227.900 1.3170 2.8910 2.0470 5.6400 1.3890 4.5960 5.1640 89.1610 217.8240 214.8580 220.7890 32.1630 192.1110 500.0680 1198.1700 998.1430
  228.000 1.2790 2.8710 2.0170 5.7400 1.3730 4.5960 5.2070 88.8080 216.6910 214.8580 218.5230 31.9220 191.5660 494.8260 1196.3800 998.4500
  228.100 1.2410 2.8050 1.9590 5.5400 1.3390 4.6520 5.2290 88.1890 216.6910 214.8580 218.5230 31.9220 194.6090 490.3840 1194.6000 998.4510
  228.200 1.0900 2.7350 1.9770 5.1800 1.3570 4.7200 5.2610 88.0120 216.1240 215.4500 216.7990 30.6100 182.7100 487.8810 1193.0699 997.9160
  228.300 1.0520 2.6610 2.0260 4.7800 1.3870 4.7420 5.2070 87.8350 222.3550 216.0410 228.6690 27.1830 185.3440 487.9500 1192.5500 997.3680
  228.400 0.9770 2.6550 2.0520 4.9200 1.4670 4.7540 5.1200 85.7140 220.0890 214.8580 225.3210 30.2360 178.6680 489.2430 1192.5400 996.8380
  228.500 1.0520 2.6420 1.9510 5.2200 1.4640 4.6970 5.0230 86.2440 216.1240 213.0830 219.1660 30.1290 184.4810 489.6800 1192.4900 996.6170
  228.600 1.0900 2.6980 1.9630 5.3000 1.4350 4.5960 4.9580 86.4210 215.5580 213.6750 217.4410 32.4580 183.2090 489.3940 1192.4000 996.6410
  228.700 1.0900 2.9040 2.0010 5.1400 1.3600 4.5160 4.8930 89.0730 216.6910 214.8580 218.5230 32.6450 193.3830 488.9260 1191.8700 996.2960
  228.800 1.2030 3.1190 2.0360 4.8800 1.3520 4.4830 5.0450 88.7190 218.3900 216.0410 220.7390 33.1270 196.6980 485.2320 1189.8300 995.7400
  228.900 1.3920 3.1120 2.0030 4.8800 1.3440 4.5280 5.2290 84.3000 218.3900 216.0410 220.7390 33.2610 199.7870 483.6590 1188.6700 995.2030
  229.000 1.4300 3.0270 2.0640 5.0200 1.3550 4.6290 5.4020 82.3550 217.8240 217.2250 218.4220 31.4940 191.9300 491.2060 1192.7800 996.2960
  229.100 1.3920 2.9310 2.1250 5.2000 1.3630 4.7200 5.5100 83.1510 215.5580 213.0830 218.0330 27.9330 190.3400 498.9690 1197.9200 998.3330
  229.200 1.2790 2.8250 2.0410 5.2600 1.3730 4.8780 5.4880 87.9230 218.9560 217.2250 220.6880 29.7000 182.3460 504.9700 1201.9900 1000.0000
  229.300 1.2030 2.7040 2.0190 5.4600 1.3490 4.9680 5.4340 90.6640 217.2570 217.2250 217.2890 29.3520 181.1200 501.3060 1200.7800 1000.2600
  229.400 1.1660 2.6910 2.0260 5.6600 1.3570 4.9230 5.2610 90.5750 218.9560 216.0410 221.8710 30.5030 178.9850 501.5040 1200.3101 999.7030
  229.500 1.1280 2.7230 2.0470 5.9000 1.3310 4.7650 5.1100 88.0120 217.8240 213.6750 221.9730 30.2890 183.8000 501.7070 1199.9100 999.2220
  229.600 1.1660 2.7230 2.0510 5.6800 1.3280 4.6180 5.0340 85.1840 214.4250 214.2660 214.5830 31.0920 188.3420 503.9820 1201.0000 999.4070
  229.700 1.2410 2.7100 2.0380 5.4200 1.2880 4.5840 4.9690 83.4160 216.6910 213.0830 220.2980 31.4410 190.7030 494.6760 1198.3300 1000.4600
  229.800 1.2030 2.7860 2.0270 5.3400 1.3360 4.4260 4.9690 85.0950 218.9560 214.8580 223.0550 30.1820 191.1570 487.8230 1196.3300 1001.2000
  229.900 1.2030 2.9040 1.9220 5.1800 1.3760 4.3920 5.0340 86.9510 223.4880 218.4080 228.5680 30.2090 192.3380 483.2120 1194.8900 1001.6000
  230.000 1.2030 2.9510 1.9530 5.2600 1.3920 4.4040 5.1530 86.2440 216.1240 214.2660 217.9820 31.1730 191.3390 491.2230 1198.2200 1001.7300
  230.100 1.3550 2.9380 1.9300 5.2400 1.3650 4.4260 5.3040 85.7140 214.9910 217.2250 212.7580 31.3600 188.8410 507.1810 1200.0900 997.2170
  230.200 1.3170 2.8910 1.9660 5.3800 1.3200 4.4600 5.4020 85.3600 219.5230 216.6330 222.4130 30.7710 188.3870 501.9780 1198.8700 998.0760
  230.300 1.2790 2.9380 1.9760 5.0800 1.3090 4.5280 5.4670 87.2170 218.3900 216.0410 220.7390 29.7800 189.3860 508.5900 1195.5300 992.0970
