~Version information
  VERS.                           2.00 : CWLS log ASCII Standard -Version 2.00
  WRAP.                             NO : One line per depth step
~Well information
#MNEM.UNIT              Data Type        Information
#----------------------------------------------------------------------
  STRT.M                         0.700 : 
  STOP.M                       819.000 : 
  STEP.M                         0.100 : 
  NULL.                      -999.2500 : 
  COMP.                           CIOC : Company Name
  WELL.                            303 : Well Name
  FLD .                       KARATUBE : Field Name
  CTRY.                     KAZAKHSTAN : Country
  SRVC.         JSC"KAZPROMGEOPHYSICA" : Service company
  DATE.                      30.05.04. : Log date
~Curve information
#MNEM.UNIT                               Curve Description
#----------------------------------------------------------------------
  DEPT.M                               : Depth Curve
  MLL .OHMM                            : Microlaterolog sonde
  LL3 .OHMM                            : Appar.resist.laterolog,3 electrodes
  RHOB.G/C3                            : Bulk density by gamma-gamma log
  GR  .UR/H                            : Gamma-ray log
  NGL .UE                              : Neutron-gamma log
  GZ3 .OHMM                            : App.resistivity by lateral A2.0M0.5N
  GZ3B.OHMM                            : App.resistivity by lateral N0.5M2.0A
  SP  .MV                              : Spontaneous potential
  CALI.MM                              : Caliper
  C1  .MM                              : Diameter from profile1
  C2  .MM                              : Diameter from profile2
  CILR.MMHO                            : Conduct. by sonde 7I1.6,react.signal
  CILA.MMHO                            : Conduct. by sonde 7I1.6,active signal
  DTP .US/M                            : Interval travel time (P-wave)
  T1  .US                              : Travel time1
  T2  .US                              : Travel time2
~Parameter information
#MNEM.UNIT              Value            Description
#----------------------------------------------------------------------
#----------------------------------------------------------------------
  DFV .SEK                       40.00 : Viscosity
  TDL .M                        816.00 : Total Depth-Logger
  BS  .MM                       215.90 : Bit Size
  DFD .G/C3                       1.12 : Drilling Fluid Density
~Ascii Log Data
# ...
  311.500 1.3550 2.6850 2.2280 41.3400 1.7120 3.6690 4.7960 86.3330 214.9910 217.2250 212.7580 34.0110 212.0040 452.1980 1050.4399 869.5550
  311.600 1.4680 2.7480 2.2040 41.0400 1.7390 3.5450 4.8170 83.2390 217.2570 213.6750 220.8400 36.5010 211.8230 456.4390 1047.0200 864.4440
  311.700 1.6570 2.7480 2.1480 38.6400 1.7950 3.4550 4.9150 79.7920 221.7890 213.0830 230.4950 33.7160 213.4120 458.6250 1046.4600 863.0070
  311.800 1.6950 2.8640 2.1540 35.8000 1.8270 3.4100 5.0120 80.5000 222.9220 214.2660 231.5770 33.7160 211.9130 456.0650 1045.3700 862.9480
  311.900 1.5060 3.0060 2.1100 32.4800 1.7840 3.3980 5.1100 82.7970 221.2220 211.3080 231.1370 30.1550 204.8740 465.0850 1049.1899 863.1560
  312.000 1.4300 3.0270 2.1170 29.5400 1.7250 3.4100 5.1420 86.1560 220.6560 211.3080 230.0040 29.2180 200.4680 475.1370 1050.4700 860.4140
  312.100 1.5440 3.0200 2.1320 27.2400 1.7230 3.4770 5.2500 87.2170 220.6560 211.8990 229.4120 29.9680 195.5630 491.3440 1053.6300 857.0950
  312.200 1.8080 3.0690 2.0920 25.1800 1.7330 3.5450 5.3480 87.1280 220.6560 210.1240 231.1870 30.2090 190.7940 503.1420 1057.4800 856.2200
  312.300 1.8840 3.2730 2.2110 23.6400 1.6910 3.6240 5.4340 86.5100 218.3900 209.5330 227.2470 30.3430 187.4790 506.8070 1060.4600 857.7330
  312.400 1.5440 3.7070 2.1860 22.3800 1.5790 3.7370 5.5100 85.0960 220.0890 211.8990 228.2790 29.6730 190.4310 505.4760 1062.8600 860.6670
  312.500 1.8080 3.5240 2.1740 21.9000 1.4830 3.9290 5.6510 84.4770 218.9560 211.8990 226.0130 28.3610 186.9340 513.8090 1068.8600 863.3330
  312.600 3.2070 3.1840 2.2290 21.2400 1.4510 4.4710 5.7700 83.9470 219.5230 211.8990 227.1460 26.2190 185.2080 528.2840 1075.0000 863.6860
  312.700 1.5440 3.0550 2.1670 20.6000 1.4320 5.0700 5.7270 84.6540 219.5230 212.4910 226.5550 25.3360 182.4370 529.9990 1077.0100 865.0130
  312.800 1.4680 3.0480 2.1190 20.2400 1.4000 5.4090 5.6290 85.0070 223.4880 217.8170 229.1590 25.4700 184.8900 521.2380 1074.4700 865.9790
  312.900 1.5060 3.1120 2.1400 20.1200 1.3810 5.6340 5.5100 85.0070 238.7820 224.3250 253.2390 26.9690 181.7560 516.4340 1075.4700 868.9000
  313.000 1.5440 3.0690 2.2000 20.5600 1.3730 5.5330 5.4020 83.1510 246.1460 223.7340 268.5580 26.5670 185.8440 514.1000 1077.4600 871.8210
  313.100 1.4680 3.0970 2.2560 21.3800 1.3710 5.2510 5.2940 81.8250 226.3200 211.8990 240.7410 28.0400 190.2490 512.6580 1079.8101 874.7420
  313.200 1.5440 3.2810 2.1230 22.4600 1.3920 5.0130 5.1960 82.0900 218.9560 210.1240 227.7890 27.4780 193.7460 503.4880 1079.0601 877.6630
  313.300 1.3920 3.3040 2.0890 22.7000 1.4610 4.8890 5.3260 83.5930 222.3550 211.3080 233.4030 28.6560 185.1170 502.9380 1081.7600 880.5830
  313.400 1.3920 3.2430 2.0780 21.8200 1.5120 4.8780 5.4020 83.8580 220.0890 216.0410 224.1370 24.8540 185.1170 501.1240 1083.9500 883.5040
  313.500 1.4680 3.0830 2.0370 20.4400 1.5360 4.8440 5.4340 84.7420 218.3900 215.4500 221.3300 29.2450 182.5280 499.6810 1086.3000 886.4240
  313.600 1.3920 3.1260 2.1340 19.3000 1.5390 4.7870 5.3800 85.8910 220.6560 213.0830 228.2290 25.9250 178.7580 498.2390 1088.6400 889.3450
  313.700 1.4300 3.3570 2.1270 18.5200 1.5810 4.7420 5.3480 89.6910 218.9560 211.8990 226.0130 28.3080 178.5770 491.6910 1091.1300 894.4570
  313.800 1.4300 3.6640 2.1120 18.3800 1.6240 4.7420 5.3910 90.3980 217.8240 210.7160 224.9310 26.3000 178.1220 487.8160 1094.7700 899.6480
  313.900 1.3920 3.3420 2.1180 18.2800 1.6050 4.8210 5.4780 88.8080 216.1240 211.3080 220.9410 27.0490 180.7570 482.5770 1097.9500 904.9220
  314.000 1.3550 3.0760 2.2020 17.9600 1.5250 4.9340 5.5320 85.5370 219.5230 213.6750 225.3710 25.4160 174.6250 480.1030 1100.1300 908.0860
  314.100 1.2790 3.0760 2.1180 17.7400 1.4510 5.0250 5.4880 86.1560 218.9560 212.4910 225.4220 22.9790 177.2600 462.2200 1099.7800 914.8900
  314.200 1.3550 3.1410 2.0290 17.8400 1.4530 5.0810 5.4560 88.2770 217.2570 213.0830 221.4310 25.6570 173.5350 449.7350 1100.7600 920.8620
  314.300 1.2790 3.2210 2.0860 18.0800 1.4800 5.1150 5.4130 88.9840 220.0890 213.0830 227.0960 25.7370 176.5330 437.4450 1104.0900 929.1100
  314.400 1.3170 3.2210 2.0330 17.8600 1.4910 5.0360 5.3480 86.7750 221.7890 214.8580 228.7190 28.1470 175.7610 450.0000 1107.2000 927.2000
  314.500 1.2790 3.2140 2.0780 17.8800 1.4800 4.9120 5.2500 86.5090 220.0890 214.2660 225.9120 27.7190 179.5300 454.0630 1108.4399 926.8190
  314.600 1.4300 3.1910 2.0400 18.4400 1.4670 4.8780 5.2070 88.2770 218.3900 213.0830 223.6970 28.8430 181.5740 465.4120 1110.2200 924.0570
  314.700 1.3550 3.1620 2.0970 18.8000 1.4370 4.8780 5.1740 90.1340 220.6560 213.6750 227.6370 29.4320 180.8020 464.9130 1115.2200 929.2570
  314.800 1.3550 3.2140 2.0650 18.5000 1.4210 4.9340 5.1420 90.5750 218.3900 211.8990 224.8810 28.8700 178.1680 462.6130 1120.0200 934.9710
  314.900 1.3170 3.2510 2.0500 17.8200 1.4690 4.9340 5.0990 90.9290 225.1870 217.2250 233.1500 30.1020 178.1220 454.2580 1123.6600 941.9560
  315.000 1.5810 3.2210 2.1260 17.4400 1.5170 5.0250 5.0120 90.3980 235.3830 229.6510 241.1160 31.7080 179.0760 449.6100 1126.8300 946.9840
  315.100 1.3920 3.0690 2.0800 17.1000 1.5230 5.1040 4.9470 90.5750 227.4530 229.6510 225.2550 32.5920 181.8470 453.9120 1132.9900 951.4290
  315.200 1.3170 2.9720 2.1120 16.8600 1.4830 5.1380 4.8820 90.2220 216.6910 210.7160 222.6650 33.1270 185.2990 464.0120 1140.5900 954.9840
  315.300 1.3550 2.9650 2.1730 16.6400 1.4830 5.1040 4.8500 89.4260 215.5580 207.7570 223.3580 33.6360 191.8390 468.7870 1148.0200 960.5020
  315.400 1.1280 3.0130 2.0350 16.7200 1.4640 5.0700 4.7850 88.5420 216.1240 211.3080 220.9410 33.7430 192.2930 468.2500 1153.8400 966.5390
  315.500 1.2410 3.0760 2.0420 16.9600 1.4190 5.0130 4.7960 87.9240 217.8240 212.4910 223.1560 33.1270 192.3840 459.7620 1156.9100 973.0040
  315.600 1.3170 3.0340 2.0920 17.1600 1.4130 4.9460 4.8500 88.5420 217.8240 211.3080 224.3390 33.2880 192.4750 452.1220 1158.8400 977.9890
  315.700 1.3550 2.9510 2.0320 17.3200 1.4450 4.9790 4.8710 88.8080 218.3900 211.3080 225.4720 36.0190 194.0640 447.2010 1160.6600 981.7820
  315.800 1.3170 2.8970 2.0160 17.4600 1.5250 4.9910 4.9580 87.3050 218.9560 213.0830 224.8300 35.8050 191.8390 446.2510 1163.3400 984.8400
  315.900 1.2410 2.8510 2.0590 17.9200 1.5090 5.0470 5.0120 87.0400 215.5580 210.1240 220.9910 37.6260 194.4730 445.1840 1165.9500 987.8730
  316.000 1.2410 2.8510 2.1170 18.2000 1.4610 5.0700 5.0770 87.4820 219.5230 212.4910 226.5550 36.4740 193.9730 443.3660 1168.0400 990.6940
  316.100 1.2410 2.7990 2.0640 18.4000 1.3970 5.0700 5.1100 88.6310 218.9560 214.8580 223.0550 38.2950 202.4670 440.0060 1167.2600 991.2530
  316.200 1.3170 2.7040 2.1350 18.8800 1.3810 4.9910 5.1200 88.1890 216.6910 215.4500 217.9320 37.0370 197.1530 436.2400 1161.4600 986.9680
  316.300 1.3550 2.6420 2.1470 20.1600 1.4240 4.9570 5.0990 87.8350 218.3900 213.6750 223.1050 34.6540 203.9200 431.6670 1148.6600 975.9890
  316.400 1.3550 2.6610 2.1150 21.5600 1.4510 4.9120 5.0450 88.1000 217.2570 216.0410 218.4730 36.8490 200.0140 427.7310 1132.6200 961.5240
  316.500 1.3170 2.6730 2.1830 22.0600 1.4210 4.8210 4.9800 87.8350 214.4250 213.0830 215.7670 36.5550 207.2810 425.5990 1118.5500 948.3090
  316.600 1.3550 2.6790 2.1890 22.1000 1.3570 4.7760 4.9250 87.9240 216.6910 214.2660 219.1150 39.0450 204.0110 430.0790 1111.1200 939.0880
  316.700 1.3920 2.6850 2.1720 21.8800 1.3040 4.6860 4.8710 85.5370 214.9910 213.6750 216.3080 38.7230 208.9610 441.7670 1108.4700 931.7670
  316.800 1.3920 2.6980 2.2120 22.2000 1.3250 4.6520 4.8710 84.4760 214.9910 211.8990 218.0830 38.8310 209.8240 457.8880 1106.8300 923.6730
  316.900 1.3920 2.6790 2.1390 22.5400 1.3920 4.6970 4.8930 79.7040 217.2570 210.7160 223.7980 37.4920 210.8230 472.4590 1103.3800 914.3920
  317.000 1.4300 2.5760 2.1170 22.1400 1.3840 4.7650 4.9250 79.6150 217.2570 213.0830 221.4310 36.5280 200.4230 481.1780 1098.2900 905.8190
  317.100 1.3550 2.4890 2.2060 20.4000 1.3360 4.7760 4.8710 76.8750 216.1240 211.3080 220.9410 31.8150 203.9650 485.4150 1092.9600 898.7970
  317.200 1.3170 2.4660 2.1910 17.5000 1.2850 4.7080 4.7090 79.3500 215.5580 210.7160 220.3990 36.2330 199.6960 487.2420 1088.1500 893.2490
