~Version information
  VERS.                           2.00 : CWLS log ASCII Standard -Version 2.00
  WRAP.                             NO : One line per depth step
~Well information
#MNEM.UNIT              Data Type        Information
#----------------------------------------------------------------------
  STRT.M                         0.700 : 
  STOP.M                       819.000 : 
  STEP.M                         0.100 : 
  NULL.                      -999.2500 : 
  COMP.                           CIOC : Company Name
  WELL.                            303 : Well Name
  FLD .                       KARATUBE : Field Name
  CTRY.                     KAZAKHSTAN : Country
  SRVC.         JSC"KAZPROMGEOPHYSICA" : Service company
  DATE.                      30.05.04. : Log date
~Curve information
#MNEM.UNIT                               Curve Description
#----------------------------------------------------------------------
  DEPT.M                               : Depth Curve
  MLL .OHMM                            : Microlaterolog sonde
  LL3 .OHMM                            : Appar.resist.laterolog,3 electrodes
  RHOB.G/C3                            : Bulk density by gamma-gamma log
  GR  .UR/H                            : Gamma-ray log
  NGL .UE                              : Neutron-gamma log
  GZ3 .OHMM                            : App.resistivity by lateral A2.0M0.5N
  GZ3B.OHMM                            : App.resistivity by lateral N0.5M2.0A
  SP  .MV                              : Spontaneous potential
  CALI.MM                              : Caliper
  C1  .MM                              : Diameter from profile1
  C2  .MM                              : Diameter from profile2
  CILR.MMHO                            : Conduct. by sonde 7I1.6,react.signal
  CILA.MMHO                            : Conduct. by sonde 7I1.6,active signal
  DTP .US/M                            : Interval travel time (P-wave)
  T1  .US                              : Travel time1
  T2  .US                              : Travel time2
~Parameter information
#MNEM.UNIT              Value            Description
#----------------------------------------------------------------------
#----------------------------------------------------------------------
  DFV .SEK                       40.00 : Viscosity
  TDL .M                        816.00 : Total Depth-Logger
  BS  .MM                       215.90 : Bit Size
  DFD .G/C3                       1.12 : Drilling Fluid Density
~Ascii Log Data
# ...
  815.800 3.4710 6.0670 2.3670 4.9200 1.9200 2.4500 -999.250 95.9670 221.7890 214.2660 229.3110 6.0310 140.6070 242.1480 691.1040 594.2440
  815.900 3.3200 6.5460 2.3900 4.3000 1.9170 2.4270 -999.250 96.3200 218.9560 211.8990 226.0130 3.7010 124.7560 232.2540 679.2200 586.3180
  816.000 5.1730 6.5770 2.3640 4.1200 1.9490 2.4380 -999.250 96.9390 219.5230 211.8990 227.1460 3.1390 115.7180 243.2610 674.9990 577.6940
  816.100 3.6230 6.2950 2.3880 4.0000 2.0240 2.4500 -999.250 97.2930 220.0890 212.4910 227.6880 1.6660 109.2230 251.6170 670.7810 570.1340
  816.200 3.2450 6.1380 2.4600 4.2200 1.9950 2.4270 -999.250 97.2930 220.0890 211.8990 228.2790 -0.3950 104.5000 264.1730 669.7810 564.1110
  816.300 4.2650 5.8610 2.4060 4.4800 1.8910 2.4720 -999.250 97.3810 220.0890 213.6750 226.5040 1.3450 102.4560 274.2230 669.8550 560.1660
  816.400 3.2450 6.0260 2.4180 4.8200 1.7360 2.3930 -999.250 97.2930 220.0890 213.0830 227.0960 1.3720 102.0020 283.2110 671.6730 558.3880
  816.500 2.9800 5.7020 2.4830 4.7200 1.6960 2.4500 -999.250 -999.250 222.9220 216.0410 229.8020 0.1400 106.2710 284.5970 672.2350 558.3960
  816.600 3.6230 5.9430 2.4200 5.1200 1.8050 2.4270 -999.250 -999.250 222.3550 216.0410 228.6690 -0.6100 105.1810 285.0180 673.6340 559.6260
  816.700 3.0560 9.9080 2.4100 5.0800 1.9920 2.4160 -999.250 -999.250 221.7890 216.0410 227.5360 -1.3060 104.0910 284.3410 675.0930 561.3560
  816.800 3.4340 9.7050 2.4230 5.4600 2.1090 2.4610 -999.250 -999.250 220.6560 216.0410 225.2700 0.7020 104.0000 283.3940 676.0710 562.7130
  816.900 6.0800 9.8400 2.3590 5.4400 2.1250 2.4050 -999.250 -999.250 219.5230 214.2660 224.7790 -0.0210 103.0010 282.8000 676.5230 563.4020
  817.000 6.3440 9.8850 2.3600 5.9600 2.1630 2.4500 -999.250 -999.250 218.9560 213.0830 224.8300 -1.1720 101.7750 283.1040 676.7230 563.4810
  817.100 5.3620 9.5280 2.4270 6.6200 2.1570 2.4270 -999.250 -999.250 217.2570 209.5330 224.9820 -1.8680 97.5960 283.7740 676.8860 563.3760
  817.200 5.2480 9.8850 2.4150 6.4600 2.1550 2.4270 -999.250 -999.250 216.6910 210.7160 222.6650 -0.8510 96.8240 284.2310 677.0350 563.3420
  817.300 4.4540 9.8850 2.3930 5.8000 2.0750 2.3820 -999.250 -999.250 219.5230 211.3080 227.7380 -0.8240 98.9590 284.0860 676.9250 563.2900
  817.400 3.0180 9.6160 2.3070 4.9400 2.0370 2.4500 -999.250 -999.250 220.6560 213.6750 227.6370 -0.3420 99.9130 284.0320 676.8410 563.2280
  817.500 2.1110 9.9310 2.2730 4.9800 2.0080 2.4160 -999.250 -999.250 215.5580 208.9410 222.1750 -0.1280 102.3650 283.8950 676.7300 563.1720
  817.600 1.8840 9.7720 2.2370 5.2000 2.0370 2.4380 -999.250 -999.250 209.8930 204.7990 214.9880 -0.9850 99.6860 284.0750 676.7940 563.1630
  817.700 1.7330 9.8630 2.2650 5.2400 2.1090 -999.250 -999.250 -999.250 204.7950 196.5150 213.0760 -1.6270 98.4590 284.8050 677.1740 563.2520
  817.800 1.5440 9.4840 2.2750 5.0200 2.1680 -999.250 -999.250 -999.250 205.3620 190.5980 220.1260 -1.3590 96.6430 284.8080 677.2860 563.3620
  817.900 1.8080 9.8630 2.2570 4.6400 2.1360 -999.250 -999.250 -999.250 204.2290 191.7810 216.6760 -1.0380 99.2770 284.4170 677.2860 563.5190
  818.000 1.8460 9.7270 2.2630 4.3600 2.1120 -999.250 -999.250 -999.250 194.0330 186.4560 201.6100 -0.3950 99.5490 283.4860 676.9050 563.5110
  818.100 1.6190 9.7270 2.2410 4.1800 2.0560 -999.250 -999.250 -999.250 166.2770 168.1120 164.4410 -1.7610 98.5960 283.0700 676.5710 563.3440
  818.200 1.6570 9.6160 2.1860 4.4800 2.1170 -999.250 -999.250 -999.250 152.6820 149.7690 155.5950 0.8090 99.5490 284.0620 676.6190 562.9940
  818.300 1.8080 9.7720 2.2400 4.5600 2.1170 -999.250 -999.250 -999.250 147.0170 146.8110 147.2240 0.7020 99.5490 283.8440 676.5000 562.9620
  818.400 1.8460 9.9310 2.1430 4.4000 2.1600 -999.250 -999.250 -999.250 141.9190 140.8930 142.9450 0.1670 102.0470 283.8970 676.7220 563.1630
  818.500 1.5810 9.7050 2.1580 4.4000 2.2050 -999.250 -999.250 -999.250 141.3530 140.3020 142.4040 -1.7070 97.5960 284.0560 677.0560 563.4330
  818.600 1.4680 9.6830 2.2350 4.3800 2.2560 -999.250 -999.250 -999.250 140.2200 139.7100 140.7300 -1.8150 96.6880 284.0560 677.1110 563.4890
  818.700 1.4680 9.7050 2.2780 4.5200 2.2720 -999.250 -999.250 -999.250 139.6540 138.5270 140.7810 -1.3590 97.6420 284.8430 677.1750 563.2380
  818.800 1.3920 9.9770 2.2570 4.3800 2.2030 -999.250 -999.250 -999.250 139.6540 139.7100 139.5970 -1.8150 98.8680 284.6940 676.8780 563.0010
  818.900 1.4300 9.8850 2.2060 4.5200 2.1280 -999.250 -999.250 -999.250 138.5210 140.3020 136.7400 -1.0650 100.8660 287.1050 677.6300 562.7880
  819.000 1.4680 9.6160 2.2260 4.3400 2.0670 -999.250 -999.250 -999.250 139.6540 139.1180 140.1890 -1.7070 96.6880 286.8440 677.6300 562.8930
