~Version information
  VERS.                           2.00 : CWLS log ASCII Standard -Version 2.00
  WRAP.                             NO : One line per depth step
~Well information
#MNEM.UNIT              Data Type        Information
#----------------------------------------------------------------------
  STRT.M                         0.700 : 
  STOP.M                       819.000 : 
  STEP.M                         0.100 : 
  NULL.                      -999.2500 : 
  COMP.                           CIOC : Company Name
  WELL.                            303 : Well Name
  FLD .                       KARATUBE : Field Name
  CTRY.                     KAZAKHSTAN : Country
  SRVC.         JSC"KAZPROMGEOPHYSICA" : Service company
  DATE.                      30.05.04. : Log date
~Curve information
#MNEM.UNIT                               Curve Description
#----------------------------------------------------------------------
  DEPT.M                               : Depth Curve
  MLL .OHMM                            : Microlaterolog sonde
  LL3 .OHMM                            : Appar.resist.laterolog,3 electrodes
  RHOB.G/C3                            : Bulk density by gamma-gamma log
  GR  .UR/H                            : Gamma-ray log
  NGL .UE                              : Neutron-gamma log
  GZ3 .OHMM                            : App.resistivity by lateral A2.0M0.5N
  GZ3B.OHMM                            : App.resistivity by lateral N0.5M2.0A
  SP  .MV                              : Spontaneous potential
  CALI.MM                              : Caliper
  C1  .MM                              : Diameter from profile1
  C2  .MM                              : Diameter from profile2
  CILR.MMHO                            : Conduct. by sonde 7I1.6,react.signal
  CILA.MMHO                            : Conduct. by sonde 7I1.6,active signal
  DTP .US/M                            : Interval travel time (P-wave)
  T1  .US                              : Travel time1
  T2  .US                              : Travel time2
~Parameter information
#MNEM.UNIT              Value            Description
#----------------------------------------------------------------------
#----------------------------------------------------------------------
  DFV .SEK                       40.00 : Viscosity
  TDL .M                        816.00 : Total Depth-Logger
  BS  .MM                       215.90 : Bit Size
  DFD .G/C3                       1.12 : Drilling Fluid Density
~Ascii Log Data
# ...
  676.600 1.3920 2.0040 2.3400 10.5000 1.4050 2.3590 2.1540 80.9400 220.0890 210.1240 230.0540 118.5140 283.5380 374.8760 952.4640 802.5140
  676.700 1.5810 2.0610 2.3230 10.2800 1.3630 2.3030 2.1760 77.5820 219.5230 210.1240 228.9210 122.2900 282.1300 377.8700 953.3580 802.2110
  676.800 1.5810 2.0460 2.3140 10.1000 1.3390 2.2350 2.1870 77.4050 219.5230 211.8990 227.1460 117.4430 280.1310 382.0560 953.6890 800.8670
  676.900 1.6190 2.0090 2.3050 9.7800 1.3390 2.2130 2.2190 71.2170 218.3900 211.8990 224.8810 116.9880 287.4440 385.8600 953.5930 799.2490
  677.000 1.5060 1.9860 2.2380 9.4600 1.4190 2.1790 2.2620 72.0150 219.5230 209.5330 229.5130 113.8550 273.3190 388.4170 953.2180 797.8510
  677.100 1.5060 1.9450 2.2470 9.3800 1.4320 2.2130 2.2950 71.7510 219.5230 211.3080 227.7380 109.9730 272.8190 390.1200 952.5700 796.5220
  677.200 1.3920 1.9540 2.2750 9.4400 1.3920 2.1900 2.2950 77.6710 218.3900 211.3080 225.4720 113.8020 268.7310 390.7560 951.6370 795.3350
  677.300 1.6190 1.9190 2.3420 9.8600 1.3360 2.2010 2.2950 77.4940 217.2570 210.7160 223.7980 114.2840 269.5940 390.2080 950.6410 794.5570
  677.400 1.5060 1.8970 2.2960 9.5600 1.3360 2.1670 2.3060 75.2840 217.2570 208.9410 225.5730 116.6670 270.5030 388.2100 949.6410 794.3560
  677.500 1.4300 1.9630 2.2700 9.6400 1.3330 2.1790 2.2840 75.7260 218.3900 208.9410 227.8390 117.6570 276.9070 385.2400 948.5440 794.4480
  677.600 1.5060 2.0000 2.3540 9.4200 1.3600 2.1670 2.2950 77.2290 216.6910 208.9410 224.4400 117.0950 279.0870 381.5320 947.4130 794.8000
  677.700 1.6570 1.8880 2.3060 9.8400 1.3760 2.1670 2.2620 79.2620 219.5230 209.5330 229.5130 117.6040 273.1820 376.9040 946.7280 795.9660
  677.800 1.5440 1.8710 2.3110 9.8000 1.3630 2.1220 2.2840 79.6150 219.5230 211.3080 227.7380 114.8460 276.3620 375.6790 947.0900 796.8180
  677.900 1.5060 1.8750 2.3000 10.0200 1.3280 2.1110 2.2520 78.3780 218.9560 213.6750 224.2380 119.8530 273.4090 377.6700 948.5680 797.5000
  678.000 1.5810 1.8450 2.2620 10.3200 1.3070 2.0880 2.2080 76.9640 218.9560 210.7160 227.1970 118.9690 277.2250 381.5810 950.6170 797.9850
  678.100 1.5440 1.7990 2.2740 10.7600 1.3410 2.0770 2.2080 77.6710 218.9560 210.1240 227.7890 123.6010 277.5880 384.7110 952.9430 799.0590
  678.200 1.4300 1.7780 2.2740 10.9800 1.3570 2.0770 2.1980 79.9690 218.9560 210.1240 227.7890 120.2550 281.8570 384.7900 954.9590 801.0440
  678.300 1.3550 1.8030 2.2930 10.9400 1.3760 2.0430 2.1870 82.6200 220.6560 211.8990 229.4120 122.0220 292.9390 385.3990 956.7790 802.6200
  678.400 1.4680 1.8620 2.2930 10.5800 1.3870 2.0090 2.1760 82.8860 220.6560 211.3080 230.0040 119.6120 287.3980 385.6880 957.9320 803.6570
  678.500 1.5810 1.8360 2.2630 10.3400 1.3790 2.0090 2.1540 81.9140 218.3900 211.3080 225.4720 119.2370 285.4450 386.5020 958.8830 804.2830
  678.600 1.5440 1.8280 2.3490 10.2200 1.3470 1.9870 2.1430 79.6150 219.5230 210.7160 228.3300 119.2910 285.4910 385.7080 959.7270 805.4440
  678.700 1.5060 1.8320 2.3870 10.4600 1.3330 1.9750 2.1430 76.4330 217.2570 211.8990 222.6150 123.3870 284.4010 382.2350 960.7380 807.8440
  678.800 1.5060 1.7990 2.3910 10.7800 1.3330 1.9420 2.1330 75.2840 218.3900 210.7160 226.0640 123.0120 287.4440 378.9930 961.4420 809.8450
  678.900 1.5060 1.7990 2.2990 10.8000 1.3280 1.9190 2.1110 76.6110 218.9560 212.4910 225.4220 124.1100 288.1250 376.7020 961.7190 811.0390
  679.000 1.4680 1.7820 2.2530 10.6000 1.2960 1.8850 2.0890 79.5260 219.5230 212.4910 226.5550 121.7810 293.7110 375.1920 961.7380 811.6610
  679.100 1.5060 1.7700 2.3020 10.4400 1.3630 1.8740 2.1000 81.2940 217.8240 211.8990 223.7480 120.7630 288.5790 374.4240 962.1860 812.4170
  679.200 1.4300 1.7740 2.3660 11.0600 1.4080 1.8740 2.1110 79.8800 219.5230 210.1240 228.9210 116.1040 286.8080 374.1830 963.3870 813.7140
  679.300 1.4300 1.8030 2.3010 11.5400 1.3760 1.8400 2.1430 76.7000 222.3550 211.8990 232.8110 117.7640 281.8120 373.6200 965.1080 815.6600
  679.400 1.4680 1.8580 2.2730 11.9000 1.2690 1.8740 2.1540 73.7820 218.3900 209.5330 227.2470 118.4340 282.8560 374.0180 966.7330 817.1260
  679.500 1.5060 1.9140 2.2270 11.2200 1.2050 1.9190 2.1870 76.6970 217.2570 209.5330 224.9820 120.1740 278.3150 374.5120 967.0830 817.2780
  679.600 1.5810 1.9590 2.2140 10.9000 1.2770 1.9080 2.2410 78.9090 214.4250 211.3080 217.5420 120.3350 281.4480 380.7960 966.2630 813.9440
  679.700 1.6190 1.9680 2.1960 10.6000 1.3410 1.9080 2.2520 80.2340 214.9910 209.5330 220.4500 119.2640 283.8560 387.1060 964.5270 809.6840
  679.800 1.6570 1.9910 2.2510 10.4000 1.3790 1.9640 2.2950 76.0810 214.9910 211.3080 218.6750 118.1390 283.9920 394.6510 963.4530 805.5920
  679.900 1.7700 2.0180 2.2130 10.3200 1.3650 1.9980 2.3380 75.5500 214.4250 210.7160 218.1340 117.3090 274.5900 398.4110 962.5720 803.2070
  680.000 1.6950 1.9950 2.1910 10.1400 1.3310 2.0090 2.3490 75.2840 214.9910 210.7160 219.2670 115.4890 273.8180 401.0990 961.6040 801.1650
  680.100 1.6570 1.9720 2.1880 10.2600 1.2990 2.0320 2.3710 76.9640 216.6910 209.5330 223.8490 118.9430 271.7740 400.9130 960.0930 799.7280
  680.200 1.6190 1.9590 2.1900 10.9400 1.2610 2.0550 2.3600 76.5220 216.6910 211.3080 222.0740 119.2370 273.3640 397.9210 958.5420 799.3730
  680.300 1.6190 1.9540 2.2210 10.7000 1.2690 2.0770 2.3820 77.0520 214.4250 212.4910 216.3590 120.2010 275.7710 393.9670 957.3230 799.7360
  680.400 1.6190 1.9540 2.2950 10.5200 1.3230 2.0660 2.3920 76.9640 214.9910 211.8990 218.0830 120.2280 282.3110 389.6890 956.3200 800.4440
  680.500 1.7330 1.9540 2.2090 10.0800 1.3710 2.0430 2.3820 77.1410 214.4250 209.5330 219.3170 119.4510 284.8550 387.1430 955.7420 800.8850
  680.600 1.6570 1.9100 2.1720 11.1600 1.3870 2.0320 2.3710 76.5220 217.8240 208.9410 226.7060 120.2550 277.2250 384.4610 955.4080 801.6240
  680.700 1.6950 1.8790 2.2570 12.9800 1.4050 2.0210 2.3600 76.1680 217.2570 209.5330 224.9820 115.6490 282.2210 382.9310 954.2950 801.1230
  680.800 1.6190 1.8490 2.2220 15.6390 1.4450 1.9980 2.3380 76.0800 215.5580 209.5330 221.5830 121.8080 276.8160 381.1830 952.2590 799.7850
  680.900 1.5810 1.8280 2.2750 17.3400 1.4610 1.9980 2.3060 76.8760 217.2570 208.9410 225.5730 119.9330 283.4920 380.5050 949.7180 797.5160
  681.000 1.5810 1.8320 2.2460 17.2800 1.4320 1.9750 2.2620 77.5820 213.8580 207.7570 219.9590 124.5390 282.2210 379.8480 948.2880 796.3490
  681.100 1.5810 1.8200 2.2700 14.6190 1.3600 1.8960 2.2190 77.2280 214.4250 208.9410 219.9090 122.1820 288.5340 379.5250 947.8710 796.0610
  681.200 1.5810 1.8280 2.2440 12.0200 1.2960 1.9190 2.1760 76.0800 213.8580 209.5330 218.1840 122.3430 293.8020 379.2170 947.7400 796.0530
  681.300 1.5810 1.8360 2.2890 11.7800 1.2560 1.8960 2.1430 73.0750 214.4250 210.1240 218.7250 119.8800 289.7150 379.0350 947.1470 795.5320
  681.400 1.5810 1.8030 2.2750 11.6400 1.2690 1.8740 2.1220 72.5440 216.6910 209.5330 223.8490 118.2200 284.4460 378.8210 946.0940 794.5660
  681.500 1.5440 1.8070 2.2920 11.7800 1.3440 1.8170 2.1330 72.8970 216.1240 208.3490 223.8990 116.4260 283.9920 378.9700 945.2500 793.6610
  681.600 1.5440 1.8710 2.2700 10.6200 1.3870 1.8060 2.1430 73.1630 217.2570 210.7160 223.7980 118.4340 281.8570 379.6880 944.4980 792.6230
  681.700 1.5440 1.9140 2.3300 10.4800 1.3600 1.8170 2.1330 71.7490 216.1240 207.7570 224.4910 117.7380 282.3110 380.5610 943.7870 791.5630
  681.800 1.5440 1.9320 2.3640 10.3000 1.2560 1.7610 2.1220 68.5670 217.8240 209.5330 226.1150 118.3540 283.4010 380.2710 942.8330 790.7250
  681.900 1.5810 1.9410 2.4050 10.2400 1.2530 1.8060 2.1430 70.1590 216.6910 210.7160 222.6650 117.2830 288.4430 378.0950 941.9220 790.6830
  682.000 1.6950 1.9410 2.3240 10.1600 1.2800 1.7610 2.1870 71.2180 215.5580 212.4910 218.6240 116.4520 290.9860 374.3530 941.0910 791.3490
  682.100 1.6950 1.9450 2.1980 9.9200 1.3570 1.7830 2.1980 73.1630 217.8240 212.4910 223.1560 116.8540 281.4480 370.9280 940.5520 792.1810
  682.200 1.7330 1.9010 2.1830 9.7800 1.2990 1.8170 2.2300 73.5170 216.6910 213.0830 220.2980 112.5430 282.9020 370.0810 940.4950 792.4630
  682.300 1.6950 1.8920 2.1550 10.0000 1.2930 1.8290 2.2840 74.5770 219.5230 212.4910 226.5550 118.1660 275.4080 372.6400 941.2430 792.1870
