~Version information
  VERS.                           2.00 : CWLS log ASCII Standard -Version 2.00
  WRAP.                             NO : One line per depth step
~Well information
#MNEM.UNIT              Data Type        Information
#----------------------------------------------------------------------
  STRT.M                         0.700 : 
  STOP.M                       819.000 : 
  STEP.M                         0.100 : 
  NULL.                      -999.2500 : 
  COMP.                           CIOC : Company Name
  WELL.                            303 : Well Name
  FLD .                       KARATUBE : Field Name
  CTRY.                     KAZAKHSTAN : Country
  SRVC.         JSC"KAZPROMGEOPHYSICA" : Service company
  DATE.                      30.05.04. : Log date
~Curve information
#MNEM.UNIT                               Curve Description
#----------------------------------------------------------------------
  DEPT.M                               : Depth Curve
  MLL .OHMM                            : Microlaterolog sonde
  LL3 .OHMM                            : Appar.resist.laterolog,3 electrodes
  RHOB.G/C3                            : Bulk density by gamma-gamma log
  GR  .UR/H                            : Gamma-ray log
  NGL .UE                              : Neutron-gamma log
  GZ3 .OHMM                            : App.resistivity by lateral A2.0M0.5N
  GZ3B.OHMM                            : App.resistivity by lateral N0.5M2.0A
  SP  .MV                              : Spontaneous potential
  CALI.MM                              : Caliper
  C1  .MM                              : Diameter from profile1
  C2  .MM                              : Diameter from profile2
  CILR.MMHO                            : Conduct. by sonde 7I1.6,react.signal
  CILA.MMHO                            : Conduct. by sonde 7I1.6,active signal
  DTP .US/M                            : Interval travel time (P-wave)
  T1  .US                              : Travel time1
  T2  .US                              : Travel time2
~Parameter information
#MNEM.UNIT              Value            Description
#----------------------------------------------------------------------
#----------------------------------------------------------------------
  DFV .SEK                       40.00 : Viscosity
  TDL .M                        816.00 : Total Depth-Logger
  BS  .MM                       215.90 : Bit Size
  DFD .G/C3                       1.12 : Drilling Fluid Density
~Ascii Log Data
# ...
  270.900 1.2790 2.2750 2.0190 11.0000 1.2240 2.5740 2.3060 78.2010 217.2570 220.7750 213.7390 103.0920 258.5580 484.9860 1235.7200 1041.7300
  271.000 1.2790 2.2650 2.0320 11.5200 1.1840 2.6760 2.4030 77.5830 218.3900 220.1830 216.5970 103.9750 253.2440 488.4250 1241.1899 1045.8101
  271.100 1.3170 2.1380 2.0720 11.5600 1.1870 2.8000 2.4900 78.2010 217.2570 216.6330 217.8810 102.5020 251.7450 493.2290 1245.6899 1048.4000
  271.200 1.2410 2.0040 2.0380 11.3800 1.2080 2.9240 2.5330 78.7320 218.9560 220.1830 217.7290 101.2440 250.8370 497.4060 1246.6400 1047.6801
  271.300 1.2030 1.8580 2.0140 11.1800 1.1950 3.0370 2.5220 79.7920 218.9560 226.6920 211.2210 101.5920 243.4340 503.4180 1244.0400 1042.6801
  271.400 1.0900 1.7910 1.9860 14.8590 1.1890 3.1500 2.5330 80.2340 217.2570 221.9590 212.5560 100.0660 244.5240 510.8990 1242.1801 1037.8199
  271.500 1.0900 1.6940 1.9710 23.0200 1.2210 3.2740 2.4570 78.9080 230.8520 230.8340 230.8690 104.6710 246.3400 523.7160 1244.7800 1035.3000
  271.600 1.0520 1.6560 1.9480 29.4400 1.2530 3.3190 2.4570 79.0850 228.5860 227.8760 229.2960 108.5270 255.0610 552.3130 1253.4600 1032.5400
  271.700 1.0900 1.6750 1.9070 28.1800 1.2670 3.2850 2.3920 78.6430 230.8520 241.4850 220.2180 113.6680 261.4190 582.7810 1260.4200 1027.3000
  271.800 0.9770 1.6410 1.9640 20.1990 1.2590 3.2520 2.3920 78.5550 221.7890 238.5270 205.0510 117.0150 271.1840 597.5280 1259.8700 1020.8600
  271.900 1.0520 1.5670 1.9610 14.3600 1.3010 3.1840 2.4900 78.3780 228.0200 234.3850 221.6550 118.0860 282.0390 595.2200 1255.0800 1016.9900
  272.000 0.9390 1.5170 1.8710 12.1800 1.3040 3.2060 2.5110 77.2290 238.2160 235.5680 240.8630 118.2730 290.4410 584.1390 1247.2100 1013.5500
  272.100 0.8630 1.4620 1.8980 13.4600 1.2480 3.0370 2.5660 77.0520 220.0890 217.8170 222.3620 118.9690 284.1280 585.9110 1244.0500 1009.6900
  272.200 0.8250 1.4450 1.9130 14.7800 1.1950 2.9580 2.6520 76.7870 220.0890 221.9590 218.2200 114.5510 290.8050 576.1240 1236.2700 1005.8200
  272.300 1.0140 1.4550 1.9260 15.2200 1.1680 2.8340 2.7060 78.7310 218.3900 221.3670 215.4130 119.1570 286.8990 548.0790 1227.9900 1008.7600
  272.400 0.8630 1.4620 1.8130 14.6800 1.1710 2.6870 2.7710 79.5270 218.3900 220.1830 216.5970 117.3900 294.1200 519.0700 1216.4500 1008.8200
  272.500 0.9010 1.4620 1.9450 14.1000 1.1490 2.5850 2.8690 80.4990 222.3550 223.1420 221.5680 119.6390 293.3480 493.5950 1205.3199 1007.8900
  272.600 0.9010 1.4490 1.9610 14.7200 1.1630 2.4840 2.9770 80.6760 220.6560 221.3670 219.9450 116.2110 300.6150 493.0210 1193.4900 996.2830
  272.700 0.8630 1.4590 1.9570 14.1200 1.1790 2.4050 3.0850 74.7540 221.7890 221.9590 221.6190 112.9180 306.7010 492.5610 1180.8101 983.7860
  272.800 0.8630 1.5140 1.9690 13.0200 1.1790 2.3140 3.2150 73.4280 222.9220 221.3670 224.4760 108.1250 307.7910 502.2400 1169.0900 968.1940
  272.900 0.8250 1.5670 1.8490 11.6400 1.1490 2.2350 3.3450 73.5160 225.7540 219.0000 232.5080 103.3330 299.3890 512.3650 1157.9000 952.9510
  273.000 0.8250 1.5890 1.8530 11.0000 1.1520 2.1560 3.4750 79.0850 220.0890 217.8170 222.3620 94.7110 300.0240 519.5560 1146.3101 938.4880
  273.100 0.8250 1.6110 1.9140 10.3600 1.1600 2.0770 3.5830 79.9690 218.3900 219.5920 217.1880 94.2820 292.4850 520.1820 1134.2200 926.1490
  273.200 0.8250 1.6370 1.9930 9.9000 1.1390 2.0430 3.6810 78.9080 214.4250 218.4080 210.4410 88.3380 290.3050 517.5000 1121.9800 914.9830
  273.300 0.7880 1.6220 2.0090 9.4200 1.1250 2.0320 3.7460 78.1130 215.5580 219.5920 211.5240 85.0720 282.9930 514.6070 1109.6000 903.7560
  273.400 0.9390 1.6140 2.0000 9.2800 1.1200 2.0320 3.8540 76.2570 217.8240 220.7750 214.8720 78.6720 281.1760 514.3820 1097.0300 891.2730
  273.500 0.9010 1.6250 2.0140 9.0200 1.1040 2.0090 3.8970 75.6380 219.5230 220.7750 218.2710 73.8530 281.0850 514.7130 1084.7500 878.8660
  273.600 0.9010 1.6290 2.0380 9.2800 1.0800 1.9980 3.9620 75.5500 217.8240 219.5920 216.0550 68.8990 276.0890 513.8870 1074.1700 868.6100
  273.700 0.8630 1.6440 2.0300 9.3400 1.1040 1.9190 4.0160 77.2290 216.1240 219.0000 213.2480 63.2500 270.4570 504.5340 1065.0200 863.2020
  273.800 0.9390 1.7100 2.0370 9.0400 1.1680 1.8960 4.1240 77.8480 216.1240 218.4080 213.8400 58.7780 269.4130 486.1470 1056.3900 861.9290
  273.900 0.9390 1.9320 2.0500 8.5600 1.2270 1.7950 4.2430 79.0850 216.6910 219.5920 213.7900 58.3230 265.1430 461.2740 1048.5100 864.0030
  274.000 1.0900 2.5230 2.0320 8.4600 1.2430 1.7610 4.5680 79.2620 214.9910 219.5920 210.3910 55.4310 258.0580 442.8600 1043.2500 866.1060
  274.100 1.2030 2.8710 2.0910 8.6400 1.2590 1.8060 5.0770 79.9690 219.5230 221.3670 217.6790 53.0480 246.2500 433.5780 1041.8800 868.4440
  274.200 1.5440 2.9510 2.1370 8.8400 1.2320 1.8630 5.4990 79.0850 225.7540 224.3250 227.1820 48.4960 234.8040 435.8030 1042.9700 868.6480
  274.300 1.5440 2.8510 2.2020 8.6600 1.2320 2.0090 5.8240 78.7320 220.0890 220.7750 219.4040 43.8640 224.1310 438.4810 1043.7900 868.3920
  274.400 1.5440 2.6240 2.2420 8.6800 1.2110 2.1220 5.9970 78.9970 217.8240 216.6330 219.0140 39.0180 206.3270 436.9470 1042.8199 868.0440
  274.500 1.4680 2.5410 2.2430 8.4600 1.2050 2.2010 6.0190 79.7920 217.2570 213.0830 221.4310 33.3950 192.2020 425.7680 1040.5800 870.2780
  274.600 1.3920 2.7350 2.2260 8.4400 1.2050 2.2350 5.8560 80.2340 218.3900 213.0830 223.6970 31.4940 183.7090 409.2490 1038.1300 874.4250
  274.700 1.7700 3.1050 2.1410 8.4000 1.2370 2.2240 5.6510 79.6150 216.1240 213.6750 218.5740 33.0200 181.7560 392.3100 1036.8900 879.9630
  274.800 1.9590 3.3960 2.1750 9.0000 1.2850 2.1900 5.5970 78.9080 217.2570 214.2660 220.2480 32.7790 180.4390 379.4240 1038.0000 886.2280
  274.900 1.8840 3.4510 2.2610 9.3800 1.2880 2.2240 5.6290 78.9080 217.2570 212.4910 222.0230 34.2250 183.8000 374.7090 1041.7800 891.8920
  275.000 1.7700 3.3880 2.2820 9.9400 1.3230 2.3140 5.6720 79.3500 218.3900 212.4910 224.2890 32.1100 184.7080 376.1980 1047.7000 897.2220
  275.100 1.7700 3.3340 2.2920 11.2000 1.3790 2.4160 5.6940 80.2340 216.6910 213.6750 219.7070 33.2340 190.0670 381.8730 1053.7300 900.9840
  275.200 1.8080 3.3040 2.3460 11.3200 1.4160 2.5510 5.7160 79.7040 217.2570 209.5330 224.9820 29.9410 181.8010 383.7780 1059.6100 906.0960
  275.300 1.6190 3.2360 2.3330 11.8800 1.4160 2.6980 5.6400 78.8200 214.4250 210.1240 218.7250 29.5660 181.3930 387.0520 1064.5200 909.6950
  275.400 1.6190 3.2060 2.3480 13.3600 1.3760 2.7430 5.5430 79.2620 214.4250 211.8990 216.9500 28.6560 179.0310 391.3700 1068.5500 912.0000
  275.500 1.7330 3.1190 2.3680 14.9800 1.3650 2.7890 5.4130 78.2900 213.8580 210.1240 217.5930 33.2080 181.4830 389.8470 1070.8500 914.9140
  275.600 1.7330 3.0060 2.2940 14.2000 1.3150 2.8340 5.3040 77.4940 215.5580 210.7160 220.3990 30.5030 181.8920 389.6850 1071.8000 915.9210
  275.700 1.7700 2.8450 2.2470 11.1600 1.3200 2.9020 5.1310 74.9310 216.1240 211.8990 220.3490 33.9310 185.1170 390.2230 1071.9100 915.8190
  275.800 1.7700 2.7160 2.2550 9.2600 1.3570 2.9470 5.0450 75.4620 216.6910 209.5330 223.8490 31.2000 189.7490 402.3030 1071.8199 910.8990
  275.900 1.5810 2.5640 2.2160 9.5400 1.3810 2.9470 4.8820 75.7270 214.9910 209.5330 220.4500 34.4130 198.7880 412.7750 1071.0900 905.9770
  276.000 1.4680 2.4600 2.2270 10.0000 1.3470 2.9350 4.8060 76.9640 217.2570 211.8990 222.6150 32.4310 198.2880 418.4690 1068.4399 901.0550
  276.100 1.4300 2.5120 2.2110 9.6800 1.3230 2.9130 4.7090 75.8150 215.5580 213.0830 218.0330 32.9130 200.7410 419.7180 1064.0200 896.1330
  276.200 1.3550 2.6550 2.1430 9.0400 1.2850 2.9020 4.6980 75.6380 216.6910 211.3080 222.0740 33.1270 202.1940 417.7450 1058.3101 891.2100
  276.300 1.3920 2.7420 2.1200 8.5800 1.2690 2.9690 4.7740 76.6110 215.5580 213.0830 218.0330 36.3400 203.2840 425.1320 1053.8900 883.8340
  276.400 1.5060 2.7860 2.1180 8.5600 1.2000 3.0480 4.8500 79.4380 215.5580 210.7160 220.3990 35.1620 204.3740 429.7550 1050.4399 878.5410
  276.500 1.4300 2.8380 2.1950 8.1600 1.2290 3.1730 4.9360 79.7920 218.9560 212.4910 225.4220 36.7690 203.4660 436.1090 1049.5601 875.1110
  276.600 1.5060 2.8710 2.1300 7.8800 1.2990 3.4210 5.0450 79.6150 216.6910 212.4910 220.8900 34.8680 204.8280 434.4450 1049.3300 875.5550
