~Version information
  VERS.                           2.00 : CWLS log ASCII Standard -Version 2.00
  WRAP.                             NO : One line per depth step
~Well information
#MNEM.UNIT              Data Type        Information
#----------------------------------------------------------------------
  STRT.M                         0.700 : 
  STOP.M                       819.000 : 
  STEP.M                         0.100 : 
  NULL.                      -999.2500 : 
  COMP.                           CIOC : Company Name
  WELL.                            303 : Well Name
  FLD .                       KARATUBE : Field Name
  CTRY.                     KAZAKHSTAN : Country
  SRVC.         JSC"KAZPROMGEOPHYSICA" : Service company
  DATE.                      30.05.04. : Log date
~Curve information
#MNEM.UNIT                               Curve Description
#----------------------------------------------------------------------
  DEPT.M                               : Depth Curve
  MLL .OHMM                            : Microlaterolog sonde
  LL3 .OHMM                            : Appar.resist.laterolog,3 electrodes
  RHOB.G/C3                            : Bulk density by gamma-gamma log
  GR  .UR/H                            : Gamma-ray log
  NGL .UE                              : Neutron-gamma log
  GZ3 .OHMM                            : App.resistivity by lateral A2.0M0.5N
  GZ3B.OHMM                            : App.resistivity by lateral N0.5M2.0A
  SP  .MV                              : Spontaneous potential
  CALI.MM                              : Caliper
  C1  .MM                              : Diameter from profile1
  C2  .MM                              : Diameter from profile2
  CILR.MMHO                            : Conduct. by sonde 7I1.6,react.signal
  CILA.MMHO                            : Conduct. by sonde 7I1.6,active signal
  DTP .US/M                            : Interval travel time (P-wave)
  T1  .US                              : Travel time1
  T2  .US                              : Travel time2
~Parameter information
#MNEM.UNIT              Value            Description
#----------------------------------------------------------------------
#----------------------------------------------------------------------
  DFV .SEK                       40.00 : Viscosity
  TDL .M                        816.00 : Total Depth-Logger
  BS  .MM                       215.90 : Bit Size
  DFD .G/C3                       1.12 : Drilling Fluid Density
~Ascii Log Data
# ...
  404.300 1.3550 2.1380 2.0760 9.6600 1.2370 2.8340 2.9440 71.7490 224.6210 212.4910 236.7510 73.2100 257.6950 467.4180 1130.0000 943.0330
  404.400 1.3170 2.1140 2.0950 10.1600 1.2750 2.7890 2.9770 71.4840 222.3550 211.3080 233.4030 74.0670 249.3830 474.5320 1131.6899 941.8760
  404.500 1.3920 2.1180 2.1300 10.5600 1.2160 2.6870 3.0310 71.4840 220.0890 208.3490 231.8300 70.5060 251.3820 482.4690 1133.5100 940.5190
  404.600 1.3550 2.2280 2.0850 10.7600 1.1890 2.6980 3.1070 72.2790 217.2570 208.9410 225.5730 74.1740 245.5680 481.4670 1130.9000 938.3170
  404.700 1.3170 2.3230 2.0840 10.3800 1.2080 2.7320 3.1500 74.4000 220.0890 209.5330 230.6460 73.0500 248.1120 478.3750 1126.1000 934.7530
  404.800 1.4300 2.2130 2.0970 9.9200 1.2240 2.8220 3.2580 74.7540 221.2220 210.7160 231.7280 74.4420 242.8890 476.7930 1121.8400 931.1250
  404.900 1.4680 2.0700 2.0430 9.6400 1.2320 2.8110 3.3020 75.1960 218.9560 211.8990 226.0130 74.6560 247.1580 474.8410 1117.9600 928.0190
  405.000 1.3170 2.0750 2.0460 9.6000 1.2050 2.8340 3.2910 75.5500 218.9560 210.7160 227.1970 73.1030 249.1110 469.3380 1113.9600 926.2200
  405.100 1.3550 2.1380 2.0670 9.5800 1.2510 2.8790 3.3020 75.8150 219.5230 210.7160 228.3300 74.2010 254.6060 464.7590 1111.0100 925.1070
  405.200 1.3550 2.1780 2.0640 9.4200 1.2990 2.8900 3.2910 75.1070 221.7890 210.1240 233.4530 72.7550 247.2030 462.5010 1109.5100 924.5060
  405.300 1.3920 2.1830 2.1180 9.2400 1.3360 2.8560 3.2800 72.5440 219.5230 210.7160 228.3300 72.4340 250.3830 462.5430 1108.6600 923.6410
  405.400 1.4300 2.1580 2.1510 8.8600 1.2960 2.8340 3.2800 71.8370 221.2220 209.5330 232.9120 73.9330 250.7910 462.6110 1107.4800 922.4330
  405.500 1.3920 2.1930 2.1560 8.6600 1.2560 2.8680 3.2800 72.1020 220.0890 212.4910 227.6880 77.0120 249.4740 463.2760 1106.4100 921.1040
  405.600 1.3920 2.1480 2.1580 8.3800 1.2320 2.8680 3.2910 74.4890 217.8240 210.7160 224.9310 75.8340 248.3390 465.1220 1106.1700 920.1230
  405.700 1.3920 2.0890 2.1910 8.6400 1.2510 2.8680 3.3020 75.5500 217.8240 210.1240 225.5230 77.9760 248.2930 465.3900 1105.4800 919.3270
  405.800 1.3170 2.0700 2.1030 8.9200 1.2480 2.8560 3.3020 75.7260 219.5230 211.8990 227.1460 75.8070 252.5170 464.7000 1104.3199 918.4370
  405.900 1.3170 2.0610 2.0470 9.2400 1.2000 2.9130 3.2910 74.8420 218.9560 210.1240 227.7890 75.3790 257.1040 463.4020 1102.9600 917.6020
  406.000 1.3170 2.0460 2.0930 9.3400 1.1520 2.8900 3.2480 72.7210 217.8240 209.5330 226.1150 75.2450 255.4690 462.6540 1102.2200 917.1610
  406.100 1.2790 2.0700 2.0700 9.4400 1.1170 2.8000 3.2150 72.1910 217.8240 208.9410 226.7060 74.7100 253.6070 460.3280 1101.7200 917.5910
  406.200 1.3170 2.0460 2.0790 9.3200 1.1360 2.7210 3.1720 72.1020 217.8240 208.9410 226.7060 75.0580 254.2890 456.8930 1101.2000 918.4460
  406.300 1.3550 2.0280 2.0290 8.9200 1.1330 2.7320 3.1280 73.4280 217.8240 207.7570 227.8900 79.2080 254.3790 453.0690 1100.5400 919.3090
  406.400 1.3170 2.0560 1.9890 8.5200 1.2240 2.7100 3.0850 74.3120 215.5580 208.9410 222.1750 79.3690 255.0150 450.8330 1099.8199 919.4920
  406.500 1.2790 2.1380 2.0240 8.1200 1.2850 2.5630 3.0310 74.7540 217.2570 208.3490 226.1650 82.0730 253.8800 449.2320 1098.4500 918.7620
  406.600 1.2790 2.1730 2.0400 7.8800 1.3520 2.5180 2.9990 73.6050 218.3900 210.1240 226.6560 79.7430 256.3320 446.8510 1097.1200 918.3810
  406.700 1.2790 2.1580 2.0360 7.5800 1.3550 2.4610 2.9340 71.7490 216.6910 210.7160 222.6650 79.7970 260.7830 446.4420 1096.4301 917.8520
  406.800 1.3170 2.1430 2.0690 7.7600 1.3440 2.3820 2.9230 67.8600 216.6910 207.7570 225.6240 77.6820 260.6470 445.9040 1095.6899 917.3340
  406.900 1.3550 2.1380 2.0910 8.1000 1.3230 2.3590 2.9230 66.4460 216.6910 208.3490 225.0320 78.0570 249.2020 447.0690 1095.7900 916.9630
  407.000 1.3170 2.1530 2.0950 8.3600 1.2880 2.3930 2.9550 68.0370 217.2570 208.3490 226.1650 73.1030 252.1990 449.1640 1096.5100 916.8450
  407.100 1.3170 2.0750 2.0940 8.2800 1.2590 2.4720 3.0310 69.9810 218.9560 210.1240 227.7890 76.7180 247.5670 450.5980 1097.9600 917.7190
  407.200 1.2790 2.0510 2.1250 8.2200 1.2590 2.5510 3.0420 72.5440 217.2570 210.1240 224.3900 76.6910 253.1980 452.6280 1099.3600 918.3110
  407.300 1.3170 2.0800 2.1350 8.3800 1.2400 2.6420 3.1930 71.7490 218.9560 211.8990 226.0130 78.2170 252.0630 453.6150 1100.3600 918.9110
  407.400 1.4300 2.0610 2.0890 8.3800 1.2430 2.7430 3.2150 74.2240 219.5230 210.7160 228.3300 81.0550 257.6040 455.1630 1100.9800 918.9110
  407.500 1.3550 1.9810 2.0240 8.4000 1.2030 2.8220 3.2260 74.4010 220.0890 211.8990 228.2790 78.4850 263.5080 456.0950 1100.9100 918.4670
  407.600 1.3170 1.9770 2.0260 8.1200 1.2080 2.8340 3.1830 74.5770 218.9560 212.4910 225.4220 78.5380 268.4140 456.2140 1100.4301 917.9430
  407.700 1.2790 2.0280 1.9740 7.9200 1.2030 2.7770 3.1070 74.5770 218.9560 210.7160 227.1970 77.2800 263.8720 456.6230 1100.0900 917.4460
  407.800 1.2790 2.0700 2.0300 7.6200 1.2320 2.7210 3.0640 74.9310 218.9560 209.5330 228.3800 76.3160 261.9190 457.3800 1100.4900 917.5410
  407.900 1.3170 2.0320 2.0690 7.8600 1.2320 2.6530 3.0090 75.6380 217.2570 209.5330 224.9820 77.1460 258.1490 458.1680 1101.2500 917.9820
  408.000 1.2410 1.9860 2.0780 8.0800 1.2320 2.5510 2.9770 75.4610 217.2570 210.1240 224.3900 78.4310 257.6040 455.7040 1101.9600 919.6790
  408.100 1.2410 1.9950 2.1290 8.1600 1.2560 2.5510 2.9660 73.1630 218.3900 210.7160 226.0640 77.8160 257.0590 451.8540 1102.1300 921.3870
  408.200 1.2790 2.0230 2.1500 8.0400 1.2720 2.5510 3.0200 72.4560 218.9560 211.3080 226.6050 77.6820 257.5130 446.8490 1101.9900 923.2550
  408.300 1.3170 2.1230 2.1300 8.0400 1.2640 2.5400 3.0640 72.2790 217.2570 211.8990 222.6150 75.6740 258.6490 444.4910 1102.2700 924.4760
  408.400 1.3550 2.2280 2.1180 8.3600 1.2720 2.5400 3.0850 73.6930 218.3900 208.3490 228.4310 74.9510 262.8270 443.5980 1103.0400 925.6050
  408.500 1.3920 2.2340 2.1620 8.4000 1.2670 2.5850 3.1280 73.7820 217.2570 208.9410 225.5730 73.1570 253.6530 444.5980 1104.4200 926.5840
  408.600 1.3920 2.2180 2.0680 8.2800 1.2400 2.5740 3.2260 73.3400 217.8240 209.5330 226.1150 69.3550 251.7450 445.4660 1105.1700 926.9800
  408.700 1.3550 2.2340 2.0350 7.9200 1.1950 2.5740 3.2480 73.4280 219.5230 211.8990 227.1460 69.8630 246.3860 446.8040 1105.4700 926.7450
  408.800 1.4300 2.1880 2.0590 8.0200 1.1810 2.6190 3.2260 72.7210 220.0890 208.9410 231.2380 72.9690 245.4320 449.6970 1105.9100 926.0320
  408.900 1.4680 2.1680 2.0160 8.6600 1.2050 2.6190 3.2800 72.3680 218.3900 209.5330 227.2470 71.1750 243.3430 453.2120 1106.4000 925.1150
  409.000 1.3550 2.1430 2.0200 8.9800 1.2370 2.6190 3.3340 72.8980 218.3900 208.3490 228.4310 73.6650 244.2510 456.5040 1106.6700 924.0650
  409.100 1.3550 2.1180 2.0580 8.9000 1.2320 2.6300 3.3770 71.5720 217.2570 209.5330 224.9820 69.4880 246.4310 456.3110 1105.7100 923.1850
  409.200 1.3920 2.0940 2.0810 8.9400 1.2320 2.6980 3.4530 72.2790 217.2570 208.3490 226.1650 71.7110 256.1510 453.0700 1103.8900 922.6590
  409.300 1.3170 2.1480 2.0890 9.3000 1.2160 2.7660 3.5400 70.7770 220.0890 208.9410 231.2380 69.4080 254.1520 448.6040 1102.2900 922.8460
  409.400 1.3170 2.1330 2.1560 9.3400 1.2050 2.7770 3.5720 71.2190 218.9560 209.5330 228.3800 70.5590 246.6580 445.1110 1101.8300 923.7860
  409.500 1.3920 2.1930 2.0950 8.8000 1.1680 2.8000 3.5610 70.5120 221.2220 211.3080 231.1370 65.7130 250.2920 446.2350 1103.8800 925.3800
  409.600 1.3550 2.2650 2.1210 8.3800 1.1200 2.8000 3.4970 70.9540 222.3550 211.3080 233.4030 69.7830 245.4320 449.5500 1107.0000 927.1780
  409.700 1.4300 2.2750 2.1140 8.6800 1.1520 2.7320 3.4970 72.8980 218.9560 208.3490 229.5640 69.0600 247.4760 454.5440 1109.9100 928.0900
  409.800 1.3920 2.2390 2.0830 8.8600 1.2450 2.7100 3.3990 71.0410 219.5230 208.3490 230.6970 70.2920 243.6150 455.0240 1109.6500 927.6440
  409.900 1.4680 2.1930 2.1490 9.1000 1.3230 2.7100 3.3340 71.2190 220.0890 211.3080 228.8710 70.7470 246.3860 453.8430 1107.4600 925.9260
  410.000 1.3920 2.2030 2.1370 9.1400 1.3230 2.6420 3.3670 66.0040 220.6560 211.8990 229.4120 68.5240 250.0190 451.7110 1104.9200 924.2330
