~Version information
  VERS.                           2.00 : CWLS log ASCII Standard -Version 2.00
  WRAP.                             NO : One line per depth step
~Well information
#MNEM.UNIT              Data Type        Information
#----------------------------------------------------------------------
  STRT.M                         0.700 : 
  STOP.M                       819.000 : 
  STEP.M                         0.100 : 
  NULL.                      -999.2500 : 
  COMP.                           CIOC : Company Name
  WELL.                            303 : Well Name
  FLD .                       KARATUBE : Field Name
  CTRY.                     KAZAKHSTAN : Country
  SRVC.         JSC"KAZPROMGEOPHYSICA" : Service company
  DATE.                      30.05.04. : Log date
~Curve information
#MNEM.UNIT                               Curve Description
#----------------------------------------------------------------------
  DEPT.M                               : Depth Curve
  MLL .OHMM                            : Microlaterolog sonde
  LL3 .OHMM                            : Appar.resist.laterolog,3 electrodes
  RHOB.G/C3                            : Bulk density by gamma-gamma log
  GR  .UR/H                            : Gamma-ray log
  NGL .UE                              : Neutron-gamma log
  GZ3 .OHMM                            : App.resistivity by lateral A2.0M0.5N
  GZ3B.OHMM                            : App.resistivity by lateral N0.5M2.0A
  SP  .MV                              : Spontaneous potential
  CALI.MM                              : Caliper
  C1  .MM                              : Diameter from profile1
  C2  .MM                              : Diameter from profile2
  CILR.MMHO                            : Conduct. by sonde 7I1.6,react.signal
  CILA.MMHO                            : Conduct. by sonde 7I1.6,active signal
  DTP .US/M                            : Interval travel time (P-wave)
  T1  .US                              : Travel time1
  T2  .US                              : Travel time2
~Parameter information
#MNEM.UNIT              Value            Description
#----------------------------------------------------------------------
#----------------------------------------------------------------------
  DFV .SEK                       40.00 : Viscosity
  TDL .M                        816.00 : Total Depth-Logger
  BS  .MM                       215.90 : Bit Size
  DFD .G/C3                       1.12 : Drilling Fluid Density
~Ascii Log Data
# ...
  450.700 1.2410 2.0230 1.7720 9.7600 0.9410 3.6020 3.3450 75.9910 222.9220 211.3080 234.5350 75.8070 262.0550 477.2630 1152.7600 961.8570
  450.800 1.1280 2.1830 1.7860 9.0800 0.9870 3.5450 3.4420 78.2890 226.8870 214.8580 238.9150 73.8530 258.8760 464.4090 1147.3900 961.6240
  450.900 1.3170 2.3440 1.7880 8.6000 1.0290 3.6020 3.5400 78.2890 228.5860 214.8580 242.3140 73.2640 262.9630 459.3180 1143.3000 959.5710
  451.000 1.5440 2.3070 1.9390 8.1000 1.1310 3.5790 3.5510 77.1400 227.4530 212.4910 242.4150 78.1370 260.3290 465.4620 1141.7200 955.5350
  451.100 1.5060 2.1980 2.1240 7.7800 1.1550 3.4660 3.4860 76.9640 226.8870 215.4500 238.3240 77.0390 264.1900 479.9190 1142.0500 950.0810
  451.200 1.3170 2.1680 2.0900 7.9600 1.1650 3.2970 3.3770 76.6990 222.3550 214.2660 230.4440 77.8420 261.3280 498.2010 1142.7100 943.4300
  451.300 1.3170 2.1530 2.1390 8.4400 1.1310 3.1390 3.2150 76.4340 224.6210 213.0830 236.1590 75.1920 261.6920 515.3540 1142.4700 936.3280
  451.400 1.2790 2.1680 2.1230 9.0200 1.1650 3.0260 3.0850 75.9030 221.2220 211.8990 230.5450 75.3790 254.6060 528.1130 1141.4600 930.2190
  451.500 1.2790 2.2080 2.0560 9.3800 1.1730 2.9350 2.9660 74.5770 220.6560 210.1240 231.1870 72.8890 252.8350 537.7230 1141.5500 926.4580
  451.600 1.2790 2.1980 1.9610 9.5200 1.1680 2.8560 2.9440 70.7770 219.5230 214.2660 224.7790 75.5930 252.8810 537.0400 1138.8700 924.0520
  451.700 1.2790 2.2700 1.7640 9.3600 1.0720 2.8000 2.9990 69.6280 219.5230 211.8990 227.1460 76.5570 252.0180 518.5290 1129.2400 921.8260
  451.800 1.3170 2.4150 1.6500 8.6400 1.0190 2.8220 3.1390 70.4240 218.3900 207.7570 229.0230 76.4500 254.3790 494.9620 1117.2500 919.2650
  451.900 1.4680 2.4490 1.6770 8.1600 1.0400 2.9470 3.2800 74.2240 216.1240 207.1660 225.0830 77.4670 259.2840 474.3180 1107.2800 917.5480
  452.000 1.6570 2.5060 1.8930 8.0200 1.1250 3.0710 3.3340 75.3730 217.2570 207.1660 227.3480 76.3160 260.1470 466.0210 1103.4700 917.0590
  452.100 1.6190 2.5350 2.0760 8.5400 1.1840 3.1730 3.3670 76.0800 218.9560 209.5330 228.3800 75.1110 256.5140 452.7400 1098.4600 917.3620
  452.200 1.5440 2.5290 2.1710 8.8800 1.1950 3.1610 3.3560 73.6940 217.2570 208.9410 225.5730 74.9510 249.1110 442.5350 1094.8600 917.8440
  452.300 1.5440 2.4270 2.1370 9.2400 1.2320 3.1050 3.2690 69.0090 216.6910 210.1240 223.2570 74.6560 250.0190 436.9280 1093.4200 918.6510
  452.400 1.5440 2.3880 2.1940 9.2000 1.2830 3.0600 3.1280 67.8600 218.9560 210.1240 227.7890 80.4130 246.9310 439.4460 1095.4200 919.6440
  452.500 1.5060 2.3280 2.1750 9.3200 1.2800 2.9580 3.0200 69.9810 217.8240 208.9410 226.7060 78.8870 253.3350 438.4090 1096.2000 920.8360
  452.600 1.4680 2.3230 2.1700 9.7000 1.2320 2.8790 2.9770 73.3400 215.5580 207.7570 223.3580 81.0820 257.2410 435.3910 1095.6700 921.5100
  452.700 1.4680 2.3230 2.1490 9.7800 1.1970 2.7210 2.9770 72.8100 214.9910 205.9820 224.0000 78.1900 249.9280 430.0020 1094.3300 922.3320
  452.800 1.4680 2.3330 2.1620 9.8600 1.2590 2.7210 2.9880 69.2740 217.2570 207.7570 226.7570 78.6190 251.4730 426.1140 1094.8900 924.4430
  452.900 1.4680 2.3440 2.2160 9.5000 1.2960 2.7550 3.0200 67.8600 215.5580 208.3490 222.7660 83.7860 250.7910 419.5020 1097.5601 929.7540
  453.000 1.5060 2.3500 2.1520 9.7200 1.3010 2.7660 3.0740 64.5010 218.3900 211.3080 225.4720 84.6430 253.6070 409.0020 1101.5601 937.9540
  453.100 1.5440 2.3710 2.0890 9.7200 1.2210 2.7770 3.0740 67.7720 218.9560 214.8580 223.0550 85.7950 254.1980 396.9280 1105.1100 946.3400
  453.200 1.4680 2.3070 2.1500 9.8200 1.1840 2.8110 3.0850 69.0970 219.5230 214.8580 224.1880 83.8940 258.0130 392.3420 1109.2700 952.3350
  453.300 1.4680 2.2030 2.1780 9.8200 1.1730 2.8900 3.1070 74.1350 223.4880 211.8990 235.0770 84.4560 255.7420 394.7110 1113.6400 955.7540
  453.400 1.4680 1.9950 2.2040 9.5000 1.1570 2.9690 3.1720 75.1960 224.6210 212.4910 236.7510 83.3580 254.7880 401.0580 1119.1000 958.6810
  453.500 1.3550 1.8580 2.1220 9.2000 1.1330 3.0260 3.0850 77.1410 225.1870 214.8580 235.5170 83.7330 256.1960 404.2630 1123.7300 962.0230
  453.600 1.2030 1.8320 2.1330 9.1600 1.0720 2.9470 2.9660 77.9360 224.0540 215.4500 232.6590 87.9100 254.6520 413.6950 1132.1600 966.6830
  453.700 1.1280 1.8030 2.1850 9.2000 1.0560 2.8680 2.8800 78.4660 229.7190 216.0410 243.3960 89.0610 260.1470 411.9170 1136.7900 972.0190
  453.800 1.2030 1.8200 2.1690 9.2000 1.0830 2.8000 2.7600 79.1730 224.6210 214.2660 234.9760 92.0070 273.9090 412.2380 1145.7100 980.8190
  453.900 1.1280 1.8450 2.1110 9.1000 1.1630 2.6080 2.6740 79.6150 215.5580 211.3080 219.8080 90.8820 269.2760 404.8630 1148.8900 986.9480
  454.000 1.1660 1.9320 2.0930 9.4600 1.1840 2.4950 2.6310 80.1460 216.1240 210.1240 222.1240 86.8920 271.0930 402.6380 1155.2500 994.1920
  454.100 1.2030 1.9140 2.1080 9.5200 1.1600 2.5180 2.6310 80.1460 216.6910 209.5330 223.8490 92.0330 264.3710 411.3400 1158.2000 993.6630
  454.200 1.2410 1.8490 2.0820 8.9000 1.1410 2.5510 2.6740 78.5550 221.2220 208.9410 233.5040 90.5070 269.2310 424.3540 1164.5900 994.8490
  454.300 1.2410 1.7820 2.0440 8.5000 1.1470 2.5630 2.6520 75.6380 218.3900 210.1240 226.6560 94.6310 268.5040 453.5800 1171.7000 990.2690
  454.400 1.2410 1.7740 2.1570 8.3400 1.1390 2.6300 2.6410 76.1680 230.2850 214.8580 245.7130 90.5610 271.2290 466.0930 1176.4399 990.0050
  454.500 1.1660 1.7660 2.1500 8.8400 1.1410 2.6870 2.6200 77.4060 236.5160 220.1830 252.8490 90.5340 275.1350 470.7090 1178.0699 989.7880
  454.600 1.1280 1.7860 2.0970 9.0800 1.1650 2.6640 2.5870 77.2290 239.3490 220.7750 257.9220 88.7130 269.3670 463.3660 1178.1300 992.7810
  454.700 1.0900 1.7740 2.1440 9.4000 1.2130 2.5850 2.5660 76.3450 242.1810 224.3250 260.0360 87.5620 272.8640 461.2600 1179.1500 994.6420
  454.800 1.1280 1.7220 2.1310 9.5800 1.2130 2.5740 2.5550 78.9090 247.2790 227.2840 267.2740 91.2570 272.9100 464.5630 1181.2400 995.4130
  454.900 1.1280 1.6830 2.1270 9.7000 1.2050 2.5630 2.5440 82.1780 247.8450 223.1420 272.5490 89.4090 275.1350 470.9800 1183.6700 995.2720
  455.000 1.0900 1.6870 2.1840 9.9000 1.2050 2.5180 2.5440 80.3220 230.8520 216.0410 245.6620 88.4190 278.6330 474.2190 1183.9900 994.2990
  455.100 1.1280 1.7460 2.2450 10.1200 1.2350 2.5510 2.5980 74.8420 228.0200 216.6330 239.4060 86.6780 282.5840 473.1720 1181.0100 991.7360
  455.200 1.1660 1.8030 2.2970 10.4200 1.2480 2.6080 2.6740 74.2240 230.8520 214.8580 246.8460 85.9820 275.4080 468.9270 1175.9000 988.3300
  455.300 1.2790 1.8110 2.2460 10.5000 1.2290 2.5850 2.7710 74.6660 230.2850 217.2250 243.3460 81.3230 275.9980 465.1640 1170.5500 984.4820
  455.400 1.1660 1.8070 2.1690 10.4000 1.2320 2.6080 2.9010 77.4940 228.5860 216.0410 241.1310 83.6530 272.3650 466.4190 1166.9399 980.3710
  455.500 1.1280 1.7700 2.1380 10.5600 1.2610 2.7100 3.0420 77.4060 221.7890 213.6750 229.9030 80.0910 268.0050 472.7660 1164.1500 975.0470
  455.600 1.1280 1.7910 2.1350 10.9800 1.3280 2.7660 3.1930 79.2620 222.9220 211.8990 233.9440 79.3150 269.8210 483.6530 1161.7200 968.2630
  455.700 1.0900 1.8410 2.0750 11.3000 1.3040 2.7770 3.3560 80.2340 220.6560 211.8990 229.4120 77.2000 271.0930 494.7700 1158.8500 960.9440
  455.800 1.1660 1.9770 2.0540 11.0400 1.2430 2.9240 3.4970 79.0850 225.7540 217.2250 234.2830 74.7630 269.9580 505.1070 1155.3500 953.3100
  455.900 1.2410 2.0750 2.1120 10.8200 1.1550 2.9810 3.6260 76.9640 226.3200 215.4500 237.1910 73.1300 265.0530 512.8650 1151.0800 945.9350
  456.000 1.3920 2.0700 2.0610 10.9600 1.1390 2.9240 3.7560 74.9310 225.7540 216.0410 235.4660 70.6130 260.4200 517.7170 1145.7900 938.7000
  456.100 1.3920 2.0460 2.0510 10.9600 1.1680 2.9810 3.8320 75.7260 218.3900 212.4910 224.2890 70.1040 258.3760 519.6800 1140.4301 932.5570
  456.200 1.2790 2.0560 2.0550 10.7200 1.1600 3.0030 3.8860 77.1400 218.9560 208.9410 228.9720 70.6670 253.7890 520.2920 1135.2200 927.0990
  456.300 1.3170 2.1040 1.9110 10.1600 1.1330 2.9020 3.8860 77.6710 219.5230 209.5330 229.5130 68.9800 257.4220 518.5890 1130.7000 923.2610
  456.400 1.3550 2.1480 1.6880 9.9600 1.0430 2.9020 3.9080 77.6710 217.8240 207.1660 228.4810 69.4880 258.0130 513.7930 1126.6300 921.1100
