~Version information
  VERS.                           2.00 : CWLS log ASCII Standard -Version 2.00
  WRAP.                             NO : One line per depth step
~Well information
#MNEM.UNIT              Data Type        Information
#----------------------------------------------------------------------
  STRT.M                         0.700 : 
  STOP.M                       819.000 : 
  STEP.M                         0.100 : 
  NULL.                      -999.2500 : 
  COMP.                           CIOC : Company Name
  WELL.                            303 : Well Name
  FLD .                       KARATUBE : Field Name
  CTRY.                     KAZAKHSTAN : Country
  SRVC.         JSC"KAZPROMGEOPHYSICA" : Service company
  DATE.                      30.05.04. : Log date
~Curve information
#MNEM.UNIT                               Curve Description
#----------------------------------------------------------------------
  DEPT.M                               : Depth Curve
  MLL .OHMM                            : Microlaterolog sonde
  LL3 .OHMM                            : Appar.resist.laterolog,3 electrodes
  RHOB.G/C3                            : Bulk density by gamma-gamma log
  GR  .UR/H                            : Gamma-ray log
  NGL .UE                              : Neutron-gamma log
  GZ3 .OHMM                            : App.resistivity by lateral A2.0M0.5N
  GZ3B.OHMM                            : App.resistivity by lateral N0.5M2.0A
  SP  .MV                              : Spontaneous potential
  CALI.MM                              : Caliper
  C1  .MM                              : Diameter from profile1
  C2  .MM                              : Diameter from profile2
  CILR.MMHO                            : Conduct. by sonde 7I1.6,react.signal
  CILA.MMHO                            : Conduct. by sonde 7I1.6,active signal
  DTP .US/M                            : Interval travel time (P-wave)
  T1  .US                              : Travel time1
  T2  .US                              : Travel time2
~Parameter information
#MNEM.UNIT              Value            Description
#----------------------------------------------------------------------
#----------------------------------------------------------------------
  DFV .SEK                       40.00 : Viscosity
  TDL .M                        816.00 : Total Depth-Logger
  BS  .MM                       215.90 : Bit Size
  DFD .G/C3                       1.12 : Drilling Fluid Density
~Ascii Log Data
# ...
  589.800 1.3170 1.4620 1.6990 8.5400 1.1090 1.8400 2.6090 84.9180 368.4990 301.8400 435.1580 94.4970 269.0490 409.9410 1154.2800 990.3040
  589.900 1.2790 1.5070 1.7410 8.3800 1.1330 1.7380 2.5440 84.9190 355.4710 304.7990 406.1420 94.7640 269.4130 407.6210 1150.4900 987.4430
  590.000 1.3550 1.5560 1.7760 8.4800 1.2210 1.6930 2.5110 84.0350 329.9800 294.1480 365.8130 96.0500 275.8620 415.4590 1150.7300 984.5510
  590.100 1.4680 1.5960 1.7550 8.4000 1.2400 1.6710 2.5330 79.0840 298.8260 264.5620 333.0890 93.9080 281.4480 427.9530 1151.2400 980.0560
  590.200 1.5440 1.6290 1.8030 8.5400 1.1920 1.7160 2.6090 76.6980 280.1330 260.4200 299.8460 92.7290 292.0760 443.4070 1149.4100 972.0490
  590.300 1.3170 1.7060 1.7660 8.4200 1.1360 1.7610 2.6630 74.1350 305.6230 287.0470 324.1990 90.1860 278.2690 461.7400 1144.6801 959.9800
  590.400 1.2790 1.8030 1.7020 8.6200 1.1120 1.8060 2.8150 76.0800 338.4770 320.7750 356.1790 83.3850 277.2700 481.4110 1139.1801 946.6120
  590.500 1.3550 1.7740 1.7380 8.3000 1.0960 1.9080 2.9660 74.1360 317.5190 279.9470 355.0900 86.1690 263.4630 501.1930 1132.7900 932.3140
  590.600 1.3170 1.6630 1.6330 7.7600 1.0850 2.0320 3.1070 78.0260 289.7630 259.2370 320.2880 83.7060 262.3730 516.7200 1123.9700 917.2870
  590.700 1.2790 1.6750 1.5900 7.3200 1.0930 2.1450 3.1070 80.6760 312.9870 287.6390 338.3350 84.4560 258.2850 533.6040 1112.6200 899.1820
  590.800 1.0900 1.8160 1.5740 7.1600 1.1250 2.2350 3.0310 85.5370 341.8760 294.7400 389.0120 83.1440 258.1940 541.8650 1099.8199 883.0740
  590.900 1.0900 1.7990 1.5000 7.2600 1.1330 2.3140 3.1720 85.2720 315.2530 264.5620 365.9430 82.1800 256.0600 535.8550 1085.6000 871.2570
  591.000 1.3920 1.7300 1.5520 7.1200 1.1090 2.3710 3.2150 83.7700 258.6080 234.9760 282.2390 81.8320 255.6060 498.4740 1063.8900 864.4990
  591.100 1.3550 1.8710 1.6960 7.0800 1.0720 2.3480 3.0960 82.0900 273.9020 249.1780 298.6260 80.8680 254.8790 471.3950 1049.4500 860.8890
  591.200 1.2790 2.1480 1.8480 6.6200 1.0030 2.3710 3.1280 81.2070 290.8950 256.8700 324.9210 80.7340 254.3790 442.9860 1035.4200 858.2230
  591.300 1.2030 2.3550 1.9450 6.3200 0.9410 2.5060 3.3020 82.1780 319.2180 266.3370 372.0980 83.8670 249.7010 439.1870 1033.6400 857.9680
  591.400 1.5810 2.1880 1.9600 6.3200 0.9630 2.6980 3.3990 83.4160 336.7780 276.9880 396.5670 84.5360 250.2460 418.6930 1025.7800 858.3010
  591.500 1.3170 2.0510 1.8660 6.8000 1.0130 2.7660 3.3770 80.5000 335.0780 281.7220 388.4350 84.2680 251.7450 409.9710 1022.9800 858.9880
  591.600 1.5060 1.9450 1.9210 7.7400 1.0930 2.8790 3.2800 78.9960 333.9460 279.9470 387.9440 83.5190 256.9230 408.0880 1020.2000 856.9650
  591.700 1.5810 1.8840 2.1160 8.4400 1.1520 2.9690 3.1280 78.9080 338.4770 281.1300 395.8240 82.3670 253.8800 410.8870 1018.2000 853.8460
  591.800 1.5810 1.8410 2.1780 8.9600 1.1920 2.9130 2.8800 79.8810 300.5250 258.0530 342.9970 83.9470 251.5180 422.5230 1018.7800 849.7690
  591.900 1.3550 1.7990 2.1510 9.0200 1.2290 2.6080 2.6520 80.2340 245.5800 229.6510 261.5080 83.3850 253.9710 430.0640 1017.5500 845.5300
  592.000 1.3550 1.8240 2.0900 8.9800 1.2670 2.4610 2.4570 80.5870 226.8870 217.8170 235.9570 90.7480 255.1060 441.3830 1018.1300 841.5730
  592.100 1.5440 1.8710 2.1910 9.0400 1.2720 2.3260 2.3060 82.5320 220.0890 216.6330 223.5460 90.6950 260.6020 441.5400 1015.0900 838.4740
  592.200 1.3920 1.9230 2.2090 9.1800 1.2400 2.2010 2.2620 84.3880 218.9560 211.3080 226.6050 97.6030 264.5080 437.7050 1013.5300 838.4530
  592.300 1.5440 2.0610 2.1890 9.2200 1.2190 2.1450 2.2840 83.6810 217.8240 210.7160 224.9310 95.1660 269.1400 428.3100 1009.6300 838.3050
  592.400 1.6570 2.1280 2.1920 9.1400 1.2270 2.1450 2.3060 84.2120 216.6910 210.1240 223.2570 98.3260 277.3610 417.4120 1005.7800 838.8140
  592.500 1.6950 2.1530 2.1930 9.1800 1.2530 2.2240 2.3820 83.5040 214.4250 208.9410 219.9090 96.0230 270.0030 408.6520 1001.5500 838.0940
  592.600 1.6950 2.1090 2.1950 9.5800 1.2160 2.3260 2.4680 82.9740 216.6910 212.4910 220.8900 95.4070 269.0950 405.2360 1000.3800 838.2820
  592.700 1.6950 2.0940 2.1830 10.0800 1.1790 2.4160 2.5010 80.2340 217.2570 213.0830 221.4310 97.4150 267.0960 404.9880 1000.3800 838.3880
  592.800 1.7330 2.0700 2.2440 10.1400 1.1810 2.4720 2.4900 79.0850 220.6560 213.0830 228.2290 100.5480 265.4610 404.4110 1000.5400 838.7740
  592.900 1.6950 2.0650 2.1870 10.0800 1.1870 2.4840 2.4570 78.0250 222.3550 214.2660 230.4440 101.6460 266.5060 404.6210 1000.4500 838.5980
  593.000 1.7330 2.0000 2.0950 10.1800 1.2290 2.5060 2.4030 80.1450 218.3900 213.0830 223.6970 103.3060 268.9590 405.4260 1000.2800 838.1100
  593.100 1.6950 1.9720 2.1720 10.2000 1.2430 2.5400 2.3710 80.8530 217.2570 210.1240 224.3900 102.6900 275.5900 405.9840 1000.1700 837.7730
  593.200 1.7330 1.9680 2.1990 9.8800 1.2590 2.5060 2.3170 82.0900 218.3900 208.9410 227.8390 103.3860 275.7710 406.1030 1000.1000 837.6620
  593.300 1.6570 1.9630 2.1520 9.7200 1.2190 2.4380 2.2620 81.6480 221.7890 212.4910 231.0860 101.0570 273.9090 405.7160 999.8070 837.5200
  593.400 1.6950 1.9680 2.2000 9.5800 1.1840 2.4270 2.2520 75.9010 217.8240 212.4910 223.1560 102.1540 272.5470 406.0280 999.4870 837.0760
  593.500 1.6190 1.9450 2.1690 9.5800 1.1790 2.4610 2.2190 72.6340 218.3900 211.3080 225.4720 104.9660 273.3640 406.7840 999.3550 836.6410
  593.600 1.6190 1.9140 2.1550 9.4600 1.2080 2.4950 2.1760 71.9270 216.6910 211.8990 221.4820 106.8940 273.1820 408.0460 999.6620 836.4440
  593.700 1.6570 1.9010 2.1660 9.2800 1.2350 2.4720 2.1220 76.5220 216.1240 211.8990 220.3490 108.9550 276.6800 407.2910 999.6070 836.6910
  593.800 1.6950 1.9010 2.1430 9.3200 1.2590 2.4840 2.1220 78.0250 217.2570 210.1240 224.3900 109.3030 279.8590 406.0010 999.4550 837.0540
  593.900 1.7700 1.8970 2.1370 8.8600 1.2690 2.5180 2.1110 77.8480 219.5230 209.5330 229.5130 109.3030 283.3110 403.9820 999.3070 837.7140
  594.000 1.7330 1.9100 2.1260 8.7600 1.2560 2.5400 2.0890 77.6710 217.2570 213.0830 221.4310 109.0360 273.7270 404.3140 1000.1200 838.3910
  594.100 1.6190 1.9100 2.1360 8.7000 1.2400 2.5510 2.0240 78.3780 217.8240 212.4910 223.1560 104.6980 277.5880 405.8860 1001.2600 838.9050
  594.200 1.7330 1.9230 2.1550 9.0800 1.2110 2.5180 2.0570 77.2290 220.6560 211.8990 229.4120 112.3830 270.4570 407.5540 1001.8700 838.8450
  594.300 1.8080 1.9320 2.1330 9.3600 1.1870 2.4270 2.0240 78.1130 217.2570 211.3080 223.2060 109.7050 274.5000 408.5660 1001.9100 838.4820
  594.400 1.8080 1.9230 2.1740 9.3600 1.1630 2.3590 2.0570 78.0250 214.4250 208.3490 220.5010 116.3450 272.5470 408.9040 1001.7200 838.1570
  594.500 1.6950 1.9190 2.1520 9.3600 1.1650 2.3710 2.0240 79.3500 215.5580 207.1660 223.9500 113.4000 277.4970 408.5730 1001.4500 838.0230
  594.600 1.6950 1.8970 2.1550 9.4000 1.1760 2.3590 2.0240 72.4540 215.5580 207.1660 223.9500 115.0600 284.0830 407.7020 1001.1600 838.0750
  594.700 1.6950 1.8840 2.1170 9.6200 1.1950 2.3030 2.0130 69.3630 214.9910 207.7570 222.2250 113.4000 276.4070 406.6840 1001.0200 838.3490
  594.800 1.6190 1.8620 2.1620 9.8200 1.1950 2.2690 2.0240 69.6260 214.9910 210.7160 219.2670 113.4540 273.4550 406.8650 1001.6300 838.8810
  594.900 1.6950 1.8880 2.1730 9.9600 1.1730 2.3030 2.0130 75.0200 218.3900 210.1240 226.6560 116.7200 271.8200 406.7080 1001.9400 839.2550
  595.000 1.6950 1.8840 2.1610 9.9000 1.1470 2.3260 2.0030 78.5550 216.1240 213.0830 219.1660 120.0940 270.5940 406.6290 1002.0700 839.4200
  595.100 1.6570 1.9010 2.1220 9.7600 1.1330 2.3260 1.9920 77.5820 214.4250 210.1240 218.7250 122.4770 272.0020 406.2050 1002.0900 839.6070
  595.200 1.7330 1.8880 2.1230 9.5800 1.2240 2.3260 1.9920 76.5220 215.5580 207.1660 223.9500 123.7090 274.9540 406.9130 1002.5500 839.7900
  595.300 1.7330 1.8790 2.0850 9.6400 1.2960 2.3370 1.9810 74.1360 214.9910 207.7570 222.2250 123.7890 278.4050 406.3180 1002.4200 839.8950
  595.400 1.6570 1.8620 2.1260 9.5800 1.2800 2.3590 1.9810 72.1910 214.4250 210.1240 218.7250 125.4760 269.4580 406.0040 1002.4100 840.0030
  595.500 1.6570 1.8320 2.1830 9.4600 1.1970 2.3140 1.9700 72.8090 214.9910 209.5330 220.4500 122.8250 270.9570 404.4980 1003.1100 841.3100
