~Version information
  VERS.                           2.00 : CWLS log ASCII Standard -Version 2.00
  WRAP.                             NO : One line per depth step
~Well information
#MNEM.UNIT              Data Type        Information
#----------------------------------------------------------------------
  STRT.M                         0.700 : 
  STOP.M                       819.000 : 
  STEP.M                         0.100 : 
  NULL.                      -999.2500 : 
  COMP.                           CIOC : Company Name
  WELL.                            303 : Well Name
  FLD .                       KARATUBE : Field Name
  CTRY.                     KAZAKHSTAN : Country
  SRVC.         JSC"KAZPROMGEOPHYSICA" : Service company
  DATE.                      30.05.04. : Log date
~Curve information
#MNEM.UNIT                               Curve Description
#----------------------------------------------------------------------
  DEPT.M                               : Depth Curve
  MLL .OHMM                            : Microlaterolog sonde
  LL3 .OHMM                            : Appar.resist.laterolog,3 electrodes
  RHOB.G/C3                            : Bulk density by gamma-gamma log
  GR  .UR/H                            : Gamma-ray log
  NGL .UE                              : Neutron-gamma log
  GZ3 .OHMM                            : App.resistivity by lateral A2.0M0.5N
  GZ3B.OHMM                            : App.resistivity by lateral N0.5M2.0A
  SP  .MV                              : Spontaneous potential
  CALI.MM                              : Caliper
  C1  .MM                              : Diameter from profile1
  C2  .MM                              : Diameter from profile2
  CILR.MMHO                            : Conduct. by sonde 7I1.6,react.signal
  CILA.MMHO                            : Conduct. by sonde 7I1.6,active signal
  DTP .US/M                            : Interval travel time (P-wave)
  T1  .US                              : Travel time1
  T2  .US                              : Travel time2
~Parameter information
#MNEM.UNIT              Value            Description
#----------------------------------------------------------------------
#----------------------------------------------------------------------
  DFV .SEK                       40.00 : Viscosity
  TDL .M                        816.00 : Total Depth-Logger
  BS  .MM                       215.90 : Bit Size
  DFD .G/C3                       1.12 : Drilling Fluid Density
~Ascii Log Data
# ...
  357.900 1.4300 2.5230 2.2060 10.3200 1.0560 3.2970 3.9620 85.0070 229.1530 210.1240 248.1810 46.7830 221.4970 509.9530 1184.1300 980.1480
  358.000 1.4300 2.5180 2.1840 9.9000 1.0690 3.2630 3.9730 85.0950 222.9220 207.7570 238.0860 46.3280 219.0900 512.0150 1178.8101 974.0010
  358.100 1.4680 2.4950 2.1980 9.8200 1.1170 3.3190 4.0050 84.3000 219.5230 207.7570 231.2880 44.9620 218.1810 509.8670 1170.0400 966.0910
  358.200 1.3920 2.4770 2.2200 9.5400 1.1410 3.3310 4.0380 84.8300 219.5230 209.5330 229.5130 47.8270 213.1400 503.4040 1158.0900 956.7280
  358.300 1.5440 2.4600 2.2370 9.9200 1.1730 3.3760 4.0490 84.9190 219.5230 209.5330 229.5130 46.5150 216.1830 494.2030 1146.6100 948.9330
  358.400 1.4680 2.4600 2.2610 10.2000 1.1840 3.4660 4.0700 85.2720 230.2850 213.0830 247.4880 46.6490 214.6390 481.6630 1136.7400 944.0730
  358.500 1.5060 2.4720 2.2260 10.5000 1.2290 3.4440 4.0920 85.1840 219.5230 209.5330 229.5130 49.7010 218.0900 465.6270 1129.0500 942.7990
  358.600 1.5810 2.5000 2.2160 11.1400 1.2450 3.5110 4.1460 83.5930 220.6560 210.1240 231.1870 47.3720 221.3150 446.7480 1121.5800 942.8840
  358.700 1.4680 2.5530 2.1980 12.0000 1.2610 3.5230 4.2220 78.6430 219.5230 208.9410 230.1050 48.6840 225.6750 431.3690 1115.3000 942.7530
  358.800 1.4680 2.5640 2.1280 12.7000 1.2690 3.6020 4.2760 76.3450 218.3900 208.9410 227.8390 47.6130 227.6280 425.4370 1111.3000 941.1270
  358.900 1.5810 2.4950 2.1170 12.2000 1.2610 3.6920 4.3300 77.9350 221.7890 206.5740 237.0030 46.4350 218.5450 431.7810 1110.9500 938.2330
  359.000 1.3920 2.4150 2.1230 11.2200 1.2400 3.7260 4.3730 82.7970 218.9560 208.9410 228.9720 44.7750 222.0420 447.4310 1114.5100 935.5330
  359.100 1.3550 2.3660 2.2090 10.7000 1.1970 3.7710 4.3730 84.7420 218.3900 208.9410 227.8390 45.4980 220.4970 464.4350 1120.4100 934.6310
  359.200 1.3170 2.3990 2.1420 10.9000 1.2050 3.7710 4.3410 84.4770 223.4880 209.5330 237.4430 49.6480 220.6340 478.6010 1127.2500 935.8130
  359.300 1.4300 2.4320 2.1360 10.9400 1.2190 3.7710 4.3840 83.7700 225.1870 210.1240 240.2500 47.3450 221.0430 486.6590 1131.7300 937.0620
  359.400 1.4300 2.4600 2.1560 10.9200 1.2480 3.7600 4.3630 82.8860 221.2220 207.7570 234.6870 50.1570 217.7270 490.9010 1133.1500 936.7900
  359.500 1.3550 2.5000 2.2390 10.5800 1.2670 3.7260 4.3520 82.3550 220.6560 208.3490 232.9620 46.8100 222.7230 491.7240 1131.6500 934.9600
  359.600 1.4680 2.5120 2.1950 10.1800 1.2110 3.7260 4.2760 81.3830 225.7540 211.3080 240.2000 46.1670 222.9050 490.3910 1129.5699 933.4140
  359.700 1.4300 2.5290 2.1800 9.6600 1.1730 3.6810 4.2760 82.0020 227.4530 216.0410 238.8650 46.9170 228.9450 487.0550 1128.3199 933.4970
  359.800 1.3920 2.5470 2.1690 9.6200 1.1360 3.6690 4.2330 80.4110 228.0200 220.7750 235.2640 44.7480 218.9990 481.6110 1128.4399 935.8000
  359.900 1.3920 2.5230 2.2080 10.0800 1.1470 3.5900 4.1790 82.0900 226.3200 214.8580 237.7830 44.4800 218.7260 473.0220 1129.5900 940.3850
  360.000 1.4300 2.5350 2.2700 10.5800 1.1440 3.5110 4.1350 81.6480 226.3200 214.8580 237.7830 42.7670 216.0470 461.5190 1131.2700 946.6610
  360.100 1.3920 2.6000 2.1850 10.5600 1.1390 3.4890 4.0920 82.9740 227.4530 213.0830 241.8230 47.8000 212.6400 448.7360 1133.2200 953.7250
  360.200 1.5440 2.6180 2.2210 10.2400 1.1870 3.5110 4.0920 80.4110 228.5860 214.8580 242.3140 43.4630 212.7310 439.2190 1136.0400 960.3480
  360.300 1.5060 2.5880 2.1850 9.8600 1.2850 3.5000 4.0920 80.3220 225.1870 213.0830 237.2920 45.6310 210.0060 433.3430 1140.3300 966.9940
  360.400 1.4300 2.5700 2.1430 9.4000 1.3070 3.4770 4.0700 81.3830 221.7890 210.1240 233.4530 43.5970 214.3660 435.1710 1147.8900 973.8200
  360.500 1.4680 2.5940 2.1260 9.1600 1.2770 3.4440 4.0590 84.0350 220.0890 209.5330 230.6460 44.1590 217.0000 434.5640 1155.6700 981.8410
  360.600 1.4300 2.6480 2.1310 9.0000 1.2320 3.4660 4.0590 84.5650 218.9560 209.5330 228.3800 45.3640 221.8150 431.8280 1163.1300 990.4020
  360.700 1.4680 2.6850 2.1270 9.1400 1.2450 3.4770 4.0920 84.5650 218.9560 210.7160 227.1970 43.2750 216.8640 422.2770 1168.4700 999.5560
  360.800 1.4680 2.7350 2.1310 9.2000 1.2590 3.5110 4.1790 84.2120 220.0890 209.5330 230.6460 43.4360 215.1840 414.5940 1174.3500 1008.5200
  360.900 1.5060 2.7290 2.1590 9.2800 1.2370 3.5450 4.2540 84.8300 220.6560 208.9410 232.3710 42.9540 212.7760 400.9500 1177.2200 1016.8400
  361.000 1.5060 2.6910 2.2230 9.5400 1.2110 3.6020 4.3080 84.4770 226.3200 211.3080 241.3330 44.5600 211.2320 397.8410 1183.0000 1023.8600
  361.100 1.5810 2.6300 2.1940 9.8800 1.2110 3.7030 4.4380 83.1510 228.0200 213.6750 242.3650 42.9810 211.9590 402.9420 1189.6700 1028.4900
  361.200 1.5810 2.6670 2.2430 10.7000 1.1810 3.7370 4.4600 82.0900 227.4530 208.3490 246.5570 45.3640 210.9140 420.5350 1198.5300 1030.3199
  361.300 1.4680 2.7100 2.3250 11.4600 1.1490 3.7940 4.4920 81.8250 230.8520 210.7160 250.9880 45.0690 213.5030 432.3880 1203.0900 1030.1300
  361.400 1.5810 2.7100 2.1890 11.6200 1.1360 3.8610 4.5680 82.9740 235.9500 214.2660 257.6340 43.5970 216.3190 438.7670 1204.7000 1029.2000
  361.500 1.8460 2.6300 2.1860 10.8200 1.1730 3.9290 4.6120 83.7690 241.6140 219.0000 264.2290 43.5430 217.6360 458.0920 1212.1000 1028.8600
  361.600 1.5440 2.5880 2.3060 9.9600 1.2210 3.9520 4.6330 83.5040 247.8450 222.5500 273.1400 41.9630 211.9130 474.4380 1219.0699 1029.2900
  361.700 1.4300 2.5230 2.2250 9.7000 1.2130 3.9740 4.6120 84.2110 237.0830 215.4500 258.7160 40.3300 209.5970 487.4440 1225.9200 1030.9399
  361.800 1.4300 2.4830 2.0920 9.8200 1.1490 4.0200 4.5570 84.0350 234.8170 216.0410 253.5930 40.4100 209.8240 480.7470 1225.8400 1033.5500
  361.900 1.3920 2.5180 2.0430 9.4800 1.1360 3.9860 4.5030 84.0350 235.9500 217.2250 254.6750 44.0790 211.5960 474.2670 1225.5900 1035.8800
  362.000 1.4300 2.5290 2.0460 9.3200 1.1330 3.9520 4.4600 83.5930 242.7470 221.3670 264.1280 44.5070 214.7750 472.6880 1225.1200 1036.0500
  362.100 1.5060 2.5410 2.1010 9.3600 1.1680 3.9070 4.4280 83.6810 228.0200 213.0830 242.9560 45.9260 216.0470 475.2330 1224.7200 1034.6300
  362.200 1.5440 2.5590 2.1770 9.9400 1.1600 3.8840 4.4170 84.4770 231.9850 212.4910 251.4780 45.1500 218.9080 480.2430 1224.2400 1032.1400
  362.300 1.5810 2.5230 2.2060 10.2600 1.1410 3.8610 4.4170 84.7420 233.1180 213.6750 252.5610 44.7750 223.0860 483.6630 1223.4000 1029.9301
  362.400 1.4680 2.5470 2.1000 10.2800 1.1250 3.8390 4.4170 81.2950 226.3200 211.3080 241.3330 44.5340 224.9940 486.1010 1222.3800 1027.9399
  362.500 1.4680 2.5230 2.0800 9.9600 1.1070 3.8050 4.3840 79.8810 233.1180 212.4910 253.7440 43.4630 215.9560 485.4690 1220.9200 1026.7300
  362.600 1.4300 2.5590 2.1260 9.8600 1.0510 3.7490 4.4060 79.7920 222.9220 208.3490 237.4940 40.7050 217.5450 480.6080 1219.1500 1026.9000
  362.700 1.4300 2.5760 2.2150 10.2000 1.0610 3.7030 4.4060 82.4440 224.6210 208.3490 240.8930 42.4990 213.2310 473.0340 1216.8101 1027.5900
  362.800 1.5060 2.6300 2.1650 10.7800 1.0850 3.6810 4.4170 84.0350 227.4530 207.1660 247.7410 45.6310 216.5010 466.1780 1214.9100 1028.4399
  362.900 1.4300 2.6670 2.0770 10.8400 1.1470 3.6360 4.3840 83.3280 218.9560 205.9820 231.9310 44.2930 214.3660 461.9440 1214.4399 1029.6600
  363.000 1.5440 2.6910 2.1290 10.7600 1.1630 3.6360 4.3950 83.4160 218.3900 209.5330 227.2470 46.9430 214.7290 460.4550 1215.7900 1031.6100
  363.100 1.5060 2.6790 2.1810 10.4800 1.1810 3.5680 4.4060 83.2390 223.4880 213.0830 233.8930 42.6860 215.9100 462.4690 1218.7000 1033.7100
  363.200 1.3920 2.6730 2.1640 10.7000 1.1680 3.6130 4.3950 83.8580 223.4880 210.1240 236.8520 44.9890 222.7680 468.0210 1222.0601 1034.8600
  363.300 1.3550 2.6790 2.1960 10.7800 1.1330 3.5570 4.4170 84.9190 220.6560 211.3080 230.0040 42.2850 217.2730 477.9090 1225.3600 1034.1899
  363.400 1.4300 2.6550 2.1900 11.0800 1.1120 3.6360 4.4380 85.2720 224.0540 208.9410 239.1680 43.9980 209.8240 487.9730 1228.4301 1033.2400
  363.500 1.5440 2.5760 2.1880 11.5800 1.1360 3.6360 4.4380 85.5370 221.7890 208.9410 234.6370 39.2320 212.2770 498.0590 1231.2500 1032.0300
  363.600 1.3170 2.5000 2.1830 12.2000 1.1490 3.6920 4.4490 85.4490 218.3900 208.3490 228.4310 43.4360 208.4620 502.7580 1233.0699 1031.9700
