~Version information
  VERS.                           2.00 : CWLS log ASCII Standard -Version 2.00
  WRAP.                             NO : One line per depth step
~Well information
#MNEM.UNIT              Data Type        Information
#----------------------------------------------------------------------
  STRT.M                         0.700 : 
  STOP.M                       819.000 : 
  STEP.M                         0.100 : 
  NULL.                      -999.2500 : 
  COMP.                           CIOC : Company Name
  WELL.                            303 : Well Name
  FLD .                       KARATUBE : Field Name
  CTRY.                     KAZAKHSTAN : Country
  SRVC.         JSC"KAZPROMGEOPHYSICA" : Service company
  DATE.                      30.05.04. : Log date
~Curve information
#MNEM.UNIT                               Curve Description
#----------------------------------------------------------------------
  DEPT.M                               : Depth Curve
  MLL .OHMM                            : Microlaterolog sonde
  LL3 .OHMM                            : Appar.resist.laterolog,3 electrodes
  RHOB.G/C3                            : Bulk density by gamma-gamma log
  GR  .UR/H                            : Gamma-ray log
  NGL .UE                              : Neutron-gamma log
  GZ3 .OHMM                            : App.resistivity by lateral A2.0M0.5N
  GZ3B.OHMM                            : App.resistivity by lateral N0.5M2.0A
  SP  .MV                              : Spontaneous potential
  CALI.MM                              : Caliper
  C1  .MM                              : Diameter from profile1
  C2  .MM                              : Diameter from profile2
  CILR.MMHO                            : Conduct. by sonde 7I1.6,react.signal
  CILA.MMHO                            : Conduct. by sonde 7I1.6,active signal
  DTP .US/M                            : Interval travel time (P-wave)
  T1  .US                              : Travel time1
  T2  .US                              : Travel time2
~Parameter information
#MNEM.UNIT              Value            Description
#----------------------------------------------------------------------
#----------------------------------------------------------------------
  DFV .SEK                       40.00 : Viscosity
  TDL .M                        816.00 : Total Depth-Logger
  BS  .MM                       215.90 : Bit Size
  DFD .G/C3                       1.12 : Drilling Fluid Density
~Ascii Log Data
# ...
  497.100 1.4300 1.9140 2.1300 10.9000 1.2990 3.5230 2.6850 71.3950 246.1460 243.8520 248.4400 78.7790 248.7020 439.4190 1104.8500 929.0860
  497.200 1.4300 1.8360 2.2210 10.6600 1.2800 3.3980 2.6410 66.9760 237.0830 235.5680 238.5980 79.6360 258.5120 455.1030 1105.7600 923.7210
  497.300 1.3550 1.7700 2.2010 10.2400 1.2350 3.3080 2.6310 68.8320 234.8170 236.1600 233.4740 80.0910 255.3790 470.6490 1105.3800 917.1170
  497.400 1.2790 1.7540 2.1110 9.8400 1.2080 3.2520 2.5870 68.7430 238.7820 234.9760 242.5880 77.8420 257.0590 486.7610 1103.3500 908.6430
  497.500 1.2410 1.7820 1.9890 9.7200 1.1870 3.2180 2.6310 72.7210 250.1110 230.2430 269.9800 83.2780 259.1480 504.7420 1099.9399 898.0410
  497.600 1.3550 1.8070 2.0130 9.9400 1.1870 3.2180 2.6410 72.0140 241.0480 237.3430 244.7530 83.7860 258.4670 519.8600 1095.9800 888.0400
  497.700 1.3170 1.8030 2.0710 10.2400 1.1570 3.2400 2.6410 72.1030 235.9500 226.1010 245.7990 84.7240 261.6460 527.6870 1090.9100 879.8330
  497.800 1.2410 1.7820 2.0530 10.3800 1.1170 3.2060 2.6950 72.6330 226.3200 216.0410 236.5990 87.4810 272.1380 524.1720 1084.2800 874.6110
  497.900 1.2790 1.8110 1.9710 10.2000 1.0910 3.1160 2.7500 69.8930 218.3900 207.1660 229.6140 85.5000 262.6000 507.7870 1075.3800 872.2650
  498.000 1.1660 1.8450 2.0270 9.8800 1.1330 3.0820 2.8150 69.0090 220.0890 208.9410 231.2380 81.8320 262.3730 481.8590 1065.3199 872.5730
  498.100 1.3170 2.0610 2.2240 9.4800 1.1810 3.0370 2.8250 63.7060 216.6910 205.3910 227.9910 91.7120 257.0140 452.2050 1055.6500 874.7650
  498.200 1.2410 2.3440 2.1790 9.2800 1.2290 3.0140 2.8800 61.7610 219.5230 206.5740 232.4720 91.1760 260.7830 430.3260 1048.6400 876.5080
  498.300 1.5060 2.3770 2.1700 9.1400 1.2240 3.0260 2.9010 60.1710 218.3900 207.1660 229.6140 93.8810 259.1030 419.7870 1045.6100 877.7000
  498.400 1.6190 2.3170 2.2020 9.3800 1.2350 3.0600 2.8470 55.7520 218.9560 208.3490 229.5640 92.3810 260.3290 417.7510 1045.7900 878.6860
  498.500 1.5810 2.3070 2.2090 9.5000 1.2450 2.9580 2.8150 57.9610 217.2570 205.9820 228.5320 92.4620 258.9210 419.4060 1047.5699 879.8090
  498.600 1.6190 2.3120 2.2340 9.9400 1.2830 2.8340 2.7820 55.4860 217.8240 206.5740 229.0730 92.6760 251.2450 420.3490 1049.2600 881.1160
  498.700 1.6190 2.3280 2.2670 9.9600 1.2350 2.6980 2.7170 61.7610 218.3900 206.5740 230.2060 94.0410 248.2020 421.5550 1050.6600 882.0370
  498.800 1.6570 2.3230 2.2170 10.1400 1.2190 2.6420 2.6630 62.1150 216.6910 205.9820 227.3990 99.2360 248.6110 423.1410 1051.7200 882.4670
  498.900 1.6950 2.2340 2.1330 10.0000 1.1890 2.6980 2.6200 67.2410 216.6910 205.3910 227.9910 100.7620 251.3360 425.6000 1052.6899 882.4510
  499.000 1.6570 2.1140 2.1400 9.9600 1.2430 2.7320 2.5660 69.4510 218.3900 206.5740 230.2060 101.1100 260.2840 427.5740 1053.2900 882.2550
  499.100 1.6190 1.9860 2.0850 9.5600 1.2670 2.7430 2.5110 71.1300 216.6910 204.7990 228.5820 103.4130 254.6060 428.8300 1053.5800 882.0520
  499.200 1.5060 1.9010 2.1670 9.2400 1.3410 2.7210 2.4460 70.2460 214.9910 204.7990 225.1840 102.9840 259.3300 429.0430 1053.4100 881.7950
  499.300 1.3920 1.8530 2.1510 8.8400 1.3840 2.6190 2.3490 71.2190 217.8240 204.7990 230.8480 110.6690 261.4190 428.8390 1053.1700 881.6350
  499.400 1.4300 1.8200 2.1340 8.4400 1.3790 2.4950 2.2620 69.7160 216.6910 204.7990 228.5820 112.2750 263.3720 428.7520 1052.9800 881.4800
  499.500 1.3920 1.7860 2.0680 7.7400 1.3330 2.4270 2.1760 68.1250 215.5580 205.3910 225.7250 115.9710 273.5910 428.7260 1053.0300 881.5390
  499.600 1.3920 1.7500 2.0640 7.5600 1.3280 2.3140 2.1000 65.8270 215.5580 206.5740 224.5420 120.2550 288.2160 429.5990 1053.6500 881.8110
  499.700 1.4300 1.7300 2.0790 7.6400 1.3730 2.2460 2.0680 65.0320 216.1240 205.3910 226.8580 118.8090 280.0410 430.5520 1054.3300 882.1140
  499.800 1.3920 1.6940 2.0890 8.0400 1.3840 2.2240 2.0350 64.5900 218.3900 207.1660 229.6140 116.3190 282.8110 432.1670 1055.2300 882.3620
  499.900 1.3550 1.6940 2.1500 8.2200 1.3600 2.1450 2.0030 63.8830 217.2570 205.9820 228.5320 126.5740 279.2680 432.3480 1055.7200 882.7800
  500.000 1.3170 1.6670 2.1180 8.4400 1.3150 2.1110 1.9700 63.9710 217.8240 204.2070 231.4400 125.7440 284.9000 431.9460 1056.3300 883.5530
  500.100 1.3170 1.6710 2.0700 8.5000 1.3090 2.0770 1.9810 63.4410 215.5580 204.7990 226.3170 128.2070 288.2610 431.5700 1057.0400 884.4090
  500.200 1.2790 1.6560 2.0540 8.5600 1.2830 2.0320 1.9920 63.7940 215.5580 206.5740 224.5420 127.2970 291.0320 431.5070 1058.0300 885.4270
  500.300 1.3170 1.6670 2.0750 8.7400 1.2850 1.9420 1.9810 62.1150 216.6910 206.5740 226.8070 125.6360 289.1700 432.0910 1058.8199 885.9800
  500.400 1.3550 1.6900 2.1060 8.8000 1.2930 1.9420 1.9810 61.7610 216.1240 206.5740 225.6740 125.5560 282.8560 431.1950 1058.8199 886.3390
  500.500 1.3170 1.6980 2.0960 8.4800 1.3410 1.9300 2.0130 61.3190 215.5580 207.7570 223.3580 126.9750 281.7210 429.9930 1058.2600 886.2630
  500.600 1.2790 1.6870 2.0910 7.8400 1.3490 1.9300 2.0460 62.9100 218.3900 206.5740 230.2060 130.3760 282.7200 426.8730 1057.9200 887.1730
  500.700 1.3170 1.7380 2.0840 7.5800 1.3890 1.9870 2.1220 64.2360 218.3900 207.1660 229.6140 129.4390 281.6760 424.7200 1058.3400 888.4500
  500.800 1.3550 1.7180 2.0950 7.9800 1.3360 2.0660 2.1870 65.2970 217.2570 207.1660 227.3480 126.7880 285.9900 422.8300 1058.6700 889.5410
  500.900 1.4680 1.6830 2.0580 8.1800 1.3010 2.1560 2.2520 64.7660 217.8240 206.5740 229.0730 126.7880 275.8170 422.6290 1058.7900 889.7330
  501.000 1.3550 1.6750 2.0740 8.4000 1.2190 2.2350 2.2950 64.0590 214.9910 206.5740 223.4090 122.7450 277.0880 422.7330 1058.7200 889.6310
  501.100 1.3550 1.6560 2.0920 8.3800 1.2080 2.2800 2.3060 62.4690 214.9910 205.3910 224.5920 124.5920 274.5000 424.4470 1059.1200 889.3390
  501.200 1.3170 1.6630 2.0270 8.1800 1.2350 2.2690 2.3170 62.0270 214.4250 205.9820 222.8670 125.1810 271.6840 427.5270 1059.9900 888.9830
  501.300 1.3170 1.6630 2.0890 7.8400 1.2590 2.2130 2.2840 62.2030 216.1240 207.1660 225.0830 124.9670 279.4500 432.3060 1060.9700 888.0490
  501.400 1.3550 1.6440 2.0720 7.5200 1.2720 2.1340 2.2190 63.0870 214.9910 205.3910 224.5920 126.8680 290.4410 436.8730 1062.2700 887.5170
  501.500 1.3550 1.6220 2.0860 7.4000 1.2560 2.0770 2.2190 62.9990 217.2570 207.7570 226.7570 122.6110 281.1310 440.5200 1062.9301 886.7170
  501.600 1.3170 1.6180 2.1160 7.3000 1.2670 2.0660 2.2190 63.2640 217.2570 205.9820 228.5320 119.2370 283.1290 451.9320 1063.5200 882.7450
  501.700 1.3170 1.6000 2.1070 7.2800 1.3230 2.0210 2.2300 62.2920 218.3900 207.1660 229.6140 125.6900 279.7680 479.0130 1063.6801 872.0690
  501.800 1.2790 1.6110 2.0670 7.2200 1.3440 2.0090 2.2190 60.7890 218.3900 205.9820 230.7980 124.6190 284.8550 469.9060 1040.4600 852.4950
  501.900 1.3170 1.6290 2.0430 7.0000 1.3490 1.9980 2.2080 59.8170 217.8240 205.3910 230.2570 126.2250 285.1270 450.3800 1010.7100 830.5530
  502.000 1.3170 1.6630 2.1290 7.0000 1.3170 2.0090 2.1870 61.4080 216.6910 205.9820 227.3990 121.5930 287.7620 404.3190 974.0160 812.2880
  502.100 1.2790 1.6330 2.1210 7.1400 1.2720 1.9980 2.1760 64.1480 216.1240 207.1660 225.0830 120.2550 284.4910 378.2840 955.0310 803.7180
  502.200 1.3170 1.6070 2.1040 7.2800 1.2560 1.9750 2.1330 65.2970 216.1240 205.3910 226.8580 117.1750 280.1310 352.0100 943.6930 802.8890
  502.300 1.3550 1.6250 2.0830 7.1800 1.2750 1.9420 2.1000 64.8550 216.1240 207.1660 225.0830 116.9610 278.1330 341.2710 943.6930 807.1840
  502.400 1.3550 1.6520 2.0360 7.2200 1.3010 1.9190 2.0890 64.5010 217.8240 207.7570 227.8900 116.9080 272.8640 344.1370 951.1730 813.5180
  502.500 1.3550 1.6560 2.0430 7.1400 1.3390 1.8850 2.0890 64.0590 216.1240 208.9410 223.3080 115.0070 272.7740 348.9830 960.5560 820.9620
  502.600 1.2790 1.6520 2.0390 7.3800 1.3570 1.8510 2.1110 64.1480 216.1240 205.9820 226.2660 114.7920 277.0430 344.8910 967.2220 829.2660
  502.700 1.2790 1.6600 2.0380 7.4200 1.3710 1.8060 2.1220 63.4410 214.9910 206.5740 223.4090 112.1420 275.6350 330.6690 972.8890 840.6220
  502.800 1.2410 1.6370 2.0720 7.4800 1.3360 1.7830 2.1330 61.6730 216.1240 209.5330 222.7160 109.2770 272.4100 313.0470 979.5550 854.3360
