~Version information
  VERS.                           2.00 : CWLS log ASCII Standard -Version 2.00
  WRAP.                             NO : One line per depth step
~Well information
#MNEM.UNIT              Data Type        Information
#----------------------------------------------------------------------
  STRT.M                         0.700 : 
  STOP.M                       819.000 : 
  STEP.M                         0.100 : 
  NULL.                      -999.2500 : 
  COMP.                           CIOC : Company Name
  WELL.                            303 : Well Name
  FLD .                       KARATUBE : Field Name
  CTRY.                     KAZAKHSTAN : Country
  SRVC.         JSC"KAZPROMGEOPHYSICA" : Service company
  DATE.                      30.05.04. : Log date
~Curve information
#MNEM.UNIT                               Curve Description
#----------------------------------------------------------------------
  DEPT.M                               : Depth Curve
  MLL .OHMM                            : Microlaterolog sonde
  LL3 .OHMM                            : Appar.resist.laterolog,3 electrodes
  RHOB.G/C3                            : Bulk density by gamma-gamma log
  GR  .UR/H                            : Gamma-ray log
  NGL .UE                              : Neutron-gamma log
  GZ3 .OHMM                            : App.resistivity by lateral A2.0M0.5N
  GZ3B.OHMM                            : App.resistivity by lateral N0.5M2.0A
  SP  .MV                              : Spontaneous potential
  CALI.MM                              : Caliper
  C1  .MM                              : Diameter from profile1
  C2  .MM                              : Diameter from profile2
  CILR.MMHO                            : Conduct. by sonde 7I1.6,react.signal
  CILA.MMHO                            : Conduct. by sonde 7I1.6,active signal
  DTP .US/M                            : Interval travel time (P-wave)
  T1  .US                              : Travel time1
  T2  .US                              : Travel time2
~Parameter information
#MNEM.UNIT              Value            Description
#----------------------------------------------------------------------
#----------------------------------------------------------------------
  DFV .SEK                       40.00 : Viscosity
  TDL .M                        816.00 : Total Depth-Logger
  BS  .MM                       215.90 : Bit Size
  DFD .G/C3                       1.12 : Drilling Fluid Density
~Ascii Log Data
# ...
  636.200 0.9010 0.9060 2.1250 5.1600 1.3070 0.9250 0.9200 56.2810 216.1240 209.5330 222.7160 258.7100 306.7460 406.8770 977.3600 814.6090
  636.300 0.7880 0.8650 2.2160 4.7400 1.2960 0.9030 0.9090 56.9890 219.5230 211.3080 227.7380 251.2670 329.5010 408.4140 975.9380 812.5730
  636.400 0.6360 0.8610 2.1880 4.3800 1.2830 0.8570 0.9420 56.4580 218.3900 213.0830 223.6970 241.6010 333.4520 409.9430 974.0600 810.0840
  636.500 0.5990 0.8510 2.1720 4.8000 1.2270 0.8570 0.9960 56.3700 216.6910 213.0830 220.2980 234.2640 338.3570 412.5640 972.3210 807.2950
  636.600 0.7120 0.8790 2.1510 6.4200 1.1950 0.8350 1.0720 55.3980 218.3900 213.0830 223.6970 228.7750 346.9410 414.3710 969.8970 804.1490
  636.700 0.6740 1.0740 2.2040 8.2600 1.1680 0.7900 1.2670 58.0490 218.3900 211.8990 224.8810 225.9370 348.7130 413.3360 966.8870 801.5520
  636.800 0.8250 1.2500 2.2600 9.2200 1.2190 0.8350 1.5700 63.7920 218.9560 213.6750 224.2380 216.0570 347.2590 409.1430 963.2970 799.6400
  636.900 0.9010 1.3490 2.2780 9.5600 1.2320 1.0040 1.8510 72.8110 218.3900 211.8990 224.8810 202.7500 337.8580 399.8060 960.2330 800.3110
  637.000 0.8250 1.4220 2.3400 10.3400 1.2430 1.2410 2.0570 78.9950 218.9560 214.8580 223.0550 184.1940 325.9580 387.4130 957.5550 802.5900
  637.100 1.0520 1.4860 2.2600 11.1800 1.2240 1.3320 2.1870 80.9410 218.9560 213.0830 224.8300 164.8090 306.7920 372.2020 955.3120 806.4320
  637.200 1.0900 1.5810 2.2540 11.5200 1.3330 1.4790 2.2520 81.1180 222.9220 213.6750 232.1690 148.6100 274.4090 363.7510 954.3670 808.8670
  637.300 1.1660 1.6630 2.2740 11.6800 1.4080 1.5010 2.2620 81.2060 221.7890 214.2660 229.3110 132.9730 263.6450 361.9280 955.2670 810.4960
  637.400 1.3920 1.6750 2.1740 11.8000 1.4560 1.5350 2.2520 82.1790 221.7890 212.4910 231.0860 131.2860 250.8370 374.9230 961.4080 811.4380
  637.500 1.6570 1.5170 2.1850 11.7000 1.3920 1.5350 2.2080 82.7090 217.2570 211.3080 223.2060 128.6890 254.3790 387.8450 968.5520 813.4140
  637.600 1.2030 1.4620 2.2150 11.4200 1.3280 1.5350 2.1430 82.5320 218.9560 212.4910 225.4220 131.4730 257.8310 397.9000 976.0170 816.8570
  637.700 1.1660 1.4720 2.2630 10.9000 1.3680 1.4560 2.0890 82.9740 217.8240 210.1240 225.5230 135.0880 265.9610 400.4390 983.8050 823.6300
  637.800 1.0900 1.5240 2.2530 10.5600 1.3710 1.4560 2.0130 83.2390 217.8240 208.9410 226.7060 137.4180 272.4100 401.7080 993.1300 832.4460
  637.900 1.2790 1.5700 2.1800 10.2800 1.3870 1.4330 1.9270 83.8580 219.5230 210.7160 228.3300 141.0860 272.6370 400.4220 1000.8000 840.6330
  638.000 1.3550 1.5850 2.2280 10.8000 1.3950 1.2750 1.8620 83.3280 218.9560 210.7160 227.1970 142.7990 272.0920 396.2930 1004.1400 845.6200
  638.100 1.3170 1.5420 2.2900 11.0400 1.4190 1.2300 1.8290 82.2670 217.8240 210.7160 224.9310 146.8160 275.0900 391.5510 1004.8300 848.2110
  638.200 1.3170 1.5490 2.2080 10.7800 1.4690 1.2300 1.7860 81.2060 220.0890 213.0830 227.0960 152.5460 277.9970 388.4570 1005.5900 850.2110
  638.300 1.3550 1.5560 2.1680 10.8200 1.4510 1.1620 1.7750 79.7040 216.1240 210.7160 221.5320 156.8570 279.3590 386.8420 1006.3100 851.5710
  638.400 1.3920 1.5600 2.1740 11.1800 1.4290 1.1170 1.7860 75.4600 220.6560 212.4910 228.8200 162.0780 282.4480 386.3540 1006.6600 852.1210
  638.500 1.2790 1.5490 2.2570 11.6000 1.4110 1.1060 1.7750 75.2840 219.5230 210.7160 228.3300 163.0950 285.2640 388.2260 1008.0100 852.7180
  638.600 1.2030 1.5170 2.2070 11.6400 1.3870 1.0610 1.7540 75.9040 218.3900 211.3080 225.4720 162.9350 290.6230 388.0970 1009.1000 853.8630
  638.700 1.2030 1.5100 2.1660 11.4000 1.4320 1.0610 1.7320 79.5270 217.8240 211.8990 223.7480 164.8890 278.1780 386.5320 1009.3200 854.7110
  638.800 1.0900 1.4860 2.1630 11.2200 1.4610 1.0270 1.7100 79.0850 217.8240 213.6750 221.9730 160.6850 280.1770 384.6200 1007.6300 853.7810
  638.900 1.0520 1.4520 2.1690 11.0000 1.4880 1.0160 1.7210 78.5540 217.8240 211.8990 223.7480 167.4330 273.5910 383.6790 1005.5600 852.0840
  639.000 1.0900 1.4000 2.2020 11.0800 1.4480 0.9820 1.6890 74.6670 217.8240 208.9410 226.7060 167.0580 277.9510 388.3270 1003.6800 848.3460
  639.100 1.0520 1.3680 2.2040 10.9400 1.4030 0.9480 1.6670 72.8090 214.9910 209.5330 220.4500 170.8600 279.4050 394.5300 1002.4900 844.6800
  639.200 1.0520 1.3680 2.2570 10.6600 1.3520 0.9820 1.6670 71.2190 217.2570 210.7160 223.7980 170.9140 286.3990 407.9540 1001.3300 838.1440
  639.300 0.9770 1.3800 2.2680 10.5000 1.3650 1.1510 1.6350 72.7210 214.9910 210.7160 219.2670 170.8070 291.9400 425.8530 1000.7000 830.3630
  639.400 1.0520 1.3430 2.1650 10.8200 1.3650 1.1170 1.6560 70.9530 216.6910 210.7160 222.6650 169.5750 289.3970 437.3490 998.9050 823.9660
  639.500 1.0900 1.3180 2.2260 11.2000 1.3680 1.2190 1.6780 71.3950 215.5580 210.1240 220.9910 167.9950 290.3050 438.4910 995.7370 820.3410
  639.600 1.0520 1.2820 2.2480 10.9400 1.3410 1.2530 1.7430 72.5460 214.9910 211.3080 218.6750 170.1370 291.9400 422.5210 988.2380 819.2300
  639.700 0.9770 1.2620 2.2570 10.4200 1.3550 1.3540 1.7650 74.2240 213.2920 211.8990 214.6840 171.7440 294.0290 412.4280 982.8680 817.8970
  639.800 0.9390 1.2760 2.2350 9.9000 1.3470 1.3770 1.7860 73.1640 212.1590 208.3490 215.9690 173.5380 299.5250 404.0260 976.7050 815.0940
  639.900 1.0140 1.3030 2.1710 10.3600 1.3250 1.4000 1.8290 71.6600 214.4250 209.5330 219.3170 172.6540 305.3840 404.7660 973.5580 811.6510
  640.000 0.9010 1.3460 2.1610 10.7600 1.3120 1.3880 1.8510 69.5400 214.4250 208.9410 219.9090 172.7080 322.5060 402.6250 969.7060 808.6560
  640.100 0.8250 1.4120 2.2330 11.0200 1.3090 1.4000 1.8400 70.2470 216.6910 211.8990 221.4820 170.0030 315.0120 413.3320 969.1640 803.8320
  640.200 1.0140 1.4820 2.2430 10.8000 1.3230 1.3660 1.8730 72.4560 214.9910 211.3080 218.6750 166.6300 312.8780 409.1210 973.2010 809.5520
  640.300 1.1280 1.4820 2.2100 10.7600 1.3150 1.3320 1.8940 76.9630 214.9910 210.1240 219.8580 166.2280 309.0170 405.8970 980.3300 817.9710
  640.400 1.0520 1.5000 2.2550 11.0000 1.3570 1.3090 1.9160 78.1130 213.2920 210.1240 216.4600 164.4340 305.7930 407.2320 991.9340 829.0410
  640.500 1.0140 1.5200 2.2670 11.0800 1.4050 1.3090 1.9490 78.6430 214.9910 208.9410 221.0420 161.3010 301.8870 423.9770 1004.6800 835.0890
  640.600 1.0520 1.5310 2.2240 11.1800 1.4240 1.3200 1.9050 79.1740 218.9560 212.4910 225.4220 158.0350 301.3420 439.9600 1017.6200 841.6410
  640.700 1.0140 1.5490 2.1880 10.7600 1.4210 1.3540 1.8730 80.4990 213.8580 210.1240 217.5930 152.6260 300.4790 421.2150 1026.6200 858.1350
  640.800 1.0140 1.5700 2.2640 10.8600 1.3760 1.3540 1.8400 79.8810 213.8580 211.8990 215.8170 149.0650 293.0300 400.1490 1031.6200 871.5570
  640.900 1.1280 1.5560 2.2310 11.0200 1.3570 1.3660 1.7750 79.9690 213.8580 210.1240 217.5930 144.2450 290.1690 379.8250 1033.9000 881.9700
  641.000 1.0520 1.5630 2.2800 11.3800 1.3310 1.3770 1.7210 78.6430 213.2920 212.4910 214.0930 145.4500 287.7620 376.1320 1034.5000 884.0460
  641.100 1.0520 1.5700 2.2540 11.0800 1.3280 1.3540 1.6890 78.9080 216.1240 213.6750 218.5740 144.4330 286.9440 375.2870 1034.3400 884.2210
  641.200 1.0520 1.5740 2.2110 10.6600 1.3630 1.3430 1.6670 79.6150 214.4250 213.6750 215.1750 145.6910 288.8060 366.9770 1033.7800 886.9880
  641.300 1.0520 1.5380 2.1490 10.3600 1.4110 1.3430 1.6670 81.6480 217.8240 212.4910 223.1560 142.1840 289.1700 360.0130 1034.0400 890.0380
  641.400 1.0140 1.5280 2.1470 10.8400 1.4400 1.3540 1.6350 82.7970 217.8240 210.7160 224.9310 141.1930 297.3900 350.6270 1035.6801 895.4290
  641.500 0.9010 1.5000 2.1910 10.8600 1.4210 1.3320 1.6240 82.8860 220.6560 212.4910 228.8200 138.4350 282.7200 350.1780 1038.6700 898.5950
  641.600 0.8630 1.4760 2.1450 10.6000 1.3870 1.3320 1.5590 82.8860 220.0890 214.2660 225.9120 132.9730 285.3090 354.4880 1043.5500 901.7580
  641.700 0.8250 1.4820 2.1190 10.2600 1.3920 1.3430 1.5700 81.7370 218.9560 210.7160 227.1970 139.6940 280.0860 371.1420 1050.8199 902.3600
  641.800 0.9010 1.4720 2.0770 10.3000 1.3840 1.3090 1.5260 81.4710 217.8240 213.0830 222.5640 140.4430 282.7200 387.8950 1059.9800 904.8250
