~Version information
  VERS.                           2.00 : CWLS log ASCII Standard -Version 2.00
  WRAP.                             NO : One line per depth step
~Well information
#MNEM.UNIT              Data Type        Information
#----------------------------------------------------------------------
  STRT.M                         0.700 : 
  STOP.M                       819.000 : 
  STEP.M                         0.100 : 
  NULL.                      -999.2500 : 
  COMP.                           CIOC : Company Name
  WELL.                            303 : Well Name
  FLD .                       KARATUBE : Field Name
  CTRY.                     KAZAKHSTAN : Country
  SRVC.         JSC"KAZPROMGEOPHYSICA" : Service company
  DATE.                      30.05.04. : Log date
~Curve information
#MNEM.UNIT                               Curve Description
#----------------------------------------------------------------------
  DEPT.M                               : Depth Curve
  MLL .OHMM                            : Microlaterolog sonde
  LL3 .OHMM                            : Appar.resist.laterolog,3 electrodes
  RHOB.G/C3                            : Bulk density by gamma-gamma log
  GR  .UR/H                            : Gamma-ray log
  NGL .UE                              : Neutron-gamma log
  GZ3 .OHMM                            : App.resistivity by lateral A2.0M0.5N
  GZ3B.OHMM                            : App.resistivity by lateral N0.5M2.0A
  SP  .MV                              : Spontaneous potential
  CALI.MM                              : Caliper
  C1  .MM                              : Diameter from profile1
  C2  .MM                              : Diameter from profile2
  CILR.MMHO                            : Conduct. by sonde 7I1.6,react.signal
  CILA.MMHO                            : Conduct. by sonde 7I1.6,active signal
  DTP .US/M                            : Interval travel time (P-wave)
  T1  .US                              : Travel time1
  T2  .US                              : Travel time2
~Parameter information
#MNEM.UNIT              Value            Description
#----------------------------------------------------------------------
#----------------------------------------------------------------------
  DFV .SEK                       40.00 : Viscosity
  TDL .M                        816.00 : Total Depth-Logger
  BS  .MM                       215.90 : Bit Size
  DFD .G/C3                       1.12 : Drilling Fluid Density
~Ascii Log Data
# ...
  133.200 -999.250 -999.250 -999.250 3.9800 1.0850 -999.250 -999.250 -999.250 224.6210 223.1420 226.1000 -999.250 -999.250 -999.2500 -999.2500 -999.2500
  133.300 -999.250 -999.250 -999.250 3.7200 1.0910 -999.250 -999.250 -999.250 226.3200 223.7340 228.9070 -999.250 -999.250 -999.2500 -999.2500 -999.2500
  133.400 -999.250 -999.250 -999.250 3.5200 1.0670 -999.250 -999.250 -999.250 226.3200 221.3670 231.2740 -999.250 -999.250 -999.2500 -999.2500 -999.2500
  133.500 -999.250 -999.250 -999.250 3.4600 1.0770 -999.250 -999.250 -999.250 225.1870 220.7750 229.6000 -999.250 -999.250 -999.2500 -999.2500 -999.2500
  133.600 -999.250 -999.250 -999.250 3.4800 1.0770 -999.250 -999.250 -999.250 226.8870 223.1420 230.6310 -999.250 -999.250 -999.2500 -999.2500 -999.2500
  133.700 -999.250 -999.250 -999.250 3.4400 1.0770 -999.250 -999.250 -999.250 228.0200 223.1420 232.8970 -999.250 -999.250 238.0640 535.0630 439.8380
  133.800 -999.250 -999.250 -999.250 3.5200 1.0210 -999.250 -999.250 -999.250 227.4530 221.9590 232.9480 -999.250 -999.250 199.6750 517.7810 437.9120
  133.900 -999.250 -999.250 -999.250 3.7200 0.9920 -999.250 -999.250 -999.250 225.7540 221.3670 230.1410 -999.250 -999.250 174.9250 506.6170 436.6470
  134.000 -999.250 -999.250 -999.250 3.9600 0.9810 -999.250 -999.250 -999.250 225.7540 221.9590 229.5490 -999.250 -999.250 200.8230 507.5340 427.2050
  134.100 -999.250 -999.250 -999.250 4.0800 0.9600 -999.250 -999.250 -999.250 228.0200 223.7340 232.3050 -999.250 -999.250 203.1260 508.5110 427.2610
  134.200 -999.250 -999.250 -999.250 4.0600 0.9490 -999.250 -999.250 -999.250 228.0200 223.1420 232.8970 -999.250 -999.250 204.3740 509.0670 427.3170
  134.300 -999.250 -999.250 -999.250 3.8400 0.9570 -999.250 -999.250 -999.250 225.7540 222.5500 228.9570 -999.250 -999.250 203.4010 508.7330 427.3730
  134.400 -999.250 -999.250 -999.250 3.4200 0.9950 -999.250 -999.250 -999.250 224.6210 223.1420 226.1000 -999.250 -999.250 203.0930 508.6670 427.4290
  134.500 -999.250 -999.250 -999.250 3.1600 0.9710 -999.250 -999.250 -999.250 225.7540 223.7340 227.7740 -999.250 -999.250 200.9040 508.6670 428.3050
  134.600 -999.250 -999.250 -999.250 3.1800 0.9280 -999.250 -999.250 -999.250 224.6210 223.1420 226.1000 -999.250 -999.250 202.4310 509.3330 428.3610
  134.700 -999.250 -999.250 -999.250 3.3600 0.8850 -999.250 -999.250 -999.250 226.8870 221.9590 231.8150 -999.250 -999.250 203.3620 509.7620 428.4170
  134.800 -999.250 -999.250 -999.250 3.4400 0.8930 -999.250 -999.250 -999.250 226.8870 223.1420 230.6310 -999.250 -999.250 206.5480 510.2730 427.6540
  134.900 -999.250 -999.250 -999.250 3.5200 0.9280 -999.250 -999.250 -999.250 224.6210 223.1420 226.1000 -999.250 -999.250 207.0740 510.5400 427.7100
  135.000 -999.250 -999.250 -999.250 3.7200 0.9790 -999.250 -999.250 -999.250 225.7540 223.1420 228.3660 -999.250 -999.250 207.4100 510.7300 427.7660
  135.100 -999.250 -999.250 -999.250 3.9000 1.0050 -999.250 -999.250 -999.250 225.1870 221.3670 229.0080 -999.250 -999.250 207.4500 510.8020 427.8220
  135.200 -999.250 -999.250 -999.250 4.0000 1.0270 -999.250 -999.250 -999.250 226.8870 221.9590 231.8150 -999.250 -999.250 207.4760 510.8690 427.8790
  135.300 -999.250 -999.250 -999.250 3.9800 1.0110 -999.250 -999.250 -999.250 226.3200 223.1420 229.4990 -999.250 -999.250 207.7320 511.0280 427.9350
  135.400 -999.250 -999.250 -999.250 3.9400 1.0110 -999.250 0.0970 -999.250 225.7540 221.9590 229.5490 -999.250 -999.250 202.1260 511.1590 430.3080
  135.500 -999.250 -999.250 -999.250 4.0000 0.9870 -999.250 0.1080 -999.250 225.1870 223.7340 226.6410 -999.250 -999.250 202.4020 511.3250 430.3650
  135.600 -999.250 -999.250 -999.250 3.9800 0.9390 -999.250 0.1190 -999.250 227.4530 223.7340 231.1730 -999.250 -999.250 202.5220 511.4300 430.4210
  135.700 -999.250 -999.250 -999.250 3.9800 0.8880 -999.250 0.1080 -999.250 226.8870 222.5500 231.2230 -999.250 -999.250 203.1810 511.4930 430.2210
  135.800 -999.250 -999.250 -999.250 4.2000 0.8560 -999.250 0.0970 -999.250 225.1870 223.7340 226.6410 -999.250 -999.250 202.9670 511.4640 430.2770
  135.900 -999.250 -999.250 -999.250 4.4000 0.9040 -999.250 0.1080 -999.250 225.7540 223.1420 228.3660 -999.250 -999.250 197.9040 511.3860 432.2240
  136.000 -999.250 -999.250 -999.250 4.1800 0.9570 -999.250 0.1190 -999.250 225.1870 223.7340 226.6410 -999.250 -999.250 203.5840 511.6520 430.2190
  136.100 -999.250 -999.250 -999.250 3.7200 1.0130 -999.250 0.1080 -999.250 226.3200 222.5500 230.0900 -999.250 -999.250 203.0510 511.4950 430.2750
  136.200 -999.250 -999.250 -999.250 3.5400 1.0030 -999.250 0.1190 -999.250 226.8870 223.7340 230.0400 -999.250 -999.250 208.0170 511.6470 428.4400
  136.300 -999.250 -999.250 -999.250 3.8400 0.9630 -999.250 0.0970 -999.250 226.3200 223.7340 228.9070 -999.250 -999.250 207.7650 511.6030 428.4960
  136.400 -999.250 -999.250 -999.250 4.1600 0.9150 -999.250 0.0970 -999.250 224.6210 222.5500 226.6920 -999.250 -999.250 208.4090 511.9160 428.5530
  136.500 -999.250 -999.250 -999.250 4.0800 0.8880 -999.250 0.1080 -999.250 227.4530 224.3250 230.5810 -999.250 -999.250 208.3800 511.9610 428.6090
  136.600 -999.250 -999.250 -999.250 3.8800 0.9170 -999.250 0.0970 -999.250 226.8870 222.5500 231.2230 -999.250 -999.250 208.2400 511.9610 428.6650
  136.700 -999.250 -999.250 -999.250 3.8400 0.9490 -999.250 0.1080 -999.250 225.7540 223.1420 228.3660 -999.250 -999.250 203.9430 512.0390 430.4620
  136.800 -999.250 -999.250 -999.250 4.2400 1.0240 -999.250 0.1190 -999.250 224.6210 224.3250 224.9160 -999.250 -999.250 203.7150 512.0040 430.5180
  136.900 -999.250 -999.250 -999.250 4.4800 1.0450 -999.250 0.0970 -999.250 226.8870 223.7340 230.0400 -999.250 -999.250 203.4760 511.9650 430.5740
  137.000 -999.250 -999.250 -999.250 4.2200 1.0930 -999.250 0.1080 -999.250 225.7540 222.5500 228.9570 -999.250 -999.250 203.0450 511.9260 430.7080
  137.100 -999.250 -999.250 -999.250 3.6600 1.0530 -999.250 0.1190 -999.250 225.1870 221.9590 228.4160 -999.250 -999.250 203.1030 512.0050 430.7640
  137.200 -999.250 -999.250 -999.250 3.2800 1.0530 -999.250 0.1080 -999.250 224.6210 222.5500 226.6920 -999.250 -999.250 198.1090 512.0440 432.8010
  137.300 -999.250 -999.250 -999.250 3.3600 1.0130 -999.250 0.0970 -999.250 226.3200 221.9590 230.6820 -999.250 -999.250 202.7520 512.1400 431.0390
  137.400 -999.250 -999.250 -999.250 3.6000 0.9970 -999.250 0.1080 -999.250 225.7540 222.5500 228.9570 -999.250 -999.250 202.7390 512.1910 431.0950
  137.500 -999.250 -999.250 -999.250 3.9200 0.9760 -999.250 0.0970 -999.250 227.4530 223.7340 231.1730 -999.250 -999.250 207.7580 512.2740 429.1700
  137.600 -999.250 -999.250 -999.250 4.0400 0.9630 -999.250 0.1080 -999.250 226.3200 223.1420 229.4990 -999.250 -999.250 208.0210 512.4350 429.2270
  137.700 -999.250 -999.250 -999.250 4.1000 0.9730 -999.250 0.1080 -999.250 227.4530 223.7340 231.1730 -999.250 -999.250 208.4000 512.6430 429.2830
  137.800 -999.250 -999.250 -999.250 4.0400 0.9490 -999.250 0.1080 -999.250 225.7540 224.9170 226.5900 -999.250 -999.250 208.5270 512.7500 429.3390
  137.900 -999.250 -999.250 -999.250 4.0000 0.9680 -999.250 0.1190 -999.250 228.5860 221.9590 235.2140 -999.250 -999.250 208.9680 512.9820 429.3950
  138.000 -999.250 -999.250 -999.250 4.0200 0.9630 -999.250 0.1190 -999.250 225.7540 224.3250 227.1820 -999.250 -999.250 209.1820 513.1240 429.4510
  138.100 -999.250 -999.250 -999.250 3.9600 0.9410 -999.250 0.1190 -999.250 226.8870 223.7340 230.0400 -999.250 -999.250 208.9500 513.0870 429.5070
  138.200 -999.250 -999.250 -999.250 3.9400 0.8930 -999.250 0.1080 -999.250 227.4530 224.9170 229.9890 -999.250 -999.250 208.4200 512.9320 429.5640
  138.300 -999.250 -999.250 -999.250 3.6800 0.9170 -999.250 0.1080 -999.250 225.7540 222.5500 228.9570 -999.250 -999.250 204.1130 512.9490 431.3040
  138.400 -999.250 -999.250 -999.250 3.6200 0.9680 -999.250 0.0970 -999.250 226.3200 223.7340 228.9070 -999.250 -999.250 204.6990 513.2390 431.3600
  138.500 -999.250 -999.250 -999.250 3.5600 0.9950 -999.250 0.0970 -999.250 227.4530 222.5500 232.3560 -999.250 -999.250 204.5030 513.2170 431.4150
