~Version
 VERS              .         3.0                           : CWLS LOG ASCII STANDARD - VERSION 3.0
 WRAP              .         NO                            : ONE LINE PER DEPTH STEP
 DLM               .         SPACE                         : DELIMITING CHARACTER(SPACE TAB OR COMMA)
~Well Information
#_______________________________________________________________________________
#
#PARAMETER_NAME    .UNIT     VALUE                         : DESCRIPTION
#_______________________________________________________________________________
STRT               .M        0.1                           : First reference value
STOP               .M        793.1                         : Last reference value
STEP               .M        0.1                           : Step increment
NULL               .         -9999                         : Missing value
COMP               .         ICPetroleum                   : Company
WELL               .         328                           : Well name
FLD                .         Karatobe                      : Field
LOC                .                                       : Location
SRVC               .                                       : Service Company
CTRY               .         KZ                            : Country
DATE               .         20-21.03.2007                 : Service Date
LATI               .         0                             : Latitude
LONG               .         0                             : Longitude
GDAT               .         WGS 84                        : Geodetic Datum
CNTY               .                                       : 
COORDIN            .                                       : Grid System
COUNTRY            .         Kazakhstan                    : 
COUNTRY            .         Kazakhstan                    : 
EREF               .m        136.5                         : 
KB                 .         0                             : KB Elevation
ORIGINALWELLNAME   .         328                           : 
PROV               .                                       : Province
RWS                .         -999                          : Def_Rw
STAT               .                                       : 
UWI                .                                       : 
WST                .         -999                          : Def_Rwt
X                  .km       466166.24                     : 
XCOORD             .                                       : X or East-West Coordinate
Y                  .km       5308273.61                    : 
YCOORD             .                                       : Y or North-South Coordinate
~Parameter Information Block
#_______________________________________________________________________________
#
#PARAMETER_NAME    .UNIT     VALUE                         : DESCRIPTION
#_______________________________________________________________________________
SET                .         Las                           : 
TLFamily_DEPT      .         Measured Depth                : 
TLFamily_PHI_FINAL .         Porosity                      : 
TLFamily_SW_AR     .         Water Saturation              : 
TLFamily_VSH_FINAL .         Shale Volume                  : 
~Curve Information
#_______________________________________________________________________________
#
#LOGNAME           .UNIT     LOG_ID                        : DESCRIPTION
#_______________________________________________________________________________
DEPT               .M                                      : Depth curve {F}
PHI_FINAL          .m3/m3                                  : Porosity {F}
SW_AR              .m3/m3                                  :  {F}
VSH_FINAL          .unitless                               : Vshale {F}
~Ascii
# ...
525.5      0.3076806  1          0.09194922
525.6      0.2986737  1          0.09832608
525.7      0.2960508  1          0.09646128
525.8      0.29631    1          0.09736807
525.9      0.2984328  1          0.09643076
526        0.3088802  1          0.08314215
526.1      0.3047889  1          0.07645773
526.2      0.3014018  1          0.07726517
526.3      0.2974502  1          0.08310392
526.4      0.2953023  1          0.08139852
526.5      0.2950006  1          0.07559752
526.6      0.2886279  1          0.07721863
526.7      0.2797936  1          0.078856  
526.8      0.2778714  1          0.07884406
526.9      0.2680439  1          0.08733197
527        0.2681487  1          0.09443717
527.1      0.2708431  1          0.09261553
527.2      0.2823527  1          0.092601  
527.3      0.2938439  1          0.08640884
527.4      0.3047343  1          0.09347246
527.5      0.3107446  1          0.09345784
527.6      0.3098325  1          0.09894215
527.7      0.3094414  1          0.1124303 
527.8      0.2993772  1          0.1279914 
527.9      0.2845564  0.9399451  0.1390377 
528        0.2663192  0.9045089  0.1390138 
528.1      0.2490423  0.9536579  0.1257809 
528.2      0.2351547  1          0.1093656 
528.3      0.2248388  1          0.09606529
528.4      0.2279857  1          0.08031432
528.5      0.2340478  1          0.06519275
528.6      0.2447768  0.7403218  0.0621856 
528.7      0.2483951  0.5686166  0.06593281
528.8      0.2513208  0.6700141  0.07055825
528.9      0.260506   0.8142879  0.07777106
529        0.2767389  1          0.08618276
529.1      0.2973812  1          0.09503263
529.2      0.315972   1          0.1024398 
529.3      0.3245285  1          0.1081913 
529.4      0.3190013  1          0.1151287 
529.5      0.3120286  1          0.1308736 
529.6      0.3078473  1          0.1409034 
529.7      0.308328   1          0.1275804 
529.8      0.2998785  0.9576402  0.1243602 
529.9      0.2829272  0.9595139  0.1318781 
530        0.2651775  0.9942186  0.1454195 
530.1      0.2505701  1          0.1573465 
530.2      0.2399737  1          0.1560959 
530.3      0.2333288  0.980687   0.1395944 
530.4      0.2310557  0.9865921  0.1169682 
530.5      0.2346156  1          0.1060434 
530.6      0.2456818  1          0.1079634 
530.7      0.2468813  1          0.1295208 
530.8      0.2472739  1          0.1487329 
530.9      0.243738   1          0.1620674 
531        0.2358537  1          0.1748487 
531.1      0.2316794  0.9520695  0.1801251 
531.2      0.2246287  0.967096   0.1800918 
531.3      0.2271657  1          0.181402  
531.4      0.243154   1          0.1682396 
531.5      0.2733828  1          0.1533157 
531.6      0.2879639  1          0.1520882 
531.7      0.2981235  1          0.134776  
531.8      0.3019219  1          0.1250002 
531.9      0.2960824  1          0.1239231 
532        0.2933854  1          0.115646  
532.1      0.2979319  1          0.1048121 
532.2      0.2918445  1          0.1096352 
532.3      0.2713877  1          0.1217457 
532.4      0.2566445  1          0.1280718 
532.5      0.2421679  1          0.132389  
532.6      0.2239073  1          0.156647  
532.7      0.214857   1          0.1756165 
532.8      0.2040228  1          0.2091541 
532.9      0.2147177  1          0.1808652 
533        0.2149841  1          0.167752  
533.1      0.204422   1          0.1664502 
533.2      0.1953475  1          0.1589273 
533.3      0.1913789  1          0.1434309 
533.4      0.1856334  1          0.126787  
533.5      0.1794038  1          0.116372  
533.6      0.1773037  1          0.1143372 
533.7      0.165729   1          0.1235507 
533.8      0.1720923  1          0.1123051 
533.9      0.1837024  1          0.09613049
534        0.1990752  1          0.09162397
534.1      0.2108222  1          0.08723171
534.2      0.2237955  1          0.08895586
534.3      0.2380364  1          0.08548525
534.4      0.2492594  1          0.08461901
534.5      0.2585681  1          0.08375741
534.6      0.2631451  1          0.08459327
534.7      0.2760751  1          0.07955419
534.8      0.2893662  1          0.07466773
534.9      0.2926989  1          0.07788927
535        0.2873941  1          0.08625048
535.1      0.2933376  1          0.09146777
535.2      0.2835901  1          0.1071647 
535.3      0.2678221  1          0.1150215 
535.4      0.2572235  1          0.1042595 
535.5      0.2492067  1          0.096799  
535.6      0.2481119  1          0.1061343 
535.7      0.2416558  1          0.1090158 
535.8      0.235438   1          0.1013677 
535.9      0.2256409  1          0.09492552
536        0.2253664  1          0.09672309
536.1      0.2271557  1          0.1013194 
536.2      0.2391598  1          0.1031807 
536.3      0.253336   1          0.1050602 
536.4      0.2631854  1          0.1022072 
536.5      0.2705908  1          0.09038924
536.6      0.2682841  1          0.09214033
536.7      0.2708003  1          0.08774737
536.8      0.2716441  1          0.06973542
536.9      0.2769026  1          0.06590749
537        0.2730568  1          0.07928012
537.1      0.2716302  1          0.08427224
537.2      0.2827666  1          0.07925636
537.3      0.2921286  1          0.07924454
537.4      0.2921728  1          0.07923266
537.5      0.2865777  1          0.09379208
537.6      0.2819715  1          0.09739131
537.7      0.2829762  1          0.08934806
537.8      0.2818173  1          0.1001186 
537.9      0.2692451  1          0.114534  
538        0.2596373  1          0.1268724 
538.1      0.2637352  1          0.1247397 
538.2      0.2681913  1          0.1215921 
538.3      0.2753917  1          0.1075939 
538.4      0.2854146  1          0.09455632
538.5      0.2853022  1          0.09275591
538.6      0.2820177  1          0.09274153
538.7      0.2758121  1          0.09272716
538.8      0.2740954  1          0.1084727 
538.9      0.2781703  1          0.1173614 
539        0.2857564  1          0.1173421 
539.1      0.2876231  1          0.1017707 
539.2      0.2727633  1          0.1036302 
539.3      0.2673512  1          0.1122907 
539.4      0.2735547  1          0.111289  
539.5      0.2709425  1          0.1093193 
539.6      0.2640825  1          0.1152154 
539.7      0.2571759  1          0.1297093 
539.8      0.25925    1          0.1464145 
539.9      0.2701428  1          0.1373126 
540        0.2592403  1          0.1534142 
540.1      0.2543361  1          0.154583  
540.2      0.2755249  1          0.121191  
540.3      0.2828024  1          0.121171  
540.4      0.2869311  1          0.1201239 
540.5      0.2802412  1          0.1327753 
540.6      0.2738363  1          0.1508822 
540.7      0.263802   1          0.1769761 
540.8      0.2524214  1          0.2045215 
540.9      0.2527922  1          0.22241   
541        0.2569814  1          0.2414073 
541.1      0.2599178  1          0.258126  
541.2      0.2528172  0.9484591  0.303868  
541.3      0.2333611  0.8948554  0.3784051 
541.4      0.1964785  1          0.4672819 
541.5      0.1724879  1          0.5073727 
541.6      0.1669428  1          0.5013303 
541.7      0.1459724  1          0.5041568 
541.8      0.1286156  1          0.522041  
541.9      0.1049717  1          0.5726646 
542        0.08398248 1          0.6063682 
542.1      0.1029385  1          0.5625464 
542.2      0.07005062 1          0.6452832 
542.3      0.01489711 1          0.8075061 
542.4      0.002797818 1          0.8722681 
542.5      0.002331022 1          0.9012902 
542.6      0.01321482 1          0.815818  
542.7      0.04084964 1          0.7295665 
542.8      0.04693834 1          0.7252896 
542.9      0.03431565 1          0.7796983 
543        0.1037739  1          0.6152442 
543.1      0.1259921  1          0.5841911 
543.2      0.186116   1          0.4680183 
543.3      0.1908764  1          0.4934075 
543.4      0.1980169  1          0.4991102 
543.5      0.2054629  1          0.4931653 
543.6      0.2257482  1          0.4620596 
