~Version
 VERS              .         3.0                           : CWLS LOG ASCII STANDARD - VERSION 3.0
 WRAP              .         NO                            : ONE LINE PER DEPTH STEP
 DLM               .         SPACE                         : DELIMITING CHARACTER(SPACE TAB OR COMMA)
~Well Information
#_______________________________________________________________________________
#
#PARAMETER_NAME    .UNIT     VALUE                         : DESCRIPTION
#_______________________________________________________________________________
STRT               .M        0.1                           : First reference value
STOP               .M        793.1                         : Last reference value
STEP               .M        0.1                           : Step increment
NULL               .         -9999                         : Missing value
COMP               .         ICPetroleum                   : Company
WELL               .         328                           : Well name
FLD                .         Karatobe                      : Field
LOC                .                                       : Location
SRVC               .                                       : Service Company
CTRY               .         KZ                            : Country
DATE               .         20-21.03.2007                 : Service Date
LATI               .         0                             : Latitude
LONG               .         0                             : Longitude
GDAT               .         WGS 84                        : Geodetic Datum
CNTY               .                                       : 
COORDIN            .                                       : Grid System
COUNTRY            .         Kazakhstan                    : 
COUNTRY            .         Kazakhstan                    : 
EREF               .m        136.5                         : 
KB                 .         0                             : KB Elevation
ORIGINALWELLNAME   .         328                           : 
PROV               .                                       : Province
RWS                .         -999                          : Def_Rw
STAT               .                                       : 
UWI                .                                       : 
WST                .         -999                          : Def_Rwt
X                  .km       466166.24                     : 
XCOORD             .                                       : X or East-West Coordinate
Y                  .km       5308273.61                    : 
YCOORD             .                                       : Y or North-South Coordinate
~Parameter Information Block
#_______________________________________________________________________________
#
#PARAMETER_NAME    .UNIT     VALUE                         : DESCRIPTION
#_______________________________________________________________________________
SET                .         Las                           : 
TLFamily_DEPT      .         Measured Depth                : 
TLFamily_PHI_FINAL .         Porosity                      : 
TLFamily_SW_AR     .         Water Saturation              : 
TLFamily_VSH_FINAL .         Shale Volume                  : 
~Curve Information
#_______________________________________________________________________________
#
#LOGNAME           .UNIT     LOG_ID                        : DESCRIPTION
#_______________________________________________________________________________
DEPT               .M                                      : Depth curve {F}
PHI_FINAL          .m3/m3                                  : Porosity {F}
SW_AR              .m3/m3                                  :  {F}
VSH_FINAL          .unitless                               : Vshale {F}
~Ascii
# ...
561.9      0.1976735  0.9670663  0.5352812 
562        0.1873104  1          0.5505704 
562.1      0.1435713  1          0.6160383 
562.2      0.08846246 1          0.7113951 
562.3      0.03803194 1          0.8468173 
562.4      0.004648557 1          0.9580951 
562.5      0.002189624 1          0.9943267 
562.6      0.003495654 1          0.9782386 
562.7      0.006102796 1          0.9623929 
562.8      0.009765152 1          0.9417288 
562.9      0.005784105 1          1         
563        0.009636404 1          0.9615493 
563.1      0.01737633 1          0.9308793 
563.2      0.05740213 1          0.7744244 
563.3      0.09738898 1          0.6565542 
563.4      0.1485615  1          0.5095186 
563.5      0.1756888  1          0.4306221 
563.6      0.183141   1          0.3870032 
563.7      0.1763737  1          0.3777611 
563.8      0.1648604  1          0.4009029 
563.9      0.1600424  1          0.4153019 
564        0.1492562  1          0.4507151 
564.1      0.1247451  1          0.5086549 
564.2      0.1290744  1          0.5114476 
564.3      0.1290118  1          0.529115  
564.4      0.1188248  1          0.5661698 
564.5      0.1061775  1          0.6156858 
564.6      0.1093616  1          0.6189694 
564.7      0.1161888  1          0.6292332 
564.8      0.1317047  1          0.6049969 
564.9      0.1507992  1          0.5718664 
565        0.1588565  1          0.562145  
565.1      0.1590811  1          0.5588443 
565.2      0.1523183  1          0.5370187 
565.3      0.1242985  1          0.5617253 
565.4      0.1055104  1          0.5552858 
565.5      0.09221879 1          0.5427375 
565.6      0.05018984 1          0.6312745 
565.7      0.0195547  1          0.6932605 
565.8      0.0009642996 1          0.7858253 
565.9      0          1          0.9038265 
566        0          1          0.8987383 
566.1      0.0008601837 1          0.8333238 
566.2      0.0002491907 1          0.8512462 
566.3      0          1          0.9523578 
566.4      0          1          0.9725919 
566.5      0.00866059 1          0.8146101 
566.6      0.02171447 1          0.6618098 
566.7      0.02102289 1          0.6689755 
566.8      0.05505376 1          0.5853402 
566.9      0.06461698 1          0.5884774 
567        0.05264516 1          0.6611195 
567.1      0.05720063 1          0.6944995 
567.2      0.0781323  1          0.6681007 
567.3      0.1129333  1          0.6390562 
567.4      0.1372548  1          0.6248801 
567.5      0.1433099  1          0.6316894 
567.6      0.1447631  1          0.6421055 
567.7      0.1525326  1          0.6072847 
567.8      0.1130135  1          0.6561127 
567.9      0.08122118 1          0.6854675 
568        0.02172413 1          0.8068646 
568.1      0.002981973 1          0.8886078 
568.2      0.001440746 1          0.8741931 
568.3      0.009515671 1          0.7889537 
568.4      0.02507731 1          0.7113208 
568.5      0.04143173 1          0.6621783 
568.6      0.04116148 1          0.6656614 
568.7      0.02844102 1          0.706879  
568.8      0.0282179  1          0.6913866 
568.9      0.03073211 1          0.6874257 
569        0.02274492 1          0.7179844 
569.1      0.01311094 1          0.7579355 
569.2      0.003522418 1          0.8441204 
569.3      0.007058265 1          0.8039759 
569.4      0.007234754 1          0.8037542 
569.5      0.01903283 1          0.7328279 
569.6      0.04303632 1          0.653053  
569.7      0.04088255 1          0.6528844 
569.8      0.03704748 1          0.6857999 
569.9      0.03946931 1          0.693169  
570        0.0181761  1          0.7643312 
570.1      0.001071432 1          0.8602573 
570.2      0.001597321 1          0.8600168 
570.3      0.0006592254 1          0.8925708 
570.4      0.001230636 1          0.8875651 
570.5      0.0005249809 1          0.9113001 
570.6      0.002691795 1          0.8636629 
570.7      0.002347516 1          0.8727079 
570.8      0.00395638 1          0.8403602 
570.9      0.006862161 1          0.804768  
571        0.01088621 1          0.7831464 
571.1      0.04049172 1          0.7178817 
571.2      0.06200819 1          0.6432306 
571.3      0.07916553 1          0.5852637 
571.4      0.07105556 1          0.6049659 
571.5      0.06312713 1          0.6252447 
571.6      0.08066992 1          0.5687317 
571.7      0.07331522 1          0.5879419 
571.8      0.05693761 1          0.6282257 
571.9      0.07122397 1          0.5811383 
572        0.08009519 1          0.5524831 
572.1      0.0732796  1          0.5585729 
572.2      0.07011227 1          0.5584348 
572.3      0.07298299 1          0.5614308 
572.4      0.07159962 1          0.5707828 
572.5      0.07095466 1          0.5933251 
572.6      0.02892167 1          0.7267787 
572.7      0.01391004 1          0.8051156 
572.8      0.02565329 1          0.7626717 
572.9      0.04690175 1          0.7067257 
573        0.07519693 1          0.6332479 
573.1      0.08736609 1          0.6261438 
573.2      0.0824277  1          0.6470066 
573.3      0.06179386 1          0.7021455 
573.4      0.04796996 1          0.7532529 
573.5      0.02331343 1          0.8207805 
573.6      0.001054023 1          0.9831932 
573.7      0          1          1         
573.8      0          1          1         
573.9      0.003803777 1          0.8648998 
574        0.01413121 1          0.7851863 
574.1      0.004600171 1          0.8598181 
574.2      0          1          1         
574.3      0          1          1         
574.4      0          1          1         
574.5      0          1          1         
574.6      0          1          1         
574.7      0          1          1         
574.8      0          1          1         
574.9      0          1          1         
575        0          1          1         
575.1      0          1          1         
575.2      0          1          1         
575.3      0          1          1         
575.4      0.00123864 1          1         
575.5      0.001996215 1          1         
575.6      0.007901508 1          0.8934447 
575.7      0.02701042 1          0.7690583 
575.8      0.04124475 1          0.7363867 
575.9      0.03590596 1          0.7645167 
576        0.01826058 1          0.8830101 
576.1      0.03436882 1          0.8062485 
576.2      0.07121302 1          0.7082502 
576.3      0.07334384 1          0.7314426 
576.4      0.07500548 1          0.7593883 
576.5      0.1240639  1          0.6665849 
576.6      0.2016536  1          0.5164793 
576.7      0.2313919  0.8910532  0.4991573 
576.8      0.2704086  0.7508934  0.4375818 
576.9      0.3181564  0.6610899  0.351962  
577        0.2911079  0.7827964  0.3801935 
577.1      0.257557   0.9471066  0.3914784 
577.2      0.2233074  1          0.3983444 
577.3      0.1720898  1          0.4709242 
577.4      0.1103512  1          0.5926172 
577.5      0.07593481 1          0.6576464 
577.6      0.06626002 1          0.6574768 
577.7      0.05434104 1          0.6865786 
577.8      0.04415517 1          0.7246083 
577.9      0.03886914 1          0.748239  
578        0.03338542 1          0.7643039 
578.1      0.06379698 1          0.6711053 
578.2      0.08494195 1          0.6180865 
578.3      0.1072155  1          0.5625209 
578.4      0.1028029  1          0.5718297 
578.5      0.1010116  1          0.5877357 
578.6      0.1104321  1          0.5589903 
578.7      0.08755148 1          0.6173062 
578.8      0.06074325 1          0.6846133 
578.9      0.03017485 1          0.7748248 
579        0.01767312 1          0.8215195 
579.1      0.01698897 1          0.8169277 
579.2      0.007336053 1          0.8891394 
579.3      0.005565541 1          0.917522  
579.4      0.01363275 1          0.8382772 
579.5      0.02480309 1          0.7777269 
579.6      0.02501779 1          0.7733642 
579.7      0.01508989 1          0.8069352 
579.8      0.005016565 1          0.9114031 
579.9      0.004446016 1          0.9503614 
