~Version
 VERS              .         3.0                           : CWLS LOG ASCII STANDARD - VERSION 3.0
 WRAP              .         NO                            : ONE LINE PER DEPTH STEP
 DLM               .         SPACE                         : DELIMITING CHARACTER(SPACE TAB OR COMMA)
~Well Information
#_______________________________________________________________________________
#
#PARAMETER_NAME    .UNIT     VALUE                         : DESCRIPTION
#_______________________________________________________________________________
STRT               .M        0.1                           : First reference value
STOP               .M        793.1                         : Last reference value
STEP               .M        0.1                           : Step increment
NULL               .         -9999                         : Missing value
COMP               .         ICPetroleum                   : Company
WELL               .         328                           : Well name
FLD                .         Karatobe                      : Field
LOC                .                                       : Location
SRVC               .                                       : Service Company
CTRY               .         KZ                            : Country
DATE               .         20-21.03.2007                 : Service Date
LATI               .         0                             : Latitude
LONG               .         0                             : Longitude
GDAT               .         WGS 84                        : Geodetic Datum
CNTY               .                                       : 
COORDIN            .                                       : Grid System
COUNTRY            .         Kazakhstan                    : 
COUNTRY            .         Kazakhstan                    : 
EREF               .m        136.5                         : 
KB                 .         0                             : KB Elevation
ORIGINALWELLNAME   .         328                           : 
PROV               .                                       : Province
RWS                .         -999                          : Def_Rw
STAT               .                                       : 
UWI                .                                       : 
WST                .         -999                          : Def_Rwt
X                  .km       466166.24                     : 
XCOORD             .                                       : X or East-West Coordinate
Y                  .km       5308273.61                    : 
YCOORD             .                                       : Y or North-South Coordinate
~Parameter Information Block
#_______________________________________________________________________________
#
#PARAMETER_NAME    .UNIT     VALUE                         : DESCRIPTION
#_______________________________________________________________________________
SET                .         Las                           : 
TLFamily_DEPT      .         Measured Depth                : 
TLFamily_PHI_FINAL .         Porosity                      : 
TLFamily_SW_AR     .         Water Saturation              : 
TLFamily_VSH_FINAL .         Shale Volume                  : 
~Curve Information
#_______________________________________________________________________________
#
#LOGNAME           .UNIT     LOG_ID                        : DESCRIPTION
#_______________________________________________________________________________
DEPT               .M                                      : Depth curve {F}
PHI_FINAL          .m3/m3                                  : Porosity {F}
SW_AR              .m3/m3                                  :  {F}
VSH_FINAL          .unitless                               : Vshale {F}
~Ascii
# ...
143.3      0          -9999      0.2871903 
143.4      0.001943218 -9999      0.2409562 
143.5      0.01300897 -9999      0.2005108 
143.6      0.01011433 -9999      0.2133    
143.7      0.00181712 -9999      0.2494324 
143.8      0.002923658 -9999      0.2493442 
143.9      0.006971275 -9999      0.2210652 
144        0.01083712 -9999      0.2052437 
144.1      0.01074267 -9999      0.2103286 
144.2      0.004207583 -9999      0.2431602 
144.3      0          -9999      0.2927338 
144.4      0          -9999      0.2763523 
144.5      0          -9999      0.3200876 
144.6      0          -9999      0.3308138 
144.7      0          -9999      0.3306869 
144.8      0          -9999      0.3126568 
144.9      0          -9999      0.2920851 
145        0          -9999      0.3054856 
145.1      0          -9999      0.3123034 
145.2      0          -9999      0.3449285 
145.3      0          -9999      0.3485942 
145.4      0          -9999      0.3446611 
145.5      0          -9999      0.2981169 
145.6      0          -9999      0.3048007 
145.7      0          -9999      0.3046869 
145.8      0          1          0.3149819 
145.9      0          1          0.347782  
146        0          1          0.3363877 
146.1      0          1          0.3252992 
146.2      0          1          0.358927  
146.3      0          1          0.3911072 
146.4      0          1          0.3704935 
146.5      0          1          0.339453  
146.6      0          1          0.3356132 
146.7      0          1          0.3467044 
146.8      0          1          0.3542128 
146.9      0          1          0.3737716 
147        0          1          0.3501023 
147.1      0          1          0.3099661 
147.2      0          1          0.3203725 
147.3      0          1          0.3691791 
147.4      0          1          0.3977797 
147.5      0          1          0.385089  
147.6      0          1          0.3890731 
147.7      0          1          0.3453657 
147.8      0          1          0.2857256 
147.9      0          1          0.254572  
148        0          1          0.2515262 
148.1      0          1          0.2726765 
148.2      0          1          0.2757191 
148.3      0          1          0.2601954 
148.4      0          1          0.2396265 
148.5      0.004258799 1          0.212405  
148.6      0.007802074 -9999      0.1971659 
148.7      0.003721253 1          0.2148686 
148.8      0          1          0.2336821 
148.9      0          1          0.2478143 
149        0          1          0.2252927 
149.1      0.006036417 -9999      0.1755836 
149.2      0          1          0.1847659 
149.3      0          1          0.180049  
149.4      0          1          0.2091922 
149.5      0          1          0.2621057 
149.6      0          1          0.2743318 
149.7      0          1          0.2413841 
149.8      0          1          0.211485  
149.9      0          1          0.2062977 
150        0          1          0.179648  
150.1      0          1          0.1773    
150.2      0          1          0.1818438 
150.3      0          1          0.1749185 
150.4      0          1          0.1794196 
150.5      0          1          0.1839975 
150.6      0          1          0.1862858 
150.7      0          1          0.181554  
150.8      0          1          0.1636128 
150.9      0.008661087 -9999      0.1814384 
151        0.06990307 -9999      0.1767956 
151.1      0.1709698  -9999      0.2004795 
151.2      0.2770557  -9999      0.2236195 
151.3      0.3659235  -9999      0.2574519 
151.4      0.4013617  -9999      0.2884516 
151.5      0.4184089  1          0.3516087 
151.6      0.3980523  0.9316162  0.4123186 
151.7      0.3863009  0.7629452  0.4526547 
151.8      0.3603325  0.761635   0.4812771 
151.9      0.3575324  0.7509835  0.4860213 
152        0.3512131  0.7406849  0.4808703 
152.1      0.341034   0.7275406  0.4856093 
152.2      0.3163792  0.7316782  0.5265092 
152.3      0.3056568  0.7215817  0.5370078 
152.4      0.3123317  0.7112225  0.5207615 
152.5      0.2967585  0.7761038  0.5529656 
152.6      0.2533427  0.9567893  0.6352808 
152.7      0.2023188  1          0.7282132 
152.8      0.2048727  1          0.7278658 
152.9      0.1798045  1          0.7785119 
153        0.1485106  1          0.8403127 
153.1      0.1410768  1          0.8479712 
153.2      0.1150406  1          0.8974816 
153.3      0.06021608 1          1         
153.4      0.05987587 1          1         
153.5      0.05953573 1          1         
153.6      0.05985137 1          1         
153.7      0.05807365 1          1         
153.8      0.05805127 1          1         
153.9      0.06213441 1          1         
154        0.06849259 1          1         
154.1      0.07068478 1          1         
154.2      0.07375409 1          1         
154.3      0.07685941 1          1         
154.4      0.08406615 1          1         
154.5      0.0882569  1          1         
154.6      0.0947385  1          1         
154.7      0.1002664  1          1         
154.8      0.1017198  1          1         
154.9      0.1042968  1          1         
155        0.1016585  1          1         
155.1      0.09902027 1          1         
155.2      0.09425887 1          1         
155.3      0.09611798 1          0.9852684 
155.4      0.08252595 1          1         
155.5      0.07667039 1          1         
155.6      0.07497594 1          1         
155.7      0.06917816 1          1         
155.8      0.06740976 1          1         
155.9      0.06358629 1          1         
156        0.06219819 1          1         
156.1      0.05976059 1          1         
156.2      0.06072923 1          1         
156.3      0.06275818 1          1         
156.4      0.1786271  1          0.7877713 
156.5      0.151377   1          0.8417706 
156.6      0.2241744  0.9157009  0.7148653 
156.7      0.2742301  0.7409911  0.6296617 
156.8      0.3524926  0.5698     0.4957864 
156.9      0.3557545  0.5475546  0.5056749 
157        0.3529236  0.5453977  0.5157283 
157.1      0.3852286  0.5043328  0.4565101 
157.2      0.4123369  0.4876563  0.4031679 
157.3      0.3962994  0.5292335  0.424476  
157.4      0.3600457  0.6090347  0.479748  
157.5      0.3102351  0.7417829  0.5629638 
157.6      0.3018439  0.8211058  0.56832   
157.7      0.3032997  0.8849043  0.5569184 
157.8      0.2474217  1          0.657842  
157.9      0.2192309  1          0.7036843 
158        0.2014431  1          0.7239888 
158.1      0.1829181  1          0.7519859 
158.2      0.1629469  1          0.7959852 
158.3      0.1303612  1          0.8583922 
158.4      0.1580231  1          0.8104988 
158.5      0.2401298  1          0.6621339 
158.6      0.300851   0.8750173  0.5492589 
158.7      0.3397205  0.6896354  0.4820018 
158.8      0.3783662  0.5551316  0.4175867 
158.9      0.3910825  0.4921267  0.4046458 
159        0.4170229  0.4421272  0.3681055 
159.1      0.4209456  0.4480472  0.3718659 
159.2      0.4145781  0.478232   0.3917361 
159.3      0.4104272  0.5282191  0.4167522 
159.4      0.4296619  0.5307973  0.387361  
159.5      0.4470416  0.5233669  0.3712917 
159.6      0.4191257  0.5467605  0.4205692 
159.7      0.3734351  0.5875091  0.509831  
159.8      0.3497934  0.6232091  0.5518468 
159.9      0.3316563  0.6739861  0.5852256 
160        0.3611137  0.6641358  0.5299124 
160.1      0.2843767  0.895523   0.6701415 
160.2      0.3455372  0.7890003  0.545463  
160.3      0.3283859  0.8315463  0.5728201 
160.4      0.3305041  0.8038922  0.5669579 
160.5      0.3586823  0.7175694  0.5132079 
160.6      0.3876052  0.6457508  0.4733998 
160.7      0.4008464  0.609      0.4637294 
160.8      0.388214   0.6170442  0.5024118 
160.9      0.3384674  0.6931905  0.6059123 
161        0.3538333  0.6736153  0.5881315 
161.1      0.3265219  0.7553362  0.6480045 
161.2      0.2843784  0.8735802  0.7269793 
161.3      0.2825896  0.8771757  0.7266381 
161.4      0.2479865  0.959167   0.7763892 
