~Version
 VERS              .         3.0                           : CWLS LOG ASCII STANDARD - VERSION 3.0
 WRAP              .         NO                            : ONE LINE PER DEPTH STEP
 DLM               .         SPACE                         : DELIMITING CHARACTER(SPACE TAB OR COMMA)
~Well Information
#_______________________________________________________________________________
#
#PARAMETER_NAME    .UNIT     VALUE                         : DESCRIPTION
#_______________________________________________________________________________
STRT               .M        0.1                           : First reference value
STOP               .M        793.1                         : Last reference value
STEP               .M        0.1                           : Step increment
NULL               .         -9999                         : Missing value
COMP               .         ICPetroleum                   : Company
WELL               .         328                           : Well name
FLD                .         Karatobe                      : Field
LOC                .                                       : Location
SRVC               .                                       : Service Company
CTRY               .         KZ                            : Country
DATE               .         20-21.03.2007                 : Service Date
LATI               .         0                             : Latitude
LONG               .         0                             : Longitude
GDAT               .         WGS 84                        : Geodetic Datum
CNTY               .                                       : 
COORDIN            .                                       : Grid System
COUNTRY            .         Kazakhstan                    : 
COUNTRY            .         Kazakhstan                    : 
EREF               .m        136.5                         : 
KB                 .         0                             : KB Elevation
ORIGINALWELLNAME   .         328                           : 
PROV               .                                       : Province
RWS                .         -999                          : Def_Rw
STAT               .                                       : 
UWI                .                                       : 
WST                .         -999                          : Def_Rwt
X                  .km       466166.24                     : 
XCOORD             .                                       : X or East-West Coordinate
Y                  .km       5308273.61                    : 
YCOORD             .                                       : Y or North-South Coordinate
~Parameter Information Block
#_______________________________________________________________________________
#
#PARAMETER_NAME    .UNIT     VALUE                         : DESCRIPTION
#_______________________________________________________________________________
SET                .         Las                           : 
TLFamily_DEPT      .         Measured Depth                : 
TLFamily_PHI_FINAL .         Porosity                      : 
TLFamily_SW_AR     .         Water Saturation              : 
TLFamily_VSH_FINAL .         Shale Volume                  : 
~Curve Information
#_______________________________________________________________________________
#
#LOGNAME           .UNIT     LOG_ID                        : DESCRIPTION
#_______________________________________________________________________________
DEPT               .M                                      : Depth curve {F}
PHI_FINAL          .m3/m3                                  : Porosity {F}
SW_AR              .m3/m3                                  :  {F}
VSH_FINAL          .unitless                               : Vshale {F}
~Ascii
# ...
307.1      0.1142503  1          0.6775223 
307.2      0.1310906  1          0.6215765 
307.3      0.155672   0.9254383  0.5486421 
307.4      0.1840349  0.6993485  0.4829414 
307.5      0.2157455  0.5361173  0.4184225 
307.6      0.2463947  0.4350663  0.3728917 
307.7      0.2638837  0.3759777  0.3746018 
307.8      0.2745615  0.3232101  0.3705412 
307.9      0.2876923  0.2784088  0.3635276 
308        0.2984996  0.2490712  0.355868  
308.1      0.3134306  0.22878    0.3468241 
308.2      0.3188722  0.2241313  0.3347348 
308.3      0.3287435  0.2172807  0.3207076 
308.4      0.3243771  0.2186088  0.3151705 
308.5      0.3114403  0.2238086  0.3191387 
308.6      0.2994214  0.2282696  0.3260601 
308.7      0.2894583  0.2318884  0.3335351 
308.8      0.2828461  0.2351912  0.3406411 
308.9      0.2727368  0.2438671  0.3461781 
309        0.2653019  0.2514395  0.3507923 
309.1      0.2585804  0.2598107  0.3562371 
309.2      0.2557499  0.2666209  0.3625125 
309.3      0.2527356  0.2762177  0.3699875 
309.4      0.2457403  0.2940349  0.3770012 
309.5      0.2361217  0.3113397  0.3841994 
309.6      0.2179552  0.3355655  0.392505  
309.7      0.2018321  0.327774   0.4014566 
309.8      0.1784932  0.3319097  0.4074551 
309.9      0.1502984  0.3579541  0.4081934 
310        0.1316195  0.4642938  0.4061631 
310.1      0.1178747  0.5937164  0.403856  
310.2      0.1164117  0.6299065  0.3996109 
310.3      0.1274956  0.6053689  0.3943507 
310.4      0.1414402  0.5791843  0.3861374 
310.5      0.1525676  0.5827369  0.3735867 
310.6      0.164668   0.5825564  0.3554066 
310.7      0.1731021  0.5932574  0.3360268 
310.8      0.1621857  0.70754    0.3747319 
310.9      0.1522209  0.8049118  0.4021958 
311        0.1418563  0.9115753  0.4255456 
311.1      0.1363204  0.9829465  0.4356354 
311.2      0.143289   0.9626049  0.436395  
311.3      0.1599087  0.8579311  0.4186968 
311.4      0.177279   0.7565375  0.3964027 
311.5      0.1933496  0.6788766  0.3759246 
311.6      0.1996852  0.6473867  0.3626944 
311.7      0.2096265  0.6048249  0.3473616 
311.8      0.2148871  0.5799729  0.3345824 
311.9      0.2134753  0.5750367  0.3235834 
312        0.2188228  0.5479006  0.3041703 
312.1      0.22376    0.5181767  0.2777938 
312.2      0.236437   0.4735993  0.2509488 
312.3      0.2484931  0.4381081  0.2289753 
312.4      0.2629507  0.4086195  0.2168873 
312.5      0.2792444  0.3798629  0.2113503 
312.6      0.2937579  0.3604153  0.2058131 
312.7      0.3047343  0.3520587  0.2054441 
312.8      0.3170234  0.3445711  0.2055545 
312.9      0.3203456  0.353038   0.2237193 
313        0.3025123  0.4135076  0.2898072 
313.1      0.2770463  0.5248111  0.3878008 
313.2      0.2537955  0.6406272  0.4624967 
313.3      0.2366191  0.7361424  0.5119526 
313.4      0.2294731  0.7555799  0.5196417 
313.5      0.228425   0.7195929  0.5007036 
313.6      0.2182996  0.7070916  0.4798617 
313.7      0.1971182  0.7375786  0.4616281 
313.8      0.1544757  0.8971348  0.458573  
313.9      0.1009823  1          0.5017278 
314        0.03869331 1          0.6444613 
314.1      0.01604311 1          0.7778072 
314.2      0.01410476 1          0.8453562 
314.3      0.02049094 1          0.8773326 
314.4      0.02553654 1          0.880686  
314.5      0.02775828 1          0.8852936 
314.6      0.026506   1          0.8934184 
314.7      0.02379422 1          0.9080946 
314.8      0.02089797 1          0.9270002 
314.9      0.01857824 1          0.9459509 
315        0.02002402 1          0.9454764 
315.1      0.02300868 1          0.9415082 
315.2      0.02448289 1          0.9368939 
315.3      0.02884497 1          0.9315414 
315.4      0.03750178 1          0.9242509 
315.5      0.05153927 1          0.9166836 
315.6      0.07654397 1          0.9050557 
315.7      0.1078447  1          0.895089  
315.8      0.1274883  1          0.873356  
315.9      0.1422876  1          0.8501409 
316        0.1462697  1          0.837396  
316.1      0.1429918  1          0.8370544 
316.2      0.1445625  1          0.8330971 
316.3      0.1374429  1          0.8358324 
316.4      0.1327665  1          0.83674   
316.5      0.1290616  1          0.8316829 
316.6      0.122319   1          0.8235433 
316.7      0.1168859  1          0.8072459 
316.8      0.1137051  1          0.7900925 
316.9      0.1155144  1          0.7706466 
317        0.1099704  1          0.7521452 
317.1      0.1106353  1          0.7239535 
317.2      0.1082006  1          0.706549  
317.3      0.09729926 1          0.7033032 
317.4      0.08537575 1          0.7036507 
317.5      0.08250055 1          0.7042468 
317.6      0.0808146  1          0.7024726 
317.7      0.08460921 1          0.6998026 
317.8      0.08766209 1          0.7065394 
317.9      0.0809269  1          0.7231444 
318        0.07986668 1          0.736986  
318.1      0.08257487 1          0.7536513 
318.2      0.0798175  1          0.7747989 
318.3      0.07115506 1          0.8006727 
318.4      0.06654643 1          0.8169929 
318.5      0.06348005 1          0.8229191 
318.6      0.05943194 1          0.8333499 
318.7      0.04620389 1          0.8562338 
318.8      0.03761806 1          0.8795761 
318.9      0.03732536 1          0.8888394 
319        0.04295946 1          0.8857867 
319.1      0.05576772 1          0.8883142 
319.2      0.06288172 1          0.8892479 
319.3      0.07391721 1          0.8830037 
319.4      0.08611958 1          0.8697146 
319.5      0.09777181 1          0.8508886 
319.6      0.09421159 1          0.8278472 
319.7      0.0983314  1          0.8199397 
319.8      0.09604447 1          0.8242992 
319.9      0.103032   1          0.8225458 
320        0.09903806 1          0.8107736 
320.1      0.09771414 1          0.7841595 
320.2      0.1055306  1          0.7459449 
320.3      0.1133657  1          0.7098193 
320.4      0.1212805  1          0.678398  
320.5      0.1270671  1          0.6443166 
320.6      0.1437236  1          0.6064274 
320.7      0.1584672  0.8990004  0.560796  
320.8      0.1855666  0.7091658  0.5086541 
320.9      0.2082271  0.6043311  0.4728445 
321        0.2179443  0.5788117  0.4692454 
321.1      0.2193417  0.6003819  0.4918997 
321.2      0.2055017  0.682567   0.5308723 
321.3      0.1882728  0.814625   0.5886595 
321.4      0.1654391  1          0.6562948 
321.5      0.1393551  1          0.7181888 
321.6      0.1115374  1          0.7698771 
321.7      0.09053238 1          0.7964627 
321.8      0.09333978 1          0.805748  
321.9      0.08960687 1          0.8067845 
322        0.08166035 1          0.8023659 
322.1      0.08068241 1          0.7924532 
322.2      0.08035161 1          0.7824761 
322.3      0.07742123 1          0.775409  
322.4      0.07056533 1          0.7695876 
322.5      0.06981532 1          0.7564684 
322.6      0.07247768 1          0.7407914 
322.7      0.0736414  1          0.7196685 
322.8      0.08395469 1          0.6822119 
322.9      0.09664704 1          0.6166735 
323        0.1126292  1          0.5533813 
323.1      0.1119579  1          0.5441812 
323.2      0.0878092  1          0.5929416 
323.3      0.07403547 1          0.6482075 
323.4      0.07617746 1          0.6729294 
323.5      0.08308472 1          0.6900227 
323.6      0.09298295 1          0.7009645 
323.7      0.09621222 1          0.7026138 
323.8      0.09934783 1          0.7063123 
323.9      0.09740797 1          0.7198232 
324        0.08616075 1          0.735811  
324.1      0.07742534 1          0.7483636 
324.2      0.07740629 1          0.7379847 
324.3      0.0785275  1          0.7156422 
324.4      0.08342475 1          0.6788545 
324.5      0.102603   1          0.6288418 
324.6      0.1270325  1          0.5678735 
324.7      0.1537025  0.8768979  0.5120339 
324.8      0.1694654  0.7492059  0.4670527 
324.9      0.1868556  0.6584418  0.4390175 
325        0.1909452  0.6400231  0.424765  
325.1      0.1751442  0.7432376  0.4570966 
325.2      0.1462136  1          0.53628   
