~Version
 VERS              .         3.0                           : CWLS LOG ASCII STANDARD - VERSION 3.0
 WRAP              .         NO                            : ONE LINE PER DEPTH STEP
 DLM               .         SPACE                         : DELIMITING CHARACTER(SPACE TAB OR COMMA)
~Well Information
#_______________________________________________________________________________
#
#PARAMETER_NAME    .UNIT     VALUE                         : DESCRIPTION
#_______________________________________________________________________________
STRT               .M        0.1                           : First reference value
STOP               .M        793.1                         : Last reference value
STEP               .M        0.1                           : Step increment
NULL               .         -9999                         : Missing value
COMP               .         ICPetroleum                   : Company
WELL               .         328                           : Well name
FLD                .         Karatobe                      : Field
LOC                .                                       : Location
SRVC               .                                       : Service Company
CTRY               .         KZ                            : Country
DATE               .         20-21.03.2007                 : Service Date
LATI               .         0                             : Latitude
LONG               .         0                             : Longitude
GDAT               .         WGS 84                        : Geodetic Datum
CNTY               .                                       : 
COORDIN            .                                       : Grid System
COUNTRY            .         Kazakhstan                    : 
COUNTRY            .         Kazakhstan                    : 
EREF               .m        136.5                         : 
KB                 .         0                             : KB Elevation
ORIGINALWELLNAME   .         328                           : 
PROV               .                                       : Province
RWS                .         -999                          : Def_Rw
STAT               .                                       : 
UWI                .                                       : 
WST                .         -999                          : Def_Rwt
X                  .km       466166.24                     : 
XCOORD             .                                       : X or East-West Coordinate
Y                  .km       5308273.61                    : 
YCOORD             .                                       : Y or North-South Coordinate
~Parameter Information Block
#_______________________________________________________________________________
#
#PARAMETER_NAME    .UNIT     VALUE                         : DESCRIPTION
#_______________________________________________________________________________
SET                .         Las                           : 
TLFamily_DEPT      .         Measured Depth                : 
TLFamily_PHI_FINAL .         Porosity                      : 
TLFamily_SW_AR     .         Water Saturation              : 
TLFamily_VSH_FINAL .         Shale Volume                  : 
~Curve Information
#_______________________________________________________________________________
#
#LOGNAME           .UNIT     LOG_ID                        : DESCRIPTION
#_______________________________________________________________________________
DEPT               .M                                      : Depth curve {F}
PHI_FINAL          .m3/m3                                  : Porosity {F}
SW_AR              .m3/m3                                  :  {F}
VSH_FINAL          .unitless                               : Vshale {F}
~Ascii
# ...
652.8      0.181509   0.8182297  0.2147789 
652.9      0.1740741  0.8829848  0.2245176 
653        0.160908   0.99707    0.2389945 
653.1      0.1394933  1          0.2491661 
653.2      0.1193626  1          0.2557334 
653.3      0.1143795  1          0.2317094 
653.4      0.1002851  1          0.2362516 
653.5      0.08251169 1          0.2482339 
653.6      0.08134635 1          0.2389945 
653.7      0.08407292 1          0.2218444 
653.8      0.08519235 1          0.210409  
653.9      0.08020615 1          0.2112801 
654        0.0703778  1          0.2174178 
654.1      0.06227329 1          0.2200695 
654.2      0.05563881 1          0.2147789 
654.3      0.04597369 1          0.2156571 
654.4      0.04103865 1          0.2156571 
654.5      0.04551808 1          0.1966593 
654.6      0.05703118 1          0.1799631 
654.7      0.06192751 1          0.176688  
654.8      0.07014436 1          0.1791424 
654.9      0.07876248 1          0.1807853 
655        0.08997548 1          0.1824334 
655.1      0.09828316 1          0.1899162 
655.2      0.09939913 1          0.2000635 
655.3      0.09998634 1          0.2112801 
655.4      0.0865929  1          0.2281019 
655.5      0.08417246 1          0.222734  
655.6      0.06614519 1          0.2254114 
655.7      0.04768651 1          0.2290016 
655.8      0.0346497  1          0.2165367 
655.9      0.01457673 1          0.2183003 
656        0          1          0.2200695 
656.1      0          1          0.2095392 
656.2      0          1          0.1983587 
656.3      0          1          0.1890795 
656.4      0          1          0.1840869 
656.5      0          1          0.1783229 
656.6      0          1          0.1750583 
656.7      0          1          0.176688  
656.8      0          1          0.1775048 
656.9      0          1          0.1832595 
657        0          1          0.1949653 
657.1      0          1          0.201774  
657.2      0          1          0.2026312 
657.3      0          1          0.2052113 
657.4      0          1          0.2130267 
657.5      0          1          0.2245176 
657.6      0          1          0.2371645 
657.7      0.0112757  1          0.2344303 
657.8      0.03312823 1          0.2308053 
657.9      0.05629748 1          0.2245176 
658        0.06688128 1          0.2299027 
658.1      0.08012805 1          0.2299027 
658.2      0.09166788 1          0.2281019 
658.3      0.1006807  1          0.2281019 
658.4      0.1022052  1          0.2272037 
658.5      0.1001284  1          0.2281019 
658.6      0.08958418 1          0.2290016 
658.7      0.08258902 1          0.2290016 
658.8      0.07774318 1          0.2263068 
658.9      0.07386331 1          0.2290016 
659        0.08072488 1          0.2326149 
659.1      0.06708676 1          0.2317094 
659.2      0.05426528 1          0.2281019 
659.3      0.03608051 1          0.2353402 
659.4      0.01955059 1          0.2435956 
659.5      0.003886746 1          0.2500997 
659.6      0          1          0.2510349 
659.7      0          1          0.2435956 
659.8      0          1          0.2500997 
659.9      0          1          0.2500997 
660        0          1          0.2353402 
660.1      0          1          0.2191842 
660.2      0          1          0.2263068 
660.3      0          1          0.2417508 
660.4      0          1          0.2380787 
660.5      0          1          0.2380787 
660.6      0          1          0.2389945 
660.7      0          1          0.2335219 
660.8      0          1          0.2236251 
660.9      0          1          0.2165367 
661        0          1          0.2183003 
661.1      0.005745631 1          0.2183003 
661.2      0.02299396 1          0.2218444 
661.3      0.03758376 1          0.2308053 
661.4      0.05281262 1          0.2362516 
661.5      0.06574898 1          0.2463741 
661.6      0.07653829 1          0.2473033 
661.7      0.07670684 1          0.2519715 
661.8      0.0656504  1          0.2671653 
661.9      0.06052683 1          0.2681279 
662        0.06302007 1          0.2778404 
662.1      0.07735185 1          0.2897038 
662.2      0.06527408 1          0.3203852 
662.3      0.04939852 1          0.3581051 
662.4      0.03185616 1          0.4015392 
662.5      0.01045225 1          0.452742  
662.6      0          1          0.5034913 
662.7      0          1          0.5447572 
662.8      0          1          0.5575308 
662.9      0          1          0.5321673 
663        0          1          0.5183911 
663.1      0          1          0.5034913 
663.2      0          1          0.4968055 
663.3      0          1          0.4796721 
663.4      0          1          0.4770679 
663.5      0          1          0.4928197 
663.6      0          1          0.5183911 
663.7      0          1          0.5391392 
663.8      0          1          0.5363437 
663.9      0          1          0.5197588 
664        0          1          0.5197588 
664.1      0          1          0.5156624 
664.2      0          1          0.5034913 
664.3      0          1          0.4994733 
664.4      0          1          0.4822847 
664.5      0          1          0.4809773 
664.6      0          1          0.4731773 
664.7      0          1          0.452742  
664.8      0          1          0.4328268 
664.9      0          1          0.4414766 
665        0          1          0.4439659 
665.1      0          1          0.4628939 
665.2      0          1          0.4770679 
665.3      0.01578904 1          0.4641721 
665.4      0.02907827 1          0.4389952 
665.5      0.03260358 1          0.4218479 
665.6      0.03241919 1          0.411027  
665.7      0.0263645  1          0.4003619 
665.8      0.01679594 1          0.3991864 
665.9      0.01863934 1          0.3749333 
666        0.02681331 1          0.3647876 
666.1      0.01816947 1          0.3886916 
666.2      0.006604757 1          0.4086436 
666.3      0.01074292 1          0.3968411 
666.4      0.00576349 1          0.3817793 
666.5      0          1          0.3852271 
666.6      0          1          0.4038998 
666.7      0          1          0.4074547 
666.8      0          1          0.3933371 
666.9      0          1          0.372666  
667        0          1          0.3659076 
667.1      0          1          0.3592144 
667.2      0          1          0.362553  
667.3      0          1          0.372666  
667.4      0          1          0.3692786 
667.5      0          1          0.3569977 
667.6      0          1          0.3492949 
667.7      0          1          0.3384407 
667.8      0          1          0.3460204 
667.9      0          1          0.362553  
668        0          1          0.3692786 
668.1      0          1          0.378348  
668.2      0          1          0.3921731 
668.3      0          1          0.4050829 
668.4      0          1          0.4086436 
668.5      0          1          0.4098344 
668.6      0          1          0.4194296 
668.7      0          1          0.4340565 
668.8      0          1          0.4122216 
668.9      0          1          0.4027186 
669        0          1          0.3898502 
669.1      0          1          0.362553  
669.2      0          1          0.3614383 
669.3      0          1          0.3603254 
669.4      0          1          0.3525856 
669.5      0          1          0.3373649 
669.6      0          1          0.3384407 
669.7      0          1          0.3438461 
669.8      0          1          0.3373649 
669.9      0          1          0.2997667 
670        0          1          0.3203852 
670.1      0          1          0.3235356 
670.2      0          1          0.3058826 
670.3      0          1          0.3038374 
670.4      0          1          0.3048591 
670.5      0          1          0.2977411 
670.6      0          1          0.2927056 
670.7      0          1          0.2897038 
670.8      0          1          0.2788203 
670.9      0          1          0.2710253 
