~Version
 VERS              .         3.0                           : CWLS LOG ASCII STANDARD - VERSION 3.0
 WRAP              .         NO                            : ONE LINE PER DEPTH STEP
 DLM               .         SPACE                         : DELIMITING CHARACTER(SPACE TAB OR COMMA)
~Well Information
#_______________________________________________________________________________
#
#PARAMETER_NAME    .UNIT     VALUE                         : DESCRIPTION
#_______________________________________________________________________________
STRT               .M        0.1                           : First reference value
STOP               .M        793.1                         : Last reference value
STEP               .M        0.1                           : Step increment
NULL               .         -9999                         : Missing value
COMP               .         ICPetroleum                   : Company
WELL               .         328                           : Well name
FLD                .         Karatobe                      : Field
LOC                .                                       : Location
SRVC               .                                       : Service Company
CTRY               .         KZ                            : Country
DATE               .         20-21.03.2007                 : Service Date
LATI               .         0                             : Latitude
LONG               .         0                             : Longitude
GDAT               .         WGS 84                        : Geodetic Datum
CNTY               .                                       : 
COORDIN            .                                       : Grid System
COUNTRY            .         Kazakhstan                    : 
COUNTRY            .         Kazakhstan                    : 
EREF               .m        136.5                         : 
KB                 .         0                             : KB Elevation
ORIGINALWELLNAME   .         328                           : 
PROV               .                                       : Province
RWS                .         -999                          : Def_Rw
STAT               .                                       : 
UWI                .                                       : 
WST                .         -999                          : Def_Rwt
X                  .km       466166.24                     : 
XCOORD             .                                       : X or East-West Coordinate
Y                  .km       5308273.61                    : 
YCOORD             .                                       : Y or North-South Coordinate
~Parameter Information Block
#_______________________________________________________________________________
#
#PARAMETER_NAME    .UNIT     VALUE                         : DESCRIPTION
#_______________________________________________________________________________
SET                .         Las                           : 
TLFamily_DEPT      .         Measured Depth                : 
TLFamily_PHI_FINAL .         Porosity                      : 
TLFamily_SW_AR     .         Water Saturation              : 
TLFamily_VSH_FINAL .         Shale Volume                  : 
~Curve Information
#_______________________________________________________________________________
#
#LOGNAME           .UNIT     LOG_ID                        : DESCRIPTION
#_______________________________________________________________________________
DEPT               .M                                      : Depth curve {F}
PHI_FINAL          .m3/m3                                  : Porosity {F}
SW_AR              .m3/m3                                  :  {F}
VSH_FINAL          .unitless                               : Vshale {F}
~Ascii
# ...
689.2      0.1021437  1          0.2254114 
689.3      0.1069701  1          0.2290016 
689.4      0.1064396  1          0.2308053 
689.5      0.1153091  1          0.2299027 
689.6      0.1191929  1          0.2272037 
689.7      0.1090752  1          0.2218444 
689.8      0.1013524  1          0.2281019 
689.9      0.09226634 1          0.2389945 
690        0.09387594 1          0.2335219 
690.1      0.08264431 1          0.2317094 
690.2      0.0831757  1          0.2299027 
690.3      0.09037901 1          0.2254114 
690.4      0.08580702 1          0.2209562 
690.5      0.08370534 1          0.2281019 
690.6      0.07835097 1          0.2263068 
690.7      0.08632819 1          0.2191842 
690.8      0.09273008 1          0.2174178 
690.9      0.08684772 1          0.2174178 
691        0.08580702 1          0.2209562 
691.1      0.07246862 1          0.2263068 
691.2      0.06711252 1          0.2245176 
691.3      0.08044586 1          0.2191842 
691.4      0.08379304 1          0.2078038 
691.5      0.07591964 1          0.2069382 
691.6      0.05695342 1          0.2052113 
691.7      0.0375792  1          0.2043498 
691.8      0.01905651 1          0.2069382 
691.9      0.0005275258 1          0.2095392 
692        0          1          0.2095392 
692.1      0          1          0.2069382 
692.2      0          1          0.2147789 
692.3      0          1          0.2200695 
692.4      0          1          0.2183003 
692.5      0          1          0.2218444 
692.6      0.0003281478 1          0.2139021 
692.7      0.007973822 1          0.2130267 
692.8      0.01304395 1          0.2218444 
692.9      0.02291376 1          0.2209562 
693        0.03237577 1          0.2174178 
693.1      0.03437976 1          0.2290016 
693.2      0.02881829 1          0.2426724 
693.3      0.02590183 1          0.2510349 
693.4      0.01962446 1          0.2519715 
693.5      0.01701694 1          0.2454465 
693.6      0.01299416 1          0.2426724 
693.7      0.01122533 1          0.2353402 
693.8      0.01563568 1          0.2183003 
693.9      0.01377468 1          0.2139021 
694        0.01188988 1          0.2130267 
694.1      0.0100044  1          0.2121527 
694.2      0.002173387 1          0.2069382 
694.3      0          1          0.2034898 
694.4      0          1          0.2060741 
694.5      0          1          0.2078038 
694.6      0          1          0.2095392 
694.7      0          1          0.2174178 
694.8      0          1          0.2069382 
694.9      0          1          0.2191842 
695        0          1          0.2218444 
695.1      0          1          0.2254114 
695.2      0          1          0.222734  
695.3      0          1          0.2060741 
695.4      0          1          0.2052113 
695.5      0          1          0.2095392 
695.6      0          1          0.2060741 
695.7      0          1          0.2026312 
695.8      0          1          0.1975083 
695.9      0          1          0.2000635 
696        0          1          0.210409  
696.1      0          1          0.2069382 
696.2      0          1          0.2043498 
696.3      0          1          0.2034898 
696.4      0          1          0.2052113 
696.5      0          1          0.2034898 
696.6      0          1          0.2060741 
696.7      0          1          0.2052113 
696.8      0          1          0.201774  
696.9      0          1          0.2069382 
697        0          1          0.2086708 
697.1      0          1          0.2000635 
697.2      0          1          0.1983587 
697.3      0          1          0.2043498 
697.4      0          1          0.1966593 
697.5      0          1          0.2121527 
697.6      0          1          0.2095392 
697.7      0          1          0.2121527 
697.8      0          1          0.2139021 
697.9      0          1          0.2112801 
698        0          1          0.2043498 
698.1      0          1          0.2052113 
698.2      0          1          0.2069382 
698.3      0          1          0.2000635 
698.4      0          1          0.2086708 
698.5      0          1          0.2165367 
698.6      0          1          0.222734  
698.7      0          1          0.2174178 
698.8      0          1          0.2183003 
698.9      0          1          0.2156571 
699        0          1          0.2147789 
699.1      0          1          0.2147789 
699.2      0          1          0.2191842 
699.3      0          1          0.2299027 
699.4      0          1          0.2417508 
699.5      0          1          0.2417508 
699.6      0          1          0.2353402 
699.7      0          1          0.2290016 
699.8      0          1          0.2371645 
699.9      0          1          0.2538494 
700        0          1          0.2623751 
700.1      0.006522079 1          0.2547906 
700.2      0.03791073 1          0.2547906 
700.3      0.06222714 1          0.2690922 
700.4      0.07607786 1          0.2788203 
700.5      0.09083456 1          0.2867164 
700.6      0.09783893 1          0.2917034 
700.7      0.1123038  1          0.2768621 
700.8      0.1091363  1          0.2827556 
700.9      0.1035045  1          0.2807848 
701        0.09942106 1          0.2907028 
701.1      0.1052266  1          0.2798017 
701.2      0.1148383  1          0.2710253 
701.3      0.1119577  1          0.2690922 
701.4      0.1131818  1          0.2710253 
701.5      0.104569   1          0.2788203 
701.6      0.09937812 1          0.2937095 
701.7      0.07817423 1          0.3069076 
701.8      0.06580508 1          0.3089628 
701.9      0.08087028 1          0.2977411 
702        0.09934992 1          0.2749102 
702.1      0.107195   1          0.2662041 
702.2      0.1076605  1          0.2642865 
702.3      0.09838782 1          0.2614217 
702.4      0.09640678 1          0.2671653 
702.5      0.09247079 1          0.2768621 
702.6      0.06704917 1          0.2847329 
702.7      0.06704917 1          0.2847329 
702.8      0.07524645 1          0.2768621 
702.9      0.0842635  1          0.2662041 
703        0.1058207  1          0.2529097 
703.1      0.09966194 1          0.2538494 
703.2      0.08706543 1          0.2566776 
703.3      0.07530072 1          0.2566776 
703.4      0.07696034 1          0.2510349 
703.5      0.09064111 1          0.2445203 
703.6      0.1085601  1          0.2435956 
703.7      0.09859541 1          0.2454465 
703.8      0.07837406 1          0.2445203 
703.9      0.05995368 1          0.2399117 
704        0.03529244 1          0.2389945 
704.1      0.006528263 1          0.2463741 
704.2      0          1          0.2454465 
704.3      0          1          0.2399117 
704.4      0          1          0.2408305 
704.5      0          1          0.2417508 
704.6      0          1          0.2389945 
704.7      0          1          0.2491661 
704.8      0          1          0.2681279 
704.9      0          1          0.2710253 
705        0          1          0.2529097 
705.1      0          1          0.2399117 
705.2      0          1          0.2435956 
705.3      0          1          0.2510349 
705.4      0          1          0.2529097 
705.5      0          1          0.2538494 
705.6      0          1          0.2454465 
705.7      0          1          0.2362516 
705.8      0          1          0.2426724 
705.9      0          1          0.2538494 
706        0          1          0.26333   
706.1      0          1          0.2604699 
706.2      0          1          0.2604699 
706.3      0          1          0.2576233 
706.4      0          1          0.2500997 
706.5      0          1          0.2491661 
706.6      0          1          0.2557334 
706.7      0.01101667 1          0.2510349 
706.8      0.02420858 1          0.2491661 
706.9      0.03645628 1          0.2491661 
707        0.04346931 1          0.2491661 
707.1      0.05460426 1          0.2408305 
707.2      0.05394266 1          0.2353402 
707.3      0.0469202  1          0.2426724 
