~Version
 VERS              .         3.0                           : CWLS LOG ASCII STANDARD - VERSION 3.0
 WRAP              .         NO                            : ONE LINE PER DEPTH STEP
 DLM               .         SPACE                         : DELIMITING CHARACTER(SPACE TAB OR COMMA)
~Well Information
#_______________________________________________________________________________
#
#PARAMETER_NAME    .UNIT     VALUE                         : DESCRIPTION
#_______________________________________________________________________________
STRT               .M        0.1                           : First reference value
STOP               .M        793.1                         : Last reference value
STEP               .M        0.1                           : Step increment
NULL               .         -9999                         : Missing value
COMP               .         ICPetroleum                   : Company
WELL               .         328                           : Well name
FLD                .         Karatobe                      : Field
LOC                .                                       : Location
SRVC               .                                       : Service Company
CTRY               .         KZ                            : Country
DATE               .         20-21.03.2007                 : Service Date
LATI               .         0                             : Latitude
LONG               .         0                             : Longitude
GDAT               .         WGS 84                        : Geodetic Datum
CNTY               .                                       : 
COORDIN            .                                       : Grid System
COUNTRY            .         Kazakhstan                    : 
COUNTRY            .         Kazakhstan                    : 
EREF               .m        136.5                         : 
KB                 .         0                             : KB Elevation
ORIGINALWELLNAME   .         328                           : 
PROV               .                                       : Province
RWS                .         -999                          : Def_Rw
STAT               .                                       : 
UWI                .                                       : 
WST                .         -999                          : Def_Rwt
X                  .km       466166.24                     : 
XCOORD             .                                       : X or East-West Coordinate
Y                  .km       5308273.61                    : 
YCOORD             .                                       : Y or North-South Coordinate
~Parameter Information Block
#_______________________________________________________________________________
#
#PARAMETER_NAME    .UNIT     VALUE                         : DESCRIPTION
#_______________________________________________________________________________
SET                .         Las                           : 
TLFamily_DEPT      .         Measured Depth                : 
TLFamily_PHI_FINAL .         Porosity                      : 
TLFamily_SW_AR     .         Water Saturation              : 
TLFamily_VSH_FINAL .         Shale Volume                  : 
~Curve Information
#_______________________________________________________________________________
#
#LOGNAME           .UNIT     LOG_ID                        : DESCRIPTION
#_______________________________________________________________________________
DEPT               .M                                      : Depth curve {F}
PHI_FINAL          .m3/m3                                  : Porosity {F}
SW_AR              .m3/m3                                  :  {F}
VSH_FINAL          .unitless                               : Vshale {F}
~Ascii
# ...
270.7      0.2623183  0.7798538  0.3115647 
270.8      0.2725208  0.7684918  0.2765241 
270.9      0.2683443  0.8042786  0.2975551 
271        0.2654329  0.8502048  0.3084783 
271.1      0.2786365  0.8501938  0.2919896 
271.2      0.2694419  0.9176123  0.3253974 
271.3      0.2467893  1          0.3878773 
271.4      0.2194795  1          0.4484046 
271.5      0.1948202  1          0.51669   
271.6      0.1750205  1          0.5700353 
271.7      0.09897327 1          0.7547452 
271.8      0.07050871 1          0.8162897 
271.9      0.05315725 1          0.8485568 
272        0.08349023 1          0.7598349 
272.1      0.117111   1          0.668803  
272.2      0.1244817  1          0.6422634 
272.3      0.09594569 1          0.7010817 
272.4      0.06455483 1          0.770704  
272.5      0.09381917 1          0.6839893 
272.6      0.05628791 1          0.7700939 
272.7      0.05987622 1          0.7399858 
272.8      0.05629599 1          0.7574416 
272.9      0.03009109 1          0.8385311 
273        0.08043238 1          0.6936513 
273.1      0.09414545 1          0.6933849 
273.2      0.117983   1          0.6502088 
273.3      0.1340263  1          0.6193611 
273.4      0.170999   1          0.5348166 
273.5      0.1903966  1          0.4761396 
273.6      0.1741779  1          0.4961908 
273.7      0.1441096  1          0.5750001 
273.8      0.08434159 1          0.7195277 
273.9      0.04723982 1          0.835141  
274        0.06064158 1          0.8154591 
274.1      0.05917641 1          0.8279757 
274.2      0.08206131 1          0.7592413 
274.3      0.03999314 1          0.8736756 
274.4      0.06366193 1          0.8078069 
274.5      0.0977914  1          0.7348039 
274.6      0.1326687  1          0.6731479 
274.7      0.1293441  1          0.7057561 
274.8      0.09912975 1          0.7939869 
274.9      0.09640968 1          0.8317741 
275        0.08941515 1          0.8644356 
275.1      0.1259411  1          0.7625334 
275.2      0.1471336  1          0.7100013 
275.3      0.1512265  1          0.7153658 
275.4      0.171212   1          0.6873104 
275.5      0.1946571  1          0.6497924 
275.6      0.1976192  1          0.6547562 
275.7      0.1801882  1          0.7030494 
275.8      0.1950748  1          0.6595035 
275.9      0.177989   1          0.7025099 
276        0.1671611  1          0.7247934 
276.1      0.1769311  1          0.707547  
276.2      0.1970374  1          0.6532822 
276.3      0.2294941  0.9393266  0.5604486 
276.4      0.2275562  0.9241092  0.5467393 
276.5      0.1830498  1          0.6269873 
276.6      0.1378973  1          0.7345969 
276.7      0.1045542  1          0.8130078 
276.8      0.096401   1          0.838376  
276.9      0.1005247  1          0.8380378 
277        0.1073212  1          0.8377002 
277.1      0.1092645  1          0.8438903 
277.2      0.1017777  1          0.8634002 
277.3      0.1043802  1          0.8697567 
277.4      0.1515303  1          0.7616328 
277.5      0.1868176  1          0.6764596 
277.6      0.1695237  1          0.7260214 
277.7      0.1884983  1          0.6813255 
277.8      0.1800513  1          0.6919321 
277.9      0.1924952  1          0.6491367 
278        0.194637   1          0.6285219 
278.1      0.2162269  0.9981537  0.5659446 
278.2      0.173087   1          0.6535883 
278.3      0.2023619  0.9929273  0.5430628 
278.4      0.1923606  0.9876185  0.5254595 
278.5      0.1562469  1          0.5789914 
278.6      0.1484063  1          0.5695154 
278.7      0.1487313  1          0.5335394 
278.8      0.1518733  1          0.5204544 
278.9      0.1313894  1          0.5735132 
279        0.1451755  1          0.5641227 
279.1      0.1641907  1          0.5459431 
279.2      0.1704984  1          0.563719  
279.3      0.1565909  1          0.6155996 
279.4      0.1438434  1          0.6769585 
279.5      0.09676068 1          0.8165724 
279.6      0.07183231 1          0.8886553 
279.7      0.0794325  1          0.8814794 
279.8      0.09960297 1          0.8219443 
279.9      0.08375649 1          0.8474411 
280        0.02159845 1          1         
280.1      0.01464945 1          1         
280.2      0.0104114  1          1         
280.3      0.02998649 1          0.9067854 
280.4      0.04463506 1          0.8655385 
280.5      0.07123145 1          0.7702842 
280.6      0.04309546 1          0.8193267 
280.7      0.01616032 1          0.8711717 
280.8      0.004755668 1          0.9402592 
280.9      0          1          1         
281        0          1          1         
281.1      0          1          0.9830897 
281.2      0          1          0.889689  
281.3      0.006215347 1          0.7738758 
281.4      0.01491193 1          0.7324921 
281.5      0.01103731 1          0.7613328 
281.6      0.01551173 1          0.766981  
281.7      0.02406499 1          0.7786921 
281.8      0.03148358 1          0.8029068 
281.9      0.02119333 1          0.9288676 
282        0.01903126 1          0.9499971 
282.1      0.01409624 1          0.9568706 
282.2      0.01104229 1          0.9637886 
282.3      0.01447645 1          0.8925328 
282.4      0.01037098 1          0.9128962 
282.5      0.02022796 1          0.8258182 
282.6      0.04402364 1          0.7122245 
282.7      0.04700781 1          0.7637016 
282.8      0.03915393 1          0.8312157 
282.9      0.03448319 1          0.890357  
283        0.02658314 1          0.9605885 
283.1      0.02444823 1          0.9898255 
283.2      0.03014208 1          0.9452896 
283.3      0.03155136 1          0.9593929 
283.4      0.02796976 1          1         
283.5      0.02900355 1          0.9732799 
283.6      0.02911351 1          0.9581997 
283.7      0.06270916 1          0.8541061 
283.8      0.07051481 1          0.8472335 
283.9      0.07655688 1          0.8534215 
284        0.07348083 1          0.8596488 
284.1      0.05852298 1          0.8996789 
284.2      0.07436648 1          0.8856731 
284.3      0.08705099 1          0.8652188 
284.4      0.1144726  1          0.8070827 
284.5      0.1289934  1          0.7822371 
284.6      0.1179161  1          0.8126836 
284.7      0.1020883  1          0.8638284 
284.8      0.0902556  1          0.9109112 
284.9      0.1045187  1          0.896758  
285        0.1694433  1          0.7569201 
285.1      0.2275652  0.9728106  0.6320644 
285.2      0.2195807  0.9779617  0.6624101 
285.3      0.216419   0.9676783  0.6832616 
285.4      0.1766328  1          0.7794952 
285.5      0.1441997  1          0.8479756 
285.6      0.1060362  1          0.9503081 
285.7      0.1224201  1          0.9145105 
285.8      0.09240207 1          1         
285.9      0.1197117  1          0.9348382 
286        0.1657862  1          0.814447  
286.1      0.1553476  1          0.8394952 
286.2      0.1312005  1          0.8852715 
286.3      0.08465018 1          0.9915795 
286.4      0.08388271 1          1         
286.5      0.0824854  1          1         
286.6      0.07622377 1          1         
286.7      0.05999226 1          1         
286.8      0.04753644 1          0.9970114 
286.9      0.0636923  1          0.9100528 
287        0.1034539  1          0.7806519 
287.1      0.1214267  1          0.7167081 
287.2      0.1254485  1          0.6944873 
287.3      0.1304534  1          0.6996538 
287.4      0.1256118  1          0.7616233 
287.5      0.1035828  1          0.8541991 
287.6      0.05719718 1          1         
287.7      0.05807358 1          1         
287.8      0.0614306  1          1         
287.9      0.06325532 1          1         
288        0.06247298 1          1         
288.1      0.06288288 1          1         
288.2      0.05965556 1          1         
288.3      0.08715346 1          0.9117858 
288.4      0.1111755  1          0.8511419 
288.5      0.1691096  1          0.7353444 
288.6      0.186869   1          0.7181951 
288.7      0.1530955  1          0.7935923 
288.8      0.1404607  1          0.7811983 
