~Version
 VERS              .         3.0                           : CWLS LOG ASCII STANDARD - VERSION 3.0
 WRAP              .         NO                            : ONE LINE PER DEPTH STEP
 DLM               .         SPACE                         : DELIMITING CHARACTER(SPACE TAB OR COMMA)
~Well Information
#_______________________________________________________________________________
#
#PARAMETER_NAME    .UNIT     VALUE                         : DESCRIPTION
#_______________________________________________________________________________
STRT               .M        0.1                           : First reference value
STOP               .M        793.1                         : Last reference value
STEP               .M        0.1                           : Step increment
NULL               .         -9999                         : Missing value
COMP               .         ICPetroleum                   : Company
WELL               .         328                           : Well name
FLD                .         Karatobe                      : Field
LOC                .                                       : Location
SRVC               .                                       : Service Company
CTRY               .         KZ                            : Country
DATE               .         20-21.03.2007                 : Service Date
LATI               .         0                             : Latitude
LONG               .         0                             : Longitude
GDAT               .         WGS 84                        : Geodetic Datum
CNTY               .                                       : 
COORDIN            .                                       : Grid System
COUNTRY            .         Kazakhstan                    : 
COUNTRY            .         Kazakhstan                    : 
EREF               .m        136.5                         : 
KB                 .         0                             : KB Elevation
ORIGINALWELLNAME   .         328                           : 
PROV               .                                       : Province
RWS                .         -999                          : Def_Rw
STAT               .                                       : 
UWI                .                                       : 
WST                .         -999                          : Def_Rwt
X                  .km       466166.24                     : 
XCOORD             .                                       : X or East-West Coordinate
Y                  .km       5308273.61                    : 
YCOORD             .                                       : Y or North-South Coordinate
~Parameter Information Block
#_______________________________________________________________________________
#
#PARAMETER_NAME    .UNIT     VALUE                         : DESCRIPTION
#_______________________________________________________________________________
SET                .         Las                           : 
TLFamily_DEPT      .         Measured Depth                : 
TLFamily_PHI_FINAL .         Porosity                      : 
TLFamily_SW_AR     .         Water Saturation              : 
TLFamily_VSH_FINAL .         Shale Volume                  : 
~Curve Information
#_______________________________________________________________________________
#
#LOGNAME           .UNIT     LOG_ID                        : DESCRIPTION
#_______________________________________________________________________________
DEPT               .M                                      : Depth curve {F}
PHI_FINAL          .m3/m3                                  : Porosity {F}
SW_AR              .m3/m3                                  :  {F}
VSH_FINAL          .unitless                               : Vshale {F}
~Ascii
# ...
743.8      0          1          0.09305741
743.9      0          1          0.09510668
744        0          1          0.09854419
744.1      0          1          0.1013142 
744.2      0          1          0.09716587
744.3      0          1          0.08898846
744.4      0          1          0.08764087
744.5      0          1          0.08898846
744.6      0          1          0.09442252
744.7      0          1          0.09101807
744.8      0          1          0.08764087
744.9      0          1          0.0856276 
745        0          1          0.08898846
745.1      0          1          0.0923765 
745.2      0          1          0.0923765 
745.3      0          1          0.09101807
745.4      0          1          0.08696873
745.5      0          1          0.09442252
745.6      0          1          0.09647835
745.7      0          1          0.09854419
745.8      0          1          0.09716587
745.9      0          1          0.09579194
746        0          1          0.09510668
746.1      0          1          0.09579194
746.2      0          1          0.09579194
746.3      0          1          0.09442252
746.4      0          1          0.09442252
746.5      0          1          0.09510668
746.6      0          1          0.09442252
746.7      0          1          0.08966391
746.8      0          1          0.0923765 
746.9      0          1          0.09169674
747        0          1          0.08696873
747.1      0          1          0.09034044
747.2      0          1          0.09647835
747.3      0          1          0.1041021 
747.4      0          1          0.106908  
747.5      0          1          0.1048019 
747.6      0          1          0.1048019 
747.7      0          1          0.1048019 
747.8      0          1          0.10062   
747.9      0          1          0.1083178 
748        0          1          0.1097321 
748.1      0          1          0.111151  
748.2      0          1          0.1083178 
748.3      0          1          0.09992696
748.4      0          1          0.08966391
748.5      0          1          0.08362407
748.6      0          1          0.08362407
748.7      0          1          0.0856276 
748.8      0          1          0.08696873
748.9      0          1          0.08966391
749        0          1          0.09373941
749.1      0          1          0.09579194
749.2      0          1          0.0978545 
749.3      0          1          0.09647835
749.4      0          1          0.09716587
749.5      0          1          0.09923504
749.6      0          1          0.10062   
749.7      0          1          0.0978545 
749.8      0          1          0.09854419
749.9      0          1          0.09305741
750        0          1          0.1048019 
750.1      0          1          0.1034034 
750.2      0          1          0.1027059 
750.3      0          1          0.09992696
750.4      0          1          0.09854419
750.5      0          1          0.10062   
750.6      0          1          0.09992696
750.7      0          1          0.10062   
750.8      0          1          0.1020095 
750.9      0          1          0.1027059 
751        0          1          0.1048019 
751.1      0          1          0.1048019 
751.2      0          1          0.1041021 
751.3      0          1          0.0978545 
751.4      0          1          0.09716587
751.5      0          1          0.09442252
751.6      0          1          0.09510668
751.7      0          1          0.09169674
751.8      0          1          0.08429087
751.9      0          1          0.08362407
752        0          1          0.08229374
752.1      0          1          0.08295835
752.2      0          1          0.08429087
752.3      0          1          0.08495869
752.4      0          1          0.08831415
752.5      0          1          0.08764087
752.6      0          1          0.09101807
752.7      0          1          0.09101807
752.8      0          1          0.09579194
752.9      0          1          0.09647835
753        0          1          0.09579194
753.1      0          1          0.0923765 
753.2      0          1          0.08831415
753.3      0          1          0.08764087
753.4      0          1          0.08898846
753.5      0          1          0.08898846
753.6      0          1          0.09169674
753.7      0          1          0.09716587
753.8      0          1          0.0978545 
753.9      0          1          0.09923504
754        0          1          0.09992696
754.1      0          1          0.106908  
754.2      0          1          0.1154352 
754.3      0          1          0.1161532 
754.4      0          1          0.1140025 
754.5      0          1          0.1132879 
754.6      0          1          0.1118622 
754.7      0          1          0.1062048 
754.8      0          1          0.1027059 
754.9      0          1          0.09716587
755        0          1          0.09373941
755.1      0          1          0.09169674
755.2      0          1          0.09101807
755.3      0          1          0.09373941
755.4      0          1          0.09854419
755.5      0          1          0.09854419
755.6      0          1          0.09442252
755.7      0          1          0.0978545 
755.8      0          1          0.106908  
755.9      0          1          0.106908  
756        0          1          0.1020095 
756.1      0          1          0.1048019 
756.2      0          1          0.10062   
756.3      0          1          0.0978545 
756.4      0          1          0.10062   
756.5      0          1          0.1020095 
756.6      0          1          0.1125745 
756.7      0          1          0.1041021 
756.8      0          1          0.1013142 
756.9      0          1          0.09992696
757        0          1          0.1034034 
757.1      0          1          0.106908  
757.2      0          1          0.1055028 
757.3      0          1          0.1034034 
757.4      0          1          0.1027059 
757.5      0          1          0.1027059 
757.6      0          1          0.1055028 
757.7      0          1          0.1083178 
757.8      0          1          0.106908  
757.9      0          1          0.1041021 
758        0          1          0.1041021 
758.1      0          1          0.111151  
758.2      0          1          0.1076124 
758.3      0          1          0.1090244 
758.4      0          1          0.111151  
758.5      0          1          0.1097321 
758.6      0          1          0.1090244 
758.7      0          1          0.111151  
758.8      0          1          0.110441  
758.9      0          1          0.106908  
759        0          1          0.1083178 
759.1      0          1          0.1161532 
759.2      0          1          0.1097321 
759.3      0          1          0.1027059 
759.4      0          1          0.09992696
759.5      0          1          0.09854419
759.6      0          1          0.1013142 
759.7      0          1          0.1048019 
759.8      0          1          0.1048019 
759.9      0          1          0.09716587
760        0          1          0.08764087
760.1      0          1          0.09101807
760.2      0          1          0.09101807
760.3      0          1          0.09647835
760.4      0          1          0.09442252
760.5      0          1          0.08966391
760.6      0          1          0.09034044
760.7      0          1          0.08696873
760.8      0          1          0.0856276 
760.9      0          1          0.09101807
761        0          1          0.09169674
761.1      0          1          0.08629762
761.2      0          1          0.08898846
761.3      0          1          0.08966391
761.4      0          1          0.08898846
761.5      0          1          0.09442252
761.6      0          1          0.1020095 
761.7      0          1          0.1020095 
761.8      0          1          0.09854419
761.9      0          1          0.09854419
