~Version
 VERS              .         3.0                           : CWLS LOG ASCII STANDARD - VERSION 3.0
 WRAP              .         NO                            : ONE LINE PER DEPTH STEP
 DLM               .         SPACE                         : DELIMITING CHARACTER(SPACE TAB OR COMMA)
~Well Information
#_______________________________________________________________________________
#
#PARAMETER_NAME    .UNIT     VALUE                         : DESCRIPTION
#_______________________________________________________________________________
STRT               .M        0.1                           : First reference value
STOP               .M        793.1                         : Last reference value
STEP               .M        0.1                           : Step increment
NULL               .         -9999                         : Missing value
COMP               .         ICPetroleum                   : Company
WELL               .         328                           : Well name
FLD                .         Karatobe                      : Field
LOC                .                                       : Location
SRVC               .                                       : Service Company
CTRY               .         KZ                            : Country
DATE               .         20-21.03.2007                 : Service Date
LATI               .         0                             : Latitude
LONG               .         0                             : Longitude
GDAT               .         WGS 84                        : Geodetic Datum
CNTY               .                                       : 
COORDIN            .                                       : Grid System
COUNTRY            .         Kazakhstan                    : 
COUNTRY            .         Kazakhstan                    : 
EREF               .m        136.5                         : 
KB                 .         0                             : KB Elevation
ORIGINALWELLNAME   .         328                           : 
PROV               .                                       : Province
RWS                .         -999                          : Def_Rw
STAT               .                                       : 
UWI                .                                       : 
WST                .         -999                          : Def_Rwt
X                  .km       466166.24                     : 
XCOORD             .                                       : X or East-West Coordinate
Y                  .km       5308273.61                    : 
YCOORD             .                                       : Y or North-South Coordinate
~Parameter Information Block
#_______________________________________________________________________________
#
#PARAMETER_NAME    .UNIT     VALUE                         : DESCRIPTION
#_______________________________________________________________________________
SET                .         Las                           : 
TLFamily_DEPT      .         Measured Depth                : 
TLFamily_PHI_FINAL .         Porosity                      : 
TLFamily_SW_AR     .         Water Saturation              : 
TLFamily_VSH_FINAL .         Shale Volume                  : 
~Curve Information
#_______________________________________________________________________________
#
#LOGNAME           .UNIT     LOG_ID                        : DESCRIPTION
#_______________________________________________________________________________
DEPT               .M                                      : Depth curve {F}
PHI_FINAL          .m3/m3                                  : Porosity {F}
SW_AR              .m3/m3                                  :  {F}
VSH_FINAL          .unitless                               : Vshale {F}
~Ascii
# ...
489.1      0.2296142  0.4106943  0.3003469 
489.2      0.2430421  0.3776022  0.2707699 
489.3      0.2500982  0.3611683  0.2541119 
489.4      0.2501777  0.3604316  0.2504768 
489.5      0.2519725  0.3661409  0.2468821 
489.6      0.2416127  0.3880613  0.2630642 
489.7      0.2157226  0.4327922  0.3187888 
489.8      0.1898331  0.4807922  0.359225  
489.9      0.1827526  0.4944924  0.3544457 
490        0.1975789  0.4685366  0.3143072 
490.1      0.1887664  0.5088568  0.3271584 
490.2      0.18202    0.5489438  0.3449641 
490.3      0.1890584  0.5512856  0.3380904 
490.4      0.1889755  0.5771775  0.3470905 
490.5      0.1884352  0.6054045  0.3493086 
490.6      0.1826509  0.6480949  0.3656661 
490.7      0.1586667  0.7718763  0.4322821 
490.8      0.151403   0.8540518  0.4460916 
490.9      0.1516113  0.9302021  0.4431664 
491        0.1234976  1          0.5053589 
491.1      0.1188227  1          0.5115306 
491.2      0.1193524  1          0.4957678 
491.3      0.08996296 1          0.5607069 
491.4      0.1080229  1          0.5239241 
491.5      0.09490675 1          0.5707688 
491.6      0.1111528  1          0.5568352 
491.7      0.1296376  1          0.5300034 
491.8      0.1420712  1          0.5397321 
491.9      0.1938135  1          0.4590971 
492        0.2257934  1          0.4173812 
492.1      0.2442518  1          0.4067378 
492.2      0.2670995  1          0.3862263 
492.3      0.2761061  0.9470709  0.3987847 
492.4      0.2827787  0.8486263  0.4038412 
492.5      0.2773008  0.8170295  0.4249093 
492.6      0.2505071  0.8723173  0.4640713 
492.7      0.2287251  0.914529   0.4786963 
492.8      0.1995504  0.9870233  0.5187796 
492.9      0.1874848  0.9671085  0.5515071 
493        0.1933617  0.8593836  0.528179  
493.1      0.1870026  0.8052251  0.5312968 
493.2      0.1734694  0.7820731  0.5612575 
493.3      0.1754163  0.7218715  0.5542949 
493.4      0.206832   0.5965436  0.4898878 
493.5      0.2126845  0.5806978  0.4688433 
493.6      0.2226036  0.5692144  0.4318947 
493.7      0.2289507  0.5718004  0.4156336 
493.8      0.2233669  0.6005195  0.4316792 
493.9      0.2166558  0.6309308  0.4539124 
494        0.2144947  0.6581119  0.4624202 
494.1      0.2311226  0.6672808  0.431357  
494.2      0.2361162  0.7383531  0.4258167 
494.3      0.213211   0.9270964  0.4887483 
494.4      0.1855642  1          0.5837733 
494.5      0.177404   1          0.6350464 
494.6      0.1728574  1          0.66601   
494.7      0.1631167  1          0.6941653 
494.8      0.1875339  1          0.6538082 
494.9      0.2139784  1          0.6192718 
495        0.257536   0.8748454  0.5450734 
495.1      0.2445847  0.9100559  0.6078466 
495.2      0.2596947  0.8507287  0.6113523 
495.3      0.2748432  0.8026662  0.6260685 
495.4      0.3104703  0.7141834  0.5751684 
495.5      0.343963   0.6396468  0.5443473 
495.6      0.3873353  0.5290618  0.4810979 
495.7      0.4316108  0.4529105  0.4109686 
495.8      0.4842489  0.4153424  0.3060584 
495.9      0.5223212  0.4258904  0.2267115 
496        0.5179183  0.475431   0.210681  
496.1      0.4890986  0.5393386  0.240026  
496.2      0.4497824  0.6329266  0.2799059 
496.3      0.4135661  0.7355919  0.3268639 
496.4      0.3778755  0.8538512  0.3750071 
496.5      0.3546127  0.8962579  0.3972749 
496.6      0.3445762  0.885841   0.3896103 
496.7      0.3297632  0.8905677  0.3970827 
496.8      0.30423    0.9356383  0.4394219 
496.9      0.2878155  0.9813716  0.4619091 
497        0.2861279  0.9939092  0.4589156 
497.1      0.2660443  1          0.4943296 
497.2      0.2831199  0.9631388  0.4529805 
497.3      0.2811047  0.9369278  0.4500383 
497.4      0.2863968  0.9001436  0.4251415 
497.5      0.2872074  0.8820184  0.3963143 
497.6      0.2759645  0.903823   0.4090629 
497.7      0.2528447  0.9744915  0.4552504 
497.8      0.2401417  1          0.4754315 
497.9      0.2308593  1          0.4963643 
498        0.2133802  1          0.5341802 
498.1      0.2229372  1          0.508485  
498.2      0.2232246  1          0.477904  
498.3      0.218306   1          0.4545628 
498.4      0.2111051  1          0.4572964 
498.5      0.1974771  1          0.5079561 
498.6      0.1794721  1          0.5702195 
498.7      0.1610727  1          0.6128109 
498.8      0.1636218  1          0.5980977 
498.9      0.1525292  1          0.6088107 
499        0.1503386  1          0.597771  
499.1      0.1529266  1          0.5625979 
499.2      0.1336955  1          0.5938613 
499.3      0.1585278  1          0.5258873 
499.4      0.1612359  1          0.5289713 
499.5      0.1489156  1          0.568841  
499.6      0.1644771  1          0.5417441 
499.7      0.1650257  1          0.5449055 
499.8      0.1591734  1          0.5615439 
499.9      0.1472176  1          0.5927318 
500        0.1593381  1          0.551128  
500.1      0.1446632  1          0.5853214 
500.2      0.1689361  1          0.5151075 
500.3      0.1515402  1          0.5473549 
500.4      0.1530922  1          0.5243719 
500.5      0.1322745  1          0.5604941 
500.6      0.1210275  1          0.5706005 
500.7      0.1233426  1          0.5534491 
500.8      0.1543343  1          0.4776938 
500.9      0.1655089  1          0.4572688 
501        0.1732669  1          0.4657611 
501.1      0.1865549  1          0.4656433 
501.2      0.1814284  1          0.4772076 
501.3      0.1733481  1          0.495071  
501.4      0.1854923  1          0.4888874 
501.5      0.1853337  1          0.5009352 
501.6      0.1952994  1          0.5008058 
501.7      0.226399   1          0.4855106 
501.8      0.2478702  0.9546084  0.4312814 
501.9      0.2697904  0.8590514  0.3946436 
502        0.2766757  0.8024699  0.3945487 
502.1      0.2877707  0.7400765  0.3747691 
502.2      0.3043267  0.6785153  0.3289588 
502.3      0.3216498  0.6698829  0.2743348 
502.4      0.3232903  0.7157158  0.2559646 
502.5      0.3187951  0.7485228  0.2402386 
502.6      0.2805285  0.8418917  0.2722839 
502.7      0.2302827  0.9502968  0.3157995 
502.8      0.1865205  1          0.3507297 
502.9      0.1596638  1          0.3575431 
503        0.1635401  1          0.3197998 
503.1      0.1556417  1          0.3113475 
503.2      0.1414796  1          0.3458724 
503.3      0.1299674  1          0.406003  
503.4      0.1226153  1          0.4716253 
503.5      0.123483   1          0.5075964 
503.6      0.1329829  1          0.5200055 
503.7      0.1454235  1          0.5104439 
503.8      0.1278456  1          0.5657311 
503.9      0.1546975  1          0.5101793 
504        0.1720683  1          0.4709101 
504.1      0.1868552  1          0.4480089 
504.2      0.1901371  1          0.4506927 
504.3      0.1778358  1          0.4852765 
504.4      0.1811136  1          0.4792189 
504.5      0.2109826  1          0.4230832 
504.6      0.2309531  0.9698131  0.3996363 
504.7      0.2510829  0.8769776  0.3870443 
504.8      0.2635372  0.8181494  0.3894245 
504.9      0.2527846  0.8319719  0.4280033 
505        0.2345727  0.8737456  0.4639539 
505.1      0.2265144  0.8833113  0.4696038 
505.2      0.2195403  0.882018   0.4637206 
505.3      0.2040624  0.8897273  0.4991061 
505.4      0.1940949  0.8708536  0.5051129 
505.5      0.2162496  0.7447355  0.4300566 
505.6      0.2244834  0.6881062  0.3986771 
505.7      0.2226013  0.6730659  0.3935597 
505.8      0.2280244  0.6445008  0.3691372 
505.9      0.2344244  0.6238028  0.3392802 
506        0.2054242  0.7197356  0.4084888 
506.1      0.2016182  0.7557366  0.4109713 
506.2      0.1989479  0.7641352  0.4108717 
506.3      0.2024627  0.7212212  0.4030741 
506.4      0.2122233  0.6725175  0.3830355 
506.5      0.2301151  0.6128876  0.3322399 
506.6      0.2103226  0.6572744  0.3731979 
506.7      0.1958984  0.6926782  0.4001497 
506.8      0.1965854  0.690825   0.4051382 
506.9      0.1922306  0.7142554  0.4179823 
507        0.1989567  0.6977419  0.4075035 
507.1      0.2171554  0.6474326  0.3656603 
507.2      0.2220965  0.6424347  0.3494413 
