~Version
 VERS              .         3.0                           : CWLS LOG ASCII STANDARD - VERSION 3.0
 WRAP              .         NO                            : ONE LINE PER DEPTH STEP
 DLM               .         SPACE                         : DELIMITING CHARACTER(SPACE TAB OR COMMA)
~Well Information
#_______________________________________________________________________________
#
#PARAMETER_NAME    .UNIT     VALUE                         : DESCRIPTION
#_______________________________________________________________________________
STRT               .M        0.1                           : First reference value
STOP               .M        793.1                         : Last reference value
STEP               .M        0.1                           : Step increment
NULL               .         -9999                         : Missing value
COMP               .         ICPetroleum                   : Company
WELL               .         328                           : Well name
FLD                .         Karatobe                      : Field
LOC                .                                       : Location
SRVC               .                                       : Service Company
CTRY               .         KZ                            : Country
DATE               .         20-21.03.2007                 : Service Date
LATI               .         0                             : Latitude
LONG               .         0                             : Longitude
GDAT               .         WGS 84                        : Geodetic Datum
CNTY               .                                       : 
COORDIN            .                                       : Grid System
COUNTRY            .         Kazakhstan                    : 
COUNTRY            .         Kazakhstan                    : 
EREF               .m        136.5                         : 
KB                 .         0                             : KB Elevation
ORIGINALWELLNAME   .         328                           : 
PROV               .                                       : Province
RWS                .         -999                          : Def_Rw
STAT               .                                       : 
UWI                .                                       : 
WST                .         -999                          : Def_Rwt
X                  .km       466166.24                     : 
XCOORD             .                                       : X or East-West Coordinate
Y                  .km       5308273.61                    : 
YCOORD             .                                       : Y or North-South Coordinate
~Parameter Information Block
#_______________________________________________________________________________
#
#PARAMETER_NAME    .UNIT     VALUE                         : DESCRIPTION
#_______________________________________________________________________________
SET                .         Las                           : 
TLFamily_DEPT      .         Measured Depth                : 
TLFamily_PHI_FINAL .         Porosity                      : 
TLFamily_SW_AR     .         Water Saturation              : 
TLFamily_VSH_FINAL .         Shale Volume                  : 
~Curve Information
#_______________________________________________________________________________
#
#LOGNAME           .UNIT     LOG_ID                        : DESCRIPTION
#_______________________________________________________________________________
DEPT               .M                                      : Depth curve {F}
PHI_FINAL          .m3/m3                                  : Porosity {F}
SW_AR              .m3/m3                                  :  {F}
VSH_FINAL          .unitless                               : Vshale {F}
~Ascii
# ...
434.5      0.1307923  1          0.5218694 
434.6      0.1127077  1          0.6143274 
434.7      0.06877365 1          0.7347523 
434.8      0.03665595 1          0.8228226 
434.9      0.03354243 1          0.8487246 
435        0.02696553 1          0.8645026 
435.1      0.04755899 1          0.8016383 
435.2      0.09066004 1          0.7016892 
435.3      0.1103147  1          0.6622807 
435.4      0.1084986  1          0.6706138 
435.5      0.09795047 1          0.7010409 
435.6      0.1153517  1          0.6574518 
435.7      0.1256931  1          0.636483  
435.8      0.1404071  1          0.5965002 
435.9      0.110117   1          0.6695943 
436        0.1180733  1          0.6566575 
436.1      0.147548   1          0.588293  
436.2      0.1390035  1          0.6114214 
436.3      0.1260565  1          0.6231877 
436.4      0.103217   1          0.668578  
436.5      0.09947236 1          0.6726598 
436.6      0.1214586  1          0.6186318 
436.7      0.09827471 1          0.6679693 
436.8      0.0741792  1          0.7299519 
436.9      0.0888688  1          0.7114574 
437        0.09840657 1          0.6978124 
437.1      0.1122819  1          0.6671596 
437.2      0.1027756  1          0.6929622 
437.3      0.06149381 1          0.8213414 
437.4      0.06751609 1          0.8007678 
437.5      0.07901958 1          0.8005123 
437.6      0.05393934 1          0.8842654 
437.7      0.09154239 1          0.7950016 
437.8      0.1237125  1          0.6873038 
437.9      0.1123635  1          0.7137739 
438        0.1154247  1          0.7090457 
438.1      0.1355274  1          0.6651421 
438.2      0.1744627  1          0.5697137 
438.3      0.1784285  1          0.5695489 
438.4      0.1984631  1          0.5299178 
438.5      0.2163302  1          0.4894464 
438.6      0.2198811  1          0.4764738 
438.7      0.2184619  1          0.4700354 
438.8      0.2021614  1          0.4988553 
438.9      0.1943399  1          0.5222672 
439        0.1964078  1          0.5152983 
439.1      0.1487558  1          0.6062139 
439.2      0.1218802  1          0.6629345 
439.3      0.1288672  1          0.6378048 
439.4      0.1128421  1          0.6710306 
439.5      0.1305058  1          0.6212818 
439.6      0.1424334  1          0.5861017 
439.7      0.1473985  1          0.5935519 
439.8      0.1174935  1          0.6744967 
439.9      0.1169434  1          0.6785926 
440        0.1075286  1          0.6958265 
440.1      0.1260383  1          0.6444753 
440.2      0.1569593  1          0.5555012 
440.3      0.1614164  1          0.5134271 
440.4      0.1612926  1          0.5032458 
440.5      0.1631556  1          0.4803443 
440.6      0.1383089  1          0.533576  
440.7      0.1100681  1          0.6230646 
440.8      0.13266    1          0.5691381 
440.9      0.09570777 1          0.6595472 
441        0.0938673  1          0.6635584 
441.1      0.08803955 1          0.6675905 
441.2      0.1025659  1          0.6221437 
441.3      0.1257943  1          0.557367  
441.4      0.1297266  1          0.5608369 
441.5      0.1223963  1          0.579124  
441.6      0.09629367 1          0.6375124 
441.7      0.06561165 1          0.7144367 
441.8      0.05496836 1          0.7278442 
441.9      0.05228968 1          0.7230527 
442        0.08677728 1          0.6206761 
442.1      0.1206974  1          0.5244224 
442.2      0.1476605  1          0.4655843 
442.3      0.1431005  1          0.4716864 
442.4      0.1568002  1          0.44707   
442.5      0.1576915  1          0.4652065 
442.6      0.1606958  1          0.4871676 
442.7      0.1429715  1          0.5304252 
442.8      0.1176456  1          0.6035419 
442.9      0.09502629 1          0.6724576 
443        0.06201122 1          0.7672418 
443.1      0.05152115 1          0.8012344 
443.2      0.06947658 1          0.7478053 
443.3      0.09083275 1          0.6976168 
443.4      0.1078895  1          0.6587891 
443.5      0.1203667  1          0.637979  
443.6      0.1387604  1          0.6177577 
443.7      0.1352516  1          0.6498891 
443.8      0.1174956  1          0.732506  
443.9      0.1215536  1          0.7555769 
444        0.1280159  1          0.7459477 
444.1      0.1599018  1          0.6785621 
444.2      0.1889263  1          0.6166692 
444.3      0.2052463  1          0.5932445 
444.4      0.2018793  1          0.5892754 
444.5      0.1965565  1          0.5741351 
444.6      0.193333   1          0.5485815 
444.7      0.1602923  1          0.6079414 
444.8      0.1440105  1          0.6314914 
444.9      0.0968732  1          0.7392265 
445        0.1285044  1          0.6556422 
445.1      0.1224326  1          0.6596136 
445.2      0.1239531  1          0.6511095 
445.3      0.1286611  1          0.642704  
445.4      0.09886403 1          0.6975524 
445.5      0.07242887 1          0.7518229 
445.6      0.07143116 1          0.7515891 
445.7      0.05979997 1          0.7996143 
445.8      0.0478271  1          0.8556523 
445.9      0.06468862 1          0.8242538 
446        0.05676803 1          0.8498421 
446.1      0.04061826 1          0.8979517 
446.2      0.0504087  1          0.8758616 
446.3      0.03216427 1          0.9140311 
446.4      0.01157792 1          1         
446.5      0.008718872 1          1         
446.6      0.005398312 1          1         
446.7      0.02034388 1          0.9072542 
446.8      0.0429762  1          0.8218927 
446.9      0.04363979 1          0.8115301 
447        0.01153178 1          0.9402563 
447.1      0.00654168 1          1         
447.2      0.00805683 1          1         
447.3      0.01476911 1          0.9393237 
447.4      0.02028106 1          0.9107385 
447.5      0.04986152 1          0.809988  
447.6      0.06445557 1          0.770552  
447.7      0.04284509 1          0.8348591 
447.8      0.04436396 1          0.8501625 
447.9      0.06339204 1          0.8139785 
448        0.08168706 1          0.7743852 
448.1      0.1041862  1          0.7274098 
448.2      0.106385   1          0.7317411 
448.3      0.1161954  1          0.7269633 
448.4      0.1301051  1          0.6912374 
448.5      0.1333743  1          0.6953787 
448.6      0.1415412  1          0.6995403 
448.7      0.1555401  1          0.6692414 
448.8      0.1542911  1          0.6817861 
448.9      0.1565248  1          0.677311  
449        0.1178293  1          0.7624483 
449.1      0.09625785 1          0.8058997 
449.2      0.1031306  1          0.7762879 
449.3      0.1195301  1          0.7292744 
449.4      0.126264   1          0.7110701 
449.5      0.1269503  1          0.7108541 
449.6      0.1270457  1          0.7106382 
449.7      0.1266084  1          0.7148741 
449.8      0.1301728  1          0.70578   
449.9      0.1157672  1          0.7234106 
450        0.1118169  1          0.7186928 
450.1      0.1147174  1          0.7095582 
450.2      0.118148   1          0.7049242 
450.3      0.1036577  1          0.745366  
450.4      0.119016   1          0.7405189 
450.5      0.07138249 1          0.8851889 
450.6      0.1011042  1          0.8322853 
450.7      0.1240154  1          0.7871339 
450.8      0.1115452  1          0.8115354 
450.9      0.1313657  1          0.7532831 
451        0.1256137  1          0.7815509 
451.1      0.1188826  1          0.8057887 
451.2      0.113797   1          0.8155162 
451.3      0.1380756  1          0.7664675 
451.4      0.158163   1          0.6979932 
451.5      0.1546838  1          0.6891119 
451.6      0.1537658  1          0.6803336 
451.7      0.1247436  1          0.7375678 
451.8      0.1429272  1          0.6884909 
451.9      0.1672698  1          0.6223985 
452        0.2032376  1          0.540745  
452.1      0.1857197  1          0.5988232 
452.2      0.2004342  1          0.5762118 
452.3      0.2357183  1          0.5097726 
452.4      0.2303057  1          0.5162804 
452.5      0.2122943  1          0.5504999 
452.6      0.1593807  1          0.6615077 
