~Version
 VERS              .         3.0                           : CWLS LOG ASCII STANDARD - VERSION 3.0
 WRAP              .         NO                            : ONE LINE PER DEPTH STEP
 DLM               .         SPACE                         : DELIMITING CHARACTER(SPACE TAB OR COMMA)
~Well Information
#_______________________________________________________________________________
#
#PARAMETER_NAME    .UNIT     VALUE                         : DESCRIPTION
#_______________________________________________________________________________
STRT               .M        0.1                           : First reference value
STOP               .M        793.1                         : Last reference value
STEP               .M        0.1                           : Step increment
NULL               .         -9999                         : Missing value
COMP               .         ICPetroleum                   : Company
WELL               .         328                           : Well name
FLD                .         Karatobe                      : Field
LOC                .                                       : Location
SRVC               .                                       : Service Company
CTRY               .         KZ                            : Country
DATE               .         20-21.03.2007                 : Service Date
LATI               .         0                             : Latitude
LONG               .         0                             : Longitude
GDAT               .         WGS 84                        : Geodetic Datum
CNTY               .                                       : 
COORDIN            .                                       : Grid System
COUNTRY            .         Kazakhstan                    : 
COUNTRY            .         Kazakhstan                    : 
EREF               .m        136.5                         : 
KB                 .         0                             : KB Elevation
ORIGINALWELLNAME   .         328                           : 
PROV               .                                       : Province
RWS                .         -999                          : Def_Rw
STAT               .                                       : 
UWI                .                                       : 
WST                .         -999                          : Def_Rwt
X                  .km       466166.24                     : 
XCOORD             .                                       : X or East-West Coordinate
Y                  .km       5308273.61                    : 
YCOORD             .                                       : Y or North-South Coordinate
~Parameter Information Block
#_______________________________________________________________________________
#
#PARAMETER_NAME    .UNIT     VALUE                         : DESCRIPTION
#_______________________________________________________________________________
SET                .         Las                           : 
TLFamily_DEPT      .         Measured Depth                : 
TLFamily_PHI_FINAL .         Porosity                      : 
TLFamily_SW_AR     .         Water Saturation              : 
TLFamily_VSH_FINAL .         Shale Volume                  : 
~Curve Information
#_______________________________________________________________________________
#
#LOGNAME           .UNIT     LOG_ID                        : DESCRIPTION
#_______________________________________________________________________________
DEPT               .M                                      : Depth curve {F}
PHI_FINAL          .m3/m3                                  : Porosity {F}
SW_AR              .m3/m3                                  :  {F}
VSH_FINAL          .unitless                               : Vshale {F}
~Ascii
# ...
780.2      0          1          0.08898846
780.3      0          1          0.09101807
780.4      0          1          0.09169674
780.5      0          1          0.08898846
780.6      0          1          0.08831415
780.7      0          1          0.08966391
780.8      0          1          0.09442252
780.9      0          1          0.1027059 
781        0          1          0.09992696
781.1      0          1          0.10062   
781.2      0          1          0.09854419
781.3      0          1          0.09442252
781.4      0          1          0.09101807
781.5      0          1          0.09034044
781.6      0          1          0.08831415
781.7      0          1          0.09101807
781.8      0          1          0.0923765 
781.9      0          1          0.09101807
782        0          1          0.08831415
782.1      0          1          0.08696873
782.2      0          1          0.08966391
782.3      0          1          0.09101807
782.4      0          1          0.0923765 
782.5      0          1          0.08629762
782.6      0          1          0.0978545 
782.7      0          1          0.09923504
782.8      0          1          0.09647835
782.9      0          1          0.09169674
783        0          1          0.08831415
783.1      0          1          0.08229374
783.2      0          1          0.07767116
783.3      0          1          0.07964586
783.4      0          1          0.0856276 
783.5      0          1          0.09034044
783.6      0          1          0.09305741
783.7      0          1          0.0856276 
783.8      0          1          0.08696873
783.9      0          1          0.09442252
784        0          1          0.09647835
784.1      0          1          0.09169674
784.2      0          1          0.09716587
784.3      0          1          0.09854419
784.4      0          1          0.09647835
784.5      0          1          0.09510668
784.6      0          1          0.09442252
784.7      0          1          0.09579194
784.8      0          1          0.09992696
784.9      0          1          0.1013142 
785        0          1          0.09305741
785.1      0          1          0.09101807
785.2      0          1          0.08831415
785.3      0          1          0.09169674
785.4      0          1          0.09647835
785.5      0          1          0.09510668
785.6      0          1          0.09716587
785.7      0          1          0.1013142 
785.8      0          1          0.1020095 
785.9      0          1          0.1034034 
786        0          1          0.1013142 
786.1      0          1          0.09305741
786.2      0          1          0.09373941
786.3      0          1          0.09716587
786.4      0          1          0.09442252
786.5      0          1          0.09169674
786.6      0          1          0.09034044
786.7      0          1          0.1013142 
786.8      0          1          0.1013142 
786.9      0          1          0.09716587
787        0          1          0.09854419
787.1      0          1          0.09992696
787.2      0          1          0.09854419
787.3      0          1          0.09579194
787.4      0          1          0.09579194
787.5      0          1          0.09647835
787.6      0          1          0.08831415
787.7      0          1          0.08629762
787.8      0          1          0.08764087
787.9      0          1          0.09305741
788        0          1          0.09101807
788.1      0          1          0.08629762
788.2      0          1          0.0856276 
788.3      0          1          0.08831415
788.4      0          1          0.09034044
788.5      0          1          0.08966391
788.6      0          1          0.08831415
788.7      0          1          0.09442252
788.8      0          1          0.09647835
788.9      0          1          0.09305741
789        0          1          0.09169674
789.1      0          1          0.09169674
789.2      0          1          0.09716587
789.3      0          1          0.09992696
789.4      0          1          0.09992696
789.5      0          1          0.09923504
789.6      0          1          0.09510668
789.7      0          1          0.09373941
789.8      0          1          0.09923504
789.9      0          1          0.1020095 
790        0          1          0.09854419
790.1      0          1          0.09647835
790.2      0          1          0.09305741
790.3      0          1          0.09305741
790.4      0          1          0.09923504
790.5      0          1          0.1013142 
790.6      0          1          0.0978545 
790.7      0          1          0.09579194
790.8      0          1          0.09373941
790.9      0          1          0.08898846
791        0          1          0.08831415
791.1      0          1          0.07767116
791.2      0          1          0.07635994
791.3      0          1          0.08030624
791.4      0          1          0.09034044
791.5      0          1          0.09169674
791.6      -9999      -9999      -9999     
791.7      -9999      -9999      -9999     
791.8      -9999      -9999      -9999     
791.9      -9999      -9999      -9999     
792        -9999      -9999      -9999     
792.1      -9999      -9999      -9999     
792.2      -9999      -9999      -9999     
792.3      -9999      -9999      -9999     
792.4      -9999      -9999      -9999     
792.5      -9999      -9999      -9999     
792.6      -9999      -9999      -9999     
792.7      -9999      -9999      -9999     
792.8      -9999      -9999      -9999     
792.9      -9999      -9999      -9999     
793        -9999      -9999      -9999     
793.1      -9999      -9999      -9999     
