~Version
 VERS              .         3.0                           : CWLS LOG ASCII STANDARD - VERSION 3.0
 WRAP              .         NO                            : ONE LINE PER DEPTH STEP
 DLM               .         SPACE                         : DELIMITING CHARACTER(SPACE TAB OR COMMA)
~Well Information
#_______________________________________________________________________________
#
#PARAMETER_NAME    .UNIT     VALUE                         : DESCRIPTION
#_______________________________________________________________________________
STRT               .M        0.1                           : First reference value
STOP               .M        793.1                         : Last reference value
STEP               .M        0.1                           : Step increment
NULL               .         -9999                         : Missing value
COMP               .         ICPetroleum                   : Company
WELL               .         328                           : Well name
FLD                .         Karatobe                      : Field
LOC                .                                       : Location
SRVC               .                                       : Service Company
CTRY               .         KZ                            : Country
DATE               .         20-21.03.2007                 : Service Date
LATI               .         0                             : Latitude
LONG               .         0                             : Longitude
GDAT               .         WGS 84                        : Geodetic Datum
CNTY               .                                       : 
COORDIN            .                                       : Grid System
COUNTRY            .         Kazakhstan                    : 
COUNTRY            .         Kazakhstan                    : 
EREF               .m        136.5                         : 
KB                 .         0                             : KB Elevation
ORIGINALWELLNAME   .         328                           : 
PROV               .                                       : Province
RWS                .         -999                          : Def_Rw
STAT               .                                       : 
UWI                .                                       : 
WST                .         -999                          : Def_Rwt
X                  .km       466166.24                     : 
XCOORD             .                                       : X or East-West Coordinate
Y                  .km       5308273.61                    : 
YCOORD             .                                       : Y or North-South Coordinate
~Parameter Information Block
#_______________________________________________________________________________
#
#PARAMETER_NAME    .UNIT     VALUE                         : DESCRIPTION
#_______________________________________________________________________________
SET                .         Las                           : 
TLFamily_DEPT      .         Measured Depth                : 
TLFamily_PHI_FINAL .         Porosity                      : 
TLFamily_SW_AR     .         Water Saturation              : 
TLFamily_VSH_FINAL .         Shale Volume                  : 
~Curve Information
#_______________________________________________________________________________
#
#LOGNAME           .UNIT     LOG_ID                        : DESCRIPTION
#_______________________________________________________________________________
DEPT               .M                                      : Depth curve {F}
PHI_FINAL          .m3/m3                                  : Porosity {F}
SW_AR              .m3/m3                                  :  {F}
VSH_FINAL          .unitless                               : Vshale {F}
~Ascii
# ...
234.3      0.1090709  1          0.7651964 
234.4      0.1028844  1          0.7777909 
234.5      0.04597566 1          0.9254608 
234.6      0.07013801 1          0.8587748 
234.7      0.0777951  1          0.8303776 
234.8      0.09799055 1          0.7829972 
234.9      0.07685373 1          0.8435559 
235        0.05757283 1          0.8934678 
235.1      0.09608322 1          0.7951674 
235.2      0.131307   1          0.7008508 
235.3      0.1312104  1          0.6946725 
235.4      0.1236853  1          0.7242826 
235.5      0.1215046  1          0.7300958 
235.6      0.1261577  1          0.7116057 
235.7      0.1314429  1          0.6819149 
235.8      0.1293894  1          0.6758934 
235.9      0.1571283  1          0.6099907 
236        0.1490084  1          0.6097518 
236.1      0.1334309  1          0.6525594 
236.2      0.1163785  1          0.6805359 
236.3      0.1169678  1          0.6745306 
236.4      0.10963    1          0.6974279 
236.5      0.08374856 1          0.777409  
236.6      0.06897215 1          0.81009   
236.7      0.09048311 1          0.7575499 
236.8      0.1259636  1          0.6507381 
236.9      0.1553604  1          0.5771081 
237        0.1661536  1          0.5525134 
237.1      0.1371957  1          0.6282246 
237.2      0.1533135  1          0.5814234 
237.3      0.1390242  1          0.6118675 
237.4      0.1051855  1          0.6945968 
237.5      0.06570711 1          0.7937121 
237.6      0.02860956 1          0.905423  
237.7      0.00961968 1          0.9506163 
237.8      0.02116899 1          0.8898917 
237.9      0.04122402 1          0.8190902 
238        0.02377471 1          0.8603306 
238.1      0.02075393 1          0.8742357 
238.2      0.05421503 1          0.7591386 
238.3      0.07179414 1          0.7037967 
238.4      0.08387306 1          0.6802351 
238.5      0.09215758 1          0.6685888 
238.6      0.1082992  1          0.635229  
238.7      0.125797   1          0.5931327 
238.8      0.1256867  1          0.6135013 
238.9      0.1199917  1          0.6453259 
239        0.1469609  1          0.6182641 
239.1      0.1585601  1          0.6233004 
239.2      0.1286941  1          0.7373227 
239.3      0.1441716  1          0.7308927 
239.4      0.1853895  1          0.6440487 
239.5      0.2090948  0.9159322  0.601487  
239.6      0.2266469  0.8589494  0.5662788 
239.7      0.2164701  0.898192   0.6010206 
239.8      0.1880618  1          0.693679  
239.9      0.1775994  1          0.7413529 
240        0.2224637  0.8817469  0.6371071 
240.1      0.213019   0.9221048  0.6699412 
240.2      0.1746248  1          0.7718518 
240.3      0.1799372  1          0.7651558 
240.4      0.1962396  0.9855465  0.7336917 
240.5      0.2218828  0.8984488  0.6859434 
240.6      0.2430189  0.8564641  0.6410007 
240.7      0.249421   0.8656461  0.6246832 
240.8      0.2528006  0.8319223  0.6244388 
240.9      0.2597491  0.7750236  0.6136941 
241        0.2665068  0.7554582  0.6031155 
241.1      0.2551493  0.8435694  0.6397377 
241.2      0.2731672  0.843456   0.5924736 
241.3      0.2764641  0.8450103  0.5872169 
241.4      0.2925929  0.7531411  0.5434083 
241.5      0.2970442  0.6861568  0.5293226 
241.6      0.281615   0.6830238  0.547695  
241.7      0.253489   0.7408299  0.6014841 
241.8      0.2093289  0.8858916  0.7055787 
241.9      0.1607175  1          0.8391325 
242        0.1592643  1          0.8596548 
242.1      0.2251409  0.8964596  0.6988635 
242.2      0.3032098  0.6844893  0.5234032 
242.3      0.3349421  0.6213348  0.4630693 
242.4      0.3594822  0.575828   0.4161491 
242.5      0.3676642  0.5622391  0.4049607 
242.6      0.3747093  0.5536683  0.3904816 
242.7      0.382386   0.5488809  0.3764369 
242.8      0.3652837  0.5769938  0.4081931 
242.9      0.3373646  0.6220646  0.4661572 
243        0.3005894  0.6750305  0.5401615 
243.1      0.2833497  0.7005255  0.5540454 
243.2      0.2433045  0.8071463  0.639847  
243.3      0.219301   0.8970986  0.6897119 
243.4      0.1877982  1          0.7616674 
243.5      0.1909371  1          0.7365674 
243.6      0.2027061  0.9900432  0.700465  
243.7      0.1849295  1          0.7482526 
243.8      0.1624006  1          0.7989382 
243.9      0.17711    1          0.7600966 
244        0.1467721  1          0.8523331 
244.1      0.1157743  1          0.9469341 
244.2      0.156846   1          0.8309779 
244.3      0.1295722  1          0.8938865 
244.4      0.08557807 1          1         
244.5      0.08162159 1          1         
244.6      0.07830425 1          1         
244.7      0.07514361 1          1         
244.8      0.08240578 1          0.9829158 
244.9      0.07673965 1          1         
245        0.07670499 1          0.9979908 
245.1      0.07582439 1          1         
245.2      0.06792813 1          1         
245.3      0.06047903 1          1         
245.4      0.1152975  1          0.84727   
245.5      0.1091126  1          0.8820798 
245.6      0.07375304 1          0.97158   
245.7      0.05986204 1          1         
245.8      0.07558885 1          0.9551997 
245.9      0.06067304 1          0.9860417 
246        0.07536639 1          0.9315284 
246.1      0.07285611 1          0.923628  
246.2      0.06812479 1          0.908412  
246.3      0.09603176 1          0.8303944 
246.4      0.08873989 1          0.836839  
246.5      0.09701513 1          0.8096226 
246.6      0.1232481  1          0.7394251 
246.7      0.1276353  1          0.7210486 
246.8      0.1364454  1          0.7030891 
246.9      0.1695457  1          0.6359678 
247        0.1749464  1          0.6357198 
247.1      0.1490463  1          0.7080799 
247.2      0.07973926 1          0.8972095 
247.3      0.05179517 1          1         
247.4      0.05418107 1          1         
247.5      0.04889657 1          1         
247.6      0.04777487 1          1         
247.7      0.04335059 1          1         
247.8      0.03966584 1          1         
247.9      0.04602132 1          0.9852366 
248        0.09727684 1          0.8656482 
248.1      0.1177469  1          0.8108153 
248.2      0.1197747  1          0.8038964 
248.3      0.09488674 1          0.8857893 
248.4      0.08879185 1          0.921864  
248.5      0.1247732  1          0.8568385 
248.6      0.174931   1          0.7579259 
248.7      0.2050737  0.8780238  0.6863105 
248.8      0.1948441  0.9315082  0.7328451 
248.9      0.1174514  1          0.9499354 
249        0.09213106 1          1         
249.1      0.1345174  1          0.8686102 
249.2      0.1228397  1          0.8967433 
249.3      0.1048753  1          0.9256983 
249.4      0.1245352  1          0.8466938 
249.5      0.1576721  1          0.730772  
249.6      0.1288275  1          0.773582  
249.7      0.1314883  1          0.7422644 
249.8      0.1491494  0.9793568  0.6501561 
249.9      0.1415905  0.874722   0.6181884 
250        0.1113584  1          0.6442675 
250.1      0.1282411  0.8919995  0.5490157 
250.2      0.1610188  0.7404871  0.4310175 
250.3      0.1618495  0.7599491  0.4308687 
250.4      0.186251   0.7020742  0.4049002 
250.5      0.1776916  0.7630196  0.457745  
250.6      0.1967981  0.7049796  0.4496801 
250.7      0.2099876  0.6849694  0.4614173 
250.8      0.2140012  0.7012584  0.490038  
250.9      0.2272969  0.7044171  0.4983583 
251        0.2509353  0.6728458  0.4689955 
251.1      0.2808617  0.6347584  0.4184872 
251.2      0.3046165  0.6038812  0.365959  
251.3      0.3103012  0.5884285  0.34963   
251.4      0.3085244  0.5867422  0.3527098 
251.5      0.3057841  0.6088497  0.3655987 
251.6      0.3020357  0.644523   0.3721226 
251.7      0.3018534  0.6732153  0.3653589 
251.8      0.2860597  0.696825   0.3820193 
251.9      0.2551483  0.7463983  0.432272  
252        0.2391738  0.7757577  0.4553423 
252.1      0.2284906  0.7868263  0.4712335 
252.2      0.2150785  0.8049089  0.5003024 
252.3      0.1979621  0.8373998  0.5263937 
252.4      0.157509   1          0.6122913 
