~Version
 VERS              .         3.0                           : CWLS LOG ASCII STANDARD - VERSION 3.0
 WRAP              .         NO                            : ONE LINE PER DEPTH STEP
 DLM               .         SPACE                         : DELIMITING CHARACTER(SPACE TAB OR COMMA)
~Well Information
#_______________________________________________________________________________
#
#PARAMETER_NAME    .UNIT     VALUE                         : DESCRIPTION
#_______________________________________________________________________________
STRT               .M        0.1                           : First reference value
STOP               .M        793.1                         : Last reference value
STEP               .M        0.1                           : Step increment
NULL               .         -9999                         : Missing value
COMP               .         ICPetroleum                   : Company
WELL               .         328                           : Well name
FLD                .         Karatobe                      : Field
LOC                .                                       : Location
SRVC               .                                       : Service Company
CTRY               .         KZ                            : Country
DATE               .         20-21.03.2007                 : Service Date
LATI               .         0                             : Latitude
LONG               .         0                             : Longitude
GDAT               .         WGS 84                        : Geodetic Datum
CNTY               .                                       : 
COORDIN            .                                       : Grid System
COUNTRY            .         Kazakhstan                    : 
COUNTRY            .         Kazakhstan                    : 
EREF               .m        136.5                         : 
KB                 .         0                             : KB Elevation
ORIGINALWELLNAME   .         328                           : 
PROV               .                                       : Province
RWS                .         -999                          : Def_Rw
STAT               .                                       : 
UWI                .                                       : 
WST                .         -999                          : Def_Rwt
X                  .km       466166.24                     : 
XCOORD             .                                       : X or East-West Coordinate
Y                  .km       5308273.61                    : 
YCOORD             .                                       : Y or North-South Coordinate
~Parameter Information Block
#_______________________________________________________________________________
#
#PARAMETER_NAME    .UNIT     VALUE                         : DESCRIPTION
#_______________________________________________________________________________
SET                .         Las                           : 
TLFamily_DEPT      .         Measured Depth                : 
TLFamily_PHI_FINAL .         Porosity                      : 
TLFamily_SW_AR     .         Water Saturation              : 
TLFamily_VSH_FINAL .         Shale Volume                  : 
~Curve Information
#_______________________________________________________________________________
#
#LOGNAME           .UNIT     LOG_ID                        : DESCRIPTION
#_______________________________________________________________________________
DEPT               .M                                      : Depth curve {F}
PHI_FINAL          .m3/m3                                  : Porosity {F}
SW_AR              .m3/m3                                  :  {F}
VSH_FINAL          .unitless                               : Vshale {F}
~Ascii
# ...
179.7      0.4051926  1          0.3513742 
179.8      0.4078782  0.9625619  0.3548635 
179.9      0.4008111  0.9051958  0.377072  
180        0.3933343  0.8691508  0.3924461 
180.1      0.4042006  0.8107336  0.3767905 
180.2      0.3788557  0.8542758  0.4163842 
180.3      0.3666541  0.8683897  0.428795  
180.4      0.3316416  0.9361779  0.4821306 
180.5      0.3010808  1          0.520658  
180.6      0.2964991  1          0.5204439 
180.7      0.2823831  1          0.5405528 
180.8      0.2993563  1          0.5101103 
180.9      0.3295531  0.934044   0.4582821 
181        0.3440265  0.8577511  0.4361587 
181.1      0.3665079  0.7807972  0.3987292 
181.2      0.3831854  0.7399188  0.3752482 
181.3      0.3734537  0.7634544  0.3866231 
181.4      0.3584876  0.8011032  0.4103712 
181.5      0.3577155  0.8085354  0.4143111 
181.6      0.3653028  0.7888395  0.4059968 
181.7      0.3821247  0.752357   0.3821805 
181.8      0.3765357  0.7629166  0.3976735 
181.9      0.3738855  0.7791889  0.3975231 
182        0.4044709  0.7492738  0.3344088 
182.1      0.4127016  0.7655021  0.3141046 
182.2      0.4205178  0.7376828  0.3042755 
182.3      0.4035172  0.7451551  0.3340489 
182.4      0.3559109  0.8244308  0.4169984 
182.5      0.3569627  0.8325151  0.4127286 
182.6      0.3656578  0.8221633  0.392531  
182.7      0.3787713  0.8035673  0.3620059 
182.8      0.3841065  0.788852   0.347427  
182.9      0.391145   0.765472   0.3333308 
183        0.4040451  0.7330328  0.3098565 
183.1      0.3996235  0.7444214  0.3195878 
183.2      0.3930234  0.7679074  0.3364174 
183.3      0.4130303  0.7585706  0.2967958 
183.4      0.4325766  0.7491494  0.2581056 
183.5      0.4479295  0.7227267  0.2310386 
183.6      0.4409438  0.7150419  0.2441715 
183.7      0.4332834  0.7094673  0.2550519 
183.8      0.4338261  0.6976044  0.2521948 
183.9      0.4328659  0.6937254  0.2576777 
184        0.4201683  0.7135407  0.2778032 
184.1      0.4235992  0.7116948  0.2689084 
184.2      0.4142847  0.7324732  0.2776151 
184.3      0.4135083  0.7356892  0.277521  
184.4      0.3945414  0.773151   0.3083425 
184.5      0.3868776  0.7960705  0.3213251 
184.6      0.3995536  0.7827519  0.2985929 
184.7      0.4278252  0.7570173  0.2459921 
184.8      0.4397303  0.7601239  0.2352687 
184.9      0.443018   0.752464   0.2351929 
185        0.4484463  0.7326587  0.2299297 
185.1      0.4332913  0.7458025  0.2622859 
185.2      0.4234765  0.7734602  0.2826382 
185.3      0.4170751  0.7918113  0.2947552 
185.4      0.406615   0.7720201  0.3104884 
185.5      0.4011455  0.7272369  0.3201931 
185.6      0.3918477  0.7145851  0.336975  
185.7      0.3813681  0.7171376  0.354449  
185.8      0.33843    0.8011914  0.4281362 
185.9      0.2750012  0.9728919  0.5392206 
186        0.2918166  0.9217567  0.4994771 
186.1      0.2781343  0.9751475  0.5236596 
186.2      0.3357088  0.8216006  0.4233091 
186.3      0.3252639  0.8446583  0.4400276 
186.4      0.3290305  0.8281938  0.4441628 
186.5      0.2838862  0.9440637  0.5328227 
186.6      0.2821531  0.9515922  0.568962  
186.7      0.2985639  0.9119091  0.5687247 
186.8      0.3386667  0.8203037  0.5474796 
186.9      0.3979715  0.7106093  0.4835772 
187        0.4309931  0.6605127  0.4880438 
187.1      0.4494812  0.6304439  0.5265042 
187.2      0.4989081  0.5673414  0.5018473 
187.3      0.5395858  0.5267985  0.4874609 
187.4      0.5685366  0.5025163  0.473433  
187.5      0.5995435  0.4844858  0.4597553 
187.6      0.6121464  0.4829125  0.450768  
187.7      0.609643   0.4836369  0.472873  
187.8      0.5855998  0.5000324  0.5054341 
187.9      0.5547887  0.518984   0.5450051 
188        0.5153958  0.5347464  0.5872214 
188.1      0.5056116  0.5236959  0.5707418 
188.2      0.5046382  0.5012816  0.5046223 
188.3      0.4798496  0.5084066  0.4763093 
188.4      0.4505007  0.5297896  0.4407403 
188.5      0.4409943  0.533567   0.3689686 
188.6      0.3750382  0.6159911  0.3993465 
188.7      0.30724    0.7169995  0.4317538 
188.8      0.2851888  0.7422637  0.4069844 
188.9      0.2559977  0.8012155  0.3910936 
189        0.2362898  0.8552854  0.3948329 
189.1      0.2222475  0.9110543  0.383132  
189.2      0.2276632  0.8964245  0.3680263 
189.3      0.234068   0.8947698  0.3569906 
189.4      0.257286   0.8467835  0.3324494 
189.5      0.2506965  0.9059856  0.3603336 
189.6      0.2914692  0.8078551  0.2997008 
189.7      0.3023034  0.76635    0.2964917 
189.8      0.3328099  0.5986839  0.2582445 
189.9      0.3389251  0.4910946  0.2581597 
190        0.3532495  0.3756845  0.239165  
190.1      0.3629384  0.3264108  0.2287613 
190.2      0.362731   0.4078547  0.2338083 
190.3      0.3666717  0.5121998  0.2337337 
190.4      0.3654262  0.6353482  0.2414898 
190.5      0.3615602  0.6702501  0.260437  
190.6      0.3464656  0.6252913  0.2925127 
190.7      0.3333365  0.5312757  0.3144208 
190.8      0.3143332  0.4753756  0.3341904 
190.9      0.3011195  0.4846981  0.3409142 
191        0.3026945  0.5866361  0.3305763 
191.1      0.297109   0.7346807  0.3406718 
191.2      0.2800827  0.8685851  0.3916182 
191.3      0.2508952  1          0.4662432 
191.4      0.2511697  1          0.4796151 
191.5      0.2276959  1          0.5270435 
191.6      0.251901   1          0.474688  
191.7      0.2750718  0.8519035  0.4227166 
191.8      0.2900532  0.6903184  0.3793445 
191.9      0.3041796  0.5910245  0.3362865 
192        0.3043023  0.6000236  0.3098046 
192.1      0.2970545  0.6666372  0.303373  
192.2      0.2833287  0.7695637  0.3095909 
192.3      0.256421   0.9013612  0.3324263 
192.4      0.2365043  1          0.335693  
192.5      0.244135   1          0.2876149 
192.6      0.2453421  0.9934631  0.2450716 
192.7      0.2023517  1          0.2785175 
192.8      0.1586306  1          0.3121426 
192.9      0.1553123  0.8961894  0.2725202 
193        0.1440152  0.8159204  0.2638911 
193.1      0.1472841  0.8003809  0.2241074 
193.2      0.1490824  0.799705   0.2240372 
193.3      0.1365175  0.9608679  0.2525783 
193.4      0.1515709  1          0.2692044 
193.5      0.1590257  1          0.3050534 
193.6      0.1585201  1          0.3881636 
193.7      0.1573034  1          0.4619128 
193.8      0.19018    1          0.4661612 
193.9      0.2155272  1          0.4886501 
194        0.2771065  0.8389656  0.419063  
194.1      0.3079128  0.7644132  0.4068709 
194.2      0.2822363  0.8428214  0.4834729 
194.3      0.2754118  0.8825134  0.5162659 
194.4      0.2694237  0.9010566  0.5258257 
194.5      0.292333   0.820931   0.4874977 
194.6      0.28694    0.8212969  0.4966009 
194.7      0.2418893  0.9525029  0.581735  
194.8      0.2228464  1          0.6201627 
194.9      0.1974862  1          0.6607969 
195        0.1101159  1          0.8268885 
195.1      0.06449628 1          0.9110035 
195.2      0.06328029 1          0.9186295 
195.3      0.02785745 1          1         
195.4      0.03214701 1          1         
195.5      0.04043103 1          0.9840438 
195.6      0.03460707 1          1         
195.7      0.04493702 1          0.9830967 
195.8      0.07237004 1          0.9405006 
195.9      0.06482516 1          0.9651074 
196        0.04517126 1          1         
196.1      0.04669689 1          0.9985039 
196.2      0.04996673 1          0.9980211 
196.3      0.04644907 1          1         
196.4      0.04517126 1          1         
196.5      0.04180718 1          1         
196.6      0.03926851 1          1         
196.7      0.03976828 1          1         
196.8      0.04421409 1          1         
196.9      0.04772449 1          1         
197        0.04710556 1          1         
197.1      0.04653413 1          1         
197.2      0.0443937  1          1         
197.3      0.04524706 1          1         
197.4      0.04080424 1          1         
197.5      0.03834552 1          1         
197.6      0.03788072 1          1         
197.7      0.03938587 1          1         
197.8      0.03526363 1          1         
