~Version
 VERS              .         3.0                           : CWLS LOG ASCII STANDARD - VERSION 3.0
 WRAP              .         NO                            : ONE LINE PER DEPTH STEP
 DLM               .         SPACE                         : DELIMITING CHARACTER(SPACE TAB OR COMMA)
~Well Information
#_______________________________________________________________________________
#
#PARAMETER_NAME    .UNIT     VALUE                         : DESCRIPTION
#_______________________________________________________________________________
STRT               .M        0.1                           : First reference value
STOP               .M        793.1                         : Last reference value
STEP               .M        0.1                           : Step increment
NULL               .         -9999                         : Missing value
COMP               .         ICPetroleum                   : Company
WELL               .         328                           : Well name
FLD                .         Karatobe                      : Field
LOC                .                                       : Location
SRVC               .                                       : Service Company
CTRY               .         KZ                            : Country
DATE               .         20-21.03.2007                 : Service Date
LATI               .         0                             : Latitude
LONG               .         0                             : Longitude
GDAT               .         WGS 84                        : Geodetic Datum
CNTY               .                                       : 
COORDIN            .                                       : Grid System
COUNTRY            .         Kazakhstan                    : 
COUNTRY            .         Kazakhstan                    : 
EREF               .m        136.5                         : 
KB                 .         0                             : KB Elevation
ORIGINALWELLNAME   .         328                           : 
PROV               .                                       : Province
RWS                .         -999                          : Def_Rw
STAT               .                                       : 
UWI                .                                       : 
WST                .         -999                          : Def_Rwt
X                  .km       466166.24                     : 
XCOORD             .                                       : X or East-West Coordinate
Y                  .km       5308273.61                    : 
YCOORD             .                                       : Y or North-South Coordinate
~Parameter Information Block
#_______________________________________________________________________________
#
#PARAMETER_NAME    .UNIT     VALUE                         : DESCRIPTION
#_______________________________________________________________________________
SET                .         Las                           : 
TLFamily_DEPT      .         Measured Depth                : 
TLFamily_PHI_FINAL .         Porosity                      : 
TLFamily_SW_AR     .         Water Saturation              : 
TLFamily_VSH_FINAL .         Shale Volume                  : 
~Curve Information
#_______________________________________________________________________________
#
#LOGNAME           .UNIT     LOG_ID                        : DESCRIPTION
#_______________________________________________________________________________
DEPT               .M                                      : Depth curve {F}
PHI_FINAL          .m3/m3                                  : Porosity {F}
SW_AR              .m3/m3                                  :  {F}
VSH_FINAL          .unitless                               : Vshale {F}
~Ascii
# ...
398.1      0.2648832  0.8153956  0.4854257 
398.2      0.2496496  0.9009657  0.553499  
398.3      0.2371306  0.9754089  0.604645  
398.4      0.2184486  1          0.6423714 
398.5      0.2168171  1          0.6335709 
398.6      0.2283181  1          0.591902  
398.7      0.2414727  0.981913   0.5488874 
398.8      0.2389311  0.9466179  0.5375245 
398.9      0.2046823  0.9979846  0.603525  
399        0.1709045  1          0.6856334 
399.1      0.1752495  0.9329112  0.6673133 
399.2      0.2073728  0.7405242  0.5908128 
399.3      0.2201908  0.6656894  0.5404264 
399.4      0.2157344  0.653214   0.5328834 
399.5      0.202259   0.6690987  0.5983378 
399.6      0.1878063  0.6880437  0.6486157 
399.7      0.2144767  0.5828971  0.5939264 
399.8      0.2059594  0.5857748  0.622546  
399.9      0.2479608  0.4773771  0.5176175 
400        0.2429242  0.4809954  0.5392984 
400.1      0.250841   0.4703883  0.5208961 
400.2      0.2797839  0.4459128  0.4403884 
400.3      0.2815993  0.4799986  0.4371604 
400.4      0.2747906  0.557355   0.4527402 
400.5      0.2463668  0.7319454  0.5131465 
400.6      0.2476489  0.8356211  0.5165514 
400.7      0.2496399  0.8513705  0.5199749 
400.8      0.2311964  0.9015362  0.5799928 
400.9      0.2142351  0.9420213  0.6416457 
401        0.1824939  1          0.7329093 
401.1      0.1430159  1          0.8356389 
401.2      0.1479473  1          0.8299137 
401.3      0.1877317  1          0.7419394 
401.4      0.2002323  1          0.7034121 
401.5      0.1801723  1          0.7463673 
401.6      0.1659392  1          0.7461226 
401.7      0.1728307  1          0.702733  
401.8      0.1853874  1          0.6616246 
401.9      0.1479929  1          0.7453903 
402        0.07394312 1          0.930391  
402.1      0.06383254 1          0.9421664 
402.2      0.0711292  1          0.9118677 
402.3      0.04043018 1          1         
402.4      0.03550434 1          1         
402.5      0.0282257  1          1         
402.6      0.02282791 1          1         
402.7      0.01709064 1          1         
402.8      0.0108702  1          1         
402.9      0.007914853 1          1         
403        0.008533212 1          1         
403.1      0.008716783 1          1         
403.2      0.0111871  1          1         
403.3      0.01292278 1          1         
403.4      0.01563764 1          1         
403.5      0.0186381  1          1         
403.6      0.02152817 1          1         
403.7      0.02407862 1          1         
403.8      0.02858256 1          1         
403.9      0.03076038 1          1         
404        0.02805308 1          1         
404.1      0.0222683  1          1         
404.2      0.01942565 1          1         
404.3      0.01754894 1          1         
404.4      0.01928362 1          1         
404.5      0.02194389 1          1         
404.6      0.02373008 1          1         
404.7      0.03667109 1          0.9641816 
404.8      0.03310545 1          0.9952718 
404.9      0.04426507 1          0.9949189 
405        0.07036491 1          0.9326814 
405.1      0.04930507 1          1         
405.2      0.06443608 1          0.9501999 
405.3      0.08929633 1          0.8734553 
405.4      0.08617734 1          0.8731575 
405.5      0.07960418 1          0.8842267 
405.6      0.04584826 1          0.9673315 
405.7      0.03098223 1          1         
405.8      0.02894741 1          1         
405.9      0.02930805 1          1         
406        0.03622624 1          1         
406.1      0.04328986 1          1         
406.2      0.04974502 1          1         
406.3      0.128669   1          0.7948325 
406.4      0.171559   1          0.6741447 
406.5      0.2147077  0.935185   0.5436371 
406.6      0.1975217  0.9916333  0.5622408 
406.7      0.1741078  1          0.609414  
406.8      0.1890303  1          0.5773075 
406.9      0.1935486  1          0.5810397 
407        0.2016675  0.991008   0.5769593 
407.1      0.1954182  0.9776205  0.6045992 
407.2      0.1892869  0.9992483  0.6125709 
407.3      0.1831629  1          0.612383  
407.4      0.1542566  1          0.6720201 
407.5      0.1385671  1          0.6989875 
407.6      0.1326772  1          0.7080356 
407.7      0.1238599  1          0.7078091 
407.8      0.1208023  1          0.7075827 
407.9      0.1238099  1          0.693507  
408        0.1060098  1          0.745266  
408.1      0.07184335 1          0.8376548 
408.2      0.08441619 1          0.8212519 
408.3      0.1209385  1          0.749429  
408.4      0.1282631  1          0.7442989 
408.5      0.1306215  1          0.748942  
408.6      0.1295131  1          0.763519  
408.7      0.1453105  1          0.7387232 
408.8      0.1359979  1          0.7482123 
408.9      0.1008817  1          0.8246623 
409        0.1218952  1          0.762522  
409.1      0.1534913  1          0.6596432 
409.2      0.1344265  1          0.6906497 
409.3      0.1002895  1          0.7717728 
409.4      0.1179936  1          0.7370529 
409.5      0.0762725  1          0.8500481 
409.6      0.1098288  1          0.7760517 
409.7      0.1193037  1          0.7707629 
409.8      0.08431479 1          0.8769966 
409.9      0.1040233  1          0.8380136 
410        0.1768321  1          0.6534488 
410.1      0.1840248  1          0.644643  
410.2      0.1792845  1          0.6487297 
410.3      0.1506246  1          0.7019607 
410.4      0.1477002  1          0.6880298 
410.5      0.1177603  1          0.7489716 
410.6      0.1094089  1          0.7585557 
410.7      0.1152368  1          0.7291845 
410.8      0.09969128 1          0.7531389 
410.9      0.09164916 1          0.7627665 
411        0.09240355 1          0.7428979 
411.1      0.09466366 1          0.7187809 
411.2      0.1123309  1          0.672868  
411.3      0.1353345  1          0.6212813 
411.4      0.1406409  1          0.6169721 
411.5      0.1019438  1          0.7178617 
411.6      0.08858877 1          0.7560947 
411.7      0.04660687 1          0.8713679 
411.8      0.09645282 1          0.7605358 
411.9      0.1001363  1          0.7702352 
412        0.1011645  1          0.7800434 
412.1      0.1015058  1          0.78486   
412.2      0.1099439  1          0.7744926 
412.3      0.08911718 1          0.8259754 
412.4      0.02859407 1          1         
412.5      0.02636385 1          1         
412.6      0.02959568 1          0.9870172 
412.7      0.05226848 1          0.8852953 
412.8      0.08627533 1          0.7932651 
412.9      0.08626533 1          0.7930045 
413        0.07241451 1          0.8293815 
413.1      0.08395095 1          0.7976241 
413.2      0.07545035 1          0.8077282 
413.3      0.09429002 1          0.7767351 
413.4      0.08788672 1          0.7815259 
413.5      0.1236801  1          0.7226678 
413.6      0.1078337  1          0.7709641 
413.7      0.1338537  1          0.6899005 
413.8      0.09519015 1          0.775469  
413.9      0.06619438 1          0.8376079 
414        0.04273172 1          0.8870606 
414.1      0.07212101 1          0.8105428 
414.2      0.09436209 1          0.7546405 
414.3      0.05336921 1          0.8527583 
414.4      0.09717105 1          0.7541525 
414.5      0.1060559  1          0.7393642 
414.6      0.1236754  1          0.7015815 
414.7      0.07184511 1          0.84076   
414.8      0.04891261 1          0.9133406 
414.9      0.05694398 1          0.9072285 
415        0.0611085  1          0.8954241 
415.1      0.07025759 1          0.8725384 
415.2      0.05344085 1          0.9120951 
415.3      0.04361357 1          0.9412491 
415.4      0.04539359 1          0.9290408 
415.5      0.02168094 1          1         
415.6      0.0226795  1          0.9767421 
415.7      0.03146328 1          0.9280869 
415.8      0.03197877 1          0.9102314 
415.9      0.01632197 1          0.969566  
416        0.0198951  1          0.9330422 
416.1      0.03411366 1          0.8585603 
416.2      0.02539111 1          0.8917895 
