~Version
 VERS              .         3.0                           : CWLS LOG ASCII STANDARD - VERSION 3.0
 WRAP              .         NO                            : ONE LINE PER DEPTH STEP
 DLM               .         SPACE                         : DELIMITING CHARACTER(SPACE TAB OR COMMA)
~Well Information
#_______________________________________________________________________________
#
#PARAMETER_NAME    .UNIT     VALUE                         : DESCRIPTION
#_______________________________________________________________________________
STRT               .M        0.1                           : First reference value
STOP               .M        793.1                         : Last reference value
STEP               .M        0.1                           : Step increment
NULL               .         -9999                         : Missing value
COMP               .         ICPetroleum                   : Company
WELL               .         328                           : Well name
FLD                .         Karatobe                      : Field
LOC                .                                       : Location
SRVC               .                                       : Service Company
CTRY               .         KZ                            : Country
DATE               .         20-21.03.2007                 : Service Date
LATI               .         0                             : Latitude
LONG               .         0                             : Longitude
GDAT               .         WGS 84                        : Geodetic Datum
CNTY               .                                       : 
COORDIN            .                                       : Grid System
COUNTRY            .         Kazakhstan                    : 
COUNTRY            .         Kazakhstan                    : 
EREF               .m        136.5                         : 
KB                 .         0                             : KB Elevation
ORIGINALWELLNAME   .         328                           : 
PROV               .                                       : Province
RWS                .         -999                          : Def_Rw
STAT               .                                       : 
UWI                .                                       : 
WST                .         -999                          : Def_Rwt
X                  .km       466166.24                     : 
XCOORD             .                                       : X or East-West Coordinate
Y                  .km       5308273.61                    : 
YCOORD             .                                       : Y or North-South Coordinate
~Parameter Information Block
#_______________________________________________________________________________
#
#PARAMETER_NAME    .UNIT     VALUE                         : DESCRIPTION
#_______________________________________________________________________________
SET                .         Las                           : 
TLFamily_DEPT      .         Measured Depth                : 
TLFamily_PHI_FINAL .         Porosity                      : 
TLFamily_SW_AR     .         Water Saturation              : 
TLFamily_VSH_FINAL .         Shale Volume                  : 
~Curve Information
#_______________________________________________________________________________
#
#LOGNAME           .UNIT     LOG_ID                        : DESCRIPTION
#_______________________________________________________________________________
DEPT               .M                                      : Depth curve {F}
PHI_FINAL          .m3/m3                                  : Porosity {F}
SW_AR              .m3/m3                                  :  {F}
VSH_FINAL          .unitless                               : Vshale {F}
~Ascii
# ...
616.4      0.2478807  -9999      0.1321402 
616.5      0.2494828  -9999      0.1301247 
616.6      0.2507758  -9999      0.1271475 
616.7      0.2462271  -9999      0.1381735 
616.8      0.2493002  -9999      0.1381517 
616.9      0.2531353  -9999      0.130044  
617        0.2570305  -9999      0.1370811 
617.1      0.2583401  -9999      0.1360375 
617.2      0.262087   -9999      0.1329789 
617.3      0.2596742  -9999      0.1432477 
617.4      0.2605592  -9999      0.1390523 
617.5      0.2634994  -9999      0.1339238 
617.6      0.2584639  -9999      0.1390086 
617.7      0.2505922  -9999      0.1421069 
617.8      0.245887   -9999      0.1399997 
617.9      0.2467447  -9999      0.1389428 
618        0.2432249  -9999      0.1358457 
618.1      0.2385867  -9999      0.1451783 
618.2      0.2419803  -9999      0.1419943 
618.3      0.2463814  -9999      0.1440738 
618.4      0.2531793  -9999      0.1297423 
618.5      0.2545482  -9999      0.133715  
618.6      0.2605724  -9999      0.1277338 
618.7      0.2670247  1          0.1200227 
618.8      0.2685433  1          0.1190633 
618.9      0.2701832  1          0.1171761 
619        0.2708076  -9999      0.1054255 
619.1      0.2720955  -9999      0.09272624
619.2      0.2642753  -9999      0.1010688 
619.3      0.2641798  1          0.09766577
619.4      0.26689    1          0.09933773
619.5      0.2649791  1          0.09847853
619.6      0.2656971  -9999      0.0984643 
619.7      0.2685501  -9999      0.0967728 
619.8      0.269438   -9999      0.09675895
619.9      0.277702   -9999      0.09425898
620        0.27677    -9999      0.09179433
620.1      0.2741329  -9999      0.0925944 
620.2      0.2775005  -9999      0.08539826
620.3      0.2799491  -9999      0.08460682
620.4      0.278752   -9999      0.08459502
620.5      0.2813691  -9999      0.08226678
620.6      0.2836945  -9999      0.08457145
620.7      0.2840619  -9999      0.08928876
620.8      0.28492    -9999      0.09745507
620.9      0.2844533  -9999      0.09660623
621        0.2879751  -9999      0.09085611
621.1      0.2726633  -9999      0.09327839
621.2      0.2702478  -9999      0.100776  
621.3      0.2573017  -9999      0.1149102 
621.4      0.2568784  -9999      0.1085749 
621.5      0.2475366  -9999      0.1176467 
621.6      0.2363961  1          0.1350839 
621.7      0.2179449  1          0.1675873 
621.8      0.186798   1          0.2116756 
621.9      0.1582974  1          0.2555746 
622        0.1299223  1          0.3206909 
622.1      0.1009798  1          0.3894767 
622.2      0.0725979  1          0.4376525 
622.3      0.06768378 1          0.4522251 
622.4      0.07645473 1          0.4571048 
622.5      0.08037324 1          0.4722172 
622.6      0.09233525 1          0.4519266 
622.7      0.1119404  1          0.4000377 
622.8      0.1121952  1          0.3932921 
622.9      0.09875732 1          0.4180828 
623        0.09266943 1          0.4203169 
623.1      0.09361429 1          0.4296285 
623.2      0.08639246 1          0.4439644 
623.3      0.07981904 1          0.4662694 
623.4      0.07230095 1          0.4764228 
623.5      0.0700845  1          0.4711654 
623.6      0.07362978 1          0.463426  
623.7      0.06539533 1          0.4608023 
623.8      0.06862163 1          0.4313506 
623.9      0.06616585 1          0.426523  
624        0.05116337 1          0.488853  
624.1      0.05078517 1          0.5075479 
624.2      0.0375839  1          0.5469069 
624.3      0.02832507 1          0.576572  
624.4      0.02671285 1          0.5825593 
624.5      0.02690496 1          0.5732598 
624.6      0.03515322 1          0.5377333 
624.7      0.04421235 1          0.4987367 
624.8      0.02826411 1          0.5668229 
624.9      0.04758569 1          0.5012035 
625        0.07776489 1          0.4302307 
625.1      0.1053687  1          0.3658143 
625.2      0.1157818  1          0.355496  
625.3      0.1150106  1          0.3804026 
625.4      0.1148341  1          0.3889594 
625.5      0.1284767  1          0.3593439 
625.6      0.1368251  1          0.3296826 
625.7      0.142701   1          0.3392498 
625.8      0.1473924  1          0.3372378 
625.9      0.1449901  1          0.3570142 
626        0.1419771  1          0.3755961 
626.1      0.1446737  1          0.3927585 
626.2      0.1417759  1          0.3861377 
626.3      0.1352008  1          0.3970013 
626.4      0.1240563  1          0.4360639 
626.5      0.09385327 1          0.4808908 
626.6      0.07826749 1          0.5046751 
626.7      0.0667735  1          0.5210433 
626.8      0.06691027 1          0.523715  
626.9      0.06777955 1          0.5125119 
627        0.05141244 1          0.5639058 
627.1      0.04507251 1          0.5849819 
627.2      0.06630287 1          0.5316761 
627.3      0.08423089 1          0.5011771 
627.4      0.1013844  1          0.4799259 
627.5      0.1145603  1          0.4746563 
627.6      0.1181736  1          0.4901775 
627.7      0.1285152  1          0.4693331 
627.8      0.1489221  1          0.42063   
627.9      0.1669829  1          0.3741195 
628        0.1821492  1          0.3319126 
628.1      0.1995581  1          0.2850379 
628.2      0.2094054  1          0.2526112 
628.3      0.2153808  -9999      0.2160827 
628.4      0.209556   -9999      0.2039084 
628.5      0.2111729  1          0.1822815 
628.6      0.2251206  1          0.1578142 
628.7      0.2305334  1          0.1512312 
628.8      0.2219213  1          0.1533723 
628.9      0.2252917  1          0.1490378 
629        0.2356432  1          0.1447836 
629.1      0.2419763  1          0.146866  
629.2      0.2546111  1          0.15219   
629.3      0.2688295  1          0.1609795 
629.4      0.2781215  1          0.1724342 
629.5      0.2783166  1          0.1970083 
629.6      0.2811206  1          0.1881071 
629.7      0.276129   1          0.1918399 
629.8      0.2733327  1          0.1943455 
629.9      0.2714515  -9999      0.20338   
630        0.2757448  -9999      0.1818237 
630.1      0.2799685  -9999      0.1641551 
630.2      0.2865771  -9999      0.157408  
630.3      0.2822637  -9999      0.1573827 
630.4      0.2804623  -9999      0.1573573 
630.5      0.2755193  -9999      0.1486601 
630.6      0.2734338  -9999      0.1362144 
630.7      0.2601431  -9999      0.1464953 
630.8      0.2588442  -9999      0.1361723 
630.9      0.2482196  -9999      0.1475051 
631        0.234892   -9999      0.1594215 
631.1      0.2301343  -9999      0.1549851 
631.2      0.2179352  -9999      0.1616056 
631.3      0.2004559  1          0.1649707 
631.4      0.2011678  1          0.1538213 
631.5      0.2036092  1          0.1411088 
631.6      0.2050364  1          0.138023  
631.7      0.1997468  1          0.1290613 
631.8      0.1931043  1          0.125186  
631.9      0.1865995  1          0.1339414 
632        0.1804371  -9999      0.1369263 
632.1      0.1750003  -9999      0.1409767 
632.2      0.1643551  -9999      0.1419841 
632.3      0.1578276  -9999      0.119444  
632.4      0.1496783  -9999      0.1103543 
632.5      0.1300172  -9999      0.1139164 
632.6      0.1141018  -9999      0.1008151 
632.7      0.118104   -9999      0.08937621
632.8      0.1153866  1          0.08936375
632.9      0.1233454  1          0.08699798
633        0.1152678  1          0.09414303
633.1      0.1071548  1          0.09251393
633.2      0.1017907  -9999      0.08696184
633.3      0.091045   -9999      0.08851404
633.4      0.08647495 1          0.08616116
633.5      0.08565737 1          0.07710341
633.6      0.09589641 1          0.06922784
633.7      0.1027199  1          0.0650934 
633.8      0.1150421  1          0.06644724
633.9      0.1288343  1          0.07060055
634        0.1431572  1          0.07342964
634.1      0.1637486  1          0.0637103 
634.2      0.1787383  1          0.05907635
634.3      0.1902571  1          0.06169351
634.4      0.1934804  -9999      0.05776704
634.5      0.194755   -9999      0.06167767
