~Version
 VERS              .         3.0                           : CWLS LOG ASCII STANDARD - VERSION 3.0
 WRAP              .         NO                            : ONE LINE PER DEPTH STEP
 DLM               .         SPACE                         : DELIMITING CHARACTER(SPACE TAB OR COMMA)
~Well Information
#_______________________________________________________________________________
#
#PARAMETER_NAME    .UNIT     VALUE                         : DESCRIPTION
#_______________________________________________________________________________
STRT               .M        0.1                           : First reference value
STOP               .M        793.1                         : Last reference value
STEP               .M        0.1                           : Step increment
NULL               .         -9999                         : Missing value
COMP               .         ICPetroleum                   : Company
WELL               .         328                           : Well name
FLD                .         Karatobe                      : Field
LOC                .                                       : Location
SRVC               .                                       : Service Company
CTRY               .         KZ                            : Country
DATE               .         20-21.03.2007                 : Service Date
LATI               .         0                             : Latitude
LONG               .         0                             : Longitude
GDAT               .         WGS 84                        : Geodetic Datum
CNTY               .                                       : 
COORDIN            .                                       : Grid System
COUNTRY            .         Kazakhstan                    : 
COUNTRY            .         Kazakhstan                    : 
EREF               .m        136.5                         : 
KB                 .         0                             : KB Elevation
ORIGINALWELLNAME   .         328                           : 
PROV               .                                       : Province
RWS                .         -999                          : Def_Rw
STAT               .                                       : 
UWI                .                                       : 
WST                .         -999                          : Def_Rwt
X                  .km       466166.24                     : 
XCOORD             .                                       : X or East-West Coordinate
Y                  .km       5308273.61                    : 
YCOORD             .                                       : Y or North-South Coordinate
~Parameter Information Block
#_______________________________________________________________________________
#
#PARAMETER_NAME    .UNIT     VALUE                         : DESCRIPTION
#_______________________________________________________________________________
SET                .         Las                           : 
TLFamily_DEPT      .         Measured Depth                : 
TLFamily_PHI_FINAL .         Porosity                      : 
TLFamily_SW_AR     .         Water Saturation              : 
TLFamily_VSH_FINAL .         Shale Volume                  : 
~Curve Information
#_______________________________________________________________________________
#
#LOGNAME           .UNIT     LOG_ID                        : DESCRIPTION
#_______________________________________________________________________________
DEPT               .M                                      : Depth curve {F}
PHI_FINAL          .m3/m3                                  : Porosity {F}
SW_AR              .m3/m3                                  :  {F}
VSH_FINAL          .unitless                               : Vshale {F}
~Ascii
# ...
361.7      0.2246199  1          0.4125954 
361.8      0.2175372  1          0.4155872 
361.9      0.2161704  1          0.4217451 
362        0.218419   1          0.4122371 
362.1      0.2099423  1          0.4375316 
362.2      0.2102409  1          0.4472619 
362.3      0.2326774  1          0.4026794 
362.4      0.2541521  1          0.3731254 
362.5      0.2598853  1          0.3730207 
362.6      0.2667578  0.9845262  0.3616546 
362.7      0.289672   0.9032058  0.3068589 
362.8      0.2831302  0.9173118  0.3141558 
362.9      0.3000628  0.8647723  0.2876903 
363        0.291115   0.8934936  0.2922769 
363.1      0.2899692  0.9041839  0.2806597 
363.2      0.2842346  0.9195417  0.2897881 
363.3      0.2614768  0.9910224  0.3288893 
363.4      0.2485641  1          0.3664308 
363.5      0.2395989  1          0.3864065 
363.6      0.2403745  1          0.3892367 
363.7      0.2473248  1          0.3717676 
363.8      0.2596758  1          0.3468235 
363.9      0.2685345  0.9971818  0.3309326 
364        0.2738968  0.9808198  0.333434  
364.1      0.2705639  0.9922448  0.3573945 
364.2      0.2863835  0.940318   0.3384799 
364.3      0.316655   0.8550571  0.2866473 
364.4      0.3276137  0.8261913  0.284275  
364.5      0.3422428  0.7961829  0.2842016 
364.6      0.3628412  0.7650679  0.2619339 
364.7      0.367828   0.772688   0.2750137 
364.8      0.3843988  0.7553421  0.2470788 
364.9      0.4006657  0.737045   0.2290134 
365        0.4075731  0.7325239  0.2368327 
365.1      0.4196887  0.7125047  0.2250393 
365.2      0.4103773  0.7296342  0.2387151 
365.3      0.4081476  0.7487479  0.2327008 
365.4      0.4012678  0.7928094  0.238598  
365.5      0.4049782  0.837341   0.2248224 
365.6      0.4052198  0.8769463  0.209811  
365.7      0.4011821  0.9110401  0.2043435 
365.8      0.398098   0.9386405  0.1989795 
365.9      0.3981584  0.9532329  0.193717  
366        0.3892964  0.9737469  0.2059931 
366.1      0.3613344  1          0.2588126 
366.2      0.3260771  1          0.3137916 
366.3      0.2966058  0.9362867  0.3552312 
366.4      0.2575643  0.9368933  0.4225269 
366.5      0.1737399  1          0.6067675 
366.6      0.08858722 1          0.7958505 
366.7      0.02318895 1          1         
366.8      0.01384962 1          1         
366.9      0.007812312 1          1         
367        0.003429566 1          1         
367.1      0.001362744 1          1         
367.2      0          1          1         
367.3      0          1          1         
367.4      0          1          1         
367.5      0          1          1         
367.6      0          1          1         
367.7      0.0004810647 1          1         
367.8      0.00275379 1          1         
367.9      0.00275379 1          1         
368        0.003511365 1          1         
368.1      0.003511365 1          1         
368.2      0.003511365 1          1         
368.3      0.00426894 1          1         
368.4      0.00654168 1          1         
368.5      0.007299255 1          1         
368.6      0.005026515 1          1         
368.7      0.00426894 1          1         
368.8      0.003511365 1          1         
368.9      0.00275379 1          1         
369        0.00275379 1          1         
369.1      0.003511365 1          1         
369.2      0.00654168 1          1         
369.3      0.01032955 1          1         
369.4      0.01108713 1          1         
369.5      0.01032955 1          1         
369.6      0.008814405 1          1         
369.7      0.00426894 1          1         
369.8      0.00123864 1          1         
369.9      0          1          1         
370        0          1          1         
370.1      0          1          1         
370.2      0          1          1         
370.3      0.0000099  1          0.9693764 
370.4      0.000898802 1          0.943302  
370.5      0          1          1         
370.6      0          1          1         
370.7      0          1          1         
370.8      0          1          1         
370.9      0          1          1         
371        0          1          1         
371.1      0          1          1         
371.2      0.0001940386 1          1         
371.3      0.0005375066 1          1         
371.4      0.001794355 1          1         
371.5      0.003484579 1          1         
371.6      0.005010063 1          1         
371.7      0.006361682 1          1         
371.8      0.0071405  1          1         
371.9      0.008668301 1          1         
372        0.00657216 1          1         
372.1      0.005936328 1          1         
372.2      0.005479394 1          1         
372.3      0.00573435 1          1         
372.4      0.0071177  1          1         
372.5      0.0431546  1          0.8633845 
372.6      0.07457684 1          0.7794555 
372.7      0.09840028 1          0.6981553 
372.8      0.1422255  1          0.5904733 
372.9      0.1548622  1          0.5500188 
373        0.1617176  1          0.5231134 
373.1      0.1716539  1          0.4797403 
373.2      0.1723427  1          0.4972081 
373.3      0.1831188  1          0.4864308 
373.4      0.1829006  1          0.4969085 
373.5      0.1899174  1          0.4896574 
373.6      0.1920924  1          0.4755734 
373.7      0.204229   1          0.4584933 
373.8      0.210994   1          0.4484466 
373.9      0.2208108  1          0.4450533 
374        0.2301267  1          0.4416827 
374.1      0.2369473  1          0.4447939 
374.2      0.2342335  1          0.4578198 
374.3      0.2339308  1          0.4643825 
374.4      0.2338545  1          0.4744441 
374.5      0.234879   1          0.4607525 
374.6      0.2211337  1          0.4741626 
374.7      0.2106823  1          0.4878996 
374.8      0.2110508  1          0.4912755 
374.9      0.1883325  1          0.5466175 
375        0.1821807  1          0.5542379 
375.1      0.1624002  1          0.6028515 
375.2      0.1234313  1          0.6782032 
375.3      0.08493869 1          0.7463733 
375.4      0.02903128 1          0.8779116 
375.5      0.01481892 1          0.9260092 
375.6      0.01883526 1          0.8714059 
375.7      0.04037587 1          0.7659728 
375.8      0.04659204 1          0.7349975 
375.9      0.04943857 1          0.7198187 
376        0.06527627 1          0.6764186 
376.1      0.0866131  1          0.6136535 
376.2      0.1084033  1          0.5444258 
376.3      0.11385    1          0.5032967 
376.4      0.0983823  1          0.5288801 
376.5      0.09893078 1          0.5400863 
376.6      0.1194392  1          0.5100769 
376.7      0.1169282  1          0.5135719 
376.8      0.1298664  1          0.5097685 
376.9      0.1474077  1          0.4847055 
377        0.1617605  1          0.4742132 
377.1      0.1723577  0.9895496  0.4639175 
377.2      0.1752562  0.9683948  0.4808052 
377.3      0.1732171  0.9571713  0.5053802 
377.4      0.164783   1          0.5310194 
377.5      0.1607252  1          0.5384287 
377.6      0.1825091  1          0.4871809 
377.7      0.2040315  0.9329934  0.4597644 
377.8      0.2146252  0.8720545  0.4530212 
377.9      0.201945   0.8927846  0.4973136 
378        0.1587837  1          0.5931726 
378.1      0.1546193  1          0.5847557 
378.2      0.1353752  1          0.6138108 
378.3      0.132067   1          0.6009358 
378.4      0.1274049  1          0.6091688 
378.5      0.09181871 1          0.694324  
378.6      0.08099394 1          0.7231627 
378.7      0.0941925  1          0.6986344 
378.8      0.129406   1          0.6386524 
378.9      0.1635534  1          0.5792241 
379        0.1718281  1          0.5790427 
379.1      0.1687615  1          0.6120537 
379.2      0.1555844  1          0.6556808 
379.3      0.1374924  1          0.6972491 
379.4      0.110185   1          0.7512832 
379.5      0.07869896 1          0.8145146 
379.6      0.04485164 1          0.8825191 
379.7      0.05158882 1          0.858897  
379.8      0.02998099 1          0.9364492 
