~Version information
  VERS.                            1.20: CWLS LAS  -  VERSION 1.20
  WRAP.                              NO: One line per depth step
~Well information
# MNEM.UNIT
# ====.================================:===================
  STRT.M                           0.10: First depth in file
  STOP.M                         793.10: Last depth in file
  STEP.M                           0.10: Depth increment
  NULL.                           -9999: Null values
  COMP.                         COMPANY: 
  WELL.                            WELL: 328
  FLD .                           FIELD: Karatobe
  CNTY.                          COUNTY: 
  STAT.                           STATE: 
  DATE.                        LOG DATE: 20-21.03.2007
  SRVC.                 SERVICE COMPANY: 
  UWI.           Unique Well Identifier: 
~Parametr information block
# MNEM.UNIT
# ====.================================:===================
~Other information
# ------------------------- REMARKS  AREA ------------------
~Curve information
# MNEM.UNIT
# ====.================================:===================
  DEPT.M                               : Depth curve
NGL   .C.U.                            : 
GR    .ur/h                            : 
GZ3   .OHMM                            : 
GZ3B  .OHMM                            : 
LL3   .OHMM                            : 
MLL   .OHMM                            : 
SP    .MV                              :
C1    .MM                              : 
C2    .MM                              : 
CALI  .MM                              : 
BS    .MM                              : 
CILR  .MMHO                            : 
RHOB  .G/C3                            : 
DT    .us/m                            : 
~ASCII Log Data
# ...
   612.60       1.63       3.88       1.35       0.84       1.34       1.98      80.55     216.93     225.63     221.28     215.90    1137.50       2.20     383.23
   612.70       1.62       3.90       1.23       0.83       1.34       1.93      79.17     215.83     225.61     220.72     215.90    1151.91       2.20     377.27
   612.80       1.58       3.86       1.10       0.81       1.34       1.93      77.76     217.57     225.48     221.53     215.90    1162.63       2.20     370.06
   612.90       1.56       3.86       0.99       0.80       1.35       1.96      76.54     217.17     227.06     222.12     215.90    1168.54       2.20     362.85
   613.00       1.53       3.80       0.92       0.78       1.35       1.96      75.24     217.24     225.99     221.61     215.90    1170.15       2.19     357.16
   613.10       1.53       3.79       0.86       0.77       1.35       1.94      74.35     218.62     227.13     222.87     215.90    1167.17       2.19     351.46
   613.20       1.56       3.81       0.79       0.76       1.35       1.98      74.15     218.94     227.33     223.13     215.90    1160.17       2.19     350.96
   613.30       1.57       3.87       0.71       0.77       1.36       1.99      74.53     218.99     226.70     222.85     215.90    1141.35       2.21     350.46
   613.40       1.54       3.98       0.65       0.77       1.37       1.99      74.10     219.03     226.00     222.51     215.90    1115.41       2.21     352.64
   613.50       1.58       4.00       0.66       0.78       1.38       2.00      73.63     218.95     225.88     222.41     215.90    1098.54       2.23     354.81
   613.60       1.61       3.88       0.65       0.78       1.39       2.05      73.04     218.83     225.72     222.28     215.90    1087.47       2.24     354.35
   613.70       1.63       4.00       0.61       0.79       1.38       2.07      72.04     217.39     227.44     222.42     215.90    1076.15       2.25     353.90
   613.80       1.62       3.99       0.55       0.81       1.37       2.03      71.75     218.57     227.60     223.09     215.90    1072.19       2.24     349.47
   613.90       1.66       3.98       0.48       0.83       1.39       2.06      72.32     219.20     228.07     223.64     215.90    1068.99       2.24     345.04
   614.00       1.68       3.82       0.43       0.87       1.42       2.13      73.43     218.84     228.37     223.61     215.90    1069.13       2.25     333.77
   614.10       1.68       3.85       0.42       0.93       1.50       1.98      74.81     218.04     227.22     222.63     215.90    1072.95       2.25     322.50
   614.20       1.69       3.96       0.44       1.00       1.61       2.01      76.14     217.80     226.23     222.01     215.90    1076.62       2.27     309.62
   614.30       1.66       4.08       0.49       1.08       1.86       2.66      77.22     217.87     225.51     221.69     215.90    1069.43       2.29     296.73
   614.40       1.67       4.23       0.56       1.15       2.16       6.44      78.05     218.48     226.64     222.56     215.90    1051.41       2.31     285.65
   614.50       1.64       4.40       0.66       1.24       2.47       6.75      78.08     218.84     227.26     223.05     215.90    1017.23       2.35     274.57
   614.60       1.65       4.65       0.75       1.29       2.76       3.01      77.78     218.85     227.30     223.07     215.90     984.09       2.36     273.80
   614.70       1.67       4.70       0.84       1.30       2.91       3.18      77.47     218.28     226.60     222.44     215.90     950.24       2.33     273.02
   614.80       1.68       4.64       0.91       1.28       2.82      46.87      77.49     217.51     225.63     221.57     215.90     922.66       2.28     283.51
   614.90       1.67       4.51       0.94       1.23       2.39      33.98      77.90     217.72     225.76     221.74     215.90     902.82       2.22     293.99
   615.00       1.68       4.26       0.91       1.15       1.92       2.16      78.37     221.53     225.50     223.52     215.90     897.72       2.18     310.38
   615.10       1.62       4.02       0.85       1.07       1.59       1.91      78.62     220.74     225.61     223.17     215.90     908.10       2.18     326.78
   615.20       1.65       3.98       0.78       0.98       1.51       1.89      78.51     220.31     228.14     224.22     215.90     932.50       2.18     342.82
   615.30       1.68       3.92       0.69       0.90       1.47       1.86      78.29     223.46     230.49     226.97     215.90     982.28       2.19     358.86
   615.40       1.67       3.85       0.56       0.85       1.47       1.99      78.34     225.03     230.49     227.76     215.90    1031.27       2.19     370.68
   615.50       1.65       3.89       0.46       0.82       1.45       2.01      78.58     221.63     231.07     226.35     215.90    1069.24       2.18     382.50
   615.60       1.65       3.98       0.38       0.80       1.44       1.89      78.92     219.19     228.95     224.07     215.90    1095.63       2.21     389.76
   615.70       1.69       3.90       0.33       0.79       1.42       1.82      79.50     217.10     227.03     222.07     215.90    1109.75       2.22     397.02
   615.80       1.71       3.78       0.29       0.79       1.40       1.74      80.00     214.73     226.23     220.48     215.90    1114.87       2.23     400.53
   615.90       1.70       3.77       0.27       0.78       1.38       1.79      81.42     212.94     228.72     220.83     215.90    1114.17       2.23     404.03
   616.00       1.68       3.75       0.25       0.79       1.36       1.75      83.63     214.76     226.15     220.46     215.90    1112.09       2.23     404.30
   616.10       1.69       3.73       0.25       0.79       1.35       1.82      85.37     216.43     224.58     220.50     215.90    1110.18       2.22     404.58
   616.20       1.67       3.71       0.29       0.79       1.36       1.87      85.84     217.43     224.72     221.08     215.90    1108.34       2.21     402.10
   616.30       1.64       3.69       0.33       0.80       1.38       1.96      86.10     216.86     225.29     221.08     215.90    1111.09       2.21     399.63
   616.40       1.63       3.68       0.38       0.80       1.40       2.03      86.12     216.80     224.28     220.54     215.90    1116.98       2.20     396.00
   616.50       1.62       3.66       0.39       0.81       1.42       1.93      85.77     217.11     224.77     220.94     215.90    1124.90       2.19     392.37
   616.60       1.59       3.63       0.37       0.82       1.43       1.94      85.18     217.56     225.43     221.49     215.90    1124.29       2.19     390.21
   616.70       1.57       3.74       0.36       0.82       1.41       1.96      84.35     218.21     225.37     221.79     215.90    1120.76       2.19     388.05
   616.80       1.61       3.74       0.36       0.81       1.39       1.91      83.19     218.76     225.44     222.10     215.90    1121.44       2.17     389.03
   616.90       1.61       3.66       0.42       0.80       1.36       1.91      82.03     218.71     225.47     222.09     215.90    1123.33       2.17     390.02
   617.00       1.59       3.73       0.47       0.80       1.36       1.91      80.42     218.71     225.36     222.04     215.90    1123.10       2.15     393.50
   617.10       1.59       3.72       0.49       0.79       1.36       1.98      78.45     218.86     225.53     222.19     215.90    1126.92       2.16     396.99
   617.20       1.65       3.69       0.47       0.79       1.36       1.98      76.07     218.27     225.53     221.90     215.90    1135.19       2.14     399.92
   617.30       1.72       3.79       0.44       0.79       1.37       1.93      73.48     217.79     225.44     221.62     215.90    1148.84       2.12     402.85
   617.40       1.69       3.75       0.45       0.78       1.39       1.92      71.55     217.87     225.35     221.61     215.90    1157.19       2.14     403.43
