~Version information
  VERS.                            1.20: CWLS LAS  -  VERSION 1.20
  WRAP.                              NO: One line per depth step
~Well information
# MNEM.UNIT
# ====.================================:===================
  STRT.M                           0.10: First depth in file
  STOP.M                         793.10: Last depth in file
  STEP.M                           0.10: Depth increment
  NULL.                           -9999: Null values
  COMP.                         COMPANY: 
  WELL.                            WELL: 328
  FLD .                           FIELD: Karatobe
  CNTY.                          COUNTY: 
  STAT.                           STATE: 
  DATE.                        LOG DATE: 20-21.03.2007
  SRVC.                 SERVICE COMPANY: 
  UWI.           Unique Well Identifier: 
~Parametr information block
# MNEM.UNIT
# ====.================================:===================
~Other information
# ------------------------- REMARKS  AREA ------------------
~Curve information
# MNEM.UNIT
# ====.================================:===================
  DEPT.M                               : Depth curve
NGL   .C.U.                            : 
GR    .ur/h                            : 
GZ3   .OHMM                            : 
GZ3B  .OHMM                            : 
LL3   .OHMM                            : 
MLL   .OHMM                            : 
SP    .MV                              :
C1    .MM                              : 
C2    .MM                              : 
CALI  .MM                              : 
BS    .MM                              : 
CILR  .MMHO                            : 
RHOB  .G/C3                            : 
DT    .us/m                            : 
~ASCII Log Data
# ...
   789.00       7.63       1.85      -9999      -9999   18194.70     689.79      -9999     250.52     253.43     251.98     215.90     157.64       2.08     239.72
   789.10       7.64       1.85      -9999      -9999   16522.21     685.09      -9999     248.61     252.37     250.49     215.90     159.06       2.11     240.37
   789.20       7.60       1.93      -9999      -9999   15802.87     665.35      -9999     247.71     252.09     249.90     215.90     158.19       2.11     240.68
   789.30       7.55       1.97      -9999      -9999   18243.20     692.33      -9999     247.85     251.54     249.70     215.90     157.12       2.11     240.99
   789.40       7.56       1.97      -9999      -9999   19450.95     689.05      -9999     248.20     251.73     249.97     215.90     156.69       2.09     240.91
   789.50       7.54       1.96      -9999      -9999   17564.76     619.25      -9999     247.99     253.25     250.62     215.90     157.01       2.10     240.83
   789.60       7.42       1.90      -9999      -9999   15826.80     256.63      -9999     246.60     252.40     249.50     215.90     156.40       2.11     240.30
   789.70       7.25       1.88      -9999      -9999   15171.07     108.65      -9999     245.68     251.40     248.54     215.90     156.24       2.10     239.77
   789.80       7.12       1.96      -9999      -9999   16248.75     223.64      -9999     244.65     251.42     248.03     215.90     156.41       2.10     238.73
   789.90       7.06       2.00      -9999      -9999   18455.64      14.39      -9999     244.88     251.56     248.22     215.90     155.36       2.10     237.68
   790.00       7.13       1.95      -9999      -9999   17058.80       8.15      -9999     246.77     250.96     248.86     215.90     155.60       2.10     236.34
   790.10       7.31       1.92      -9999      -9999   13941.37       8.34      -9999     247.14     252.71     249.92     215.90     156.71       2.08     234.99
   790.20       7.46       1.87      -9999      -9999   14827.81      31.31      -9999     250.80     252.45     251.63     215.90     155.68       2.06     234.07
   790.30       7.52       1.87      -9999      -9999   17411.89      93.23      -9999     254.28     258.69     256.49     215.90     152.99       2.03     233.15
   790.40       7.71       1.96      -9999      -9999   19266.17     187.15      -9999     261.22     268.10     264.66     215.90     152.74      -9999     233.17
   790.50       7.79       1.99      -9999      -9999   17647.87     389.61      -9999     265.58     271.19     268.39     215.90     153.03      -9999     233.18
   790.60       7.87       1.94      -9999      -9999   14151.12     706.54      -9999     263.14     265.09     264.11     215.90     153.06      -9999     234.09
   790.70       7.95       1.91      -9999      -9999   17599.36     758.48      -9999     255.73     256.34     256.03     215.90     154.12      -9999     235.00
   790.80       7.97       1.88      -9999      -9999   18824.88     710.89      -9999     247.76     252.17     249.97     215.90     153.70      -9999     235.95
   790.90       7.95       1.81      -9999      -9999   19025.98     394.82      -9999     243.76     249.07     246.42     215.90     153.95      -9999     236.90
   791.00       7.90       1.80      -9999      -9999   17983.69      95.71      -9999     238.78     244.84     241.81     215.90     154.90      -9999     237.07
   791.10       7.88       1.64      -9999      -9999   18752.88      42.65      -9999     237.40     243.47     240.44     215.90     154.82      -9999     237.24
   791.20       7.94       1.62      -9999      -9999   20375.99      -9999      -9999     237.26     242.32     239.79     215.90     154.51      -9999     236.32
   791.30       8.02       1.68      -9999      -9999   21431.89      -9999      -9999     238.49     242.13     240.31     215.90     154.89      -9999     235.41
   791.40       8.09       1.83      -9999      -9999   21060.11      -9999      -9999     238.51     242.70     240.60     215.90     154.92      -9999     233.51
   791.50       8.15       1.85      -9999      -9999   20020.61      -9999      -9999     237.59     242.42     240.00     215.90     154.40      -9999     231.62
   791.60       8.23      -9999      -9999      -9999      -9999      -9999      -9999     237.74     240.36     239.05     215.90     154.95      -9999     229.07
   791.70       8.37      -9999      -9999      -9999      -9999      -9999      -9999     237.15     238.39     237.77     215.90      -9999      -9999     226.51
   791.80       8.44      -9999      -9999      -9999      -9999      -9999      -9999     236.08     238.86     237.47     215.90      -9999      -9999     223.55
   791.90       8.42      -9999      -9999      -9999      -9999      -9999      -9999     236.43     239.64     238.03     215.90      -9999      -9999     220.60
   792.00       8.42      -9999      -9999      -9999      -9999      -9999      -9999     236.60     237.91     237.26     215.90      -9999      -9999      -9999
   792.10       8.43      -9999      -9999      -9999      -9999      -9999      -9999     234.77     235.58     235.18     215.90      -9999      -9999      -9999
   792.20       8.43      -9999      -9999      -9999      -9999      -9999      -9999     233.11     232.80     232.96     215.90      -9999      -9999      -9999
   792.30       8.52      -9999      -9999      -9999      -9999      -9999      -9999     233.32     221.39     227.36     215.90      -9999      -9999      -9999
   792.40       8.64      -9999      -9999      -9999      -9999      -9999      -9999     229.40     211.49     220.44     215.90      -9999      -9999      -9999
   792.50       8.73      -9999      -9999      -9999      -9999      -9999      -9999     225.05     200.60     212.83     215.90      -9999      -9999      -9999
   792.60       8.63      -9999      -9999      -9999      -9999      -9999      -9999     214.84     185.85     200.35     215.90      -9999      -9999      -9999
   792.70       8.61      -9999      -9999      -9999      -9999      -9999      -9999     191.84     176.25     184.05     215.90      -9999      -9999      -9999
   792.80       8.67      -9999      -9999      -9999      -9999      -9999      -9999     159.54     176.95     168.25     215.90      -9999      -9999      -9999
   792.90       8.68      -9999      -9999      -9999      -9999      -9999      -9999     151.82     178.36     165.09     215.90      -9999      -9999      -9999
   793.00       8.69      -9999      -9999      -9999      -9999      -9999      -9999     146.50     177.34     161.92     215.90      -9999      -9999      -9999
   793.10       8.66      -9999      -9999      -9999      -9999      -9999      -9999      -9999      -9999      -9999      -9999      -9999      -9999      -9999
