~Version information
  VERS.                            1.20: CWLS LAS  -  VERSION 1.20
  WRAP.                              NO: One line per depth step
~Well information
# MNEM.UNIT
# ====.================================:===================
  STRT.M                           0.10: First depth in file
  STOP.M                         793.10: Last depth in file
  STEP.M                           0.10: Depth increment
  NULL.                           -9999: Null values
  COMP.                         COMPANY: 
  WELL.                            WELL: 328
  FLD .                           FIELD: Karatobe
  CNTY.                          COUNTY: 
  STAT.                           STATE: 
  DATE.                        LOG DATE: 20-21.03.2007
  SRVC.                 SERVICE COMPANY: 
  UWI.           Unique Well Identifier: 
~Parametr information block
# MNEM.UNIT
# ====.================================:===================
~Other information
# ------------------------- REMARKS  AREA ------------------
~Curve information
# MNEM.UNIT
# ====.================================:===================
  DEPT.M                               : Depth curve
NGL   .C.U.                            : 
GR    .ur/h                            : 
GZ3   .OHMM                            : 
GZ3B  .OHMM                            : 
LL3   .OHMM                            : 
MLL   .OHMM                            : 
SP    .MV                              :
C1    .MM                              : 
C2    .MM                              : 
CALI  .MM                              : 
BS    .MM                              : 
CILR  .MMHO                            : 
RHOB  .G/C3                            : 
DT    .us/m                            : 
~ASCII Log Data
# ...
   264.70       1.37       4.29       6.19       6.55       6.19       3.00      84.10     238.23     242.54     240.39     215.90     275.61       2.10     478.95
   264.80       1.38       4.10       6.13       6.54       6.23       2.98      85.72     236.94     239.26     238.10     215.90     273.11       2.10     473.92
   264.90       1.39       4.09       6.10       6.57       6.28       3.06      86.78     235.14     238.98     237.06     215.90     275.26       2.10     468.89
   265.00       1.39       4.22       6.12       6.61       6.26       3.05      87.14     235.74     242.42     239.08     215.90     276.51       2.09     460.57
   265.10       1.37       4.11       6.19       6.67       6.21       3.20      87.74     235.84     245.35     240.59     215.90     274.51       2.09     452.24
   265.20       1.39       4.08       6.25       6.62       6.16       3.60      88.62     233.60     266.05     249.83     215.90     275.31       2.11     441.66
   265.30       1.40       4.21       6.28       6.51       6.08       3.78      90.08     234.30     267.60     250.95     215.90     276.58       2.12     431.08
   265.40       1.37       4.24       6.25       6.30       5.96       3.64      91.06     234.43     255.56     245.00     215.90     277.44       2.12     420.07
   265.50       1.40       4.15       6.21       6.14       5.84       3.21      92.27     233.38     245.42     239.40     215.90     276.88       2.12     409.06
   265.60       1.41       4.07       6.16       6.06       5.74       3.09      93.66     234.48     245.60     240.04     215.90     274.37       2.13     398.32
   265.70       1.40       3.89       6.12       6.07       5.72       2.87      96.06     233.89     237.41     235.65     215.90     273.77       2.12     387.58
   265.80       1.36       3.74       6.15       6.15       5.85       2.89      98.11     233.33     241.01     237.17     215.90     277.33       2.11     379.04
   265.90       1.31       3.83       6.19       6.23       6.04       3.07      98.34     235.88     251.79     243.83     215.90     274.68       2.11     370.50
   266.00       1.36       3.99       6.23       6.30       6.11       3.07      98.23     237.49     247.48     242.48     215.90     275.15       2.11     364.69
   266.10       1.34       4.01       6.26       6.35       6.06       3.39      98.08     232.36     236.35     234.36     215.90     275.02       2.12     358.88
   266.20       1.30       4.06       6.29       6.39       6.00       3.40      97.90     230.71     236.85     233.78     215.90     276.82       2.11     355.24
   266.30       1.30       4.20       6.31       6.44       5.95       3.20      97.86     231.68     234.44     233.06     215.90     275.57       2.08     351.61
   266.40       1.30       4.27       6.32       6.47       5.94       3.09      98.37     233.54     234.66     234.10     215.90     275.36       2.05     348.49
   266.50       1.31       4.21       6.30       6.47       5.93       3.14      99.01     233.82     238.43     236.13     215.90     273.71       2.05     345.38
   266.60       1.33       4.11       6.28       6.47       5.97       2.68      99.78     233.60     242.27     237.94     215.90     274.93       2.04     343.38
   266.70       1.29       4.09       6.19       6.45       6.04       2.68     100.56     232.47     245.19     238.83     215.90     273.90       2.04     341.37
   266.80       1.34       3.86       6.08       6.41       6.17       2.73     101.14     231.31     238.63     234.97     215.90     273.87       2.03     343.08
   266.90       1.37       4.03       5.96       6.36       6.25       2.66     100.92     230.62     229.55     230.08     215.90     273.13       2.04     344.78
   267.00       1.40       3.85       5.88       6.35       6.23       2.54     101.27     233.32     229.03     231.18     215.90     274.81       2.02     351.88
   267.10       1.39       3.80       5.93       6.45       6.32       2.53     101.80     235.19     230.11     232.65     215.90     273.16       2.01     358.97
   267.20       1.41       3.66       6.14       6.73       6.49       3.09     101.38     229.90     236.42     233.16     215.90     272.63       2.02     369.88
   267.30       1.44       3.52       6.48       7.09       6.36       3.24     100.50     230.45     256.10     243.28     215.90     277.68       2.01     380.79
   267.40       1.46       3.56       6.83       7.49       5.86       3.28      99.57     233.46     268.62     251.04     215.90     278.12       2.02     391.77
   267.50       1.46       3.47       7.21       7.53       5.16       2.72      98.69     228.17     284.09     256.13     215.90     276.04       2.01     402.75
   267.60       1.47       3.45       7.40       7.36       5.02       2.94      97.91     220.78     287.18     253.98     215.90     275.87       2.02     410.26
   267.70       1.45       3.46       7.18       6.99       5.13       2.64      96.91     226.48     270.05     248.27     215.90     274.62       2.02     417.77
   267.80       1.43       3.40       6.68       6.56       5.41       2.56      95.05     231.56     252.44     242.00     215.90     276.99       1.99     423.12
   267.90       1.43       3.44       6.21       6.21       5.61       2.43      93.06     233.95     239.93     236.94     215.90     277.56       1.96     428.46
   268.00       1.42       3.40       5.91       6.00       5.74       2.83      91.90     231.87     234.77     233.32     215.90     283.29       1.94     434.46
   268.10       1.43       3.42       5.78       5.88       5.78       2.97      90.73     228.66     248.15     238.41     215.90     285.93       1.91     440.45
   268.20       1.41       3.57       5.72       5.78       5.65       2.69      89.40     229.72     252.08     240.90     215.90     280.58       1.90     451.25
   268.30       1.35       3.75       5.68       5.69       5.55       2.49      88.28     229.39     257.45     243.42     215.90     277.12       1.90     462.05
   268.40       1.31       3.92       5.64       5.61       5.55       2.36      87.33     232.81     290.48     261.64     215.90     278.59       1.91     474.95
   268.50       1.34       4.04       5.59       5.55       5.52       2.39      87.67     237.97     320.35     279.16     215.90     275.94       1.91     487.85
   268.60       1.38       3.91       5.54       5.49       5.47       2.54      87.80     232.25     301.55     266.90     215.90     278.76       1.91     500.10
   268.70       1.41       3.90       5.51       5.47       5.41       3.15      86.78     230.86     280.03     255.44     215.90     277.61       1.91     512.34
   268.80       1.41       3.86       5.51       5.50       5.35       3.19      85.39     230.22     304.57     267.40     215.90     278.08       1.93     519.50
   268.90       1.37       3.73       5.50       5.55       5.15       2.91      84.18     232.91     303.29     268.10     215.90     279.20       1.94     526.66
   269.00       1.37       3.68       5.48       5.59       4.89       2.69      83.18     235.69     307.92     271.80     215.90     280.37       1.98     528.81
   269.10       1.38       3.59       5.45       5.69       4.80       2.79      83.16     234.77     321.80     278.28     215.90     282.50       2.01     530.95
   269.20       1.43       3.63       5.47       5.89       4.89       2.77      83.43     234.40     320.07     277.23     215.90     285.52       2.05     528.04
   269.30       1.46       3.79       5.56       6.27       5.68       3.14      84.15     234.84     298.96     266.90     215.90     286.73       2.12     525.14
   269.40       1.46       3.90       5.77       6.83       7.34       4.78      84.86     233.14     281.44     257.29     215.90     289.87       2.19     519.56
   269.50       1.50       4.00       6.12       7.35      11.15     362.55      85.57     233.73     280.09     256.91     215.90     294.05       2.26     513.99
