~Version information
  VERS.                            1.20: CWLS LAS  -  VERSION 1.20
  WRAP.                              NO: One line per depth step
~Well information
# MNEM.UNIT
# ====.================================:===================
  STRT.M                           0.10: First depth in file
  STOP.M                         793.10: Last depth in file
  STEP.M                           0.10: Depth increment
  NULL.                           -9999: Null values
  COMP.                         COMPANY: 
  WELL.                            WELL: 328
  FLD .                           FIELD: Karatobe
  CNTY.                          COUNTY: 
  STAT.                           STATE: 
  DATE.                        LOG DATE: 20-21.03.2007
  SRVC.                 SERVICE COMPANY: 
  UWI.           Unique Well Identifier: 
~Parametr information block
# MNEM.UNIT
# ====.================================:===================
~Other information
# ------------------------- REMARKS  AREA ------------------
~Curve information
# MNEM.UNIT
# ====.================================:===================
  DEPT.M                               : Depth curve
NGL   .C.U.                            : 
GR    .ur/h                            : 
GZ3   .OHMM                            : 
GZ3B  .OHMM                            : 
LL3   .OHMM                            : 
MLL   .OHMM                            : 
SP    .MV                              :
C1    .MM                              : 
C2    .MM                              : 
CALI  .MM                              : 
BS    .MM                              : 
CILR  .MMHO                            : 
RHOB  .G/C3                            : 
DT    .us/m                            : 
~ASCII Log Data
# ...
   441.10       1.34       5.53       4.45       4.36       5.18       5.85      61.78     243.71     228.52     236.12     215.90     362.58       2.25     465.51
   441.20       1.39       5.42       4.33       4.29       4.75       6.25      62.54     233.68     227.58     230.63     215.90     360.68       2.24     463.78
   441.30       1.37       5.25       4.23       4.22       4.40       3.48      63.25     233.64     229.06     231.35     215.90     361.10       2.25     462.05
   441.40       1.31       5.26       4.11       4.18       4.24       3.84      63.66     239.51     231.04     235.27     215.90     360.26       2.25     462.24
   441.50       1.34       5.31       3.95       4.14       4.13       4.02      64.04     234.71     229.91     232.31     215.90     359.61       2.24     462.43
   441.60       1.35       5.46       3.79       4.14       4.01       3.52      64.38     226.06     228.88     227.47     215.90     366.96       2.25     461.20
   441.70       1.33       5.64       3.65       4.20       3.97       3.83      64.66     231.47     229.45     230.46     215.90     377.01       2.26     459.97
   441.80       1.34       5.67       3.57       4.32       4.07       3.65      65.11     229.99     224.94     227.46     215.90     382.22       2.27     455.69
   441.90       1.34       5.66       3.57       4.55       4.47       3.77      65.65     226.46     227.19     226.82     215.90     386.42       2.28     451.40
   442.00       1.36       5.42       3.64       4.83       5.41       4.41      66.13     236.97     229.85     233.41     215.90     392.18       2.28     446.16
   442.10       1.36       5.16       3.78       5.09       6.17       8.63      66.58     232.33     233.41     232.87     215.90     388.73       2.28     440.91
   442.20       1.33       4.98       4.00       5.34       6.30      14.63      67.28     235.33     239.26     237.29     215.90     374.99       2.26     436.46
   442.30       1.38       5.00       4.25       5.51       5.90       3.01      68.54     234.21     231.91     233.06     215.90     371.46       2.24     432.00
   442.40       1.37       4.92       4.51       5.52       5.28       4.22      69.88     233.09     232.14     232.62     215.90     370.12       2.22     430.33
   442.50       1.32       4.98       4.73       5.40       4.72       3.88      70.93     238.06     234.51     236.29     215.90     369.52       2.20     428.67
   442.60       1.29       5.05       4.91       5.23       4.42       3.61      71.53     237.76     242.05     239.91     215.90     375.20       2.16     428.72
   442.70       1.30       5.18       5.03       5.07       4.28       3.56      72.27     237.35     243.89     240.62     215.90     382.08       2.16     428.77
   442.80       1.29       5.38       5.05       4.97       4.14       4.14      72.70     238.59     235.98     237.29     215.90     383.18       2.14     429.35
   442.90       1.26       5.55       4.95       4.92       4.07       3.83      73.00     232.96     230.07     231.52     215.90     382.29       2.13     429.92
   443.00       1.26       5.76       4.81       4.91       4.07       3.31      73.33     234.51     224.73     229.62     215.90     385.98       2.11     429.81
   443.10       1.28       5.83       4.62       4.85       4.15       3.21      73.78     227.78     226.41     227.10     215.90     388.29       2.09     429.70
   443.20       1.30       5.72       4.39       4.69       4.18       3.22      73.86     229.58     226.93     228.25     215.90     388.20       2.07     429.76
   443.30       1.33       5.61       4.14       4.49       4.17       2.64      73.31     229.01     229.47     229.24     215.90     385.37       2.03     429.83
   443.40       1.34       5.52       3.91       4.29       4.17       2.81      72.68     226.78     228.49     227.64     215.90     388.97       2.03     433.39
   443.50       1.32       5.47       3.75       4.12       4.19       2.65      72.06     222.97     229.28     226.12     215.90     386.08       2.03     436.95
   443.60       1.29       5.42       3.66       4.02       4.18       2.44      70.97     223.89     234.24     229.06     215.90     384.73       2.02     446.16
   443.70       1.30       5.50       3.64       3.98       4.21       2.61      69.51     234.02     234.53     234.28     215.90     388.93       1.99     455.36
   443.80       1.29       5.69       3.64       3.94       4.31       2.99      67.94     255.54     236.04     245.79     215.90     390.02       1.95     468.38
   443.90       1.27       5.74       3.58       3.86       4.29       2.95      66.43     271.04     246.59     258.82     215.90     385.89       1.93     481.40
   444.00       1.33       5.72       3.45       3.69       4.19       2.75      64.72     255.00     253.62     254.31     215.90     374.04       1.93     491.96
   444.10       1.38       5.57       3.29       3.47       4.04       3.31      62.70     234.55     262.88     248.72     215.90     365.75       1.92     502.52
   444.20       1.38       5.42       2.98       3.20       3.98       3.41      60.67     246.96     271.97     259.46     215.90     366.48       1.90     505.46
   444.30       1.38       5.36       2.78       3.07       4.06       3.13      58.93     248.43     270.64     259.54     215.90     372.64       1.86     508.40
   444.40       1.41       5.35       2.77       3.13       4.43       3.08      57.20     234.63     268.70     251.66     215.90     392.15       1.86     503.81
   444.50       1.42       5.31       2.95       3.20       4.86       3.01      55.96     233.12     303.89     268.51     215.90     426.05       1.92     499.22
   444.60       1.41       5.24       3.29       3.39       4.97       3.79      55.06     255.57     341.76     298.67     215.90     439.25       1.99     491.68
   444.70       1.34       5.40       3.73       3.67       5.01       3.59      54.42     291.32     358.66     324.99     215.90     434.90       2.06     484.14
   444.80       1.30       5.46       4.10       3.86       4.94       3.17      53.99     346.12     370.22     358.17     215.90     425.18       2.10     477.40
   444.90       1.27       5.71       4.27       3.93       4.83       3.38      54.46     375.05     364.77     369.91     215.90     399.88       2.12     470.65
   445.00       1.28       5.52       4.32       3.85       4.74       3.02      56.18     365.18     333.80     349.49     215.90     388.48       2.10     466.39
   445.10       1.33       5.53       4.30       3.78       4.75       3.22      58.46     295.08     276.91     286.00     215.90     386.36       2.08     462.13
   445.20       1.36       5.51       4.39       3.80       4.78       3.23      59.28     266.16     250.42     258.29     215.90     388.63       2.07     460.56
   445.30       1.38       5.49       4.58       3.89       4.57       3.36      59.77     283.13     260.34     271.73     215.90     392.04       2.04     458.99
   445.40       1.39       5.62       4.80       3.98       4.23       3.17      60.18     272.78     252.09     262.44     215.90     397.34       2.11     461.03
   445.50       1.37       5.74       4.92       4.06       4.02       2.96      60.74     275.19     245.65     260.42     215.90     403.51       2.16     463.07
   445.60       1.33       5.74       4.88       4.10       3.98       3.00      61.36     300.31     264.65     282.48     215.90     404.03       2.19     468.16
   445.70       1.29       5.84       4.84       4.06       3.97       3.13      62.00     246.45     267.06     256.76     215.90     407.23       2.19     473.26
   445.80       1.25       5.95       4.78       3.98       3.97       2.94      62.46     263.77     256.10     259.93     215.90     407.45       2.18     478.38
   445.90       1.25       5.89       4.56       3.92       3.96       2.81      62.80     239.04     222.00     230.52     215.90     401.84       2.17     483.51
