~Version information
  VERS.                            1.20: CWLS LAS  -  VERSION 1.20
  WRAP.                              NO: One line per depth step
~Well information
# MNEM.UNIT
# ====.================================:===================
  STRT.M                           0.10: First depth in file
  STOP.M                         793.10: Last depth in file
  STEP.M                           0.10: Depth increment
  NULL.                           -9999: Null values
  COMP.                         COMPANY: 
  WELL.                            WELL: 328
  FLD .                           FIELD: Karatobe
  CNTY.                          COUNTY: 
  STAT.                           STATE: 
  DATE.                        LOG DATE: 20-21.03.2007
  SRVC.                 SERVICE COMPANY: 
  UWI.           Unique Well Identifier: 
~Parametr information block
# MNEM.UNIT
# ====.================================:===================
~Other information
# ------------------------- REMARKS  AREA ------------------
~Curve information
# MNEM.UNIT
# ====.================================:===================
  DEPT.M                               : Depth curve
NGL   .C.U.                            : 
GR    .ur/h                            : 
GZ3   .OHMM                            : 
GZ3B  .OHMM                            : 
LL3   .OHMM                            : 
MLL   .OHMM                            : 
SP    .MV                              :
C1    .MM                              : 
C2    .MM                              : 
CALI  .MM                              : 
BS    .MM                              : 
CILR  .MMHO                            : 
RHOB  .G/C3                            : 
DT    .us/m                            : 
~ASCII Log Data
# ...
   568.50       1.43       6.12       3.91       4.11       4.81       3.18      78.85     222.89     225.37     224.13     215.90     387.21       2.26     386.19
   568.60       1.44       6.13       3.91       4.03       4.85       3.03      77.18     222.85     224.20     223.53     215.90     395.40       2.25     385.54
   568.70       1.41       6.24       3.91       3.96       4.91       3.09      75.50     222.74     223.47     223.10     215.90     398.10       2.26     384.89
   568.80       1.45       6.20       3.91       3.87       4.95       3.20      73.71     222.39     223.84     223.11     215.90     397.51       2.27     385.01
   568.90       1.46       6.19       3.92       3.78       4.96       3.17      71.99     221.75     224.58     223.17     215.90     406.01       2.26     385.12
   569.00       1.46       6.27       3.93       3.70       4.94       3.31      70.25     221.63     224.90     223.26     215.90     395.68       2.25     385.23
   569.10       1.49       6.37       3.97       3.63       4.88       3.13      68.70     223.22     223.81     223.52     215.90     396.91       2.23     385.34
   569.20       1.50       6.57       4.03       3.57       4.84       3.14      67.68     223.26     224.07     223.66     215.90     410.21       2.22     385.37
   569.30       1.48       6.48       4.10       3.51       4.86       3.24      67.25     223.32     224.27     223.80     215.90     402.63       2.23     385.39
   569.40       1.47       6.48       4.17       3.46       4.90       3.36      68.27     223.67     223.95     223.81     215.90     405.31       2.23     385.96
   569.50       1.49       6.31       4.25       3.41       4.83       3.13      69.18     223.56     224.46     224.01     215.90     408.74       2.23     386.53
   569.60       1.48       6.10       4.34       3.37       4.60       3.09      69.49     223.34     225.17     224.26     215.90     409.78       2.25     387.95
   569.70       1.49       6.10       4.40       3.33       4.37       2.99      69.50     223.30     223.69     223.50     215.90     411.65       2.26     389.38
   569.80       1.49       6.19       4.45       3.29       4.15       3.06      70.45     224.53     225.13     224.83     215.90     411.96       2.23     392.06
   569.90       1.44       6.21       4.49       3.28       4.01       2.90      71.22     223.19     225.28     224.23     215.90     424.97       2.23     394.75
   570.00       1.40       6.39       4.47       3.27       3.90       2.81      71.98     221.56     225.29     223.42     215.90     433.82       2.25     398.42
   570.10       1.38       6.61       4.44       3.28       3.83       2.82      73.14     223.11     225.53     224.32     215.90     433.59       2.27     402.09
   570.20       1.38       6.61       4.40       3.29       3.78       3.05      74.22     224.16     225.04     224.60     215.90     445.53       2.27     406.29
   570.30       1.36       6.68       4.37       3.30       3.75       3.14      75.23     223.87     224.37     224.12     215.90     460.22       2.26     410.49
   570.40       1.34       6.67       4.33       3.31       3.72       3.06      76.11     223.26     223.68     223.47     215.90     461.41       2.28     413.41
   570.50       1.36       6.72       4.29       3.32       3.71       3.07      76.76     223.01     223.60     223.31     215.90     468.22       2.31     416.33
   570.60       1.40       6.62       4.25       3.32       3.73       3.18      77.14     222.92     223.79     223.35     215.90     470.04       2.30     416.82
   570.70       1.42       6.64       4.20       3.32       3.77       3.10      77.49     224.60     223.80     224.20     215.90     472.86       2.30     417.30
   570.80       1.41       6.57       4.15       3.30       3.81       2.97      77.50     228.14     225.45     226.80     215.90     475.27       2.30     414.43
   570.90       1.41       6.49       4.10       3.26       3.81       3.25      77.19     229.86     226.59     228.22     215.90     470.32       2.29     411.56
   571.00       1.44       6.44       4.03       3.20       3.67       2.82      76.68     228.61     226.07     227.34     215.90     472.73       2.27     406.84
   571.10       1.37       6.28       3.94       3.12       3.50       2.57      78.49     226.95     225.55     226.25     215.90     478.06       2.23     402.12
   571.20       1.39       6.08       3.82       3.05       3.38       2.57      79.53     225.65     224.99     225.32     215.90     478.44       2.22     397.07
   571.30       1.42       5.91       3.68       2.99       3.34       2.39      80.07     224.90     224.36     224.63     215.90     481.61       2.20     392.02
   571.40       1.44       5.97       3.54       2.95       3.33       2.55      80.52     224.26     224.15     224.20     215.90     487.66       2.18     388.38
   571.50       1.45       6.03       3.41       2.95       3.39       2.64      80.77     224.05     225.57     224.81     215.90     497.63       2.17     384.73
   571.60       1.43       5.86       3.30       2.97       3.38       2.44      81.48     223.38     226.12     224.75     215.90     506.81       2.18     382.62
   571.70       1.43       5.92       3.20       3.00       3.35       2.36      82.29     222.03     225.03     223.53     215.90     505.19       2.18     380.51
   571.80       1.47       6.04       3.12       3.03       3.33       2.32      83.15     222.15     225.40     223.78     215.90     497.18       2.18     379.69
   571.90       1.48       5.90       3.04       3.06       3.32       2.35      84.27     221.41     225.47     223.44     215.90     488.98       2.18     378.88
   572.00       1.49       5.81       2.96       3.09       3.33       2.43      85.73     220.78     225.52     223.15     215.90     493.68       2.18     379.22
   572.10       1.51       5.83       2.89       3.15       3.40       2.79      86.80     221.04     225.50     223.27     215.90     494.71       2.21     379.55
   572.20       1.54       5.83       2.87       3.23       3.59       3.31      87.58     221.17     225.11     223.14     215.90     500.90       2.23     381.11
   572.30       1.49       5.84       2.87       3.32       3.82       3.97      88.11     220.88     223.47     222.17     215.90     489.17       2.23     382.66
   572.40       1.46       5.87       2.89       3.38       3.95       3.46      88.14     221.52     223.49     222.50     215.90     489.94       2.24     385.35
   572.50       1.44       5.94       2.92       3.41       3.94       3.09      87.22     221.98     223.52     222.75     215.90     491.24       2.21     388.03
   572.60       1.44       6.31       2.94       3.40       3.82       2.74      86.26     220.92     223.72     222.32     215.90     484.82       2.21     390.95
   572.70       1.46       6.50       2.95       3.38       3.79       2.65      84.79     220.69     224.62     222.66     215.90     477.59       2.18     393.87
   572.80       1.46       6.40       2.96       3.36       3.83       3.10      83.26     221.83     225.54     223.69     215.90     476.96       2.16     396.20
   572.90       1.42       6.26       2.97       3.34       3.98       3.08      81.76     223.11     226.46     224.78     215.90     480.17       2.16     398.52
   573.00       1.40       6.06       2.99       3.33       4.16       3.63      80.22     223.25     226.07     224.66     215.90     476.81       2.14     399.32
   573.10       1.33       6.04       3.03       3.27       4.30       4.58      78.30     223.09     225.35     224.22     215.90     469.84       2.11     400.12
   573.20       1.32       6.10       3.05       3.19       4.11       3.23      76.33     222.82     224.98     223.90     215.90     479.93       2.10     399.72
   573.30       1.32       6.25       3.03       3.11       3.83       2.75      74.52     222.09     224.98     223.54     215.90     460.47       2.12     399.33
