~Version information
  VERS.                            1.20: CWLS LAS  -  VERSION 1.20
  WRAP.                              NO: One line per depth step
~Well information
# MNEM.UNIT
# ====.================================:===================
  STRT.M                           0.10: First depth in file
  STOP.M                         793.10: Last depth in file
  STEP.M                           0.10: Depth increment
  NULL.                           -9999: Null values
  COMP.                         COMPANY: 
  WELL.                            WELL: 328
  FLD .                           FIELD: Karatobe
  CNTY.                          COUNTY: 
  STAT.                           STATE: 
  DATE.                        LOG DATE: 20-21.03.2007
  SRVC.                 SERVICE COMPANY: 
  UWI.           Unique Well Identifier: 
~Parametr information block
# MNEM.UNIT
# ====.================================:===================
~Other information
# ------------------------- REMARKS  AREA ------------------
~Curve information
# MNEM.UNIT
# ====.================================:===================
  DEPT.M                               : Depth curve
NGL   .C.U.                            : 
GR    .ur/h                            : 
GZ3   .OHMM                            : 
GZ3B  .OHMM                            : 
LL3   .OHMM                            : 
MLL   .OHMM                            : 
SP    .MV                              :
C1    .MM                              : 
C2    .MM                              : 
CALI  .MM                              : 
BS    .MM                              : 
CILR  .MMHO                            : 
RHOB  .G/C3                            : 
DT    .us/m                            : 
~ASCII Log Data
# ...
   744.90       3.85       1.76      11.75     171.25   11748.12     941.68      74.16     219.94     230.30     225.12     215.90     157.09       2.99     179.30
   745.00       3.81       1.81      12.58     169.43   15148.80     940.00      74.04     219.58     230.62     225.10     215.90     158.16       2.96     177.74
   745.10       3.77       1.86      13.27     167.51   17681.96     945.04      73.97     219.25     230.41     224.83     215.90     159.58       2.94     176.18
   745.20       3.80       1.86      13.93     165.84   18150.29     936.75      74.45     219.15     229.97     224.56     215.90     159.57       2.94     174.11
   745.30       3.86       1.84      14.71     164.56   17903.63     926.17      75.53     219.68     229.85     224.77     215.90     159.93       2.94     172.04
   745.40       3.87       1.78      15.49     163.54   17190.30     927.48      76.85     220.42     229.91     225.16     215.90     159.77       2.95     170.12
   745.50       3.84       1.89      16.24     162.70   17195.58     852.94      78.43     220.75     230.18     225.47     215.90     159.48       2.95     168.21
   745.60       3.83       1.92      17.02     161.95   17777.59     882.75      80.55     221.50     231.20     226.35     215.90     159.65       2.93     167.16
   745.70       3.83       1.95      17.83     161.23   18342.90     925.37      82.88     221.39     230.30     225.85     215.90     158.37       2.93     166.11
   745.80       3.77       1.93      18.62     160.51   18171.55     917.62      85.64     221.36     229.50     225.43     215.90     158.62       2.92     165.68
   745.90       3.70       1.91      19.34     159.79   18073.88     907.70      88.21     221.97     229.59     225.78     215.90     158.74       2.96     165.26
   746.00       3.65       1.90      20.07     158.73   18147.97     804.09      90.03     222.36     230.48     226.42     215.90     159.13       2.96     165.80
   746.10       3.67       1.91      20.80     157.67   17940.58     915.76      92.11     222.72     231.45     227.08     215.90     158.08       2.97     166.35
   746.20       3.68       1.91      21.43     156.73   16809.37     936.63      94.23     220.73     230.97     225.85     215.90     157.45       2.96     167.71
   746.30       3.62       1.89      22.09     155.89   14532.24     933.00      96.34     220.08     230.38     225.23     215.90     158.42       2.91     169.07
   746.40       3.57       1.89      22.76     155.12   10228.21     934.78      98.22     219.83     229.81     224.82     215.90     158.98       2.89     171.04
   746.50       3.51       1.90      23.43     154.46    5460.80     931.72     100.41     220.25     229.77     225.01     215.90     157.81       2.88     173.00
   746.60       3.40       1.89      24.10     154.06    3603.51     932.73     102.84     220.55     229.79     225.17     215.90     157.49       2.87     174.38
   746.70       3.28       1.82      24.68     153.83    2481.71     901.95     105.06     220.58     229.67     225.13     215.90     157.38       2.88     175.76
   746.80       3.20       1.86      25.31     153.54    2323.16     282.51     107.00     220.59     229.68     225.13     215.90     157.15       2.90     175.54
   746.90       3.16       1.85      25.91     153.21    2371.11     125.33     108.76     220.85     229.81     225.33     215.90     157.47       2.92     175.32
   747.00       3.13       1.78      26.47     152.88    2220.20      60.07     109.84     221.44     230.03     225.74     215.90     155.93       2.94     173.69
   747.10       3.16       1.83      27.08     152.65    1945.87      42.87     111.25     221.67     230.76     226.21     215.90     155.21       2.94     172.06
   747.20       3.15       1.92      27.67     152.60    1747.68      39.64     111.34     221.48     232.23     226.85     215.90     156.49       2.94     170.04
   747.30       3.18       2.03      28.14     152.79    1729.75     213.18     111.43     221.61     232.80     227.21     215.90     155.97       2.94     168.02
   747.40       3.20       2.07      28.50     153.06    1818.70     513.40     111.63     221.61     232.56     227.08     215.90     156.04       2.91     166.87
   747.50       3.20       2.04      28.83     153.25    1893.45     256.06     112.19     221.19     229.39     225.29     215.90     157.05       2.92     165.73
   747.60       3.23       2.04      29.15     153.31    1727.31     354.29     112.93     221.51     229.56     225.54     215.90     157.83       2.92     165.71
   747.70       3.26       2.04      29.46     153.26    1681.69     736.21     113.56     220.61     229.48     225.04     215.90     154.78       2.93     165.68
   747.80       3.28       1.98      29.84     153.13    1689.41     609.31     113.70     219.70     229.40     224.55     215.90     154.95       2.94     166.44
   747.90       3.29       2.09      30.19     153.07    1755.46     746.45     113.60     220.78     229.73     225.25     215.90     156.50       2.93     167.20
   748.00       3.31       2.11      30.50     153.25    1788.97     802.18     113.27     221.18     229.45     225.32     215.90     156.85       2.95     168.35
   748.10       3.31       2.13      30.81     153.70    1810.14     716.98     113.08     220.21     229.44     224.83     215.90     156.47       2.97     169.50
   748.20       3.41       2.09      31.10     154.30    1966.00     102.56     112.84     220.60     229.22     224.91     215.90     156.97       2.95     170.81
   748.30       3.46       1.97      31.41     154.97    2326.16     360.81     112.02     221.72     228.86     225.29     215.90     155.93       2.95     172.12
   748.40       3.55       1.82      31.79     155.66    2351.62     867.37     111.24     222.37     229.59     225.98     215.90     156.10       2.97     173.81
   748.50       3.60       1.73      32.25     156.20    2207.62     810.21     110.33     222.80     230.79     226.80     215.90     155.76       2.99     175.49
   748.60       3.61       1.73      32.64     156.73    1287.87     577.08     109.06     222.80     231.42     227.11     215.90     155.55       2.97     177.92
   748.70       3.58       1.76      32.94     157.29     798.76     121.97     107.45     222.39     231.67     227.03     215.90     155.47       2.95     180.35
   748.80       3.48       1.78      33.07     158.09     549.14     107.01     106.23     222.15     232.75     227.45     215.90     155.48       2.93     183.18
   748.90       3.42       1.82      32.88     159.12     404.45      82.40     105.11     221.25     232.60     226.92     215.90     155.56       2.91     186.01
   749.00       3.38       1.88      32.30     160.73     319.85      91.27     104.02     220.24     231.34     225.79     215.90     155.54       2.90     188.32
   749.10       3.31       1.91      31.57     162.88     326.41      46.74     103.15     220.54     231.19     225.86     215.90     155.14       2.92     190.62
   749.20       3.23       1.94      30.36     165.12     362.67      38.82     103.01     220.91     231.07     225.99     215.90     154.23       2.93     190.67
   749.30       3.17       1.92      28.95     167.19     428.62     397.40     103.29     221.58     231.10     226.34     215.90     154.57       2.90     190.72
   749.40       3.17       1.93      27.60     169.46     473.43     235.22     103.90     221.81     231.02     226.41     215.90     154.97       2.89     188.59
   749.50       3.04       1.96      26.37     171.34     477.57     303.86     104.54     220.31     230.52     225.42     215.90     155.15       2.90     186.46
   749.60       3.03       1.98      25.15     173.00     430.35     107.41     105.23     218.80     230.03     224.42     215.90     155.46       2.89     183.31
   749.70       2.93       1.94      24.02     174.73     390.15      41.43     107.48     218.05     231.13     224.59     215.90     155.92       2.89     180.16
