~Version information
  VERS.                            1.20: CWLS LAS  -  VERSION 1.20
  WRAP.                              NO: One line per depth step
~Well information
# MNEM.UNIT
# ====.================================:===================
  STRT.M                           0.10: First depth in file
  STOP.M                         793.10: Last depth in file
  STEP.M                           0.10: Depth increment
  NULL.                           -9999: Null values
  COMP.                         COMPANY: 
  WELL.                            WELL: 328
  FLD .                           FIELD: Karatobe
  CNTY.                          COUNTY: 
  STAT.                           STATE: 
  DATE.                        LOG DATE: 20-21.03.2007
  SRVC.                 SERVICE COMPANY: 
  UWI.           Unique Well Identifier: 
~Parametr information block
# MNEM.UNIT
# ====.================================:===================
~Other information
# ------------------------- REMARKS  AREA ------------------
~Curve information
# MNEM.UNIT
# ====.================================:===================
  DEPT.M                               : Depth curve
NGL   .C.U.                            : 
GR    .ur/h                            : 
GZ3   .OHMM                            : 
GZ3B  .OHMM                            : 
LL3   .OHMM                            : 
MLL   .OHMM                            : 
SP    .MV                              :
C1    .MM                              : 
C2    .MM                              : 
CALI  .MM                              : 
BS    .MM                              : 
CILR  .MMHO                            : 
RHOB  .G/C3                            : 
DT    .us/m                            : 
~ASCII Log Data
# ...
   524.40       1.52       3.38       2.05       2.91       4.03       2.99      91.43     221.89     225.65     223.77     215.90     526.04       2.24     452.21
   524.50       1.51       3.29       2.13       2.93       4.09       2.69      90.15     225.59     225.34     225.46     215.90     514.06       2.21     452.13
   524.60       1.53       3.28       2.17       2.91       4.04       2.83      88.59     230.48     227.50     228.99     215.90     502.14       2.18     451.02
   524.70       1.48       3.31       2.19       2.85       3.90       3.07      86.95     232.06     229.16     230.61     215.90     500.14       2.17     449.90
   524.80       1.47       3.35       2.17       2.76       3.65       2.68      85.27     231.68     229.28     230.48     215.90     499.49       2.15     448.63
   524.90       1.48       3.44       2.12       2.66       3.35       2.47      83.74     232.12     227.03     229.58     215.90     498.89       2.16     447.36
   525.00       1.45       3.61       2.04       2.57       3.14       2.33      82.22     226.27     226.22     226.24     215.90     503.73       2.15     447.24
   525.10       1.42       3.72       1.97       2.50       3.03       2.18      80.50     225.64     226.65     226.14     215.90     514.54       2.12     447.12
   525.20       1.42       3.22       1.89       2.44       2.97       2.14      79.01     226.17     226.71     226.44     215.90     523.09       2.14     447.93
   525.30       1.42       2.98       1.84       2.44       3.00       2.09      77.68     226.32     225.95     226.14     215.90     528.94       2.13     448.74
   525.40       1.45       2.94       1.81       2.48       3.10       2.21      76.83     224.85     227.05     225.95     215.90     543.17       2.14     449.53
   525.50       1.46       3.09       1.81       2.56       3.26       2.59      77.37     223.76     226.13     224.95     215.90     551.85       2.18     450.32
   525.60       1.44       3.16       1.83       2.64       3.32       2.48      78.22     223.29     225.49     224.39     215.90     556.57       2.21     449.81
   525.70       1.45       3.14       1.86       2.70       3.23       2.40      80.00     223.89     225.42     224.65     215.90     558.34       2.22     449.30
   525.80       1.46       3.15       1.88       2.72       3.14       2.31      82.68     225.49     225.56     225.52     215.90     557.93       2.21     446.95
   525.90       1.45       3.14       1.88       2.70       3.06       2.27      84.89     225.86     226.90     226.38     215.90     556.17       2.20     444.61
   526.00       1.37       2.99       1.86       2.66       2.97       2.16      85.72     225.10     226.43     225.77     215.90     552.67       2.19     440.64
   526.10       1.37       2.91       1.84       2.61       2.92       2.09      86.44     225.13     226.27     225.70     215.90     551.49       2.21     436.67
   526.20       1.37       2.92       1.82       2.57       2.94       2.19      87.20     226.10     225.73     225.92     215.90     552.22       2.21     431.17
   526.30       1.38       2.99       1.81       2.56       2.97       2.19      87.69     226.81     222.59     224.70     215.90     552.10       2.20     425.66
   526.40       1.40       2.97       1.81       2.57       3.00       2.24      88.36     225.28     223.36     224.32     215.90     551.28       2.19     418.99
   526.50       1.42       2.90       1.82       2.57       3.01       2.22      89.19     225.10     223.83     224.46     215.90     549.45       2.18     412.32
   526.60       1.45       2.92       1.84       2.53       3.02       2.17      90.07     225.78     223.74     224.76     215.90     543.51       2.18     405.36
   526.70       1.48       2.94       1.86       2.44       3.03       2.27      90.81     225.99     223.53     224.76     215.90     535.33       2.19     398.39
   526.80       1.48       2.94       1.89       2.31       3.03       2.23      91.28     226.69     224.52     225.60     215.90     530.25       2.19     395.09
   526.90       1.52       3.04       1.91       2.18       3.01       2.22      91.55     226.60     224.34     225.47     215.90     529.98       2.20     391.78
   527.00       1.51       3.12       1.92       2.08       3.01       2.25      91.78     226.50     223.69     225.09     215.90     533.56       2.20     395.73
   527.10       1.47       3.10       1.92       2.03       3.03       2.23      91.94     227.59     223.75     225.67     215.90     534.19       2.21     399.68
   527.20       1.44       3.10       1.90       2.03       3.04       2.12      91.21     226.06     226.28     226.17     215.90     531.66       2.20     412.36
   527.30       1.45       3.03       1.88       2.06       3.03       2.12      90.69     225.67     226.20     225.93     215.90     526.07       2.19     425.04
   527.40       1.45       3.11       1.85       2.13       2.97       2.17      90.50     226.12     225.50     225.81     215.90     518.12       2.17     440.48
   527.50       1.45       3.11       1.82       2.27       2.93       2.07      90.63     227.14     225.55     226.34     215.90     511.12       2.18     455.93
   527.60       1.48       3.17       1.81       2.44       2.94       2.06      90.37     226.11     224.66     225.39     215.90     506.39       2.19     465.86
   527.70       1.49       3.31       1.89       2.68       3.11       2.21      90.42     225.70     223.97     224.83     215.90     505.69       2.19     475.79
   527.80       1.51       3.46       2.02       3.10       3.44       2.47      90.43     225.93     223.98     224.96     215.90     511.83       2.20     474.80
   527.90       1.56       3.56       2.25       3.53       3.98       3.31      91.03     226.19     224.82     225.50     215.90     522.94       2.23     473.82
   528.00       1.64       3.56       2.52       3.94       4.50       3.07      91.84     225.08     225.42     225.25     215.90     530.90       2.27     465.51
   528.10       1.71       3.44       2.79       4.23       4.56       3.36      92.69     223.03     226.59     224.81     215.90     535.60       2.33     457.20
   528.20       1.77       3.28       3.01       4.37       3.85       2.65      93.72     224.18     229.56     226.87     215.90     530.33       2.39     450.38
   528.30       1.83       3.14       3.19       4.43       3.08       2.38      94.86     227.66     233.12     230.39     215.90     513.97       2.43     443.56
   528.40       1.88       2.96       3.35       4.54       3.02       2.56      97.43     233.39     236.27     234.83     215.90     499.87       2.43     442.16
   528.50       1.91       2.77       3.55       4.81       4.36       2.73      99.05     235.98     238.74     237.36     215.90     495.25       2.42     440.77
   528.60       1.91       2.73       3.83       5.15       6.57      21.82      98.54     234.51     233.36     233.94     215.90     496.44       2.39     445.74
   528.70       1.85       2.78       4.20       5.46       9.58     118.11      97.46     232.97     228.26     230.62     215.90     501.27       2.39     450.71
   528.80       1.82       2.84       4.60       5.62       7.33      69.70      95.99     233.67     228.49     231.08     215.90     500.70       2.39     456.99
   528.90       1.78       2.93       4.90       5.34       5.30      18.70      94.45     231.56     227.49     229.52     215.90     478.89       2.36     463.28
   529.00       1.73       3.03       4.87       4.89       3.49       3.00      92.50     230.30     228.36     229.33     215.90     465.89       2.30     468.46
   529.10       1.64       3.13       4.56       4.22       2.94       2.52      90.71     228.51     228.07     228.29     215.90     470.93       2.23     473.64
   529.20       1.52       3.21       3.97       3.42       2.68       2.40      89.05     226.10     226.32     226.21     215.90     481.27       2.17     474.61
