~Version information
  VERS.                            1.20: CWLS LAS  -  VERSION 1.20
  WRAP.                              NO: One line per depth step
~Well information
# MNEM.UNIT
# ====.================================:===================
  STRT.M                           0.10: First depth in file
  STOP.M                         793.10: Last depth in file
  STEP.M                           0.10: Depth increment
  NULL.                           -9999: Null values
  COMP.                         COMPANY: 
  WELL.                            WELL: 328
  FLD .                           FIELD: Karatobe
  CNTY.                          COUNTY: 
  STAT.                           STATE: 
  DATE.                        LOG DATE: 20-21.03.2007
  SRVC.                 SERVICE COMPANY: 
  UWI.           Unique Well Identifier: 
~Parametr information block
# MNEM.UNIT
# ====.================================:===================
~Other information
# ------------------------- REMARKS  AREA ------------------
~Curve information
# MNEM.UNIT
# ====.================================:===================
  DEPT.M                               : Depth curve
NGL   .C.U.                            : 
GR    .ur/h                            : 
GZ3   .OHMM                            : 
GZ3B  .OHMM                            : 
LL3   .OHMM                            : 
MLL   .OHMM                            : 
SP    .MV                              :
C1    .MM                              : 
C2    .MM                              : 
CALI  .MM                              : 
BS    .MM                              : 
CILR  .MMHO                            : 
RHOB  .G/C3                            : 
DT    .us/m                            : 
~ASCII Log Data
# ...
   656.70       2.29       2.99       8.17       5.82      14.22      17.14      72.55     220.28     227.13     223.70     215.90     317.45       2.51     178.50
   656.80       2.21       3.00       8.47       5.47      11.94      15.94      71.64     220.49     227.24     223.86     215.90     318.71       2.52     173.69
   656.90       2.12       3.07       8.68       5.17       9.70      11.30      70.90     220.35     226.83     223.59     215.90     323.28       2.52     168.88
   657.00       2.13       3.21       8.84       4.97       8.28       9.61      70.76     219.07     225.10     222.09     215.90     332.56       2.50     173.12
   657.10       2.08       3.29       8.94       4.80       7.54      10.37      70.87     219.68     224.69     222.18     215.90     342.11       2.49     177.35
   657.20       2.05       3.30       8.99       4.66       7.32       9.03      70.66     219.92     224.11     222.02     215.90     350.95       2.50     191.41
   657.30       2.04       3.33       8.95       4.56       7.04       8.92      69.29     220.21     224.56     222.39     215.90     359.08       2.47     205.47
   657.40       2.01       3.42       8.87       4.47       6.77       8.19      67.93     220.93     224.76     222.85     215.90     366.59       2.47     221.87
   657.50       2.02       3.55       8.78       4.38       6.55       7.13      66.73     221.87     224.66     223.26     215.90     372.99       2.46     238.28
   657.60       2.01       3.69       8.70       4.31       6.43       7.27      65.82     221.42     227.40     224.41     215.90     377.87       2.45     252.30
   657.70       1.99       3.66       8.64       4.27       6.28       7.37      65.43     221.98     225.87     223.93     215.90     384.03       2.45     266.33
   657.80       1.98       3.62       8.62       4.24       6.02       7.23      65.18     221.25     225.23     223.24     215.90     391.08       2.45     276.37
   657.90       1.93       3.55       8.61       4.23       5.48       7.37      65.27     222.44     225.81     224.12     215.90     396.13       2.42     286.41
   658.00       1.87       3.61       8.57       4.23       4.76       6.80      65.67     224.79     226.60     225.70     215.90     398.28       2.39     293.04
   658.10       1.86       3.61       8.47       4.25       4.02       5.43      66.55     224.14     225.68     224.91     215.90     400.25       2.37     299.67
   658.20       1.85       3.59       8.20       4.34       3.76       5.12      67.08     219.38     225.24     222.31     215.90     404.19       2.39     305.00
   658.30       1.92       3.59       7.90       4.48       3.66       5.35      67.49     220.86     225.37     223.12     215.90     406.09       2.39     310.33
   658.40       1.96       3.58       7.56       4.67       3.78       5.85      68.19     222.07     226.45     224.26     215.90     410.12       2.38     313.83
   658.50       1.99       3.59       7.25       4.90       4.00       7.37      69.01     222.55     228.02     225.29     215.90     411.47       2.38     317.33
   658.60       1.98       3.60       6.98       5.13       4.45       7.15      69.48     223.27     229.26     226.26     215.90     408.80       2.41     317.19
   658.70       1.99       3.60       6.74       5.37       4.89       6.62      70.56     221.97     229.33     225.65     215.90     403.78       2.43     317.05
   658.80       2.03       3.57       6.53       5.52       5.24       6.73      72.03     219.71     230.83     225.27     215.90     397.45       2.44     312.36
   658.90       2.03       3.60       6.37       5.61       5.44       6.37      72.97     219.40     231.53     225.46     215.90     393.07       2.45     307.68
   659.00       1.93       3.64       6.24       5.64       5.30       5.79      73.76     220.82     232.13     226.48     215.90     388.44       2.44     300.64
   659.10       1.91       3.63       6.09       5.62       5.12       5.57      74.23     221.76     233.29     227.52     215.90     383.94       2.44     293.59
   659.20       1.91       3.59       5.93       5.60       5.04       5.14      74.62     219.57     234.99     227.28     215.90     382.29       2.45     286.28
   659.30       1.92       3.67       5.72       5.57       5.11       5.57      75.10     222.75     229.15     225.95     215.90     381.62       2.47     278.97
   659.40       1.91       3.76       5.53       5.53       5.37       6.46      75.70     222.08     228.29     225.19     215.90     379.43       2.48     272.74
   659.50       1.93       3.83       5.38       5.45       5.46       5.71      76.34     221.32     229.04     225.18     215.90     376.08       2.47     266.51
   659.60       1.91       3.84       5.24       5.29       5.35       5.51      77.18     221.26     230.25     225.75     215.90     374.05       2.46     260.96
   659.70       1.87       3.76       5.09       5.08       5.18       5.51      78.85     221.57     231.48     226.53     215.90     369.00       2.44     255.42
   659.80       1.89       3.83       4.99       4.82       5.07       5.05      80.82     223.39     229.95     226.67     215.90     366.25       2.42     249.79
   659.90       1.94       3.83       4.90       4.54       5.06       5.31      82.00     227.32     230.63     228.97     215.90     365.43       2.43     244.16
   660.00       1.97       3.67       4.82       4.32       5.19       5.67      82.36     227.54     228.31     227.92     215.90     365.89       2.39     238.58
   660.10       2.02       3.49       4.76       4.14       5.39       6.86      82.87     225.32     228.80     227.06     215.90     366.74       2.37     232.99
   660.20       2.07       3.57       4.72       3.99       5.51       6.70      83.66     223.72     232.84     228.28     215.90     367.65       2.39     228.96
   660.30       2.06       3.74       4.69       3.85       5.60       6.60      84.46     225.38     235.12     230.25     215.90     371.31       2.43     224.92
   660.40       2.07       3.70       4.66       3.69       5.62       6.33      85.25     227.65     235.00     231.33     215.90     378.39       2.43     224.04
   660.50       2.10       3.70       4.62       3.50       5.58       5.61      85.86     226.17     233.32     229.75     215.90     383.18       2.43     223.16
   660.60       2.11       3.71       4.60       3.34       5.49       5.24      85.89     225.36     230.65     228.01     215.90     388.38       2.44     226.22
   660.70       2.09       3.65       4.62       3.19       5.48       5.73      85.40     223.57     228.49     226.03     215.90     396.16       2.45     229.28
   660.80       2.06       3.54       4.66       3.07       5.55       5.80      84.36     221.93     228.73     225.33     215.90     403.23       2.46     235.64
   660.90       2.02       3.46       4.71       2.96       5.75       5.90      83.00     223.98     232.52     228.25     215.90     411.22       2.45     242.01
   661.00       2.05       3.48       4.77       2.83       5.96       6.09      81.64     229.48     232.51     230.99     215.90     417.09       2.42     250.79
   661.10       2.03       3.48       4.84       2.71       6.06       7.38      80.21     223.18     233.40     228.29     215.90     421.38       2.42     259.57
   661.20       2.04       3.52       4.93       2.60       5.88       6.88      78.14     222.07     235.31     228.69     215.90     428.30       2.45     269.08
   661.30       2.06       3.62       5.03       2.52       5.90       6.57      76.25     222.37     237.29     229.83     215.90     440.39       2.45     278.60
   661.40       2.05       3.68       5.14       2.49       6.22       7.59      74.76     223.10     237.03     230.06     215.90     460.69       2.42     287.57
   661.50       2.08       3.79       5.30       2.47       7.56      11.12      73.62     225.29     232.70     228.99     215.90     489.89       2.41     296.55
