~Version information
  VERS.                            1.20: CWLS LAS  -  VERSION 1.20
  WRAP.                              NO: One line per depth step
~Well information
# MNEM.UNIT
# ====.================================:===================
  STRT.M                           0.10: First depth in file
  STOP.M                         793.10: Last depth in file
  STEP.M                           0.10: Depth increment
  NULL.                           -9999: Null values
  COMP.                         COMPANY: 
  WELL.                            WELL: 328
  FLD .                           FIELD: Karatobe
  CNTY.                          COUNTY: 
  STAT.                           STATE: 
  DATE.                        LOG DATE: 20-21.03.2007
  SRVC.                 SERVICE COMPANY: 
  UWI.           Unique Well Identifier: 
~Parametr information block
# MNEM.UNIT
# ====.================================:===================
~Other information
# ------------------------- REMARKS  AREA ------------------
~Curve information
# MNEM.UNIT
# ====.================================:===================
  DEPT.M                               : Depth curve
NGL   .C.U.                            : 
GR    .ur/h                            : 
GZ3   .OHMM                            : 
GZ3B  .OHMM                            : 
LL3   .OHMM                            : 
MLL   .OHMM                            : 
SP    .MV                              :
C1    .MM                              : 
C2    .MM                              : 
CALI  .MM                              : 
BS    .MM                              : 
CILR  .MMHO                            : 
RHOB  .G/C3                            : 
DT    .us/m                            : 
~ASCII Log Data
# ...
   352.90       1.36       4.62       4.71       4.01       4.36       2.62      87.77     231.94     251.83     241.88     215.90     366.54       2.09     571.54
   353.00       1.35       4.53       4.51       3.93       4.23       2.64      89.61     229.74     239.22     234.48     215.90     366.68       2.08     569.08
   353.10       1.36       4.53       4.30       3.87       4.19       2.71      90.00     226.65     232.16     229.40     215.90     371.79       2.11     566.62
   353.20       1.36       4.48       4.12       3.86       4.21       2.67      89.78     228.95     232.06     230.51     215.90     376.49       2.11     558.43
   353.30       1.43       4.68       3.99       3.86       4.31       2.65      89.51     229.98     224.73     227.35     215.90     375.66       2.11     550.24
   353.40       1.41       4.70       3.89       3.87       4.39       2.73      89.34     231.28     223.71     227.50     215.90     374.60       2.11     543.10
   353.50       1.35       4.67       3.81       3.89       4.43       2.84      88.74     234.63     223.29     228.96     215.90     377.17       2.11     535.96
   353.60       1.36       4.51       3.75       3.89       4.39       2.69      87.89     234.91     221.88     228.39     215.90     378.83       2.10     534.34
   353.70       1.38       4.57       3.71       3.90       4.30       2.55      86.84     230.33     222.00     226.17     215.90     377.67       2.10     532.72
   353.80       1.40       4.73       3.68       3.90       4.25       2.61      85.60     225.91     222.52     224.22     215.90     375.03       2.08     535.40
   353.90       1.40       4.57       3.67       3.91       4.22       2.59      84.39     228.95     223.36     226.15     215.90     371.45       2.05     538.07
   354.00       1.39       4.47       3.66       3.93       4.20       2.71      83.36     239.33     225.60     232.47     215.90     370.75       2.04     540.20
   354.10       1.41       4.63       3.67       3.94       4.21       2.70      82.15     234.91     230.30     232.61     215.90     368.76       2.04     542.32
   354.20       1.43       4.68       3.69       3.97       4.24       2.75      80.83     231.86     234.58     233.22     215.90     364.60       2.04     539.32
   354.30       1.43       4.74       3.73       4.00       4.33       2.71      79.65     232.28     230.66     231.47     215.90     364.58       2.07     536.32
   354.40       1.42       4.80       3.73       4.05       4.43       2.74      78.41     231.14     226.78     228.96     215.90     366.16       2.09     529.12
   354.50       1.39       4.85       3.72       4.10       4.47       2.72      76.97     230.70     223.43     227.07     215.90     366.14       2.10     521.92
   354.60       1.42       4.87       3.69       4.17       4.53       2.75      75.51     227.42     218.45     222.94     215.90     367.07       2.11     517.05
   354.70       1.39       4.85       3.71       4.26       4.59       2.80      74.24     225.94     216.18     221.06     215.90     370.02       2.11     512.17
   354.80       1.38       4.85       3.74       4.35       4.64       2.94      72.49     222.52     217.09     219.81     215.90     372.27       2.12     516.67
   354.90       1.41       4.91       3.79       4.42       4.65       2.81      71.32     220.93     218.72     219.83     215.90     370.49       2.14     521.17
   355.00       1.41       5.02       3.83       4.47       4.62       2.77      70.90     223.07     221.09     222.08     215.90     370.57       2.15     534.84
   355.10       1.36       4.98       3.85       4.51       4.64       2.66      70.95     221.71     223.82     222.77     215.90     364.86       2.15     548.52
   355.20       1.35       4.98       3.84       4.54       4.70       2.62      71.82     215.97     224.56     220.26     215.90     367.77       2.14     563.84
   355.30       1.38       4.88       3.83       4.58       4.77       2.73      73.17     215.09     223.10     219.10     215.90     367.34       2.13     579.17
   355.40       1.38       4.85       3.82       4.65       4.76       2.65      74.71     216.16     227.29     221.73     215.90     364.80       2.13     588.63
   355.50       1.42       4.80       3.83       4.71       4.66       2.63      76.44     222.42     227.79     225.11     215.90     364.85       2.12     598.09
   355.60       1.45       4.92       3.84       4.77       4.53       2.46      78.67     224.09     222.62     223.35     215.90     369.95       2.13     601.74
   355.70       1.44       4.88       3.83       4.81       4.39       2.49      81.73     221.47     221.51     221.49     215.90     370.64       2.13     605.39
   355.80       1.44       4.67       3.80       4.84       4.24       2.42      84.02     218.49     221.09     219.79     215.90     370.89       2.12     609.84
   355.90       1.42       4.82       3.74       4.88       4.14       2.38      84.84     217.69     221.54     219.62     215.90     369.85       2.12     614.28
   356.00       1.40       5.04       3.68       4.98       4.07       2.46      84.78     219.67     223.08     221.38     215.90     371.55       2.13     625.29
   356.10       1.35       5.11       3.63       5.16       4.05       2.54      85.16     220.55     223.86     222.20     215.90     373.91       2.13     636.30
   356.20       1.31       5.25       3.59       5.34       4.00       3.00      85.54     220.34     225.76     223.05     215.90     370.75       2.14     653.55
   356.30       1.34       5.43       3.57       5.54       4.00       2.87      85.51     220.56     226.11     223.33     215.90     368.22       2.14     670.79
   356.40       1.38       5.49       3.54       5.76       4.05       2.73      85.08     222.52     224.49     223.51     215.90     368.37       2.16     685.80
   356.50       1.43       5.54       3.52       5.94       4.12       2.61      84.77     227.79     225.55     226.67     215.90     367.02       2.16     700.80
   356.60       1.49       5.68       3.48       6.07       4.10       2.66      84.57     231.47     225.99     228.73     215.90     363.38       2.14     704.62
   356.70       1.47       5.89       3.44       6.21       4.06       2.62      84.54     234.04     226.31     230.17     215.90     358.08       2.14     708.44
   356.80       1.43       5.83       3.41       6.35       4.02       2.62      84.51     229.43     227.45     228.44     215.90     353.53       2.13     698.89
   356.90       1.44       5.80       3.37       6.47       3.98       2.66      84.24     225.26     227.75     226.50     215.90     347.94       2.12     689.35
   357.00       1.45       6.01       3.34       6.56       3.95       2.42      83.84     226.36     226.76     226.56     215.90     342.06       2.13     674.41
   357.10       1.46       6.26       3.31       6.66       3.97       2.65      83.61     228.70     226.90     227.80     215.90     335.83       2.14     659.48
   357.20       1.44       6.33       3.32       6.78       4.06       2.61      83.33     228.72     227.22     227.97     215.90     326.95       2.15     647.54
   357.30       1.41       6.87       3.34       6.87       4.19       2.55      83.44     230.79     227.41     229.10     215.90     324.94       2.15     635.61
   357.40       1.43       7.38       3.37       6.89       4.32       2.73      83.95     235.66     227.67     231.67     215.90     316.09       2.16     622.41
   357.50       1.40       7.79       3.41       6.87       4.43       2.98      84.45     233.46     228.60     231.03     215.90     312.03       2.17     609.21
   357.60       1.40       8.38       3.46       6.86       4.56       3.01      84.68     230.00     234.47     232.23     215.90     304.61       2.20     585.22
   357.70       1.40       8.61       3.49       6.88       4.67       3.18      84.26     229.84     231.45     230.65     215.90     296.61       2.24     561.23
