~Version information
  VERS.                            1.20: CWLS LAS  -  VERSION 1.20
  WRAP.                              NO: One line per depth step
~Well information
# MNEM.UNIT
# ====.================================:===================
  STRT.M                           0.10: First depth in file
  STOP.M                         793.10: Last depth in file
  STEP.M                           0.10: Depth increment
  NULL.                           -9999: Null values
  COMP.                         COMPANY: 
  WELL.                            WELL: 328
  FLD .                           FIELD: Karatobe
  CNTY.                          COUNTY: 
  STAT.                           STATE: 
  DATE.                        LOG DATE: 20-21.03.2007
  SRVC.                 SERVICE COMPANY: 
  UWI.           Unique Well Identifier: 
~Parametr information block
# MNEM.UNIT
# ====.================================:===================
~Other information
# ------------------------- REMARKS  AREA ------------------
~Curve information
# MNEM.UNIT
# ====.================================:===================
  DEPT.M                               : Depth curve
NGL   .C.U.                            : 
GR    .ur/h                            : 
GZ3   .OHMM                            : 
GZ3B  .OHMM                            : 
LL3   .OHMM                            : 
MLL   .OHMM                            : 
SP    .MV                              :
C1    .MM                              : 
C2    .MM                              : 
CALI  .MM                              : 
BS    .MM                              : 
CILR  .MMHO                            : 
RHOB  .G/C3                            : 
DT    .us/m                            : 
~ASCII Log Data
# ...
   308.80       1.42      10.12       7.64      21.74      34.61       6.85      63.62     263.30     251.81     257.56     215.90     191.32       2.08     548.79
   308.90       1.46      10.15       8.03      20.41      34.50       6.67      63.02     267.13     249.30     258.22     215.90     187.68       2.07     537.57
   309.00       1.51      10.16       8.42      19.02      34.23       6.80      62.52     267.17     250.29     258.73     215.90     190.59       2.07     533.20
   309.10       1.52      10.04       8.77      17.70      33.72       6.62      61.93     256.65     251.77     254.21     215.90     185.68       2.08     528.82
   309.20       1.54       9.92       9.14      16.42      32.81       5.66      61.25     258.23     251.82     255.03     215.90     187.14       2.07     527.76
   309.30       1.58       9.85       9.59      15.09      31.44       5.21      60.44     256.39     253.89     255.14     215.90     189.62       2.05     526.69
   309.40       1.60       9.84      10.18      14.18      29.51       5.97      59.68     259.13     260.89     260.01     215.90     189.92       2.03     517.84
   309.50       1.62       9.83      10.88      13.37      28.52       5.46      58.90     263.38     263.49     263.43     215.90     188.68       2.03     509.00
   309.60       1.66       9.83      11.89      13.06      28.56       4.80      58.00     270.45     263.39     266.92     215.90     187.83       2.03     489.86
   309.70       1.70       9.88      13.62      13.42      33.84       6.15      57.03     278.51     264.50     271.51     215.90     187.30       2.01     470.73
   309.80       1.79       9.79      16.12      14.17      40.69      33.97      56.38     284.30     268.69     276.50     215.90     189.01       2.01     446.96
   309.90       1.92       9.75      19.44      14.84      47.55      58.30      56.30     290.57     275.17     282.87     215.90     192.57       2.05     423.19
   310.00       1.95       9.82      22.65      15.27      37.39      18.69      56.52     288.60     274.17     281.38     215.90     193.23       2.10     407.80
   310.10       1.94       9.90      25.26      14.96      29.11       5.61      56.77     289.12     283.22     286.17     215.90     195.57       2.12     392.41
   310.20       1.96       9.84      26.66      14.02      26.79       5.49      57.23     294.77     281.10     287.93     215.90     186.00       2.11     388.00
   310.30       1.78       9.51      26.98      12.72      24.71       5.43      57.80     262.64     257.62     260.13     215.90     192.97       2.06     383.60
   310.40       1.65       9.41      26.26      11.32      22.50       4.53      58.69     232.16     235.00     233.58     215.90     188.93       2.02     384.22
   310.50       1.61       9.64      25.30      10.05      19.68       2.88      60.05     230.12     228.18     229.15     215.90     190.31       1.99     384.84
   310.60       1.54       9.55      24.57       8.88      17.41       2.62      62.02     231.05     229.77     230.41     215.90     190.78       1.98     384.94
   310.70       1.52       9.54      24.35       8.22      15.59       4.19      64.12     240.62     248.77     244.69     215.90     192.03       1.98     385.04
   310.80       1.50       9.35      24.83       8.10      12.89       4.95      66.14     246.16     248.81     247.48     215.90     199.71       1.98     387.60
   310.90       1.53       9.40      25.92       8.24      11.52       5.78      67.77     250.14     245.31     247.72     215.90     202.27       1.98     390.16
   311.00       1.58       9.69      27.00       8.45      10.50       6.61      69.04     274.10     252.75     263.43     215.90     203.00       2.02     398.16
   311.10       1.62       9.86      28.19       8.77       9.89       5.81      70.40     305.22     267.11     286.17     215.90     207.18       2.07     406.17
   311.20       1.60       9.72      28.18       9.02       9.49       3.90      72.01     308.77     286.40     297.58     215.90     205.31       2.09     417.29
   311.30       1.57       9.30      27.32       9.29       9.66       3.90      73.20     266.71     274.09     270.40     215.90     205.82       2.09     428.40
   311.40       1.55       8.48      26.14       9.52      10.10       4.19      73.79     235.10     230.50     232.80     215.90     209.15       2.09     439.08
   311.50       1.54       7.49      24.92       9.66      10.53       4.55      74.30     231.75     229.19     230.47     215.90     210.02       2.09     449.76
   311.60       1.54       6.86      23.66       9.68      10.82       4.62      74.62     228.93     228.13     228.53     215.90     209.71       2.09     451.74
   311.70       1.51       6.48      22.63       9.54      11.21       4.91      74.83     228.91     225.00     226.96     215.90     209.04       2.08     453.71
   311.80       1.47       6.08      21.97       9.12      11.55       5.08      74.99     228.04     224.91     226.48     215.90     214.33       2.06     448.13
   311.90       1.47       5.81      21.28       8.46      11.83       4.82      75.20     225.93     224.99     225.46     215.90     218.58       2.07     442.55
   312.00       1.43       5.68      20.78       7.83      12.32       4.87      75.64     225.65     223.81     224.73     215.90     222.05       2.05     433.36
   312.10       1.42       5.51      20.45       7.28      13.04       5.25      76.17     225.08     223.13     224.10     215.90     219.93       2.04     424.17
   312.20       1.38       5.38      20.43       6.98      13.88       5.70      76.52     224.87     223.09     223.98     215.90     226.53       2.04     421.47
   312.30       1.34       5.24      20.53       6.73      14.61       6.04      76.80     225.05     223.04     224.05     215.90     229.36       2.04     418.77
   312.40       1.32       5.20      20.59       6.48      15.01       5.75      77.03     224.72     222.99     223.86     215.90     228.15       2.03     427.36
   312.50       1.31       4.81      20.55       6.17      15.42       5.71      77.63     227.14     223.63     225.38     215.90     235.18       2.02     435.95
   312.60       1.33       4.70      20.42       5.85      15.54       5.57      78.23     228.87     224.97     226.92     215.90     237.60       2.01     452.16
   312.70       1.36       4.88      20.20       5.50      15.25       5.04      78.27     226.21     225.59     225.90     215.90     241.75       1.98     468.37
   312.80       1.39       4.90      19.92       5.15      14.85       4.70      78.67     227.31     226.58     226.95     215.90     248.27       1.95     483.70
   312.90       1.44       4.90      19.63       4.82      14.03       5.02      79.03     229.08     226.87     227.98     215.90     255.48       1.93     499.03
   313.00       1.45       4.90      19.22       4.49      11.83       7.58      78.86     230.67     227.00     228.83     215.90     261.93       1.91     505.69
   313.10       1.44       4.87      18.48       4.13       9.24       6.57      78.37     233.36     228.21     230.79     215.90     267.80       1.87     512.35
   313.20       1.46       4.68      17.32       3.72       7.73       4.39      77.59     236.95     229.59     233.27     215.90     272.18       1.82     507.14
   313.30       1.49       4.59      15.92       3.28       6.94       3.98      76.65     239.00     229.10     234.05     215.90     278.59       1.78     501.93
   313.40       1.46       4.62      14.16       2.95       6.97       4.39      75.64     237.14     227.14     232.14     215.90     290.27       1.74     486.08
   313.50       1.45       4.73      12.69       2.78       7.54       4.87      74.47     238.38     231.26     234.82     215.90     298.48       1.71     470.23
   313.60       1.45       4.72      12.33       2.82       8.26       4.36      72.99     238.22     229.73     233.98     215.90     307.06       1.71     445.15
