~Version information
  VERS.                            1.20: CWLS LAS  -  VERSION 1.20
  WRAP.                              NO: One line per depth step
~Well information
# MNEM.UNIT
# ====.================================:===================
  STRT.M                           0.10: First depth in file
  STOP.M                         793.10: Last depth in file
  STEP.M                           0.10: Depth increment
  NULL.                           -9999: Null values
  COMP.                         COMPANY: 
  WELL.                            WELL: 328
  FLD .                           FIELD: Karatobe
  CNTY.                          COUNTY: 
  STAT.                           STATE: 
  DATE.                        LOG DATE: 20-21.03.2007
  SRVC.                 SERVICE COMPANY: 
  UWI.           Unique Well Identifier: 
~Parametr information block
# MNEM.UNIT
# ====.================================:===================
~Other information
# ------------------------- REMARKS  AREA ------------------
~Curve information
# MNEM.UNIT
# ====.================================:===================
  DEPT.M                               : Depth curve
NGL   .C.U.                            : 
GR    .ur/h                            : 
GZ3   .OHMM                            : 
GZ3B  .OHMM                            : 
LL3   .OHMM                            : 
MLL   .OHMM                            : 
SP    .MV                              :
C1    .MM                              : 
C2    .MM                              : 
CALI  .MM                              : 
BS    .MM                              : 
CILR  .MMHO                            : 
RHOB  .G/C3                            : 
DT    .us/m                            : 
~ASCII Log Data
# ...
   480.30       1.30       5.56       2.87       3.86       4.97       3.40      60.63     273.08     277.26     275.17     215.90     352.49       2.10     495.46
   480.40       1.32       5.60       2.90       3.84       5.17       3.26      59.51     269.02     264.33     266.67     215.90     355.56       2.10     504.98
   480.50       1.35       5.69       3.04       3.93       5.53       3.30      58.29     249.97     269.61     259.79     215.90     365.45       2.08     514.50
   480.60       1.38       5.56       3.31       4.18       6.14       3.99      56.41     265.03     277.67     271.35     215.90     371.31       2.05     524.61
   480.70       1.39       5.56       3.78       4.54       6.72       5.29      54.45     279.23     271.31     275.27     215.90     387.14       2.07     534.72
   480.80       1.41       5.71       4.29       4.84       6.92       5.43      53.54     321.81     280.88     301.35     215.90     390.04       2.08     545.41
   480.90       1.40       5.76       4.78       5.07       6.74       4.48      53.62     334.52     278.64     306.58     215.90     383.73       2.11     556.10
   481.00       1.39       5.70       5.18       5.11       6.47       4.62      54.19     324.61     273.60     299.10     215.90     372.73       2.14     567.34
   481.10       1.39       5.71       5.42       5.00       6.16       4.27      55.09     294.41     262.80     278.60     215.90     362.21       2.15     578.58
   481.20       1.36       5.73       5.50       4.86       5.71       3.44      56.40     251.90     246.14     249.02     215.90     355.94       2.14     588.68
   481.30       1.34       5.75       5.55       4.70       5.36       3.45      58.83     217.33     231.63     224.48     215.90     360.67       2.12     598.78
   481.40       1.33       5.60       5.63       4.51       5.15       3.40      61.36     221.44     230.16     225.80     215.90     367.35       2.10     602.89
   481.50       1.32       5.61       5.68       4.35       4.81       3.39      63.54     225.12     230.98     228.05     215.90     372.40       2.08     607.00
   481.60       1.35       5.46       5.62       4.16       4.18       3.32      63.71     228.71     232.81     230.76     215.90     377.23       2.06     601.08
   481.70       1.34       5.39       5.42       3.96       3.62       2.43      63.57     230.21     234.36     232.29     215.90     382.62       2.06     595.17
   481.80       1.28       5.35       5.12       3.78       3.32       2.34      63.86     231.44     234.90     233.17     215.90     392.93       2.05     580.82
   481.90       1.29       5.24       4.70       3.64       3.17       2.20      64.08     244.54     233.29     238.92     215.90     403.75       2.03     566.47
   482.00       1.24       5.21       4.26       3.56       3.10       2.30      64.34     264.05     231.37     247.71     215.90     417.15       2.04     549.01
   482.10       1.20       5.01       3.97       3.60       3.17       2.37      64.63     271.00     233.49     252.24     215.90     430.34       2.08     531.55
   482.20       1.17       5.00       3.84       3.80       3.53       2.58      64.84     261.09     243.87     252.48     215.90     435.27       2.10     516.51
   482.30       1.20       5.05       3.79       4.06       4.08       3.94      64.96     254.32     252.13     253.23     215.90     440.74       2.12     501.47
   482.40       1.18       5.04       3.80       4.28       4.34       4.78      65.19     257.44     256.68     257.06     215.90     441.41       2.11     491.97
   482.50       1.19       4.90       3.83       4.39       4.23       3.47      65.51     262.59     264.47     263.53     215.90     434.61       2.13     482.46
   482.60       1.17       4.53       3.83       4.39       3.71       2.57      65.56     283.40     264.13     273.77     215.90     422.45       2.14     479.34
   482.70       1.19       4.56       3.72       4.33       3.33       2.33      65.22     239.73     258.00     248.86     215.90     405.56       2.18     476.21
   482.80       1.19       4.42       3.57       4.25       3.17       2.45      64.85     232.82     244.03     238.42     215.90     396.58       2.19     478.27
   482.90       1.21       4.50       3.39       4.22       3.15       2.38      64.20     234.54     237.73     236.13     215.90     401.18       2.18     480.34
   483.00       1.17       4.80       3.24       4.28       3.19       2.42      64.19     234.68     238.01     236.35     215.90     407.63       2.17     484.03
   483.10       1.18       4.71       3.17       4.47       3.31       2.56      65.58     232.27     239.27     235.77     215.90     408.64       2.20     487.73
   483.20       1.18       4.65       3.15       4.72       3.55       2.64      67.60     227.42     242.23     234.82     215.90     410.24       2.21     490.30
   483.30       1.18       4.71       3.15       5.01       3.86       2.79      69.04     228.67     243.26     235.97     215.90     410.68       2.21     492.87
   483.40       1.20       4.92       3.15       5.28       4.22       2.95      69.89     227.03     238.84     232.93     215.90     406.68       2.22     494.09
   483.50       1.23       5.32       3.16       5.49       4.60       3.37      70.67     226.99     243.70     235.34     215.90     400.98       2.21     495.31
   483.60       1.26       5.45       3.19       5.65       4.89       3.46      71.60     224.29     248.80     236.55     215.90     393.71       2.19     496.18
   483.70       1.29       5.78       3.23       5.76       5.03       3.71      72.81     224.71     249.36     237.03     215.90     382.93       2.20     497.05
   483.80       1.31       6.02       3.28       5.83       5.04       3.55      73.51     229.01     246.79     237.90     215.90     374.26       2.21     497.99
   483.90       1.29       5.93       3.34       5.90       5.02       3.49      74.25     231.26     245.79     238.52     215.90     363.78       2.23     498.93
   484.00       1.34       5.86       3.40       6.00       5.04       3.57      74.75     227.16     249.08     238.12     215.90     357.42       2.22     496.65
   484.10       1.32       5.86       3.43       6.11       5.15       3.54      75.56     238.19     247.30     242.75     215.90     357.59       2.22     494.36
   484.20       1.35       5.77       3.46       6.20       5.29       3.87      75.99     247.73     246.75     247.24     215.90     354.65       2.22     487.44
   484.30       1.41       5.71       3.45       6.24       5.33       4.08      75.49     251.75     244.77     248.26     215.90     352.97       2.23     480.52
   484.40       1.37       5.72       3.43       6.26       5.25       3.96      73.98     243.24     243.29     243.27     215.90     349.22       2.24     468.99
   484.50       1.38       5.74       3.42       6.23       5.11       4.25      71.53     230.98     243.38     237.18     215.90     344.97       2.24     457.47
   484.60       1.38       5.87       3.41       6.18       5.07       3.85      69.48     230.85     243.53     237.19     215.90     346.29       2.23     446.94
   484.70       1.33       6.00       3.46       6.15       5.09       3.72      67.20     227.29     245.97     236.63     215.90     350.48       2.21     436.42
   484.80       1.31       6.07       3.55       6.15       5.26       3.82      64.87     229.33     245.87     237.60     215.90     352.75       2.21     430.85
   484.90       1.36       5.96       3.62       6.15       5.35       3.84      62.65     224.76     248.50     236.63     215.90     353.40       2.23     425.29
   485.00       1.39       5.59       3.64       6.07       5.22       3.90      60.87     234.70     250.59     242.65     215.90     351.22       2.23     426.19
   485.10       1.42       5.51       3.55       5.89       4.98       4.13      59.19     244.47     248.71     246.59     215.90     349.80       2.25     427.09
