~Version information
  VERS.                            1.20: CWLS LAS  -  VERSION 1.20
  WRAP.                              NO: One line per depth step
~Well information
# MNEM.UNIT
# ====.================================:===================
  STRT.M                           0.10: First depth in file
  STOP.M                         793.10: Last depth in file
  STEP.M                           0.10: Depth increment
  NULL.                           -9999: Null values
  COMP.                         COMPANY: 
  WELL.                            WELL: 328
  FLD .                           FIELD: Karatobe
  CNTY.                          COUNTY: 
  STAT.                           STATE: 
  DATE.                        LOG DATE: 20-21.03.2007
  SRVC.                 SERVICE COMPANY: 
  UWI.           Unique Well Identifier: 
~Parametr information block
# MNEM.UNIT
# ====.================================:===================
~Other information
# ------------------------- REMARKS  AREA ------------------
~Curve information
# MNEM.UNIT
# ====.================================:===================
  DEPT.M                               : Depth curve
NGL   .C.U.                            : 
GR    .ur/h                            : 
GZ3   .OHMM                            : 
GZ3B  .OHMM                            : 
LL3   .OHMM                            : 
MLL   .OHMM                            : 
SP    .MV                              :
C1    .MM                              : 
C2    .MM                              : 
CALI  .MM                              : 
BS    .MM                              : 
CILR  .MMHO                            : 
RHOB  .G/C3                            : 
DT    .us/m                            : 
~ASCII Log Data
# ...
   220.60       1.24       4.72       5.62       6.60       5.69       3.59      81.52     237.61     239.00     238.30     215.90     281.65       2.15     614.25
   220.70       1.22       4.73       5.64       6.59       5.64       3.55      82.11     238.55     237.99     238.27     215.90     278.40       2.14     601.89
   220.80       1.23       4.66       5.65       6.60       5.54       3.60      83.02     238.42     236.96     237.69     215.90     276.43       2.14     586.83
   220.90       1.22       4.46       5.66       6.66       5.46       3.29      84.16     238.44     234.81     236.62     215.90     274.81       2.12     571.76
   221.00       1.22       4.59       5.66       6.74       5.46       3.51      85.32     238.44     234.58     236.51     215.90     273.26       2.16     558.41
   221.10       1.24       4.57       5.68       6.83       5.60       3.63      86.43     237.24     234.12     235.68     215.90     275.46       2.16     545.07
   221.20       1.22       4.61       5.70       6.99       5.72       4.07      87.12     237.50     233.58     235.54     215.90     274.83       2.16     535.57
   221.30       1.23       4.71       5.75       7.15       5.80       3.89      86.89     238.17     232.79     235.48     215.90     275.61       2.16     526.07
   221.40       1.23       4.81       5.81       7.32       5.77       3.88      86.69     237.38     231.77     234.58     215.90     276.60       2.15     521.13
   221.50       1.26       4.86       5.87       7.49       5.86       3.88      86.60     236.06     231.78     233.92     215.90     277.04       2.15     516.19
   221.60       1.30       4.80       5.97       7.70       6.68       5.33      86.37     236.12     231.88     234.00     215.90     277.07       2.17     515.66
   221.70       1.33       4.66       6.10       7.92       9.06      84.18      85.73     236.23     232.82     234.53     215.90     278.57       2.20     515.12
   221.80       1.38       4.52       6.32       8.12      13.76     140.55      84.76     238.15     233.18     235.66     215.90     281.74       2.21     517.52
   221.90       1.41       4.57       6.66       8.19      15.38     100.50      83.65     239.45     233.32     236.39     215.90     280.29       2.24     519.91
   222.00       1.44       4.55       7.04       8.08      13.57      37.49      82.69     238.29     233.43     235.86     215.90     277.80       2.25     522.74
   222.10       1.49       4.48       7.43       7.79       8.70       5.49      81.84     238.28     233.17     235.72     215.90     275.20       2.23     525.58
   222.20       1.50       4.50       7.69       7.36       6.83       4.18      80.69     237.79     232.44     235.11     215.90     271.19       2.20     523.86
   222.30       1.48       4.50       7.75       6.88       5.88       4.37      79.38     239.83     233.11     236.47     215.90     270.03       2.16     522.14
   222.40       1.45       4.52       7.57       6.46       5.54       3.57      78.85     240.68     234.27     237.47     215.90     268.41       2.14     515.16
   222.50       1.41       4.52       7.26       6.16       5.32       3.26      78.69     237.17     235.70     236.43     215.90     267.50       2.11     508.17
   222.60       1.36       4.20       6.92       5.92       5.26       3.24      78.60     237.92     234.45     236.18     215.90     273.63       2.08     497.10
   222.70       1.39       4.00       6.57       5.75       5.32       3.23      78.62     236.32     235.81     236.06     215.90     277.28       2.08     486.03
   222.80       1.38       3.97       6.24       5.61       5.36       3.14      78.92     237.10     238.46     237.78     215.90     281.40       2.07     476.65
   222.90       1.38       3.98       5.95       5.49       5.36       3.12      79.61     239.35     238.18     238.77     215.90     285.27       2.05     467.27
   223.00       1.36       4.14       5.71       5.40       5.38       3.23      80.16     237.27     235.04     236.16     215.90     286.95       2.04     462.64
   223.10       1.34       4.14       5.53       5.34       5.40       3.13      80.33     238.69     232.84     235.77     215.90     287.30       2.04     458.01
   223.20       1.35       4.05       5.42       5.33       5.40       3.35      80.99     241.38     231.83     236.60     215.90     287.60       2.04     459.66
   223.30       1.37       4.06       5.39       5.37       5.41       3.11      81.65     241.58     231.76     236.67     215.90     287.33       2.08     461.31
   223.40       1.39       4.08       5.42       5.46       5.47       3.06      82.61     258.88     231.30     245.09     215.90     287.70       2.11     468.21
   223.50       1.40       4.02       5.52       5.60       5.54       3.02      83.70     279.31     231.78     255.55     215.90     287.68       2.13     475.11
   223.60       1.37       4.04       5.66       5.76       5.60       3.06      85.01     264.50     232.00     248.25     215.90     289.03       2.15     483.21
   223.70       1.38       4.10       5.81       5.91       5.65       3.04      86.38     248.41     231.61     240.01     215.90     287.34       2.14     491.30
   223.80       1.36       4.26       5.96       6.05       5.68       3.04      87.88     243.79     230.48     237.13     215.90     285.13       2.13     497.31
   223.90       1.32       4.37       6.11       6.14       5.70       3.16      89.41     240.29     229.73     235.01     215.90     283.86       2.12     503.31
   224.00       1.26       4.52       6.25       6.23       5.71       3.11      90.97     239.49     229.62     234.55     215.90     285.12       2.10     503.95
   224.10       1.28       4.45       6.38       6.29       5.72       3.05      92.37     239.53     229.62     234.57     215.90     284.86       2.10     504.59
   224.20       1.34       4.45       6.50       6.34       5.80       3.01      92.97     238.56     229.93     234.25     215.90     283.64       2.11     501.81
   224.30       1.35       4.49       6.60       6.37       5.90       3.18      93.44     237.21     229.99     233.60     215.90     284.26       2.12     499.03
   224.40       1.33       4.52       6.63       6.38       5.92       3.28      94.05     237.11     229.98     233.54     215.90     285.46       2.12     494.56
   224.50       1.34       4.40       6.61       6.37       5.87       3.14      94.00     237.42     229.89     233.66     215.90     285.53       2.14     490.09
   224.60       1.32       4.21       6.55       6.35       5.83       2.98      93.88     235.74     229.94     232.84     215.90     284.21       2.14     486.37
   224.70       1.34       4.08       6.47       6.34       5.80       3.05      93.78     234.78     230.09     232.43     215.90     283.59       2.14     482.64
   224.80       1.29       4.03       6.39       6.33       5.78       3.15      93.77     234.52     231.22     232.87     215.90     284.39       2.11     480.15
   224.90       1.27       4.02       6.31       6.32       5.72       2.93      93.99     235.13     239.32     237.23     215.90     282.42       2.10     477.66
   225.00       1.30       4.02       6.25       6.31       5.65       2.68      94.43     235.61     243.43     239.52     215.90     286.32       2.11     477.11
   225.10       1.32       4.02       6.17       6.29       5.60       2.68      94.75     234.52     233.18     233.85     215.90     283.73       2.12     476.56
   225.20       1.32       3.96       6.11       6.27       5.57       2.73      95.31     235.99     233.36     234.68     215.90     284.09       2.12     477.70
   225.30       1.34       3.99       6.04       6.24       5.63       2.95      96.44     236.57     235.09     235.83     215.90     283.88       2.12     478.85
   225.40       1.36       3.91       5.95       6.23       5.78       3.23      97.79     237.08     236.59     236.83     215.90     285.52       2.12     480.69
