~Version information
  VERS.                            1.20: CWLS LAS  -  VERSION 1.20
  WRAP.                              NO: One line per depth step
~Well information
# MNEM.UNIT
# ====.================================:===================
  STRT.M                           0.10: First depth in file
  STOP.M                         793.10: Last depth in file
  STEP.M                           0.10: Depth increment
  NULL.                           -9999: Null values
  COMP.                         COMPANY: 
  WELL.                            WELL: 328
  FLD .                           FIELD: Karatobe
  CNTY.                          COUNTY: 
  STAT.                           STATE: 
  DATE.                        LOG DATE: 20-21.03.2007
  SRVC.                 SERVICE COMPANY: 
  UWI.           Unique Well Identifier: 
~Parametr information block
# MNEM.UNIT
# ====.================================:===================
~Other information
# ------------------------- REMARKS  AREA ------------------
~Curve information
# MNEM.UNIT
# ====.================================:===================
  DEPT.M                               : Depth curve
NGL   .C.U.                            : 
GR    .ur/h                            : 
GZ3   .OHMM                            : 
GZ3B  .OHMM                            : 
LL3   .OHMM                            : 
MLL   .OHMM                            : 
SP    .MV                              :
C1    .MM                              : 
C2    .MM                              : 
CALI  .MM                              : 
BS    .MM                              : 
CILR  .MMHO                            : 
RHOB  .G/C3                            : 
DT    .us/m                            : 
~ASCII Log Data
# ...
   176.50       1.27       3.91       2.71       3.13       3.43       2.52      79.49     253.19     246.09     249.64     215.90     437.75       2.05     542.84
   176.60       1.24       4.11       2.71       3.14       3.41       2.49      77.54     254.10     246.06     250.08     215.90     438.56       2.03     543.11
   176.70       1.26       4.07       2.71       3.15       3.36       2.30      76.33     254.16     245.51     249.83     215.90     435.85       2.01     543.38
   176.80       1.30       4.15       2.71       3.15       3.33       2.34      75.31     250.22     243.85     247.03     215.90     430.46       1.99     543.66
   176.90       1.28       4.05       2.70       3.14       3.35       2.37      74.69     252.76     242.53     247.64     215.90     424.67       1.99     543.95
   177.00       1.28       3.94       2.71       3.14       3.37       2.43      74.38     250.12     242.73     246.43     215.90     420.48       2.00     544.40
   177.10       1.32       3.79       2.72       3.14       3.39       2.51      74.38     250.79     242.75     246.77     215.90     421.30       1.99     544.86
   177.20       1.34       3.69       2.74       3.15       3.41       2.62      74.70     248.38     242.89     245.64     215.90     421.69       1.99     545.11
   177.30       1.33       3.75       2.75       3.15       3.45       2.57      76.09     248.00     243.08     245.54     215.90     424.00       2.00     545.37
   177.40       1.33       3.75       2.78       3.14       3.49       2.50      77.81     249.70     243.69     246.70     215.90     424.56       2.00     545.33
   177.50       1.33       3.81       2.80       3.15       3.54       2.53      80.22     251.05     244.31     247.68     215.90     426.05       2.01     545.29
   177.60       1.34       3.66       2.84       3.15       3.59       2.63      81.41     252.14     244.96     248.55     215.90     426.04       2.02     544.85
   177.70       1.36       3.77       2.87       3.16       3.63       2.80      82.02     254.21     245.83     250.02     215.90     425.68       2.01     544.42
   177.80       1.37       3.76       2.89       3.17       3.64       2.72      82.56     254.21     245.83     250.02     215.90     426.24       2.00     543.69
   177.90       1.36       3.65       2.91       3.17       3.63       2.70      83.04     254.38     245.92     250.15     215.90     424.43       1.99     542.96
   178.00       1.33       3.62       2.93       3.15       3.59       2.60      83.56     255.48     245.97     250.73     215.90     424.49       1.97     541.99
   178.10       1.31       3.53       2.93       3.12       3.52       2.49      84.30     257.52     245.92     251.72     215.90     422.51       1.97     541.03
   178.20       1.33       3.56       2.91       3.10       3.44       2.45      84.94     258.48     245.85     252.16     215.90     422.88       2.00     539.81
   178.30       1.27       3.68       2.88       3.08       3.39       2.59      85.57     254.92     245.84     250.38     215.90     426.55       2.02     538.59
   178.40       1.29       3.74       2.84       3.07       3.41       2.96      86.12     254.78     245.77     250.27     215.90     430.81       2.01     537.03
   178.50       1.30       3.85       2.81       3.07       3.50       2.93      86.42     258.12     245.81     251.96     215.90     436.97       2.01     535.46
   178.60       1.28       3.97       2.79       3.07       3.55       2.51      86.29     258.97     245.91     252.44     215.90     443.50       1.99     533.25
   178.70       1.32       3.88       2.78       3.07       3.56       2.44      85.76     260.34     245.96     253.15     215.90     447.73       2.00     531.04
   178.80       1.36       3.78       2.78       3.07       3.55       2.39      85.13     259.07     245.60     252.34     215.90     449.61       2.01     528.09
   178.90       1.36       3.69       2.79       3.07       3.56       2.46      85.07     255.72     245.28     250.50     215.90     449.57       2.04     525.14
   179.00       1.37       3.64       2.80       3.07       3.60       2.53      84.67     254.46     245.49     249.97     215.90     445.91       2.07     522.27
   179.10       1.40       3.57       2.82       3.06       3.62       2.41      84.79     253.84     245.59     249.71     215.90     442.61       2.09     519.40
   179.20       1.39       3.51       2.83       3.06       3.56       2.48      84.82     252.36     245.60     248.98     215.90     443.53       2.11     518.44
   179.30       1.40       3.51       2.85       3.05       3.40       2.81      85.14     252.68     245.73     249.21     215.90     441.62       2.11     517.47
   179.40       1.38       3.53       2.85       3.03       3.20       2.69      85.78     252.10     245.10     248.60     215.90     435.81       2.10     519.87
   179.50       1.41       3.66       2.83       3.01       2.93       2.30      86.34     252.88     244.26     248.57     215.90     431.47       2.09     522.26
   179.60       1.35       3.67       2.80       3.00       2.72       2.23      86.87     253.46     243.43     248.44     215.90     433.62       2.08     527.16
   179.70       1.35       3.63       2.75       3.02       2.63       2.16      88.01     251.12     242.61     246.87     215.90     436.36       2.08     532.07
   179.80       1.36       3.64       2.70       3.09       2.74       2.03      89.53     252.30     240.59     246.44     215.90     442.93       2.09     535.49
   179.90       1.37       3.70       2.66       3.19       2.94       3.15      91.03     255.39     240.58     247.98     215.90     455.95       2.10     538.92
   180.00       1.35       3.74       2.64       3.30       3.11       2.61      91.96     255.04     240.21     247.63     215.90     471.45       2.11     538.02
   180.10       1.31       3.70       2.64       3.39       3.25       2.53      92.76     252.56     240.48     246.52     215.90     480.49       2.09     537.12
   180.20       1.28       3.80       2.66       3.45       3.28       2.47      93.56     249.69     241.92     245.81     215.90     478.87       2.08     532.23
   180.30       1.26       3.83       2.68       3.49       3.33       2.48      94.81     249.17     243.37     246.27     215.90     473.01       2.08     527.33
   180.40       1.26       3.95       2.70       3.53       3.40       2.66      94.45     249.06     245.26     247.16     215.90     454.41       2.07     522.91
   180.50       1.29       4.03       2.72       3.55       3.47       2.69      93.83     249.74     246.55     248.15     215.90     442.31       2.05     518.48
   180.60       1.31       4.03       2.73       3.58       3.46       2.73      92.80     250.44     247.77     249.11     215.90     432.47       2.03     516.88
   180.70       1.32       4.07       2.76       3.60       3.42       2.51      91.46     250.81     248.97     249.89     215.90     427.21       2.03     515.28
   180.80       1.33       4.01       2.78       3.62       3.38       2.44      89.75     250.47     250.04     250.26     215.90     421.87       2.05     516.58
   180.90       1.32       3.90       2.79       3.64       3.43       2.40      87.73     250.08     250.06     250.07     215.90     418.10       2.07     517.89
   181.00       1.32       3.85       2.78       3.66       3.60       2.52      86.13     250.88     248.94     249.91     215.90     418.13       2.10     519.70
   181.10       1.32       3.76       2.77       3.68       3.74       2.48      84.74     250.05     248.44     249.24     215.90     421.04       2.09     521.52
   181.20       1.30       3.70       2.76       3.68       3.79       2.43      83.24     248.41     248.54     248.48     215.90     424.19       2.09     522.96
   181.30       1.36       3.73       2.76       3.67       3.76       2.36      81.87     248.69     248.65     248.67     215.90     426.10       2.11     524.41
