~Version information
  VERS.                            1.20: CWLS LAS  -  VERSION 1.20
  WRAP.                              NO: One line per depth step
~Well information
# MNEM.UNIT
# ====.================================:===================
  STRT.M                           0.10: First depth in file
  STOP.M                         793.10: Last depth in file
  STEP.M                           0.10: Depth increment
  NULL.                           -9999: Null values
  COMP.                         COMPANY: 
  WELL.                            WELL: 328
  FLD .                           FIELD: Karatobe
  CNTY.                          COUNTY: 
  STAT.                           STATE: 
  DATE.                        LOG DATE: 20-21.03.2007
  SRVC.                 SERVICE COMPANY: 
  UWI.           Unique Well Identifier: 
~Parametr information block
# MNEM.UNIT
# ====.================================:===================
~Other information
# ------------------------- REMARKS  AREA ------------------
~Curve information
# MNEM.UNIT
# ====.================================:===================
  DEPT.M                               : Depth curve
NGL   .C.U.                            : 
GR    .ur/h                            : 
GZ3   .OHMM                            : 
GZ3B  .OHMM                            : 
LL3   .OHMM                            : 
MLL   .OHMM                            : 
SP    .MV                              :
C1    .MM                              : 
C2    .MM                              : 
CALI  .MM                              : 
BS    .MM                              : 
CILR  .MMHO                            : 
RHOB  .G/C3                            : 
DT    .us/m                            : 
~ASCII Log Data
# ...
   700.80       1.70       4.17       3.73       3.85       4.42       3.63      82.84     220.92     238.02     229.47     215.90     393.45       2.36     331.58
   700.90       1.70       4.15       3.68       3.86       4.38       3.72      83.54     221.60     237.42     229.51     215.90     393.43       2.38     334.58
   701.00       1.71       4.25       3.63       3.88       4.34       4.02      82.90     221.71     236.97     229.34     215.90     392.34       2.38     338.92
   701.10       1.72       4.14       3.57       3.90       4.31       3.99      81.46     220.74     236.89     228.82     215.90     391.82       2.37     343.26
   701.20       1.75       4.05       3.52       3.93       4.26       3.72      79.72     220.91     236.94     228.93     215.90     392.35       2.34     348.82
   701.30       1.75       4.03       3.47       3.98       4.25       3.78      78.18     222.12     237.17     229.65     215.90     392.69       2.35     354.38
   701.40       1.73       4.05       3.43       4.03       4.24       3.84      76.24     222.68     243.90     233.29     215.90     391.91       2.35     357.46
   701.50       1.73       4.13       3.39       4.07       4.25       3.79      74.91     223.92     245.96     234.94     215.90     391.14       2.37     360.54
   701.60       1.70       4.28       3.34       4.11       4.25       3.88      73.97     225.24     247.50     236.37     215.90     392.01       2.38     358.82
   701.70       1.71       4.41       3.31       4.15       4.30       4.02      73.26     224.41     246.30     235.36     215.90     390.59       2.41     357.11
   701.80       1.70       4.43       3.28       4.18       4.40       4.53      72.81     225.55     244.38     234.97     215.90     388.05       2.43     349.49
   701.90       1.70       4.32       3.26       4.21       4.51       4.90      72.14     225.71     243.90     234.81     215.90     380.92       2.41     341.87
   702.00       1.72       4.09       3.24       4.23       4.54       4.72      71.87     225.93     244.48     235.20     215.90     374.63       2.39     334.59
   702.10       1.72       4.00       3.24       4.25       4.55       4.36      72.07     227.99     245.13     236.56     215.90     372.19       2.38     327.31
   702.20       1.71       3.98       3.24       4.26       4.61       4.40      72.69     229.84     245.87     237.85     215.90     370.79       2.38     321.96
   702.30       1.68       3.95       3.25       4.28       4.66       4.68      73.35     230.59     247.11     238.85     215.90     368.63       2.38     316.61
   702.40       1.66       4.01       3.26       4.30       4.69       4.55      74.11     229.25     249.62     239.44     215.90     365.84       2.37     317.04
   702.50       1.70       4.11       3.25       4.31       4.68       4.48      74.89     232.21     251.96     242.09     215.90     364.37       2.40     317.47
   702.60       1.68       4.19       3.24       4.33       4.66       4.77      75.72     231.54     246.27     238.90     215.90     363.29       2.44     321.29
   702.70       1.65       4.19       3.23       4.36       4.65       4.86      76.59     230.80     247.72     239.26     215.90     362.16       2.44     325.11
   702.80       1.61       4.11       3.23       4.39       4.63       5.84      77.41     229.69     247.77     238.73     215.90     363.01       2.43     329.09
   702.90       1.59       4.00       3.23       4.43       4.63       5.21      77.94     229.75     247.03     238.39     215.90     363.40       2.42     333.06
   703.00       1.59       3.86       3.25       4.47       4.66       5.15      78.51     230.81     248.38     239.60     215.90     363.77       2.39     336.53
   703.10       1.61       3.87       3.27       4.53       4.73       5.02      79.20     231.83     249.53     240.68     215.90     363.43       2.40     340.00
   703.20       1.65       3.90       3.29       4.58       4.84       4.99      80.00     232.53     249.14     240.84     215.90     363.53       2.42     337.85
   703.30       1.68       3.90       3.31       4.63       4.92       4.81      80.90     232.45     246.37     239.41     215.90     363.32       2.44     335.69
   703.40       1.68       3.84       3.34       4.66       4.97       4.74      81.99     232.05     242.94     237.50     215.90     362.49       2.44     332.49
   703.50       1.65       3.77       3.37       4.69       4.98       5.23      83.11     231.85     240.44     236.15     215.90     361.29       2.42     329.29
   703.60       1.70       3.76       3.43       4.73       5.00       5.46      84.09     231.93     238.72     235.33     215.90     359.77       2.39     321.03
   703.70       1.75       3.78       3.50       4.76       5.02       4.87      84.85     232.65     239.11     235.88     215.90     358.88       2.39     312.76
   703.80       1.78       3.77       3.55       4.78       4.94       4.41      84.69     233.39     240.07     236.73     215.90     354.61       2.44     302.41
   703.90       1.76       3.72       3.59       4.80       4.83       4.23      84.16     235.26     235.59     235.42     215.90     351.83       2.44     292.05
   704.00       1.73       3.71       3.61       4.80       4.67       4.23      83.71     235.72     237.89     236.81     215.90     350.69       2.45     279.48
   704.10       1.74       3.79       3.62       4.80       4.57       4.38      83.79     234.46     237.71     236.08     215.90     350.09       2.47     266.91
   704.20       1.75       3.78       3.62       4.80       4.53       4.57      84.18     233.00     237.26     235.13     215.90     351.25       2.47     254.35
   704.30       1.69       3.72       3.61       4.80       4.53       4.80      84.72     234.75     237.31     236.03     215.90     351.60       2.46     241.80
   704.40       1.70       3.73       3.58       4.81       4.55       4.86      85.22     237.06     242.33     239.70     215.90     353.04       2.45     231.67
   704.50       1.69       3.74       3.54       4.84       4.60       4.65      85.56     239.27     249.44     244.36     215.90     356.22       2.44     221.53
   704.60       1.73       3.71       3.50       4.86       4.73       4.79      85.62     241.25     250.71     245.98     215.90     357.69       2.42     215.42
   704.70       1.74       3.82       3.46       4.91       5.02       7.61      85.21     241.99     249.10     245.55     215.90     360.62       2.41     209.30
   704.80       1.77       4.02       3.44       4.97       5.33      15.93      84.94     241.91     249.78     245.84     215.90     363.21       2.41     207.04
   704.90       1.75       4.05       3.45       5.04       5.62      28.90      84.73     243.08     250.79     246.94     215.90     365.96       2.42     204.78
   705.00       1.74       3.86       3.47       5.10       5.81      45.11      84.37     243.70     250.17     246.93     215.90     370.37       2.49     202.84
   705.10       1.75       3.72       3.51       5.15       5.85      32.92      83.66     238.28     251.73     245.01     215.90     369.57       2.56     200.90
   705.20       1.74       3.76       3.55       5.19       5.81      10.30      82.49     233.14     252.85     242.99     215.90     365.52       2.55     196.64
   705.30       1.71       3.84       3.58       5.21       5.73       7.00      80.82     230.45     249.99     240.22     215.90     362.05       2.55     192.39
   705.40       1.67       3.86       3.61       5.22       5.66       6.26      79.18     230.26     244.63     237.45     215.90     360.39       2.54     188.53
   705.50       1.67       3.87       3.63       5.23       5.59       6.28      77.87     230.36     238.99     234.67     215.90     357.58       2.53     184.66
   705.60       1.72       3.78       3.66       5.26       5.44       5.33      76.36     233.59     235.63     234.61     215.90     355.43       2.51     184.67
