~Version information
  VERS.                            1.20: CWLS LAS  -  VERSION 1.20
  WRAP.                              NO: One line per depth step
~Well information
# MNEM.UNIT
# ====.================================:===================
  STRT.M                           0.10: First depth in file
  STOP.M                         793.10: Last depth in file
  STEP.M                           0.10: Depth increment
  NULL.                           -9999: Null values
  COMP.                         COMPANY: 
  WELL.                            WELL: 328
  FLD .                           FIELD: Karatobe
  CNTY.                          COUNTY: 
  STAT.                           STATE: 
  DATE.                        LOG DATE: 20-21.03.2007
  SRVC.                 SERVICE COMPANY: 
  UWI.           Unique Well Identifier: 
~Parametr information block
# MNEM.UNIT
# ====.================================:===================
~Other information
# ------------------------- REMARKS  AREA ------------------
~Curve information
# MNEM.UNIT
# ====.================================:===================
  DEPT.M                               : Depth curve
NGL   .C.U.                            : 
GR    .ur/h                            : 
GZ3   .OHMM                            : 
GZ3B  .OHMM                            : 
LL3   .OHMM                            : 
MLL   .OHMM                            : 
SP    .MV                              :
C1    .MM                              : 
C2    .MM                              : 
CALI  .MM                              : 
BS    .MM                              : 
CILR  .MMHO                            : 
RHOB  .G/C3                            : 
DT    .us/m                            : 
~ASCII Log Data
# ...
   397.00       1.23       5.86       6.85       6.69       4.98       3.08      61.50     216.58     219.90     218.24     215.90     325.23       2.17     519.22
   397.10       1.22       5.84       6.67       6.98       5.02       3.04      62.16     218.23     221.04     219.63     215.90     327.98       2.14     528.19
   397.20       1.24       5.79       6.58       7.34       5.22       3.11      63.11     219.94     221.12     220.53     215.90     328.98       2.11     531.30
   397.30       1.27       5.76       6.57       7.70       5.75       3.13      64.28     221.09     220.65     220.87     215.90     326.47       2.11     534.41
   397.40       1.27       5.87       6.68       8.07       6.66       3.56      65.68     221.82     233.13     227.47     215.90     320.78       2.09     530.11
   397.50       1.26       5.82       6.88       8.41       7.50       4.12      67.58     220.42     229.11     224.76     215.90     319.55       2.07     525.80
   397.60       1.29       5.70       7.13       8.65       8.28       4.21      69.67     218.45     221.30     219.88     215.90     316.78       2.02     521.84
   397.70       1.32       5.48       7.38       8.74       8.76       4.67      71.46     217.32     221.14     219.23     215.90     310.95       1.98     517.89
   397.80       1.31       5.05       7.56       8.54       8.19       5.28      72.19     218.57     223.29     220.93     215.90     307.32       1.93     516.60
   397.90       1.32       4.86       7.44       7.97       6.65       5.16      72.66     220.81     225.46     223.14     215.90     288.23       1.91     515.31
   398.00       1.33       4.79       7.01       7.13       5.67       3.37      73.20     223.29     226.99     225.14     215.90     275.19       1.87     519.72
   398.10       1.30       4.86       6.28       6.19       5.18       2.61      73.74     223.75     226.92     225.34     215.90     275.22       1.85     524.12
   398.20       1.29       5.05       5.54       5.34       4.89       2.70      74.25     223.89     227.93     225.91     215.90     279.34       1.80     531.23
   398.30       1.30       5.18       4.87       4.79       4.70       2.64      74.40     223.83     230.09     226.96     215.90     284.72       1.77     538.34
   398.40       1.31       5.27       4.39       4.49       4.55       2.95      74.19     223.57     233.56     228.57     215.90     298.68       1.81     541.35
   398.50       1.32       5.25       4.17       4.43       4.45       3.08      73.58     246.02     271.59     258.80     215.90     302.94       1.86     544.36
   398.60       1.30       5.15       3.99       4.60       4.47       2.83      72.52     288.84     317.47     303.15     215.90     301.44       1.91     544.38
   398.70       1.30       5.04       3.89       4.88       4.56       2.61      70.87     322.04     361.13     341.59     215.90     300.19       1.94     544.40
   398.80       1.33       5.01       3.88       5.25       4.84       2.38      68.72     312.40     391.72     352.06     215.90     299.45       1.97     542.67
   398.90       1.38       5.18       4.01       5.74       5.48       2.73      67.06     314.29     397.33     355.81     215.90     297.01       2.00     540.94
   399.00       1.35       5.37       4.39       6.37       6.47       4.16      65.27     312.32     377.77     345.05     215.90     292.97       2.03     541.52
   399.10       1.38       5.33       4.87       7.00       7.44       4.53      63.39     311.70     349.11     330.41     215.90     290.37       2.04     542.10
   399.20       1.37       5.15       5.37       7.60       8.29       4.76      61.57     326.75     351.20     338.97     215.90     289.69       2.03     542.21
   399.30       1.38       5.02       5.84       7.99       8.95       4.86      60.31     330.69     355.96     343.32     215.90     290.50       2.06     542.31
   399.40       1.34       5.00       6.27       8.19       9.50       5.16      59.13     329.65     327.55     328.60     215.90     286.12       2.10     542.37
   399.50       1.32       5.17       6.57       8.21      10.07       5.27      57.70     295.91     280.27     288.09     215.90     270.01       2.06     542.42
   399.60       1.34       5.29       6.84       8.09      10.77       4.94      55.99     236.21     228.34     232.28     215.90     264.52       2.03     544.07
   399.70       1.30       5.16       7.15       7.94      11.49       5.08      54.28     232.61     228.34     230.47     215.90     267.65       2.02     545.72
   399.80       1.33       5.23       7.55       7.85      12.13       5.29      54.06     230.80     228.55     229.67     215.90     273.46       2.01     551.41
   399.90       1.32       4.96       8.00       7.77      12.72       5.14      54.60     230.54     227.90     229.22     215.90     278.88       2.03     557.09
   400.00       1.31       5.02       8.49       7.68      12.97       5.72      55.62     232.13     225.05     228.59     215.90     283.23       2.02     558.15
   400.10       1.33       4.97       8.97       7.52      12.80       5.93      57.23     233.98     225.75     229.87     215.90     285.80       2.01     559.20
   400.20       1.36       4.73       9.38       7.34      11.80       6.26      59.25     232.52     225.79     229.16     215.90     284.69       2.00     556.10
   400.30       1.38       4.72       9.65       7.09      10.38       5.81      61.50     228.12     224.95     226.54     215.90     288.79       1.97     553.00
   400.40       1.36       4.77       9.62       6.77       8.52       5.80      63.79     227.35     225.67     226.51     215.90     297.23       1.95     545.78
   400.50       1.38       4.95       9.27       6.29       6.62       5.61      65.73     226.83     226.33     226.58     215.90     300.03       1.94     538.55
   400.60       1.36       4.96       8.62       5.66       5.46       3.80      66.88     227.64     226.80     227.22     215.90     289.76       1.92     536.64
   400.70       1.33       4.97       7.70       5.04       5.27       2.66      67.46     230.39     226.98     228.69     215.90     299.76       1.90     534.73
   400.80       1.33       5.13       6.79       4.57       5.38       2.94      68.50     231.18     225.50     228.34     215.90     314.77       1.87     536.93
   400.90       1.30       5.28       6.10       4.25       5.59       3.39      69.23     230.05     226.32     228.18     215.90     325.04       1.84     539.13
   401.00       1.30       5.48       5.70       4.15       5.57       2.66      69.50     238.16     230.28     234.22     215.90     357.00       1.85     547.63
   401.10       1.31       5.68       5.53       4.12       5.24       2.98      69.58     261.39     242.22     251.81     215.90     361.95       1.88     556.14
   401.20       1.30       5.67       5.42       4.03       4.78       2.27      69.73     316.99     281.69     299.34     215.90     339.83       1.88     559.20
   401.30       1.29       5.50       5.22       3.88       4.44       2.22      69.71     382.37     280.29     331.33     215.90     325.05       1.86     562.25
   401.40       1.30       5.42       5.03       3.71       4.29       1.99      69.44     389.54     261.19     325.36     215.90     335.09       1.87     561.24
   401.50       1.30       5.51       4.90       3.65       4.31       2.16      68.90     342.08     237.92     290.00     215.90     343.39       1.89     560.23
   401.60       1.35       5.51       4.86       3.76       4.37       2.59      68.19     349.32     244.41     296.87     215.90     349.89       1.93     551.20
   401.70       1.34       5.42       4.95       3.95       4.44       2.86      67.58     369.19     258.27     313.73     215.90     360.92       1.97     542.16
   401.80       1.34       5.33       5.07       4.20       4.43       3.17      66.78     386.16     278.64     332.40     215.90     357.02       1.97     536.52
