~Version information
  VERS.                            1.20: CWLS LAS  -  VERSION 1.20
  WRAP.                              NO: One line per depth step
~Well information
# MNEM.UNIT
# ====.================================:===================
  STRT.M                           0.10: First depth in file
  STOP.M                         793.10: Last depth in file
  STEP.M                           0.10: Depth increment
  NULL.                           -9999: Null values
  COMP.                         COMPANY: 
  WELL.                            WELL: 328
  FLD .                           FIELD: Karatobe
  CNTY.                          COUNTY: 
  STAT.                           STATE: 
  DATE.                        LOG DATE: 20-21.03.2007
  SRVC.                 SERVICE COMPANY: 
  UWI.           Unique Well Identifier: 
~Parametr information block
# MNEM.UNIT
# ====.================================:===================
~Other information
# ------------------------- REMARKS  AREA ------------------
~Curve information
# MNEM.UNIT
# ====.================================:===================
  DEPT.M                               : Depth curve
NGL   .C.U.                            : 
GR    .ur/h                            : 
GZ3   .OHMM                            : 
GZ3B  .OHMM                            : 
LL3   .OHMM                            : 
MLL   .OHMM                            : 
SP    .MV                              :
C1    .MM                              : 
C2    .MM                              : 
CALI  .MM                              : 
BS    .MM                              : 
CILR  .MMHO                            : 
RHOB  .G/C3                            : 
DT    .us/m                            : 
~ASCII Log Data
# ...
   132.40       0.91       3.54      -9999       0.50      -9999      -9999     173.35     227.51     227.97     227.74     227.00      -9999      -9999      -9999
   132.50       0.94       3.48      -9999       0.50      -9999      -9999     173.40     227.76     228.03     227.90     227.00      -9999      -9999      -9999
   132.60       0.92       3.46      -9999       0.50      -9999      -9999     173.66     228.28     228.07     228.17     227.00      -9999      -9999      -9999
   132.70       0.93       3.47      -9999       0.50      -9999      -9999     173.90     229.17     228.08     228.62     227.00      -9999      -9999      -9999
   132.80       0.95       3.56      -9999       0.50      -9999      -9999     174.34     229.84     228.11     228.98     227.00      -9999      -9999      -9999
   132.90       0.98       3.58      -9999       0.50      -9999      -9999     174.57     230.18     228.19     229.18     227.00      -9999      -9999      -9999
   133.00       0.99       3.56      -9999       0.50      -9999      -9999     174.46     230.15     228.23     229.19     227.00      -9999      -9999      -9999
   133.10       0.95       3.60      -9999       0.50      -9999      -9999     173.91     229.88     228.25     229.06     227.00      -9999      -9999      -9999
   133.20       0.89       3.57      -9999       0.50      -9999      -9999     173.31     229.96     228.34     229.15     227.00      -9999      -9999      -9999
   133.30       0.95       3.48      -9999       0.50      -9999      -9999     173.49     230.20     228.46     229.33     227.00      -9999      -9999      -9999
   133.40       0.92       3.40      -9999       0.50      -9999      -9999     173.58     228.23     228.68     228.45     227.00      -9999      -9999      -9999
   133.50       0.92       3.36      -9999       0.49      -9999      -9999     173.79     227.27     229.28     228.27     227.00      -9999      -9999      -9999
   133.60       0.90       3.36      -9999       0.49      -9999      -9999     174.58     226.99     230.02     228.51     227.00      -9999      -9999      -9999
   133.70       0.92       3.18      -9999       0.50      -9999      -9999     175.36     226.40     229.99     228.19     227.00      -9999      -9999      -9999
   133.80       0.93       3.23      -9999       0.50      -9999      -9999     176.05     226.25     229.92     228.09     227.00      -9999      -9999      -9999
   133.90       0.93       3.29      -0.09       0.50      -9999      -9999     176.51     226.16     229.86     228.01     227.00      -9999      -9999      -9999
   134.00       0.96       3.30      -0.09       0.50      -9999      -9999     176.91     226.50     229.92     228.21     227.00      -9999      -9999      -9999
   134.10       0.98       3.35      -0.09       0.50      -9999      -9999     177.44     226.82     229.96     228.39     227.00      -9999      -9999      -9999
   134.20       0.99       3.33      -0.09       0.50      -9999      -9999     178.15     226.83     229.76     228.30     227.00      -9999      -9999      -9999
   134.30       0.97       3.39      -0.09       0.50      -9999      -9999     178.79     226.94     229.62     228.28     227.00      -9999      -9999      -9999
   134.40       0.94       3.50      -0.09       0.50      -9999      -9999     178.76     227.79     230.00     228.90     227.00      -9999      -9999      -9999
   134.50       0.94       3.46      -0.09       0.50      -9999      -9999     178.69     228.28     230.49     229.38     227.00      -9999      -9999      -9999
   134.60       0.94       3.31      -0.10       0.50      -9999      -9999     178.59     227.88     231.25     229.57     227.00      -9999      -9999      -9999
   134.70       0.99       3.40      -0.09       0.50      -9999      -9999     178.75     227.64     231.78     229.71     227.00      -9999      -9999      -9999
   134.80       0.99       3.38      -0.09       0.50      -9999      -9999     178.63     227.79     231.77     229.78     227.00      -9999      -9999      -9999
   134.90       0.97       3.37      -0.09       0.50      -9999      -9999     178.01     227.75     231.76     229.75     227.00      -9999      -9999      -9999
   135.00       0.98       3.47      -0.09       0.50      -9999      -9999     176.41     227.59     231.76     229.67     227.00      -9999      -9999      -9999
   135.10       0.98       3.44      -0.09       0.50      -9999      -9999     174.41     227.51     231.72     229.61     227.00      -9999      -9999      -9999
   135.20       0.98       3.46      -0.09       0.50      -9999      -9999     172.29     227.46     231.66     229.56     227.00      -9999      -9999      -9999
   135.30       1.00       3.57      -0.09       0.50      -9999      -9999     170.25     227.55     231.48     229.52     227.00      -9999      -9999      -9999
   135.40       1.00       3.61      -0.09       0.50      -9999      -9999     168.37     227.71     231.26     229.49     227.00      -9999      -9999      -9999
   135.50       1.00       3.55      -0.09       0.50      -9999      -9999     166.55     228.10     230.31     229.20     227.00      -9999      -9999      -9999
   135.60       0.96       3.50      -0.09       0.50      -9999      -9999     164.91     228.52     229.25     228.88     227.00      -9999      -9999      -9999
   135.70       0.96       3.42      -0.09       0.50      -9999      -9999     164.27     228.78     228.84     228.81     227.00      -9999      -9999      -9999
   135.80       0.93       3.34      -0.09       0.50      -9999      -9999     163.39     229.02     228.47     228.75     227.00      -9999      -9999      -9999
   135.90       0.93       3.47      -0.09       0.50      -9999      -9999     162.81     229.05     228.55     228.80     227.00      -9999      -9999      -9999
   136.00       0.94       3.60      -0.09       0.50      -9999      -9999     162.52     229.05     228.63     228.84     227.00      -9999      -9999      -9999
   136.10       0.93       3.68      -0.09       0.50      -9999      -9999     162.81     228.74     228.76     228.75     227.00      -9999      -9999      -9999
   136.20       0.91       3.82      -0.09       0.50      -9999      -9999     163.13     227.89     228.89     228.39     227.00      -9999      -9999      -9999
   136.30       0.91       3.75      -0.09       0.50      -9999      -9999     163.76     227.31     228.94     228.13     227.00      -9999      -9999      -9999
   136.40       0.90       3.63      -0.09       0.50      -9999      -9999     165.07     227.13     228.90     228.01     227.00      -9999      -9999      -9999
   136.50       0.92       3.54      -0.09       0.50      -9999      -9999     166.51     226.99     229.22     228.10     227.00      -9999      -9999      -9999
   136.60       0.96       3.38      -0.09       0.50      -9999      -9999     167.84     226.89     229.90     228.39     227.00      -9999      -9999      -9999
   136.70       0.95       3.21      -0.09       0.50      -9999      -9999     168.81     227.01     230.24     228.63     227.00      -9999      -9999      -9999
   136.80       0.95       3.11      -0.09       0.50      -9999      -9999     169.29     227.36     230.25     228.80     227.00      -9999      -9999      -9999
   136.90       0.95       3.14      -0.09       0.50      -9999      -9999     169.83     227.49     230.34     228.92     227.00      -9999      -9999      -9999
   137.00       0.98       3.09      -0.08       0.50      -9999      -9999     170.44     227.57     230.37     228.97     227.00      -9999      -9999      -9999
   137.10       0.98       3.05      -0.09       0.50      -9999      -9999     171.12     227.64     230.37     229.01     227.00      -9999      -9999      -9999
   137.20       0.97       3.05      -0.08       0.50      -9999      -9999     171.51     228.12     230.43     229.28     227.00      -9999      -9999      -9999
