~Version
 VERS              .         3.0                           : CWLS LOG ASCII STANDARD - VERSION 3.0
 WRAP              .         NO                            : ONE LINE PER DEPTH STEP
 DLM               .         SPACE                         : DELIMITING CHARACTER(SPACE TAB OR COMMA)
~Well Information
#_______________________________________________________________________________
#
#PARAMETER_NAME    .UNIT     VALUE                         : DESCRIPTION
#_______________________________________________________________________________
STRT               .m        0.1                           : First reference value
STOP               .m        909                           : Last reference value
STEP               .m        0.1                           : Step increment
NULL               .         -9999                         : Missing value
COMP               .         ICPetroleum                   : Company
WELL               .         306                           : Well name
FLD                .         Karatobe                      : Field
LOC                .                                       : Location
SRVC               .                                       : Service Company
CTRY               .         KZ                            : Country
DATE               .         13.12.21                      : Service Date
LATI               .         0                             : Latitude
LONG               .         0                             : Longitude
GDAT               .         WGS 84                        : Geodetic Datum
CNTY               .                                       : 
COORDIN            .                                       : Grid System
COUNTRY            .         Kazakhstan                    : 
COUNTRY            .         Kazakhstan                    : 
EREF               .m        133.3                         : 
KB                 .         135                           : KB Elevation
ORIGINALWELLNAME   .         306                           : 
PROV               .                                       : Province
RWS                .         -999                          : Def_Rw
STAT               .                                       : 
UWI                .         1_306                         : Unique Well Identifier (UWI)
WST                .         -999                          : Def_Rwt
X                  .km       466914.63                     : 
XCOORD             .                                       : X or East-West Coordinate
Y                  .km       5308503.06                    : 
YCOORD             .                                       : Y or North-South Coordinate
~Parameter Information Block
#_______________________________________________________________________________
#
#PARAMETER_NAME    .UNIT     VALUE                         : DESCRIPTION
#_______________________________________________________________________________
SET                .         Las                           : 
TLFamily_DEPT      .         Measured Depth                : 
TLFamily_PHI_FINAL .         Porosity                      : 
TLFamily_SW_AR     .         Water Saturation              :
TLFamily_VSH_FINAL .         Shale Volume                  : 
~Curve Information
#_______________________________________________________________________________
#
#LOGNAME           .UNIT     LOG_ID                        : DESCRIPTION
#_______________________________________________________________________________
DEPT               .m                                      :  {F}
PHI_FINAL          .m3/m3                                  : Porosity {F}
SW_AR              .m3/m3                                  :  {F}
VSH_FINAL          .unitless                               : Vshale {F}
~Ascii
# ...
730.9      0.2689914  0.5917885  0.1168964 
731        0.2690673  0.6041234  0.1209697 
731.0999999999999 0.2675667  0.5992601  0.1249339 
731.1999999999999 0.2666435  0.5928491  0.1273728 
731.3      0.263542   0.5930654  0.1270991 
731.4      0.256122   0.6056025  0.1236652 
731.5      0.2671396  0.577504   0.1176065 
731.5999999999999 0.2731009  0.5643677  0.110314  
731.6999999999999 0.2724392  0.5562599  0.103623  
731.8      0.2708269  0.5505835  0.09932104
731.9      0.2627639  0.5578935  0.09867475
732        0.2528331  0.5709918  0.1020411 
732.0999999999999 0.2520786  0.5727997  0.1087105 
732.1999999999999 0.2506688  0.5764564  0.1170684 
732.3      0.2475938  0.5778608  0.1251349 
732.4      0.245276   0.5771728  0.1312152 
732.5      0.2291581  0.6108294  0.1344459 
732.5999999999999 0.2122246  0.6533446  0.1349517 
732.6999999999999 0.2028517  0.6832495  0.1337848 
732.8      0.1669927  0.8576024  0.1327053 
732.9      0.2025305  0.6881282  0.133877  
733        0.2100383  0.6685376  0.139373  
733.0999999999999 0.2078188  0.674189   0.1505279 
733.1999999999999 0.2028081  0.6914363  0.1673274 
733.3      0.1992186  0.7083333  0.1881214 
733.4      0.1951773  0.727985   0.2098292 
733.5      0.1858306  0.7842255  0.2287304 
733.5999999999999 0.179511   0.8299637  0.24151   
733.6999999999999 0.1772268  0.8542749  0.2461293 
733.8      0.1792174  0.8538749  0.2421038 
733.9      0.1783157  0.8502994  0.2303918 
734        0.1457506  1          0.2129282 
734.0999999999999 0.1480359  1          0.1921583 
734.1999999999999 0.1505658  1          0.1705567 
734.3      0.1350434  1          0.1503329 
734.4      0.118577   1          0.1333185 
734.5      0.1066374  1          0.1209133 
734.5999999999999 0.09306735 1          0.1140515 
734.6999999999999 0.154247   0.9511166  0.1130403 
734.8      0.1675708  0.868055   0.117373  
734.9      0.173488   0.8378031  0.1256089 
735        0.1543954  0.9728385  0.1355357 
735.0999999999999 0.142256   1          0.14481   
735.1999999999999 0.1307821  1          0.1518212 
735.3      0.1423765  1          0.1564    
735.4      0.1543345  1          0.159743  
735.5      0.1325877  1          0.1636824 
735.5999999999999 0.1102723  1          0.1695544 
735.6999999999999 0.1138107  1          0.1775241 
735.8      0.1170902  1          0.1863737 
735.9      0.1248359  1          0.1940382 
736        0.1335469  1          0.1984207 
736.0999999999999 0.1456423  1          0.1982963 
736.1999999999999 0.1590057  1          0.1938611 
736.3      0.1643795  0.9876958  0.1865896 
736.4      0.1699854  0.9469651  0.1785297 
736.5      0.1606561  1          0.1712495 
736.5999999999999 0.1509822  1          0.1651408 
736.6999999999999 0.1547478  1          0.1593374 
736.8      0.1588486  1          0.152395  
736.9      0.1612234  1          0.1433207 
737        0.1641812  0.990268   0.1322641 
737.0999999999999 0.1438161  1          0.1205057 
737.1999999999999 0.1231478  1          0.1097774 
737.3      0.1505419  1          0.1016377 
737.4      0.1768841  0.8334647  0.09707415
737.5      0.1321072  1          0.0963156 
737.5999999999999 0.08641846 1          0.09865759
737.6999999999999 0.101195   1          0.1024173 
737.8      0.1162543  1          0.1052155 
737.9      0.1298773  1          0.1048975 
738        0.1446299  0.9987817  0.1007384 
738.0999999999999 0.1262973  1          0.0940697 
738.1999999999999 0.1078705  1          0.08772035
738.3      0.1052431  1          0.08465383
738.4      0.1010882  1          0.08678076
738.5      0.1155737  1          0.09452996
738.5999999999999 0.1286406  1          0.1071022 
738.6999999999999 0.09451988 1          0.1231128 
738.8      0.05980642 1          0.1411382 
738.9      0.07575253 1          0.1599214 
739        0.091837   1          0.1782346 
739.0999999999999 0.1128465  1          0.1948022 
739.1999999999999 0.1346866  1          0.2085455 
739.3      0.1040178  1          0.2188195 
739.4      0.07444122 1          0.2253802 
739.5      0.09097821 1          0.2281545 
739.5999999999999 0.108667   1          0.2270125 
739.6999999999999 0.1115865  1          0.222086  
739.8      0.1153681  1          0.2142284 
739.9      0.08243319 1          0.205207  
740        0.04923605 1          0.1970774 
740.0999999999999 0.09242552 1          0.191233  
740.1999999999999 0.1349137  1          0.1877736 
740.3      0.1361222  1          0.1856646 
740.4      0.1373732  1          0.1834112 
740.5      0.1072408  1          0.1798618 
740.5999999999999 0.07761899 1          0.1745758 
740.6999999999999 0.08020203 1          0.1677933 
740.8      0.08302341 1          0.1602005 
740.9      0.08371864 1          0.1528371 
741        0.08393629 1          0.1470969 
741.0999999999999 0.106183   1          0.1444582 
741.1999999999999 0.1272975  1          0.1456687 
741.3      0.1274906  1          0.1500124 
741.4      0.1274733  1          0.1550712 
741.5      0.1167115  1          0.1576611 
741.5999999999999 0.1073212  1          0.1555882 
741.6999999999999 0.1268792  1          0.1490907 
741.8      0.1361052  1          0.1405993 
741.9      0.1413104  1          0.1330249 
742        0.1348357  1          0.1280387 
742.0999999999999 0.1287981  1          0.1255669 
742.1999999999999 0.1223322  1          0.1245506 
742.3      0.1462483  1          0.1242358 
742.4      0.1698771  0.8615734  0.1248983 
742.5      0.1564304  0.9496055  0.1276173 
742.5999999999999 0.1421149  1          0.1332895 
742.6999999999999 0.1278929  1          0.1416445 
742.8      0.1134024  1          0.1509123 
742.9      0.1270731  1          0.1584318 
743        0.1419276  1          0.1619263 
743.0999999999999 0.139906   1          0.1607999 
743.1999999999999 0.1388052  1          0.1565429 
743.3      0.135478   1          0.1518555 
743.4      0.1315658  1          0.1491567 
743.5      0.1335447  1          0.1494284 
743.5999999999999 0.1348472  1          0.1519999 
743.6999999999999 0.1238609  1          0.1553532 
743.8      0.1129911  1          0.1583108 
743.9      0.1363375  1          0.1609326 
744        0.1510959  0.9702532  0.1644263 
744.0999999999999 0.1447227  1          0.1704232 
744.1999999999999 0.1289506  1          0.1800483 
744.3      0.1005959  1          0.1934544 
744.4      0.07140008 1          0.20972   
744.5      0.1100081  1          0.2271108 
744.5999999999999 0.1052271  1          0.2434457 
744.6999999999999 0.1020665  1          0.2567058 
744.8      0.06083507 1          0.265641  
744.9      0.07132404 1          0.2699785 
745        0.08298188 1          0.2703418 
745.0999999999999 0.06641105 1          0.2676826 
745.1999999999999 0.05052065 1          0.26271   
745.3      0.04970137 1          0.2554958 
745.4      0.04973681 1          0.2453751 
745.5      0.05683878 1          0.2312281 
745.5999999999999 0.06538562 1          0.2121691 
745.6999999999999 0.08468869 1          0.1885384 
745.8      0.1047085  1          0.1624713 
745.9      0.09616936 1          0.1375041 
746        0.08624174 1          0.1172581 
746.0999999999999 0.1286288  1          0.1041422 
746.1999999999999 0.1687623  0.8535175  0.09868842
746.3      0.1587465  0.9139009  0.09974217
746.4      0.1474576  0.9937167  0.1051242 
746.5      0.1493866  0.9684863  0.1125657 
746.5999999999999 0.151201   0.944947   0.1203969 
746.6999999999999 0.1299767  1          0.1275596 
746.8      0.109175   1          0.1332852 
746.9      0.06756175 1          0.1367704 
747        0.02675635 1          0.1375087 
747.0999999999999 0.04719924 1          0.1360028 
747.1999999999999 0.06771246 1          0.1342576 
747.3      0.06594815 1          0.1352566 
747.4      0.06258893 1          0.1416779 
747.5      0.09935523 1          0.1545119 
747.5999999999999 0.09387127 1          0.1722684 
747.6999999999999 0.1077816  1          0.1912092 
747.8      0.1233982  1          0.2066997 
747.9      0.1325175  1          0.2153291 
