~Version
 VERS              .         3.0                           : CWLS LOG ASCII STANDARD - VERSION 3.0
 WRAP              .         NO                            : ONE LINE PER DEPTH STEP
 DLM               .         SPACE                         : DELIMITING CHARACTER(SPACE TAB OR COMMA)
~Well Information
#_______________________________________________________________________________
#
#PARAMETER_NAME    .UNIT     VALUE                         : DESCRIPTION
#_______________________________________________________________________________
STRT               .m        0.1                           : First reference value
STOP               .m        909                           : Last reference value
STEP               .m        0.1                           : Step increment
NULL               .         -9999                         : Missing value
COMP               .         ICPetroleum                   : Company
WELL               .         306                           : Well name
FLD                .         Karatobe                      : Field
LOC                .                                       : Location
SRVC               .                                       : Service Company
CTRY               .         KZ                            : Country
DATE               .         13.12.21                      : Service Date
LATI               .         0                             : Latitude
LONG               .         0                             : Longitude
GDAT               .         WGS 84                        : Geodetic Datum
CNTY               .                                       : 
COORDIN            .                                       : Grid System
COUNTRY            .         Kazakhstan                    : 
COUNTRY            .         Kazakhstan                    : 
EREF               .m        133.3                         : 
KB                 .         135                           : KB Elevation
ORIGINALWELLNAME   .         306                           : 
PROV               .                                       : Province
RWS                .         -999                          : Def_Rw
STAT               .                                       : 
UWI                .         1_306                         : Unique Well Identifier (UWI)
WST                .         -999                          : Def_Rwt
X                  .km       466914.63                     : 
XCOORD             .                                       : X or East-West Coordinate
Y                  .km       5308503.06                    : 
YCOORD             .                                       : Y or North-South Coordinate
~Parameter Information Block
#_______________________________________________________________________________
#
#PARAMETER_NAME    .UNIT     VALUE                         : DESCRIPTION
#_______________________________________________________________________________
SET                .         Las                           : 
TLFamily_DEPT      .         Measured Depth                : 
TLFamily_PHI_FINAL .         Porosity                      : 
TLFamily_SW_AR     .         Water Saturation              :
TLFamily_VSH_FINAL .         Shale Volume                  : 
~Curve Information
#_______________________________________________________________________________
#
#LOGNAME           .UNIT     LOG_ID                        : DESCRIPTION
#_______________________________________________________________________________
DEPT               .m                                      :  {F}
PHI_FINAL          .m3/m3                                  : Porosity {F}
SW_AR              .m3/m3                                  :  {F}
VSH_FINAL          .unitless                               : Vshale {F}
~Ascii
# ...
765.0999999999999 0.03405325 1          0.2076991 
765.1999999999999 0.01010945 1          0.1981079 
765.3      0.02827675 1          0.1843389 
765.4      0.04718557 1          0.1680493 
765.5      0.09204986 1          0.1515104 
765.5999999999999 0.1363516  1          0.1368845 
765.6999999999999 0.1299497  1          0.1256511 
765.8      0.1223661  1          0.1184354 
765.9      0.08626278 1          0.1151867 
766        0.04910461 1          0.1155246 
766.0999999999999 0.0363413  1          0.1189198 
766.1999999999999 0.02287148 1          0.1247173 
766.3      0.04634625 1          0.131903  
766.4      0.06981814 1          0.1390984 
766.5      0.05750108 1          0.1448068 
766.5999999999999 0.04597167 1          0.1479199 
766.6999999999999 0.04894125 1          0.14808   
766.8      0.05137756 1          0.1457966 
766.9      0.02544847 1          0.1421496 
767        0          1          0.1384501 
767.0999999999999 0.03852737 1          0.1359032 
767.1999999999999 0.07619973 1          0.1354012 
767.3      0.06680391 1          0.1373472 
767.4      0.05674385 1          0.1415512 
767.5      0.08858345 1          0.1472964 
767.5999999999999 0.08973168 1          0.1535689 
767.6999999999999 0.09503423 1          0.1593641 
767.8      0.07019739 1          0.163809  
767.9      0.1439138  0.9879605  0.166173  
768        0.1768973  0.7574028  0.1659875 
768.0999999999999 0.1582075  0.8276984  0.1633783 
768.1999999999999 0.1056169  1          0.1593827 
768.3      0.09874718 1          0.1557415 
768.4      0.05625645 1          0.1541924 
768.5      0.08219256 1          0.1554812 
768.5999999999999 0.1016101  1          0.1590061 
768.6999999999999 0.1147717  1          0.1632565 
768.8      0.1280546  1          0.1670946 
768.9      0.07108653 1          0.1707862 
769        0.01367105 1          0.1759987 
769.0999999999999 0.05054932 1          0.1846124 
769.1999999999999 0.08628193 1          0.1971219 
769.3      0.07641159 1          0.211681  
769.4      0.04807004 1          0.2244845 
769.5      0.04130043 1          0.2315076 
769.5999999999999 0.03839632 1          0.2307137 
769.6999999999999 0.05540087 1          0.223117  
769.8      0.07072143 1          0.2120275 
769.9      0.05831975 1          0.2011932 
770        0.04510923 1          0.193109  
770.0999999999999 0.07181452 1          0.188311  
770.1999999999999 0.06071891 1          0.1855724 
770.3      0.05540941 1          0.1827741 
770.4      0.03365739 1          0.1780453 
770.5      0.03169072 1          0.1707316 
770.5999999999999 0.03023141 1          0.1616933 
770.6999999999999 0.08930943 1          0.1528279 
770.8      0.1201924  0.9837539  0.1461118 
770.9      0.106644   1          0.1428907 
771        0.06437198 1          0.1436154 
771.0999999999999 0.07691503 1          0.147969  
771.1999999999999 0.08237301 1          0.1551163 
771.3      0.0866619  1          0.1638294 
771.4      0.08464813 1          0.1726766 
771.5      0.06039913 1          0.1801234 
771.5999999999999 0.03696637 1          0.1847945 
771.6999999999999 0.05609643 1          0.1857522 
771.8      0.06864443 1          0.1828785 
771.9      0.06038128 1          0.1771838 
772        0.04460296 1          0.1708301 
772.0999999999999 0.07169747 1          0.1667086 
772.1999999999999 0.09734516 1          0.1675068 
772.3      0.1137762  1          0.1746409 
772.4      0.1063611  1          0.1874152 
772.5      0.09198944 1          0.2029425 
772.5999999999999 0.07834645 1          0.2169964 
772.6999999999999 0.08401336 1          0.2257386 
772.8      0.09314831 1          0.2274676 
772.9      0.1186039  1          0.2232637 
773        0.1277394  1          0.2161662 
773.0999999999999 0.135886   0.9798977  0.2094678 
773.1999999999999 0.143302   0.9182792  0.2052533 
773.3      0.1328935  1          0.2036425 
773.4      0.1222339  1          0.2028848 
773.5      0.1024313  1          0.2002142 
773.5999999999999 0.08388724 1          0.1932637 
773.6999999999999 0.1053124  1          0.1814181 
773.8      0.1277113  1          0.1662617 
773.9      0.123719   1          0.1508356 
774        0.118887   1          0.1382647 
774.0999999999999 0.1184909  1          0.1306116 
774.1999999999999 0.1164983  1          0.128386  
774.3      0.106732   1          0.1305913 
774.4      0.09628532 1          0.13511   
774.5      0.0909206  1          0.1393501 
774.5999999999999 0.08627784 1          0.1411355 
774.6999999999999 0.09143025 1          0.1396171 
774.8      0.09729126 1          0.13569   
774.9      0.1079072  1          0.1315957 
775        0.1178575  1          0.1297649 
775.0999999999999 0.1049631  1          0.131606  
775.1999999999999 0.09109801 1          0.136747  
775.3      0.07832277 1          0.1431832 
775.4      0.06597753 1          0.1481568 
775.5      0.08028304 1          0.1495178 
775.5999999999999 0.0958169  1          0.1467028 
775.6999999999999 0.06949282 1          0.1407589 
775.8      0.03311335 1          0.1335182 
775.9      0.05320386 1          0.1266281 
776        0.07259375 1          0.1211548 
776.0999999999999 0.08759619 1          0.1176852 
776.1999999999999 0.08229925 1          0.1166626 
776.3      0.08056987 1          0.1185428 
776.4      0.07790282 1          0.1236106 
776.5      0.07935281 1          0.1316806 
776.5999999999999 0.08017152 1          0.141897  
776.6999999999999 0.08133089 1          0.152955  
776.8      0.08264861 1          0.1634751 
776.9      0.0588577  1          0.1723642 
777        0.03577631 1          0.1788409 
777.0999999999999 0.03005475 1          0.1822944 
777.1999999999999 0.02540885 1          0.1820902 
777.3      0.04611922 1          0.1776749 
777.4      0.0680929  1          0.1689644 
777.5      0.02726812 1          0.1567686 
777.5999999999999 0          1          0.1429029 
777.6999999999999 0.0528473  1          0.1297993 
777.8      0.05984465 1          0.1198657 
777.9      0.07235362 1          0.1147717 
778        0.08154966 1          0.1163773 
778.0999999999999 0.08712213 1          0.1253106 
778.1999999999999 0.08796997 1          0.143798  
778.3      0.07466979 1          0.1773606 
778.4      0.04823498 1          0.2374845 
778.5      0          1          0.3442032 
778.5999999999999 0          1          0.5287588 
778.6999999999999 0          1          0.8324904 
778.8      0          1          1         
778.9      0          1          1         
779        0          1          1         
779.0999999999999 0          1          1         
779.1999999999999 0          1          1         
779.3      0          1          1         
779.4      0          1          1         
779.5      0          1          1         
779.5999999999999 0          1          1         
779.6999999999999 0          1          1         
779.8      0          1          1         
779.9      0          1          1         
780        0          1          1         
780.0999999999999 0          1          1         
780.1999999999999 0          1          1         
780.3      0          1          1         
780.4      0          1          1         
780.5      0          1          1         
780.5999999999999 0          1          1         
780.6999999999999 0          1          1         
780.8      0          1          1         
780.9      0          1          0.9829359 
781        0          1          0.9097379 
781.0999999999999 0          1          0.8589499 
781.1999999999999 0          1          0.8239927 
781.3      0          1          0.8019375 
781.4      0          1          0.7927985 
781.5      0          1          0.7975589 
781.5999999999999 0          1          0.8167415 
781.6999999999999 0          1          0.8506479 
781.8      0          1          0.898969  
781.9      0          1          0.9617923 
782        0          1          1         
782.0999999999999 0          1          1         
