~Version
 VERS              .         3.0                           : CWLS LOG ASCII STANDARD - VERSION 3.0
 WRAP              .         NO                            : ONE LINE PER DEPTH STEP
 DLM               .         SPACE                         : DELIMITING CHARACTER(SPACE TAB OR COMMA)
~Well Information
#_______________________________________________________________________________
#
#PARAMETER_NAME    .UNIT     VALUE                         : DESCRIPTION
#_______________________________________________________________________________
STRT               .m        0.1                           : First reference value
STOP               .m        909                           : Last reference value
STEP               .m        0.1                           : Step increment
NULL               .         -9999                         : Missing value
COMP               .         ICPetroleum                   : Company
WELL               .         306                           : Well name
FLD                .         Karatobe                      : Field
LOC                .                                       : Location
SRVC               .                                       : Service Company
CTRY               .         KZ                            : Country
DATE               .         13.12.21                      : Service Date
LATI               .         0                             : Latitude
LONG               .         0                             : Longitude
GDAT               .         WGS 84                        : Geodetic Datum
CNTY               .                                       : 
COORDIN            .                                       : Grid System
COUNTRY            .         Kazakhstan                    : 
COUNTRY            .         Kazakhstan                    : 
EREF               .m        133.3                         : 
KB                 .         135                           : KB Elevation
ORIGINALWELLNAME   .         306                           : 
PROV               .                                       : Province
RWS                .         -999                          : Def_Rw
STAT               .                                       : 
UWI                .         1_306                         : Unique Well Identifier (UWI)
WST                .         -999                          : Def_Rwt
X                  .km       466914.63                     : 
XCOORD             .                                       : X or East-West Coordinate
Y                  .km       5308503.06                    : 
YCOORD             .                                       : Y or North-South Coordinate
~Parameter Information Block
#_______________________________________________________________________________
#
#PARAMETER_NAME    .UNIT     VALUE                         : DESCRIPTION
#_______________________________________________________________________________
SET                .         Las                           : 
TLFamily_DEPT      .         Measured Depth                : 
TLFamily_PHI_FINAL .         Porosity                      : 
TLFamily_SW_AR     .         Water Saturation              :
TLFamily_VSH_FINAL .         Shale Volume                  : 
~Curve Information
#_______________________________________________________________________________
#
#LOGNAME           .UNIT     LOG_ID                        : DESCRIPTION
#_______________________________________________________________________________
DEPT               .m                                      :  {F}
PHI_FINAL          .m3/m3                                  : Porosity {F}
SW_AR              .m3/m3                                  :  {F}
VSH_FINAL          .unitless                               : Vshale {F}
~Ascii
# ...
302.2      0.09232063 1          1         
302.3      0.06141233 1          1         
302.4      0.03783515 1          1         
302.5      0.03859947 1          1         
302.6      0.04403643 1          1         
302.7      0.04588875 1          1         
302.8      0.04574537 1          1         
302.9      0.05403618 1          1         
303        0.05984451 1          1         
303.1      0.06837377 1          1         
303.2      0.0728384  1          1         
303.3      0.07319441 1          1         
303.4      0.07107169 1          1         
303.5      0.05644226 1          0.9968291 
303.6      0.09518132 1          0.8592523 
303.7      0.1149814  1          0.770364  
303.8      0.124156   1          0.7098909 
303.9      0.1400875  1          0.6605555 
304        0.1577637  1          0.6122046 
304.1      0.20518    1          0.5635589 
304.2      0.246108   0.9715546  0.5196764 
304.3      0.244852   0.9845248  0.486574  
304.4      0.2409231  1          0.4673229 
304.5      0.2555591  0.9918053  0.4612586 
304.6      0.2635031  1          0.464858  
304.7      0.2395946  1          0.473067  
304.8      0.2136615  1          0.4809746 
304.9      0.1815045  1          0.4855514 
305        0.1460567  1          0.4870676 
305.1      0.1681328  1          0.4888735 
305.2      0.1912085  1          0.4955871 
305.3      0.1958234  1          0.5104125 
305.4      0.2010251  1          0.5332453 
305.5      0.202222   1          0.5602413 
305.6      0.1870949  1          0.5855653 
305.7      0.1739157  1          0.6038728 
305.8      0.1673281  1          0.6124127 
305.9      0.1752722  1          0.6109521 
306        0.1847031  1          0.6006065 
306.1      0.1835631  1          0.5824559 
306.2      0.186781   1          0.5572048 
306.3      0.2060516  1          0.5255719 
306.4      0.2259104  1          0.4891084 
306.5      0.242269   1          0.4505615 
306.6      0.2576733  1          0.4134722 
306.7      0.2777669  0.9522429  0.3810773 
306.8      0.2916716  0.9212299  0.354991  
306.9      0.3055178  0.8913282  0.33484   
307        0.3151468  0.8749828  0.3190436 
307.1      0.3269728  0.7987158  0.3068072 
307.2      0.3372338  0.7326419  0.29984   
307.3      0.3363818  0.7286456  0.3027002 
307.4      0.3264752  0.7436635  0.3213214 
307.5      0.3105144  0.7759034  0.3607017 
307.6      0.2833732  0.8418227  0.4217282 
307.7      0.2531438  0.94823    0.4975758 
307.8      0.2260955  1          0.5724861 
307.9      0.2087148  1          0.6282787 
308        0.2016936  1          0.6566269 
308.1      0.2033364  1          0.6652494 
308.2      0.2046749  1          0.6714875 
308.3      0.1989096  1          0.6908615 
308.4      0.1842812  1          0.7297798 
308.5      0.1581258  1          0.7829807 
308.6      0.134696   1          0.8347425 
308.7      0.1180995  1          0.8653238 
308.8      0.1120519  1          0.8619431 
308.9      0.1248552  1          0.8259447 
309        0.1469842  1          0.7692726 
309.1      0.1760585  1          0.7056192 
309.2      0.2069903  1          0.6443921 
309.3      0.2373785  1          0.5904124 
309.4      0.2616678  0.940789   0.5450214 
309.5      0.2787694  0.8806953  0.5072494 
309.6      0.2937898  0.8329229  0.4741043 
309.7      0.2969534  0.8286757  0.4421454 
309.8      0.3018265  0.8201159  0.4099073 
309.9      0.3166253  0.7881994  0.3801164 
310        0.3293843  0.7635344  0.359126  
310.1      0.3315805  0.7566252  0.3540574 
310.2      0.3244017  0.7702898  0.3702044 
310.3      0.316036   0.7807765  0.409228  
310.4      0.2959982  0.821418   0.4677745 
310.5      0.2600532  0.9389103  0.5360486 
310.6      0.2257288  1          0.5995885 
310.7      0.2056004  1          0.6447179 
310.8      0.1909551  1          0.6643033 
310.9      0.1834218  1          0.6586068 
311        0.183911   1          0.6321481 
311.1      0.194383   1          0.5911088 
311.2      0.2000592  1          0.5428604 
311.3      0.2225504  1          0.4961233 
311.4      0.2461336  1          0.4595509 
311.5      0.2578085  1          0.4395617 
311.6      0.2656654  0.9630302  0.43877   
311.7      0.259536   0.9448845  0.4554108 
311.8      0.2500547  0.938984   0.4835523 
311.9      0.2452879  0.9541322  0.5146888 
312        0.2401191  0.9714065  0.5420026 
312.1      0.2252406  1          0.5649089 
312.2      0.2133124  1          0.5900515 
312.3      0.1973992  1          0.6270407 
312.4      0.1711758  1          0.682498  
312.5      0.1407213  1          0.7545986 
312.6      0.1073543  1          0.8302442 
312.7      0.06972912 1          0.8874099 
312.8      0.05067983 1          0.9056696 
312.9      0.009335995 1          0.8786009 
313        0.001790555 1          0.8174971 
313.1      0          1          0.7437909 
313.2      0          1          0.6789788 
313.3      0          1          0.6397473 
313.4      0          1          0.6388001 
313.5      0          1          0.6885964 
313.6      0          1          0.8049595 
313.7      0.0000561  1          1         
313.8      0.02177037 1          1         
313.9      0.03273529 1          1         
314        0.05297631 1          1         
314.1      0.04579849 1          1         
314.2      0.02433577 1          1         
314.3      0.002302086 1          1         
314.4      0          1          1         
314.5      0          1          1         
314.6      0.0006695613 1          1         
314.7      0.004270271 1          1         
314.8      0.008337995 1          1         
314.9      0.005389663 1          1         
315        0.004357573 1          1         
315.1      0.003308582 1          1         
315.2      0.003669844 1          1         
315.3      0.0006482344 1          1         
315.4      0          1          1         
315.5      0.0009458946 1          1         
315.6      0.003558947 1          1         
315.7      0.003782201 1          1         
315.8      0.001712174 1          1         
315.9      0.0004759725 1          1         
316        0.0002817691 1          1         
316.1      0          1          1         
316.2      0          1          1         
316.3      0.001440307 1          1         
316.4      0.003518622 1          1         
316.5      0.008692659 1          1         
316.6      0.03207568 1          1         
316.7      0.03188406 1          1         
316.8      0.0299449  1          1         
316.9      0.03258052 1          1         
317        0.03499845 1          1         
317.1      0.03106117 1          1         
317.2      0.02973243 1          1         
317.3      0.0123772  1          1         
317.4      0          1          1         
317.5      0.006302458 1          1         
317.6      0.01506642 1          1         
317.7      0.01588721 1          1         
317.8      0.01661175 1          1         
317.9      0.01654108 1          1         
318        0.02260819 1          1         
318.1      0.0191359  1          1         
318.2      0.01673648 1          1         
318.3      0.02318279 1          1         
318.4      0.02213969 1          1         
318.5      0.006800982 1          1         
318.6      0.00160615 1          1         
318.7      0.00225726 1          1         
318.8      0.006490821 1          1         
318.9      0.00607417 1          1         
319        0.005657496 1          1         
319.1      0.006976383 1          1         
319.2      0.008276736 1          1         
319.3      0.009619677 1          1         
319.4      0.008764058 1          1         
319.5      0.01419495 1          1         
319.6      0.02085425 1          1         
319.7      0.0210939  1          1         
319.8      0.02040984 1          1         
319.9      0.01394352 1          1         
320        0.008569044 1          1         
320.1      0.009054523 1          1         
320.2      0.01041305 1          1         
320.3      0.008726198 1          1         
