~Version
 VERS              .         3.0                           : CWLS LOG ASCII STANDARD - VERSION 3.0
 WRAP              .         NO                            : ONE LINE PER DEPTH STEP
 DLM               .         SPACE                         : DELIMITING CHARACTER(SPACE TAB OR COMMA)
~Well Information
#_______________________________________________________________________________
#
#PARAMETER_NAME    .UNIT     VALUE                         : DESCRIPTION
#_______________________________________________________________________________
STRT               .m        0.1                           : First reference value
STOP               .m        909                           : Last reference value
STEP               .m        0.1                           : Step increment
NULL               .         -9999                         : Missing value
COMP               .         ICPetroleum                   : Company
WELL               .         306                           : Well name
FLD                .         Karatobe                      : Field
LOC                .                                       : Location
SRVC               .                                       : Service Company
CTRY               .         KZ                            : Country
DATE               .         13.12.21                      : Service Date
LATI               .         0                             : Latitude
LONG               .         0                             : Longitude
GDAT               .         WGS 84                        : Geodetic Datum
CNTY               .                                       : 
COORDIN            .                                       : Grid System
COUNTRY            .         Kazakhstan                    : 
COUNTRY            .         Kazakhstan                    : 
EREF               .m        133.3                         : 
KB                 .         135                           : KB Elevation
ORIGINALWELLNAME   .         306                           : 
PROV               .                                       : Province
RWS                .         -999                          : Def_Rw
STAT               .                                       : 
UWI                .         1_306                         : Unique Well Identifier (UWI)
WST                .         -999                          : Def_Rwt
X                  .km       466914.63                     : 
XCOORD             .                                       : X or East-West Coordinate
Y                  .km       5308503.06                    : 
YCOORD             .                                       : Y or North-South Coordinate
~Parameter Information Block
#_______________________________________________________________________________
#
#PARAMETER_NAME    .UNIT     VALUE                         : DESCRIPTION
#_______________________________________________________________________________
SET                .         Las                           : 
TLFamily_DEPT      .         Measured Depth                : 
TLFamily_PHI_FINAL .         Porosity                      : 
TLFamily_SW_AR     .         Water Saturation              :
TLFamily_VSH_FINAL .         Shale Volume                  : 
~Curve Information
#_______________________________________________________________________________
#
#LOGNAME           .UNIT     LOG_ID                        : DESCRIPTION
#_______________________________________________________________________________
DEPT               .m                                      :  {F}
PHI_FINAL          .m3/m3                                  : Porosity {F}
SW_AR              .m3/m3                                  :  {F}
VSH_FINAL          .unitless                               : Vshale {F}
~Ascii
# ...
138.4      -9999      -9999      0.09434067
138.5      -9999      -9999      0.09189048
138.6      -9999      -9999      0.09095062
138.7      -9999      -9999      0.09273477
138.8      -9999      -9999      0.0967365 
138.9      -9999      -9999      0.1009894 
139        -9999      -9999      0.1032347 
139.1      -9999      -9999      0.1022902 
139.2      -9999      -9999      0.09865116
139.3      -9999      -9999      0.09401064
139.4      -9999      -9999      0.09016985
139.5      -9999      -9999      0.08826695
139.6      -9999      -9999      0.08848929
139.7      -9999      -9999      0.09013867
139.8      -9999      -9999      0.09197099
139.9      -9999      -9999      0.09276652
140        -9999      -9999      0.09199187
140.1      -9999      -9999      0.09017178
140.2      -9999      -9999      0.08868381
140.3      -9999      -9999      0.08916654
140.4      -9999      -9999      0.09298749
140.5      -9999      -9999      0.1009841 
140.6      -9999      -9999      0.1133993 
140.7      -9999      -9999      0.1297962 
140.8      -9999      -9999      0.1489267 
140.9      -9999      -9999      0.1687281 
141        -9999      -9999      0.1866742 
141.1      -9999      -9999      0.200533  
141.2      -9999      -9999      0.2092103 
141.3      -9999      -9999      0.2130406 
141.4      -9999      -9999      0.2134096 
141.5      -9999      -9999      0.2120173 
141.6      -9999      -9999      0.2101436 
141.7      -9999      -9999      0.2082692 
141.8      -9999      -9999      0.2061158 
141.9      -9999      -9999      0.203298  
142        -9999      -9999      0.2002509 
142.1      -9999      -9999      0.1988351 
142.2      -9999      -9999      0.2019958 
142.3      -9999      -9999      0.2124199 
142.4      -9999      -9999      0.2305953 
142.5      -9999      -9999      0.2529962 
142.6      -9999      -9999      0.2715652 
142.7      -9999      -9999      0.2769694 
142.8      -9999      -9999      0.2648818 
142.9      -9999      -9999      0.2396801 
143        -9999      -9999      0.2109577 
143.1      -9999      -9999      0.1871338 
143.2      -9999      -9999      0.1721857 
143.3      -9999      -9999      0.1663225 
143.4      -9999      -9999      0.1677565 
143.5      -9999      -9999      0.1742005 
143.6      -9999      -9999      0.1834806 
143.7      -9999      -9999      0.1935149 
143.8      -9999      -9999      0.2019088 
143.9      -9999      -9999      0.2060463 
144        -9999      -9999      0.2041193 
144.1      0.3956788  1          0.1964526 
144.2      0.4033844  1          0.1856883 
144.3      0.4159441  1          0.1755629 
144.4      0.4317162  1          0.1692311 
144.5      0.4679878  1          0.1683592 
144.6      0.5010567  0.6895179  0.172963  
144.7      0.4731347  0.5576156  0.1817248 
144.8      0.4446835  0.4448268  0.1922356 
144.9      0.4188154  0.421729   0.2014608 
145        0.3930799  0.400631   0.2065158 
145.1      0.381333   0.3868097  0.2059018 
145.2      0.3709853  0.3723524  0.2005155 
145.3      0.3716681  0.4477567  0.1935525 
145.4      0.3710639  0.5384353  0.1892072 
145.5      0.4858286  0.4076836  0.1911116 
145.6      0.5893298  0.3317792  0.2013915 
145.7      0.6485616  0.2938114  0.2204292 
145.8      0.7059551  0.2628747  0.2469821 
145.9      0.6617669  0.2881016  0.2782679 
146        0.6187737  0.3164734  0.3098541 
146.1      0.5758834  0.353614   0.3355537 
146.2      0.5428146  0.3902991  0.3485389 
146.3      0.5167739  0.4167379  0.3442211 
146.4      0.4993353  0.4387428  0.3235541 
146.5      0.5058366  0.4299338  0.2935455 
146.6      0.5048283  0.4272899  0.2637025 
146.7      0.4991231  0.4336532  0.2417286 
146.8      0.4890042  0.4439217  0.2312587 
146.9      0.4766867  0.43754    0.2317274 
147        0.4589958  0.4362053  0.2387022 
147.1      0.4525189  0.4178191  0.2447036 
147.2      0.4503715  0.3964918  0.2419307 
147.3      0.4953579  0.3779974  0.2267647 
147.4      0.5465606  0.3592168  0.2022855 
147.5      0.5668331  0.3558405  0.175786  
147.6      0.5787894  0.3576883  0.1539864 
147.7      0.5798094  0.3446684  0.1404099 
147.8      0.578045   0.3335819  0.1356222 
147.9      0.5700829  0.3307529  0.138477  
148        0.5607868  0.3287286  0.1470271 
148.1      0.5441272  0.3464731  0.1589882 
148.2      0.5223829  0.3688392  0.1720005 
148.3      0.5180936  0.3661281  0.1840042 
148.4      0.5134124  0.3637129  0.1937626 
148.5      0.5204552  0.3628536  0.2011307 
148.6      0.528012   0.361721   0.2065981 
148.7      0.5431143  0.3513876  0.2104392 
148.8      0.5632445  0.3387138  0.2120509 
148.9      0.572357   0.3328306  0.2100931 
149        0.5783492  0.3287971  0.2033183 
149.1      0.5897792  0.3338693  0.1915575 
149.2      0.5977836  0.3409294  0.1761235 
149.3      0.6092887  0.3091435  0.1594307 
149.4      0.6233646  0.2791147  0.1441726 
149.5      0.6245921  0.2751469  0.1326318 
149.6      0.6201343  0.2735841  0.1263342 
149.7      0.6207639  0.2733216  0.1259504 
149.8      0.6156378  0.2754739  0.1311578 
149.9      0.6025813  0.2841385  0.1406161 
150        0.5896281  0.2931541  0.1521369 
150.1      0.5840839  0.2982455  0.1634803 
150.2      0.5863136  0.2996418  0.1735865 
150.3      0.584875   0.3107733  0.1835753 
150.4      0.5801001  0.3240329  0.1963475 
150.5      0.5707227  0.3643573  0.2148955 
150.6      0.5607576  0.4096183  0.2399649 
150.7      0.5498595  0.4127922  0.2679552 
150.8      0.5450062  0.4117699  0.2903984 
150.9      0.5509694  0.3714947  0.2971558 
151        0.5752321  0.3247124  0.2828704 
151.1      0.5926778  0.3105155  0.2511449 
151.2      0.6056206  0.2992637  0.2117118 
151.3      0.6112853  0.3060273  0.1740397 
151.4      0.6161655  0.3133117  0.1434692 
151.5      0.6214905  0.3138725  0.1214231 
151.6      0.6212758  0.317104   0.1071984 
151.7      0.6265433  0.3193808  0.09960911
151.8      0.6302934  0.3224186  0.0976867 
151.9      0.6394073  0.3014694  0.1009266 
152        0.6459785  0.2828872  0.108914  
152.1      0.6496687  0.2980016  0.1207836 
152.2      0.655332   0.3129151  0.1348035 
152.3      0.6012217  0.3398815  0.148679  
152.4      0.5461454  0.3726454  0.1604903 
152.5      0.5188034  0.3688728  0.1696859 
152.6      0.4954222  0.3631783  0.1770553 
152.7      0.4781995  0.374651   0.1835963 
152.8      0.4604943  0.3873442  0.1892232 
152.9      0.4529716  0.4023167  0.1923255 
153        0.4521227  0.4121157  0.1906327 
153.1      0.4992038  0.3787835  0.1828686 
153.2      0.5416962  0.3539112  0.1699413 
153.3      0.5692071  0.3436758  0.1546455 
153.4      0.5978105  0.3338846  0.1402295 
153.5      0.604167   0.3271179  0.1289598 
153.6      0.6127158  0.3194324  0.1213805 
153.7      0.6244259  0.3115695  0.1165594 
153.8      0.6363466  0.3039043  0.1130689 
153.9      0.6390717  0.2816044  0.1101444 
154        0.6395211  0.2616797  0.1084201 
154.1      0.6344831  0.251398   0.1096424 
154.2      0.6280903  0.2419819  0.1156747 
154.3      0.5643192  0.2714795  0.1274262 
154.4      0.5027485  0.3070172  0.1440918 
154.5      0.4903891  0.3286975  0.1628173 
154.6      0.4787253  0.3515754  0.1793025 
154.7      0.5413406  0.3140971  0.1895209 
154.8      0.6072522  0.2827524  0.191914  
154.9      0.5845261  0.2996233  0.1884592 
155        0.5584098  0.3197658  0.1838637 
155.1      0.548085   0.3363538  0.1836681 
155.2      0.5300195  0.3587655  0.1927689 
155.3      0.5207704  0.3898195  0.2148894 
155.4      0.5071858  0.42686    0.2525929 
155.5      0.4734761  0.4275338  0.3067434 
155.6      0.4312642  0.4380491  0.3756652 
155.7      0.3661597  0.4946187  0.4543223 
155.8      0.2992806  0.5788819  0.5347728 
155.9      0.2453806  0.6886955  0.6076623 
156        0.1992439  0.8268838  0.664902  
156.1      0.1694777  0.9918721  0.7017785 
156.2      0.1496353  1          0.7184029 
156.3      0.142026   1          0.7191976 
156.4      0.1389526  1          0.711396  
156.5      0.1442081  1          0.7025011 
