~Version
 VERS              .         3.0                           : CWLS LOG ASCII STANDARD - VERSION 3.0
 WRAP              .         NO                            : ONE LINE PER DEPTH STEP
 DLM               .         SPACE                         : DELIMITING CHARACTER(SPACE TAB OR COMMA)
~Well Information
#_______________________________________________________________________________
#
#PARAMETER_NAME    .UNIT     VALUE                         : DESCRIPTION
#_______________________________________________________________________________
STRT               .m        0.1                           : First reference value
STOP               .m        909                           : Last reference value
STEP               .m        0.1                           : Step increment
NULL               .         -9999                         : Missing value
COMP               .         ICPetroleum                   : Company
WELL               .         306                           : Well name
FLD                .         Karatobe                      : Field
LOC                .                                       : Location
SRVC               .                                       : Service Company
CTRY               .         KZ                            : Country
DATE               .         13.12.21                      : Service Date
LATI               .         0                             : Latitude
LONG               .         0                             : Longitude
GDAT               .         WGS 84                        : Geodetic Datum
CNTY               .                                       : 
COORDIN            .                                       : Grid System
COUNTRY            .         Kazakhstan                    : 
COUNTRY            .         Kazakhstan                    : 
EREF               .m        133.3                         : 
KB                 .         135                           : KB Elevation
ORIGINALWELLNAME   .         306                           : 
PROV               .                                       : Province
RWS                .         -999                          : Def_Rw
STAT               .                                       : 
UWI                .         1_306                         : Unique Well Identifier (UWI)
WST                .         -999                          : Def_Rwt
X                  .km       466914.63                     : 
XCOORD             .                                       : X or East-West Coordinate
Y                  .km       5308503.06                    : 
YCOORD             .                                       : Y or North-South Coordinate
~Parameter Information Block
#_______________________________________________________________________________
#
#PARAMETER_NAME    .UNIT     VALUE                         : DESCRIPTION
#_______________________________________________________________________________
SET                .         Las                           : 
TLFamily_DEPT      .         Measured Depth                : 
TLFamily_PHI_FINAL .         Porosity                      : 
TLFamily_SW_AR     .         Water Saturation              :
TLFamily_VSH_FINAL .         Shale Volume                  : 
~Curve Information
#_______________________________________________________________________________
#
#LOGNAME           .UNIT     LOG_ID                        : DESCRIPTION
#_______________________________________________________________________________
DEPT               .m                                      :  {F}
PHI_FINAL          .m3/m3                                  : Porosity {F}
SW_AR              .m3/m3                                  :  {F}
VSH_FINAL          .unitless                               : Vshale {F}
~Ascii
# ...
265.8      0.1483931  1          0.7309569 
265.9      0.1300209  1          0.7200571 
266        0.1187719  1          0.6797134 
266.1      0.1444068  1          0.6165459 
266.2      0.1752145  1          0.5455995 
266.3      0.171368   1          0.4803674 
266.4      0.1627047  1          0.4279667 
266.5      0.1565436  1          0.3898897 
266.6      0.1472139  1          0.3648413 
266.7      0.2253736  0.728082   0.3507821 
266.8      0.2891918  0.604327   0.3460285 
266.9      0.290843   0.5930009  0.3495135 
267        0.2888389  0.5888574  0.3604637 
267.1      0.2812652  0.5869693  0.3775987 
267.2      0.2740335  0.584752   0.397904  
267.3      0.2721399  0.566978   0.4161977 
267.4      0.269983   0.5502108  0.4265313 
267.5      0.2650294  0.5575863  0.4254982 
267.6      0.2676805  0.5500445  0.4148148 
267.7      0.2831018  0.5269924  0.4002249 
267.8      0.2967468  0.5091901  0.3876207 
267.9      0.3033227  0.5156401  0.3795617 
268        0.305889   0.5288288  0.3746961 
268.1      0.3013372  0.5354432  0.3696992 
268.2      0.3012085  0.5347217  0.3623301 
268.3      0.2617931  0.561088   0.3534348 
268.4      0.2195582  0.6086296  0.346499  
268.5      0.1945434  0.6125922  0.3457295 
268.6      0.1668929  0.6353346  0.3543259 
268.7      0.227075   0.641539   0.3735635 
268.8      0.2803959  0.70509    0.4022075 
268.9      0.2561516  0.8071194  0.4359645 
269        0.2292801  0.9415583  0.4675731 
269.1      0.2194114  0.9721321  0.4891727 
269.2      0.2173816  0.9712713  0.4966609 
269.3      0.2277364  0.9209397  0.4925213 
269.4      0.2381208  0.8748127  0.4840135 
269.5      0.2435999  0.8352583  0.4780321 
269.6      0.2431987  0.816037   0.4772367 
269.7      0.2434905  0.7422174  0.4794033 
269.8      0.2500666  0.6583325  0.4799382 
269.9      0.2546109  0.6253505  0.4758399 
270        0.2601198  0.5920517  0.4684314 
270.1      0.2507565  0.6382275  0.4629174 
270.2      0.234349   0.7083799  0.4648407 
270.3      0.2000684  0.7874299  0.4762479 
270.4      0.1620821  0.9196233  0.4930761 
270.5      0.1837732  0.8214612  0.5052838 
270.6      0.2112895  0.7241711  0.5012875 
270.7      0.2371046  0.719803   0.4759814 
270.8      0.2623922  0.7241544  0.4352431 
270.9      0.2563374  0.6476635  0.3917906 
271        0.2477773  0.5840512  0.3569955 
271.1      0.16215    0.7269025  0.3362969 
271.2      0.06648169 1          0.3298996 
271.3      0.08144829 0.9333126  0.3353909 
271.4      0.09062211 0.678092   0.3504412 
271.5      0.1232873  0.7380722  0.3744883 
271.6      0.1655859  0.8092155  0.4092331 
271.7      0.155999   0.8987926  0.4577118 
271.8      0.1427915  1          0.522652  
271.9      0.1595512  0.8877867  0.6050379 
272        0.1595185  0.8535381  0.7041842 
272.1      0.08791986 1          0.8209731 
272.2      0.0392693  1          0.9627856 
272.3      0.02476585 1          1         
272.4      0.02017875 1          1         
272.5      0.01610698 1          1         
272.6      0.01188829 1          1         
272.7      0.01931199 1          1         
272.8      0.02843036 1          1         
272.9      0.04347958 1          1         
273        0.05026703 1          1         
273.1      0.03814401 1          1         
273.2      0.02844135 1          1         
273.3      0.02994421 1          1         
273.4      0.03308159 1          1         
273.5      0.03241013 1          1         
273.6      0.03488931 1          0.976     
273.7      0.07591876 1          0.8665712 
273.8      0.1297894  1          0.7360585 
273.9      0.1879196  1          0.6015286 
274        0.2368653  0.9861909  0.4856787 
274.1      0.2641419  0.9052297  0.4019536 
274.2      0.272536   0.8942414  0.3517197 
274.3      0.2692335  0.9010517  0.3292899 
274.4      0.2620384  0.920795   0.3266921 
274.5      0.2373261  1          0.3362859 
274.6      0.2167805  1          0.3525852 
274.7      0.1944462  1          0.3733037 
274.8      0.170285   1          0.3990657 
274.9      0.1907641  0.9802169  0.4312237 
275        0.2054452  0.9001303  0.4695327 
275.1      0.196584   1          0.5109335 
275.2      0.1914402  1          0.5509469 
275.3      0.1808104  1          0.5869666 
275.4      0.1653716  1          0.6211716 
275.5      0.1672092  1          0.6599086 
275.6      0.1658707  1          0.7100227 
275.7      0.1457528  1          0.7745796 
275.8      0.121101   1          0.8506269 
275.9      0.08567549 1          0.9298679 
276        0.05618546 1          1         
276.1      0.0532002  1          1         
276.2      0.05011609 1          1         
276.3      0.04556039 1          1         
276.4      0.03925345 1          1         
276.5      0.04302549 1          1         
276.6      0.04880538 1          1         
276.7      0.06196943 1          0.989794  
276.8      0.07001467 1          0.9822366 
276.9      0.0414005  1          0.9928466 
277        0.01779306 1          1         
277.1      0.01605488 1          1         
277.2      0.02150035 1          1         
277.3      0.03112794 1          0.9915094 
277.4      0.03763638 1          0.9387792 
277.5      0.04161271 1          0.8696519 
277.6      0.05575261 1          0.7909538 
277.7      0.05790391 1          0.7085282 
277.8      0.06491342 1          0.6278243 
277.9      0.1062843  1          0.5544747 
278        0.1440484  1          0.4938346 
278.1      0.1815608  0.9768432  0.4503397 
278.2      0.2085691  0.8924626  0.4272517 
278.3      0.2264486  0.9183887  0.4266571 
278.4      0.2357951  0.981477   0.4487925 
278.5      0.2109551  1          0.4905578 
278.6      0.1807935  1          0.5433704 
278.7      0.16473    1          0.5934974 
278.8      0.1564968  1          0.6271101 
278.9      0.1546416  1          0.6387192 
279        0.1602289  1          0.6346799 
279.1      0.1703588  1          0.6281559 
279.2      0.1750651  1          0.6306434 
279.3      0.1784653  1          0.6461766 
279.4      0.1801974  1          0.669616  
279.5      0.1503909  1          0.6881808 
279.6      0.1299556  1          0.6867091 
279.7      0.1481768  1          0.6560585 
279.8      0.1693171  1          0.599153  
279.9      0.1802429  1          0.5301222 
280        0.1885118  1          0.4665543 
280.1      0.1779843  1          0.422464  
280.2      0.1591408  1          0.4058122 
280.3      0.1273746  1          0.4202254 
280.4      0.08547203 1          0.4662584 
280.5      0.09350327 1          0.5406617 
280.6      0.09864555 1          0.6336459 
280.7      0.09443877 1          0.7277141 
280.8      0.101253   1          0.8012691 
280.9      0.09829205 1          0.8369021 
281        0.1072781  1          0.829123  
281.1      0.1524686  1          0.7859656 
281.2      0.1992758  1          0.7235981 
281.3      0.1964663  1          0.6600321 
281.4      0.1812491  1          0.6105714 
281.5      0.1712828  1          0.5867355 
281.6      0.150998   1          0.5956301 
281.7      0.120984   1          0.6397919 
281.8      0.08528801 1          0.7147242 
281.9      0.05076114 1          0.8065914 
282        0.02872725 1          0.8935589 
282.1      0.01641252 1          0.9563446 
282.2      0.01072484 1          0.9891692 
282.3      0.008087879 1          1         
282.4      0.008880822 1          1         
282.5      0.009269695 1          1         
282.6      0.01628607 1          1         
282.7      0.01501502 1          0.9902652 
282.8      0.01584149 1          0.9655882 
282.9      0.02318235 1          0.9213802 
283        0.03895004 1          0.8564184 
283.1      0.0535232  1          0.7763953 
283.2      0.0701557  1          0.6942586 
283.3      0.09025183 1          0.6262463 
283.4      0.1066964  1          0.5858138 
283.5      0.1513632  1          0.5804818 
283.6      0.1864161  1          0.6116061 
283.7      0.1877109  1          0.6747901 
283.8      0.165558   1          0.7599828 
283.9      0.1127567  1          0.8536769 
