~Version
 VERS              .         3.0                           : CWLS LOG ASCII STANDARD - VERSION 3.0
 WRAP              .         NO                            : ONE LINE PER DEPTH STEP
 DLM               .         SPACE                         : DELIMITING CHARACTER(SPACE TAB OR COMMA)
~Well Information
#_______________________________________________________________________________
#
#PARAMETER_NAME    .UNIT     VALUE                         : DESCRIPTION
#_______________________________________________________________________________
STRT               .m        0.1                           : First reference value
STOP               .m        909                           : Last reference value
STEP               .m        0.1                           : Step increment
NULL               .         -9999                         : Missing value
COMP               .         ICPetroleum                   : Company
WELL               .         306                           : Well name
FLD                .         Karatobe                      : Field
LOC                .                                       : Location
SRVC               .                                       : Service Company
CTRY               .         KZ                            : Country
DATE               .         13.12.21                      : Service Date
LATI               .         0                             : Latitude
LONG               .         0                             : Longitude
GDAT               .         WGS 84                        : Geodetic Datum
CNTY               .                                       : 
COORDIN            .                                       : Grid System
COUNTRY            .         Kazakhstan                    : 
COUNTRY            .         Kazakhstan                    : 
EREF               .m        133.3                         : 
KB                 .         135                           : KB Elevation
ORIGINALWELLNAME   .         306                           : 
PROV               .                                       : Province
RWS                .         -999                          : Def_Rw
STAT               .                                       : 
UWI                .         1_306                         : Unique Well Identifier (UWI)
WST                .         -999                          : Def_Rwt
X                  .km       466914.63                     : 
XCOORD             .                                       : X or East-West Coordinate
Y                  .km       5308503.06                    : 
YCOORD             .                                       : Y or North-South Coordinate
~Parameter Information Block
#_______________________________________________________________________________
#
#PARAMETER_NAME    .UNIT     VALUE                         : DESCRIPTION
#_______________________________________________________________________________
SET                .         Las                           : 
TLFamily_DEPT      .         Measured Depth                : 
TLFamily_PHI_FINAL .         Porosity                      : 
TLFamily_SW_AR     .         Water Saturation              :
TLFamily_VSH_FINAL .         Shale Volume                  : 
~Curve Information
#_______________________________________________________________________________
#
#LOGNAME           .UNIT     LOG_ID                        : DESCRIPTION
#_______________________________________________________________________________
DEPT               .m                                      :  {F}
PHI_FINAL          .m3/m3                                  : Porosity {F}
SW_AR              .m3/m3                                  :  {F}
VSH_FINAL          .unitless                               : Vshale {F}
~Ascii
# ...
174.8      0.2286324  0.871142   0.5776153 
174.9      0.2333437  0.838329   0.5559666 
175        0.2345961  0.8182738  0.5405029 
175.1      0.240096   0.7899241  0.5301322 
175.2      0.2484611  0.754593   0.5259573 
175.3      0.2538774  0.7489033  0.5292856 
175.4      0.2475705  0.7768256  0.5393705 
175.5      0.2481275  0.7919955  0.552581  
175.6      0.2510063  0.8003477  0.5634525 
175.7      0.2607554  0.796405   0.5663794 
175.8      0.2728155  0.7870553  0.5579632 
175.9      0.2764787  0.7744877  0.5383634 
176        0.2755302  0.774309   0.5114271 
176.1      0.2668613  0.7679915  0.4835451 
176.2      0.2610475  0.7544287  0.4615242 
176.3      0.2610343  0.7522644  0.4500117 
176.4      0.2646968  0.7402482  0.4498018 
176.5      0.2853768  0.6929955  0.4575287 
176.6      0.2935447  0.6782545  0.4670942 
176.7      0.293794   0.6903928  0.4724012 
176.8      0.2913569  0.7088415  0.4700679 
176.9      0.2882216  0.7315279  0.4604151 
177        0.286967   0.7502905  0.4467032 
177.1      0.2884883  0.7266632  0.4337938 
177.2      0.2904939  0.7026091  0.4273534 
177.3      0.2888053  0.6887962  0.4332818 
177.4      0.2813325  0.688341   0.4571831 
177.5      0.2626792  0.7478129  0.5028777 
177.6      0.2376811  0.8368796  0.5703219 
177.7      0.2081378  0.9648083  0.6524906 
177.8      0.175782   1          0.7327089 
177.9      0.1415987  1          0.7869999 
178        0.1212892  1          0.7950939 
178.1      0.1404016  1          0.7536934 
178.2      0.1726236  1          0.6794556 
178.3      0.2087638  0.9406736  0.597719  
178.4      0.23599    0.8415987  0.528602  
178.5      0.2455285  0.8186117  0.4812402 
178.6      0.2434767  0.8332403  0.4552858 
178.7      0.2554014  0.784063   0.4446436 
178.8      0.2609971  0.756234   0.4406452 
178.9      0.2652659  0.7568987  0.4353087 
179        0.2704939  0.7551793  0.4249108 
179.1      0.2863157  0.7260379  0.4117926 
179.2      0.2963528  0.71294    0.402788  
179.3      0.2977742  0.706867   0.4052567 
179.4      0.2959757  0.7080694  0.4234816 
179.5      0.2989573  0.6973552  0.4562483 
179.6      0.3018398  0.6870774  0.4957364 
179.7      0.29362    0.7052584  0.5290759 
179.8      0.2843765  0.7269247  0.5443286 
179.9      0.2733724  0.7637522  0.5375569 
180        0.2752472  0.768043   0.5145404 
180.1      0.2984693  0.7000484  0.485687  
180.2      0.332905   0.6212572  0.4597954 
180.3      0.3626511  0.5640713  0.4415734 
180.4      0.3702227  0.5445679  0.432692  
180.5      0.342046   0.5947648  0.4340044 
180.6      0.3057529  0.6701749  0.4466346 
180.7      0.2923551  0.7085519  0.4711678 
180.8      0.2852236  0.7349892  0.5052301 
180.9      0.2863193  0.7445772  0.5412577 
181        0.2904373  0.7468408  0.5670645 
181.1      0.2801242  0.7799173  0.5716884 
181.2      0.2787966  0.7906088  0.5529499 
181.3      0.2941304  0.7533186  0.5195367 
181.4      0.3112633  0.7157016  0.4848768 
181.5      0.3224038  0.6883157  0.4598476 
181.6      0.3338488  0.6621509  0.4496382 
181.7      0.3423642  0.649168   0.4545631 
181.8      0.3400116  0.6560487  0.4720441 
181.9      0.3321765  0.6802624  0.4984868 
182        0.3189397  0.7170175  0.5308011 
182.1      0.3003786  0.7623192  0.5675876 
182.2      0.2829153  0.810432   0.6099996 
182.3      0.2692384  0.8454724  0.6619536 
182.4      0.2531503  0.8921474  0.7291128 
182.5      0.2244631  0.9957319  0.8164225 
182.6      0.1775526  1          0.9244828 
182.7      0.1418182  1          1         
182.8      0.1331299  1          1         
182.9      0.1277668  1          1         
183        0.1277049  1          1         
183.1      0.1309565  1          1         
183.2      0.1383085  1          1         
183.3      0.147879   1          1         
183.4      0.1499843  1          1         
183.5      0.1441774  1          1         
183.6      0.1354411  1          1         
183.7      0.1454262  1          1         
183.8      0.1659888  1          0.9554303 
183.9      0.1778658  1          0.8901949 
184        0.1795495  1          0.8488544 
184.1      0.1861169  1          0.8236464 
184.2      0.1951167  1          0.8014749 
184.3      0.2120106  1          0.7709111 
184.4      0.233879   0.9692256  0.728453  
184.5      0.2574666  0.8855134  0.6790643 
184.6      0.2828058  0.8107288  0.631117  
184.7      0.3091491  0.7494778  0.5905953 
184.8      0.333086   0.7024097  0.5592176 
184.9      0.3351021  0.7066764  0.5357789 
185        0.3305205  0.7243916  0.5185833 
185.1      0.3127658  0.7589694  0.5067715 
185.2      0.292059   0.8052489  0.500224  
185.3      0.3142981  0.7462158  0.4985304 
185.4      0.3393066  0.6894299  0.5002677 
185.5      0.3531891  0.6618775  0.5030771 
185.6      0.3524626  0.6612778  0.5043883 
185.7      0.3412616  0.6741011  0.5021003 
185.8      0.3297851  0.6884014  0.4951391 
185.9      0.3302158  0.6962054  0.4841077 
186        0.332918   0.6995339  0.4718358 
186.1      0.3422431  0.6621033  0.4631374 
186.2      0.3540701  0.6228312  0.4634945 
186.3      0.3532739  0.6177459  0.4772811 
186.4      0.3378913  0.6376851  0.5065073 
186.5      0.3118714  0.7018364  0.5498619 
186.6      0.2850133  0.7796732  0.6022824 
186.7      0.2526688  0.8673293  0.6545998 
186.8      0.230978   0.9372157  0.6946526 
186.9      0.2167     0.9635851  0.7104514 
187        0.2026281  0.9936578  0.6962225 
187.1      0.1958567  1          0.6570044 
187.2      0.1877038  1          0.6073683 
187.3      0.2497575  0.8773529  0.5637977 
187.4      0.2805331  0.8095471  0.5373716 
187.5      0.2617928  0.8721582  0.530819  
187.6      0.2415515  0.9497241  0.5388287 
187.7      0.2475054  0.9171141  0.5501063 
187.8      0.2604452  0.8635862  0.5515791 
187.9      0.259468   0.8647066  0.5349684 
188        0.259618   0.8622825  0.501573  
188.1      0.2793599  0.811868   0.4605934 
188.2      0.2982862  0.7700046  0.4231252 
188.3      0.3106698  0.7317681  0.3967997 
188.4      0.3147915  0.7137363  0.3845221 
188.5      0.3198571  0.6911532  0.3855662 
188.6      0.3230096  0.6731604  0.3979559 
188.7      0.3274911  0.6713047  0.4204191 
188.8      0.3245025  0.6841323  0.4534306 
188.9      0.3063665  0.7215205  0.4980119 
189        0.2833996  0.7757884  0.5533143 
189.1      0.2420374  0.8929725  0.6142765 
189.2      0.1888968  1          0.6720003 
189.3      0.1481116  1          0.7174301 
189.4      0.1329907  1          0.745898  
189.5      0.1431672  1          0.7581627 
189.6      0.1611243  1          0.7572064 
189.7      0.1596847  1          0.7449372 
189.8      0.1462182  1          0.7222689 
189.9      0.1509289  1          0.6918331 
190        0.1642115  1          0.6599304 
190.1      0.1904657  0.9857131  0.6355956 
190.2      0.2039251  0.9160235  0.627606  
190.3      0.2039821  0.9243584  0.6410267 
190.4      0.1937203  0.9796913  0.6744402 
190.5      0.1755551  1          0.7174959 
190.6      0.1615164  1          0.7515107 
190.7      0.1589462  1          0.7559558 
190.8      0.1715716  1          0.7203838 
190.9      0.1959059  1          0.6509495 
191        0.2275657  0.963519   0.5646848 
191.1      0.2612491  0.8260573  0.4778268 
191.2      0.2940139  0.7215875  0.3996203 
191.3      0.3285425  0.6784655  0.3332833 
191.4      0.3561823  0.6562349  0.2793514 
191.5      0.3746181  0.6548328  0.2376785 
191.6      0.3829752  0.6709419  0.2074997 
191.7      0.3889122  0.6517235  0.1869799 
191.8      0.3954859  0.6322013  0.1730831 
191.9      0.3971585  0.5936403  0.1625543 
192        0.3971619  0.5592853  0.153444  
192.1      0.3962927  0.5694571  0.1463196 
192.2      0.3943652  0.5812626  0.1439097 
192.3      0.4014745  0.5770724  0.1496101 
192.4      0.4055642  0.577108   0.1659778 
192.5      0.3951851  0.6083841  0.1934863 
192.6      0.3765362  0.654997   0.2292581 
192.7      0.3423439  0.719894   0.266176  
192.8      0.3174458  0.7766173  0.2942346 
192.9      0.320683   0.7778243  0.3049905 
