~Version
 VERS              .         3.0                           : CWLS LOG ASCII STANDARD - VERSION 3.0
 WRAP              .         NO                            : ONE LINE PER DEPTH STEP
 DLM               .         SPACE                         : DELIMITING CHARACTER(SPACE TAB OR COMMA)
~Well Information
#_______________________________________________________________________________
#
#PARAMETER_NAME    .UNIT     VALUE                         : DESCRIPTION
#_______________________________________________________________________________
STRT               .m        0.1                           : First reference value
STOP               .m        909                           : Last reference value
STEP               .m        0.1                           : Step increment
NULL               .         -9999                         : Missing value
COMP               .         ICPetroleum                   : Company
WELL               .         306                           : Well name
FLD                .         Karatobe                      : Field
LOC                .                                       : Location
SRVC               .                                       : Service Company
CTRY               .         KZ                            : Country
DATE               .         13.12.21                      : Service Date
LATI               .         0                             : Latitude
LONG               .         0                             : Longitude
GDAT               .         WGS 84                        : Geodetic Datum
CNTY               .                                       : 
COORDIN            .                                       : Grid System
COUNTRY            .         Kazakhstan                    : 
COUNTRY            .         Kazakhstan                    : 
EREF               .m        133.3                         : 
KB                 .         135                           : KB Elevation
ORIGINALWELLNAME   .         306                           : 
PROV               .                                       : Province
RWS                .         -999                          : Def_Rw
STAT               .                                       : 
UWI                .         1_306                         : Unique Well Identifier (UWI)
WST                .         -999                          : Def_Rwt
X                  .km       466914.63                     : 
XCOORD             .                                       : X or East-West Coordinate
Y                  .km       5308503.06                    : 
YCOORD             .                                       : Y or North-South Coordinate
~Parameter Information Block
#_______________________________________________________________________________
#
#PARAMETER_NAME    .UNIT     VALUE                         : DESCRIPTION
#_______________________________________________________________________________
SET                .         Las                           : 
TLFamily_DEPT      .         Measured Depth                : 
TLFamily_PHI_FINAL .         Porosity                      : 
TLFamily_SW_AR     .         Water Saturation              :
TLFamily_VSH_FINAL .         Shale Volume                  : 
~Curve Information
#_______________________________________________________________________________
#
#LOGNAME           .UNIT     LOG_ID                        : DESCRIPTION
#_______________________________________________________________________________
DEPT               .m                                      :  {F}
PHI_FINAL          .m3/m3                                  : Porosity {F}
SW_AR              .m3/m3                                  :  {F}
VSH_FINAL          .unitless                               : Vshale {F}
~Ascii
# ...
644        0.05027891 1          0.696609  
644.1      0.07446033 1          0.629522  
644.1999999999999 0.1053201  1          0.5497769 
644.3      0.1280198  1          0.4693442 
644.4      0.1457336  1          0.3984947 
644.5      0.1435009  1          0.3441596 
644.6      0.1304656  1          0.3097442 
644.6999999999999 0.1519118  1          0.2957204 
644.8      0.1623326  1          0.3004221 
644.9      0.172179   1          0.3202597 
645        0.1801443  1          0.3496718 
645.1      0.1713352  1          0.3812009 
645.1999999999999 0.1640832  1          0.4066909 
645.3      0.1652023  1          0.4193244 
645.4      0.1737196  1          0.416259  
645.5      0.1812456  1          0.3999212 
645.6      0.1895893  1          0.3769709 
645.6999999999999 0.1957736  1          0.3553014 
645.8      0.200846   1          0.3411422 
645.9      0.2172316  1          0.3376388 
646        0.2285373  1          0.3445014 
646.1      0.220615   1          0.358218  
646.1999999999999 0.2160385  1          0.3728645 
646.3      0.2140759  1          0.3820748 
646.4      0.2153283  1          0.3819446 
646.5      0.2112351  1          0.3728969 
646.6      0.207093   1          0.3588851 
646.6999999999999 0.2230985  1          0.3447016 
646.8      0.2418457  1          0.3337981 
646.9      0.2375991  1          0.3279492 
647        0.2264407  1          0.3278324 
647.1      0.2074097  1          0.3333778 
647.1999999999999 0.1858082  1          0.3433589 
647.3      0.1890705  1          0.3550856 
647.4      0.1945835  1          0.3650496 
647.5      0.1963726  1          0.3708903 
647.6      0.1975543  1          0.3731954 
647.6999999999999 0.1858581  1          0.3752844 
647.8      0.1755541  1          0.3807809 
647.9      0.1657141  1          0.3910142 
648        0.1593494  1          0.4042478 
648.1      0.1578447  1          0.4170815 
648.1999999999999 0.1539893  1          0.4267153 
648.3      0.157173   1          0.4323471 
648.4      0.1592575  1          0.4344672 
648.5      0.1505183  1          0.4333844 
648.6      0.1510676  1          0.428367  
648.6999999999999 0.1538293  1          0.4186044 
648.8      0.1601638  1          0.404719  
648.9      0.1783275  1          0.3893415 
649        0.1934963  1          0.3760054 
649.1      0.1984259  1          0.3675151 
649.1999999999999 0.2010607  1          0.3649924 
649.3      0.1980157  1          0.3679404 
649.4      0.1935942  1          0.3751519 
649.5      0.1852766  1          0.3857611 
649.6      0.1727663  1          0.3996832 
649.6999999999999 0.1651672  1          0.4169665 
649.8      0.1526533  1          0.4362352 
649.9      0.1464728  1          0.4536998 
650        0.1478279  1          0.4636685 
650.1      0.1556263  1          0.4615453 
650.1999999999999 0.1692065  1          0.4470904 
650.3      0.1699688  1          0.4252114 
650.4      0.1742979  1          0.4033577 
650.5      0.1975395  1          0.3881123 
650.6      0.217103   1          0.3836695 
650.6999999999999 0.2173156  1          0.3920943 
650.8      0.2066206  1          0.4142049 
650.9      0.1897487  1          0.4495756 
651        0.1675808  1          0.495352  
651.1      0.1393905  1          0.5443611 
651.1999999999999 0.117939   1          0.5849438 
651.3      0.1001193  1          0.6044769 
651.4      0.09054774 1          0.5956208 
651.5      0.1008651  1          0.5598086 
651.6      0.117342   1          0.504832  
651.6999999999999 0.1659007  1          0.4394718 
651.8      0.2142721  1          0.3703502 
651.9      0.2426111  0.9325312  0.3020886 
652        0.2689818  0.7876925  0.2385593 
652.1      0.2868509  0.7305999  0.183027  
652.1999999999999 0.3009398  0.6881993  0.1374497 
652.3      0.3161039  0.6182535  0.1020644 
652.4      0.3303852  0.5577604  0.07581181
652.5      0.3332491  0.5522352  0.05715185
652.6      0.33193    0.5533189  0.04472106
652.6999999999999 0.3423761  0.5749301  0.03763831
652.8      0.3521253  0.5986686  0.03550674
652.9      0.361704   0.5713803  0.03826793
653        0.3647203  0.5549442  0.04601577
653.1      0.3628566  0.5110102  0.05878584
653.1999999999999 0.3608733  0.4702854  0.07633739
653.3      0.3483444  0.513646   0.09790012
653.4      0.3286464  0.5730867  0.1219531 
653.5      0.3086789  0.5741864  0.1460697 
653.6      0.2922792  0.5706954  0.1670402 
653.6999999999999 0.2787271  0.6054277  0.1814949 
653.8      0.2728261  0.6266111  0.1870523 
653.9      0.2648059  0.6960889  0.1834746 
654        0.2598925  0.7646465  0.1729323 
654.1      0.2649141  0.792271   0.1590729 
654.1999999999999 0.2731982  0.8115327  0.1455338 
654.3      0.2567397  0.897496   0.1349465 
654.4      0.2397246  0.998299   0.1287337 
654.5      0.2164978  1          0.1273961 
654.6      0.1883526  1          0.1307118 
654.6999999999999 0.203549   1          0.1377287 
654.8      0.2141966  0.9836732  0.1465534 
654.9      0.1840566  1          0.1544735 
655        0.1577732  1          0.158679  
655.1      0.1416394  1          0.1575255 
655.1999999999999 0.1296645  1          0.1513144 
655.3      0.1429244  1          0.1419125 
655.4      0.1672819  1          0.1316118 
655.5      0.2256041  1          0.1222143 
655.6      0.2781724  0.9343147  0.1147851 
655.6999999999999 0.3113111  0.8661759  0.1098009 
655.8      0.3385735  0.8248318  0.1072788 
655.9      0.341028   0.7963764  0.1068206 
656        0.3389947  0.7784051  0.1076589 
656.1      0.3247616  0.8226933  0.1089617 
656.1999999999999 0.3061278  0.8828769  0.1102755 
656.3      0.2985668  0.8824648  0.1118586 
656.4      0.2880698  0.8909676  0.1145074 
656.5      0.2643765  0.9717488  0.1189403 
656.6      0.2418498  1          0.125063  
656.6999999999999 0.2326039  1          0.1316249 
656.8      0.2262275  1          0.136499  
656.9      0.2299204  1          0.1376292 
657        0.2363963  1          0.1341061 
657.1      0.2323767  1          0.1267004 
657.1999999999999 0.2263363  1          0.1175404 
657.3      0.2255707  1          0.1092581 
657.4      0.2239475  1          0.1042456 
657.5      0.2258481  1          0.1041929 
657.6      0.2290418  1          0.1099233 
657.6999999999999 0.2095365  1          0.1211934 
657.8      0.1859932  1          0.136592  
657.9      0.1927891  1          0.1536494 
658        0.2054032  1          0.1695664 
658.1      0.2179446  1          0.1822056 
658.1999999999999 0.2310853  1          0.1908269 
658.3      0.1894424  1          0.1960318 
658.4      0.1465733  1          0.1991308 
658.5      0.1699826  1          0.201443  
658.6      0.1933732  1          0.2039071 
658.6999999999999 0.2469642  1          0.2070508 
658.8      0.2954461  0.9361712  0.2109572 
658.9      0.308255   0.9155179  0.2152681 
659        0.3241937  0.8885135  0.2193077 
659.1      0.2818385  0.9709137  0.2224496 
659.1999999999999 0.2236822  1          0.2248284 
659.3      0.1912676  1          0.2276852 
659.4      0.1596032  1          0.2331919 
659.5      0.1651073  1          0.2432014 
659.6      0.1729174  1          0.2576952 
659.6999999999999 0.03885601 1          0.4623696 
659.8      0.05987551 1          0.4749034 
659.9      0.1058872  1          0.474464  
660        0.1124374  1          0.4579558 
660.1      0.147051   1          0.4283634 
660.1999999999999 0.1787278  1          0.3932959 
660.3      0.1730147  1          0.3612304 
660.4      0.1088584  1          0.3383619 
660.5      0.101538   1          0.3272508 
660.6      0.09098727 1          0.3271236 
660.6999999999999 0.1155298  1          0.3346785 
660.8      0.1391109  1          0.345503  
660.9      0.08826082 1          0.3553931 
661        0.03850095 1          0.3615771 
661.1      0.08693463 1          0.3629024 
661.1999999999999 0.1367677  1          0.3594699 
661.3      0.1154085  1          0.3520911 
661.4      0.09480216 1          0.3421529 
661.5      0.08988149 1          0.3318832 
661.6      0.08417251 1          0.3242938 
