~Version
 VERS              .         3.0                           : CWLS LOG ASCII STANDARD - VERSION 3.0
 WRAP              .         NO                            : ONE LINE PER DEPTH STEP
 DLM               .         SPACE                         : DELIMITING CHARACTER(SPACE TAB OR COMMA)
~Well Information
#_______________________________________________________________________________
#
#PARAMETER_NAME    .UNIT     VALUE                         : DESCRIPTION
#_______________________________________________________________________________
STRT               .m        0.1                           : First reference value
STOP               .m        909                           : Last reference value
STEP               .m        0.1                           : Step increment
NULL               .         -9999                         : Missing value
COMP               .         ICPetroleum                   : Company
WELL               .         306                           : Well name
FLD                .         Karatobe                      : Field
LOC                .                                       : Location
SRVC               .                                       : Service Company
CTRY               .         KZ                            : Country
DATE               .         13.12.21                      : Service Date
LATI               .         0                             : Latitude
LONG               .         0                             : Longitude
GDAT               .         WGS 84                        : Geodetic Datum
CNTY               .                                       : 
COORDIN            .                                       : Grid System
COUNTRY            .         Kazakhstan                    : 
COUNTRY            .         Kazakhstan                    : 
EREF               .m        133.3                         : 
KB                 .         135                           : KB Elevation
ORIGINALWELLNAME   .         306                           : 
PROV               .                                       : Province
RWS                .         -999                          : Def_Rw
STAT               .                                       : 
UWI                .         1_306                         : Unique Well Identifier (UWI)
WST                .         -999                          : Def_Rwt
X                  .km       466914.63                     : 
XCOORD             .                                       : X or East-West Coordinate
Y                  .km       5308503.06                    : 
YCOORD             .                                       : Y or North-South Coordinate
~Parameter Information Block
#_______________________________________________________________________________
#
#PARAMETER_NAME    .UNIT     VALUE                         : DESCRIPTION
#_______________________________________________________________________________
SET                .         Las                           : 
TLFamily_DEPT      .         Measured Depth                : 
TLFamily_PHI_FINAL .         Porosity                      : 
TLFamily_SW_AR     .         Water Saturation              :
TLFamily_VSH_FINAL .         Shale Volume                  : 
~Curve Information
#_______________________________________________________________________________
#
#LOGNAME           .UNIT     LOG_ID                        : DESCRIPTION
#_______________________________________________________________________________
DEPT               .m                                      :  {F}
PHI_FINAL          .m3/m3                                  : Porosity {F}
SW_AR              .m3/m3                                  :  {F}
VSH_FINAL          .unitless                               : Vshale {F}
~Ascii
# ...
520.3      0.3238225  1          0.2307208 
520.4      0.3428003  1          0.2228653 
520.5      0.339586   1          0.2132858 
520.6      0.3393667  1          0.2034503 
520.6999999999999 0.3491319  1          0.1956049 
520.8      0.3556711  1          0.1920093 
520.9      0.3517757  1          0.1944014 
521        0.3426478  1          0.2034513 
521.1      0.3269811  1          0.218493  
521.1999999999999 0.3068926  1          0.2374321 
521.3      0.2948312  1          0.257278  
521.4      0.2828627  1          0.2749623 
521.5      0.2759347  1          0.2880118 
521.6      0.2711824  1          0.294787  
521.6999999999999 0.2805427  1          0.2943829 
521.8      0.2939428  1          0.2867446 
521.9      0.2620989  1          0.272929  
522        0.2092948  1          0.255323  
522.1      0.200506   1          0.2372605 
522.1999999999999 0.1764679  1          0.2220906 
522.3      0.1484068  1          0.2122255 
522.4      0.1208954  1          0.2085191 
522.5      0.08930848 1          0.2101039 
522.6      0.06839788 1          0.2147205 
522.6999999999999 0.0472964  1          0.2197585 
522.8      0.02766391 1          0.2236629 
522.9      0.04281631 1          0.2268692 
523        0.078027   1          0.2312655 
523.1      0.1555439  1          0.2386637 
523.1999999999999 0.2446369  1          0.2493565 
523.3      0.2727792  1          0.2615347 
523.4      0.3065661  1          0.2720215 
523.5      0.3139149  1          0.277766  
523.6      0.3220836  1          0.2773554 
523.6999999999999 0.3194185  1          0.2712928 
523.8      0.3175283  1          0.2612512 
523.9      0.3232024  1          0.2491269 
524        0.328579   1          0.2366735 
524.1      0.3303711  1          0.2257413 
524.1999999999999 0.3257319  1          0.2184916 
524.3      0.3226209  1          0.2173065 
524.4      0.3172482  1          0.224196  
524.5      0.3029822  1          0.2399886 
524.6      0.2847377  1          0.2633446 
524.6999999999999 0.2334018  1          0.2901258 
524.8      0.1794752  1          0.3138674 
524.9      0.144182   1          0.32807   
525        0.1206623  1          0.3292728 
525.1      0.1886322  1          0.3186476 
525.1999999999999 0.2547451  1          0.3010212 
525.3      0.2826047  1          0.282474  
525.4      0.3095554  1          0.2684395 
525.5      0.3229773  1          0.2629072 
525.6      0.3288614  1          0.2683046 
525.6999999999999 0.3389265  1          0.285448  
525.8      0.3460272  1          0.313299  
525.9      0.3231333  1          0.3485711 
526        0.3033136  1          0.3856097 
526.1      0.2975841  1          0.4175466 
526.1999999999999 0.2969853  1          0.4384997 
526.3      0.2840629  1          0.4464289 
526.4      0.2749901  1          0.4442439 
526.5      0.2598673  1          0.4390885 
526.6      0.2413424  1          0.4396169 
526.6999999999999 0.2421261  1          0.4534265 
526.8      0.2345454  1          0.4850333 
526.9      0.2229382  1          0.5344394 
527        0.2087645  1          0.5958996 
527.1      0.1901546  1          0.658061  
527.1999999999999 0.1752413  1          0.707298  
527.3      0.1570326  1          0.7337318 
527.4      0.137251   1          0.7356209 
527.5      0.1358322  1          0.7187412 
527.6      0.138987   1          0.692233  
527.6999999999999 0.1591519  1          0.6648003 
527.8      0.1788159  1          0.6430636 
527.9      0.1644262  1          0.6321352 
528        0.1500547  1          0.6364971 
528.1      0.1422466  1          0.660523  
528.1999999999999 0.126021   1          0.707019  
528.3      0.100429   1          0.7739687 
528.4      0.06752111 1          0.8496944 
528.5      0.04209787 1          0.9107653 
528.6      0.03008007 1          0.9297497 
528.6999999999999 0.03857496 1          0.8929408 
528.8      0.06097772 1          0.8127209 
528.9      0.08848967 1          0.7192954 
529        0.1101398  1          0.6414309 
529.1      0.1283544  1          0.5953714 
529.1999999999999 0.1325386  1          0.5853531 
529.3      0.1325809  1          0.6077337 
529.4      0.1225171  1          0.6531083 
529.5      0.1051886  1          0.7077034 
529.6      0.09182405 1          0.7574375 
529.6999999999999 0.08126626 1          0.7945547 
529.8      0.07013234 1          0.8217701 
529.9      0.06345946 1          0.849322  
530        0.05866772 1          0.8880074 
530.1      0.04608233 1          0.9435672 
530.1999999999999 0.03401158 1          1         
530.3      0.03373141 1          1         
530.4      0.03190335 1          1         
530.5      0.03344069 1          1         
530.6      0.03044563 1          1         
530.6999999999999 0.01859111 1          1         
530.8      0.01006779 1          1         
530.9      0.006975605 1          1         
531        0.005200636 1          1         
531.1      0.007761466 1          1         
531.1999999999999 0.01273461 1          1         
531.3      0.01304858 1          1         
531.4      0.01535617 1          1         
531.5      0.01690885 1          1         
531.6      0.03711248 1          0.9358624 
531.6999999999999 0.05376018 1          0.8991692 
531.8      0.06265187 1          0.8834102 
531.9      0.06923248 1          0.8792845 
532        0.07524699 1          0.8794025 
532.1      0.07578591 1          0.8788115 
532.1999999999999 0.0824491  1          0.8741128 
532.3      0.08550747 1          0.8630366 
532.4      0.08754709 1          0.8439171 
532.5      0.07287718 1          0.8162684 
532.6      0.06582627 1          0.7806156 
532.6999999999999 0.08836998 1          0.7381457 
532.8      0.1182723  1          0.6903955 
532.9      0.1347045  1          0.6394874 
533        0.1536732  1          0.588728  
533.1      0.1707112  1          0.5424665 
533.1999999999999 0.1766703  1          0.5049412 
533.3      0.1966801  1          0.478586  
533.4      0.2082916  1          0.4626537 
533.5      0.2344804  1          0.4528867 
533.6      0.2556691  1          0.4426545 
533.6999999999999 0.2661269  1          0.4258342 
533.8      0.2781701  1          0.4001753 
533.9      0.2931013  1          0.3688419 
534        0.3092713  1          0.3388081 
534.1      0.3205677  1          0.317651  
534.1999999999999 0.3205699  1          0.3114079 
534.3      0.3054933  1          0.3241931 
534.4      0.2824751  1          0.3587225 
534.5      0.2421727  1          0.4160686 
534.6      0.1968623  1          0.4947441 
534.6999999999999 0.1632806  1          0.5893794 
534.8      0.1194487  1          0.6908718 
534.9      0.08357845 1          0.7880903 
535        0.05654576 1          0.8699495 
535.1      0.0398761  1          0.9267457 
535.1999999999999 0.03969929 1          0.951141  
535.3      0.04423278 1          0.9408915 
535.4      0.05288054 1          0.9014431 
535.5      0.05978316 1          0.8457898 
535.6      0.06789322 1          0.7897232 
535.6999999999999 0.07348032 1          0.7460316 
535.8      0.06908138 1          0.7216412 
535.9      0.03655048 1          0.7178274 
536        0.01787458 1          0.7319796 
536.1      0.01425477 1          0.7593687 
536.1999999999999 0.009998773 1          0.7948285 
536.3      0.02131081 1          0.8347809 
536.4      0.03514458 1          0.8793635 
536.5      0.02125077 1          0.9336061 
536.6      0.0148882  1          1         
536.6999999999999 0.008419937 1          1         
536.8      0.004799768 1          1         
536.9      0.004430253 1          1         
537        0.004032864 1          1         
537.1      0.005885537 1          1         
537.1999999999999 0.007189344 1          1         
537.3      0.02287134 1          1         
537.4      0.08236656 1          0.8815101 
537.5      0.2254487  1          0.6589795 
537.6      0.3555129  0.787606   0.4777275 
537.6999999999999 0.4155039  0.6581193  0.3449551 
537.8      0.4580885  0.580979   0.2560305 
537.9      0.4383102  0.6352967  0.2033226 
