~Version
 VERS              .         3.0                           : CWLS LOG ASCII STANDARD - VERSION 3.0
 WRAP              .         NO                            : ONE LINE PER DEPTH STEP
 DLM               .         SPACE                         : DELIMITING CHARACTER(SPACE TAB OR COMMA)
~Well Information
#_______________________________________________________________________________
#
#PARAMETER_NAME    .UNIT     VALUE                         : DESCRIPTION
#_______________________________________________________________________________
STRT               .m        0.1                           : First reference value
STOP               .m        909                           : Last reference value
STEP               .m        0.1                           : Step increment
NULL               .         -9999                         : Missing value
COMP               .         ICPetroleum                   : Company
WELL               .         306                           : Well name
FLD                .         Karatobe                      : Field
LOC                .                                       : Location
SRVC               .                                       : Service Company
CTRY               .         KZ                            : Country
DATE               .         13.12.21                      : Service Date
LATI               .         0                             : Latitude
LONG               .         0                             : Longitude
GDAT               .         WGS 84                        : Geodetic Datum
CNTY               .                                       : 
COORDIN            .                                       : Grid System
COUNTRY            .         Kazakhstan                    : 
COUNTRY            .         Kazakhstan                    : 
EREF               .m        133.3                         : 
KB                 .         135                           : KB Elevation
ORIGINALWELLNAME   .         306                           : 
PROV               .                                       : Province
RWS                .         -999                          : Def_Rw
STAT               .                                       : 
UWI                .         1_306                         : Unique Well Identifier (UWI)
WST                .         -999                          : Def_Rwt
X                  .km       466914.63                     : 
XCOORD             .                                       : X or East-West Coordinate
Y                  .km       5308503.06                    : 
YCOORD             .                                       : Y or North-South Coordinate
~Parameter Information Block
#_______________________________________________________________________________
#
#PARAMETER_NAME    .UNIT     VALUE                         : DESCRIPTION
#_______________________________________________________________________________
SET                .         Las                           : 
TLFamily_DEPT      .         Measured Depth                : 
TLFamily_PHI_FINAL .         Porosity                      : 
TLFamily_SW_AR     .         Water Saturation              :
TLFamily_VSH_FINAL .         Shale Volume                  : 
~Curve Information
#_______________________________________________________________________________
#
#LOGNAME           .UNIT     LOG_ID                        : DESCRIPTION
#_______________________________________________________________________________
DEPT               .m                                      :  {F}
PHI_FINAL          .m3/m3                                  : Porosity {F}
SW_AR              .m3/m3                                  :  {F}
VSH_FINAL          .unitless                               : Vshale {F}
~Ascii
# ...
229.4      0.2638535  0.7528465  0.5447806 
229.5      0.2470265  0.8228626  0.5764055 
229.6      0.2379362  0.8754547  0.5934603 
229.7      0.2402061  0.8994621  0.5845662 
229.8      0.2474282  0.9065029  0.5481221 
229.9      0.2563581  0.9074083  0.4936396 
230        0.2682539  0.8996394  0.4359548 
230.1      0.2742374  0.8427574  0.3876923 
230.2      0.2775925  0.7966003  0.3561218 
230.3      0.2603651  0.8746881  0.3438451 
230.4      0.2341266  0.9993034  0.3510311 
230.5      0.2050658  1          0.3769036 
230.6      0.1698851  1          0.420684  
230.7      0.1766703  1          0.4820227 
230.8      0.1789478  1          0.5617611 
230.9      0.163533   1          0.6626272 
231        0.1276923  1          0.7895903 
231.1      0.06203367 1          0.948935  
231.2      0.04029204 1          1         
231.3      0.03037118 1          1         
231.4      0.02189557 1          1         
231.5      0.01926667 1          1         
231.6      0.01728604 1          1         
231.7      0.02775627 1          1         
231.8      0.03558738 1          1         
231.9      0.02815251 1          1         
232        0.01925344 1          1         
232.1      0.007165736 1          1         
232.2      0.0005484888 1          1         
232.3      0.02574654 1          0.9276296 
232.4      0.1188597  1          0.7417558 
232.5      0.1858924  0.994033   0.6253729 
232.6      0.2309311  0.7899628  0.5657185 
232.7      0.2324901  0.7799228  0.5485072 
232.8      0.2211158  0.8125792  0.559793  
232.9      0.225649   0.8270161  0.5857061 
233        0.2317529  0.8364899  0.6140064 
233.1      0.2342243  0.843606   0.6370041 
233.2      0.2414601  0.8349418  0.6531993 
233.3      0.2456475  0.8339261  0.665584  
233.4      0.2425408  0.8567937  0.6781994 
233.5      0.2096373  0.9954175  0.693623  
233.6      0.1790423  1          0.7123542 
233.7      0.1679498  1          0.7335332 
233.8      0.1584115  1          0.7558599 
233.9      0.1463328  1          0.7776577 
234        0.1323134  1          0.7963374 
234.1      0.1144401  1          0.8081846 
234.2      0.101504   1          0.809332  
234.3      0.100264   1          0.7978825 
234.4      0.1052504  1          0.7762455 
234.5      0.09918348 1          0.751626  
234.6      0.08002407 1          0.7336897 
234.7      0.08478812 1          0.7305734 
234.8      0.08513254 1          0.7457204 
234.9      0.1085413  1          0.7766967 
235        0.1276636  1          0.8161345 
235.1      0.1126876  1          0.8545819 
235.2      0.1004075  1          0.8846706 
235.3      0.1025663  1          0.9037418 
235.4      0.1091456  1          0.9141479 
235.5      0.1077206  1          0.9210114 
235.6      0.1122121  1          0.9299183 
235.7      0.1071511  1          0.9447333 
235.8      0.0892282  1          0.9659933 
235.9      0.05107862 1          0.9902011 
236        0.03325182 1          1         
236.1      0.01382382 1          1         
236.2      0.003559943 1          1         
236.3      0.002991353 1          0.971636  
236.4      0.00584296 1          0.9219699 
236.5      0.03787261 1          0.8684163 
236.6      0.1261263  1          0.8270034 
236.7      0.1424234  1          0.8136667 
236.8      0.1443388  1          0.8413927 
236.9      0.110624   1          0.9188601 
237        0.07709862 1          1         
237.1      0.09584028 1          1         
237.2      0.1110244  1          1         
237.3      0.09374633 1          1         
237.4      0.06851795 1          1         
237.5      0.05936328 1          1         
237.6      0.05550082 1          1         
237.7      0.07003362 1          1         
237.8      0.08182277 1          1         
237.9      0.07837252 1          1         
238        0.06742638 1          1         
238.1      0.05576597 1          1         
238.2      0.05012766 1          1         
238.3      0.05144542 1          1         
238.4      0.05514189 1          1         
238.5      0.06141805 1          1         
238.6      0.05892608 1          1         
238.7      0.05793813 1          1         
238.8      0.05577182 1          1         
238.9      0.03720926 1          1         
239        0.02426775 1          1         
239.1      0.02358842 1          1         
239.2      0.03724026 1          1         
239.3      0.04226204 1          1         
239.4      0.04136944 1          1         
239.5      0.03857929 1          1         
239.6      0.0412301  1          1         
239.7      0.03103588 1          1         
239.8      0.02766258 1          1         
239.9      0.03108497 1          1         
240        0.04203381 1          0.9632176 
240.1      0.07388607 1          0.9036918 
240.2      0.091621   1          0.8807727 
240.3      0.1036391  1          0.8990432 
240.4      0.09744591 1          0.9602813 
240.5      0.07984804 1          1         
240.6      0.0775015  1          1         
240.7      0.07587877 1          1         
240.8      0.07338573 1          1         
240.9      0.06293596 1          1         
241        0.05521499 1          1         
241.1      0.050494   1          1         
241.2      0.04495773 1          1         
241.3      0.02639241 1          1         
241.4      0.009641241 1          1         
241.5      0.01573043 1          1         
241.6      0.02047541 1          1         
241.7      0.01659355 1          1         
241.8      0.0111377  1          1         
241.9      0.01426394 1          1         
242        0.02388852 1          1         
242.1      0.03706873 1          1         
242.2      0.04812534 1          1         
242.3      0.04314637 1          1         
242.4      0.03538004 1          1         
242.5      0.03308164 1          1         
242.6      0.02737872 1          1         
242.7      0.02174671 1          1         
242.8      0.02114735 1          1         
242.9      0.02783846 1          1         
243        0.03772588 1          1         
243.1      0.04431318 1          1         
243.2      0.04749821 1          1         
243.3      0.04386018 1          1         
243.4      0.03732255 1          1         
243.5      0.04050079 1          1         
243.6      0.0438045  1          1         
243.7      0.03818197 1          1         
243.8      0.03058369 1          1         
243.9      0.02369845 1          1         
244        0.01890279 1          1         
244.1      0.01837631 1          1         
244.2      0.01792936 1          1         
244.3      0.01677301 1          1         
244.4      0.01850014 1          1         
244.5      0.02881792 1          1         
244.6      0.04182771 1          1         
244.7      0.0572676  1          1         
244.8      0.07100787 1          1         
244.9      0.07565076 1          1         
245        0.08106425 1          1         
245.1      0.08298291 1          1         
245.2      0.08519969 1          1         
245.3      0.08703898 1          1         
245.4      0.08794025 1          1         
245.5      0.08290632 1          1         
245.6      0.07665621 1          1         
245.7      0.07501952 1          1         
245.8      0.07669326 1          1         
245.9      0.08983209 1          1         
246        0.1022692  1          1         
246.1      0.1054444  1          1         
246.2      0.1048867  1          1         
246.3      0.09375414 1          1         
246.4      0.08422475 1          1         
246.5      0.085832   1          1         
246.6      0.09033743 1          1         
246.7      0.09340375 1          1         
246.8      0.09663578 1          1         
246.9      0.09535287 1          1         
247        0.09137405 1          1         
247.1      0.08473826 1          1         
247.2      0.07702912 1          1         
247.3      0.07307971 1          1         
247.4      0.06959691 1          1         
247.5      0.07083792 1          1         
