~Version
 VERS              .         3.0                           : CWLS LOG ASCII STANDARD - VERSION 3.0
 WRAP              .         NO                            : ONE LINE PER DEPTH STEP
 DLM               .         SPACE                         : DELIMITING CHARACTER(SPACE TAB OR COMMA)
~Well Information
#_______________________________________________________________________________
#
#PARAMETER_NAME    .UNIT     VALUE                         : DESCRIPTION
#_______________________________________________________________________________
STRT               .m        0.1                           : First reference value
STOP               .m        909                           : Last reference value
STEP               .m        0.1                           : Step increment
NULL               .         -9999                         : Missing value
COMP               .         ICPetroleum                   : Company
WELL               .         306                           : Well name
FLD                .         Karatobe                      : Field
LOC                .                                       : Location
SRVC               .                                       : Service Company
CTRY               .         KZ                            : Country
DATE               .         13.12.21                      : Service Date
LATI               .         0                             : Latitude
LONG               .         0                             : Longitude
GDAT               .         WGS 84                        : Geodetic Datum
CNTY               .                                       : 
COORDIN            .                                       : Grid System
COUNTRY            .         Kazakhstan                    : 
COUNTRY            .         Kazakhstan                    : 
EREF               .m        133.3                         : 
KB                 .         135                           : KB Elevation
ORIGINALWELLNAME   .         306                           : 
PROV               .                                       : Province
RWS                .         -999                          : Def_Rw
STAT               .                                       : 
UWI                .         1_306                         : Unique Well Identifier (UWI)
WST                .         -999                          : Def_Rwt
X                  .km       466914.63                     : 
XCOORD             .                                       : X or East-West Coordinate
Y                  .km       5308503.06                    : 
YCOORD             .                                       : Y or North-South Coordinate
~Parameter Information Block
#_______________________________________________________________________________
#
#PARAMETER_NAME    .UNIT     VALUE                         : DESCRIPTION
#_______________________________________________________________________________
SET                .         Las                           : 
TLFamily_DEPT      .         Measured Depth                : 
TLFamily_PHI_FINAL .         Porosity                      : 
TLFamily_SW_AR     .         Water Saturation              :
TLFamily_VSH_FINAL .         Shale Volume                  : 
~Curve Information
#_______________________________________________________________________________
#
#LOGNAME           .UNIT     LOG_ID                        : DESCRIPTION
#_______________________________________________________________________________
DEPT               .m                                      :  {F}
PHI_FINAL          .m3/m3                                  : Porosity {F}
SW_AR              .m3/m3                                  :  {F}
VSH_FINAL          .unitless                               : Vshale {F}
~Ascii
# ...
484.2      0.3784072  0.837367   0.03318456
484.3      0.3368943  0.8661473  0.03720028
484.4      0.3041501  0.8825939  0.04100244
484.5      0.2809258  0.7721259  0.04453404
484.6      0.2525734  0.6876997  0.04762753
484.7      0.3157766  0.6943856  0.0500605 
484.8      0.3853808  0.7116377  0.05167546
484.9      0.3925392  0.7608027  0.05241916
485        0.4024425  0.806637   0.05231657
485.1      0.396042   0.8312749  0.05142565
485.2      0.3906659  0.8546786  0.04984557
485.3      0.3688042  0.9184319  0.04775685
485.4      0.3453579  0.9944053  0.04547911
485.5      0.3026029  1          0.04347576
485.6      0.26195    1          0.04227049
485.7      0.2708547  0.9555415  0.0423228 
485.8      0.2825721  0.7806127  0.04385157
485.9      0.3535931  0.7470366  0.04662113
486        0.4198511  0.7463233  0.04990975
486.1      0.4254794  0.7800251  0.05279341
486.2      0.4316479  0.8134242  0.05470767
486.3      0.427532   0.8229318  0.05588338
486.4      0.4247773  0.830097   0.05730783
486.5      0.4118816  0.8618374  0.06023243
486.6      0.3892548  0.9167585  0.06550889
486.7      0.367197   0.9208127  0.07307768
486.8      0.3462178  0.9243167  0.0817476 
486.9      0.3433477  0.9238974  0.08946056
487        0.3393827  0.9263343  0.09412025
487.1      0.2837844  1          0.09469429
487.2      0.2367592  1          0.09175416
487.3      0.2069341  1          0.08696469
487.4      0.1765068  1          0.08189464
487.5      0.1996088  1          0.07718889
487.6      0.2439827  1          0.0725387 
487.7      0.3042827  0.8521557  0.06721253
487.8      0.3674917  0.7419506  0.06075483
487.9      0.3880381  0.7281505  0.05341879
488        0.3928229  0.7434565  0.04612191
488.1      0.390667   0.7614465  0.04008872
488.2      0.3791317  0.7980479  0.03648814
488.3      0.370648   0.8257483  0.03630299
488.4      0.3625547  0.8539178  0.04036254
488.5      0.3530051  0.8560821  0.04949964
488.6      0.3430722  0.8596101  0.06477075
488.7      0.3447003  0.8746177  0.08778697
488.8      0.3426669  0.8987623  0.121051  
488.9      0.3407018  0.9036653  0.1681421 
489        0.3270673  0.9392605  0.233226  
489.1      0.2989152  1          0.3192645 
489.2      0.2535893  1          0.4244248 
489.3      0.2116791  1          0.5380229 
489.4      0.1690919  1          0.639881  
489.5      0.1504341  1          0.7073198 
489.6      0.1557503  1          0.7272249 
489.7      0.1549601  1          0.7038087 
489.8      0.162608   1          0.6551075 
489.9      0.1824204  1          0.6022741 
490        0.2005154  1          0.5604826 
490.1      0.2174994  1          0.5353966 
490.2      0.2286059  1          0.5235842 
490.3      0.2262668  1          0.5148432 
490.4      0.2254771  1          0.4969727 
490.5      0.2296442  1          0.4633556 
490.6      0.2376577  1          0.4180589 
490.7      0.2630594  1          0.3731709 
490.8      0.2827522  1          0.3410256 
490.9      0.2913478  1          0.3290648 
491        0.2910619  1          0.3393809 
491.1      0.2833184  1          0.3695799 
491.2      0.2707071  1          0.4130202 
491.3      0.2923243  1          0.4594328 
491.4      0.306729   1          0.4982316 
491.5      0.3087312  1          0.5237029 
491.6      0.3160123  0.9796908  0.5377572 
491.7      0.2970583  0.9977723  0.5478975 
491.8      0.2779073  1          0.5620113 
491.9      0.2379989  1          0.584637  
492        0.195951   1          0.6154665 
492.1      0.1608035  1          0.6508538 
492.2      0.1153484  1          0.6860545 
492.3      0.0958968  1          0.7175716 
492.4      0.07984741 1          0.7435408 
492.5      0.07670895 1          0.762732  
492.6      0.07510898 1          0.7735665 
492.7      0.06512048 1          0.7738296 
492.8      0.0536868  1          0.7618517 
492.9      0.06954612 1          0.7373501 
493        0.08670253 1          0.7021902 
493.1      0.1162468  1          0.6602651 
493.2      0.1438585  1          0.6169468 
493.3      0.1685927  1          0.5781541 
493.4      0.1866333  1          0.5491098 
493.5      0.1940574  1          0.5341247 
493.6      0.1935292  1          0.5364323 
493.7      0.1795332  1          0.5585381 
493.8      0.1535077  1          0.6008301 
493.9      0.1327484  1          0.6592183 
494        0.1109888  1          0.721472  
494.1      0.07423185 1          0.7667232 
494.2      0.05560256 1          0.7728752 
494.3      0.1110204  1          0.7304431 
494.4      0.1784993  1          0.6506283 
494.5      0.252115   1          0.557321  
494.6      0.3239577  0.9439369  0.4721609 
494.7      0.3659995  0.7868455  0.406392  
494.8      0.3970578  0.680666   0.362051  
494.9      0.4089707  0.6238835  0.3367486 
495        0.4185441  0.5748715  0.3272896 
495.1      0.3642684  0.7283028  0.3313242 
495.2      0.3064097  0.9504083  0.3471978 
495.3      0.2870866  1          0.3730415 
495.4      0.2687696  1          0.4051667 
495.5      0.2611962  1          0.4375191 
495.6      0.2480845  1          0.4631429 
495.7      0.2463198  1          0.4777679 
495.8      0.2479659  1          0.4825563 
495.9      0.2422068  1          0.4831258 
496        0.2347817  1          0.4854405 
496.1      0.2265245  1          0.4915964 
496.2      0.218415   1          0.4986475 
496.3      0.1987881  1          0.5011958 
496.4      0.1852374  1          0.4967631 
496.5      0.2048895  1          0.4893069 
496.6      0.220764   1          0.4874991 
496.7      0.1951446  1          0.4995948 
496.8      0.1585662  1          0.5292238 
496.9      0.1261355  1          0.5738178 
497        0.09338538 1          0.6257795 
497.1      0.07471851 1          0.6771305 
497.2      0.06153452 1          0.7248687 
497.3      0.02598668 1          0.7730943 
497.4      0.003889382 1          0.8299058 
497.5      0          1          0.901477  
497.6      0.00729978 1          0.9864069 
497.7      0.004298508 1          1         
497.8      0.001760613 1          1         
497.9      0.0003591099 1          1         
498        0          1          1         
498.1      0.0002075875 1          1         
498.2      0.002364602 1          0.9733942 
498.3      0.01846158 1          0.8808368 
498.4      0.06176626 1          0.8011272 
498.5      0.0805921  1          0.7412265 
498.6      0.08961155 1          0.7031244 
498.7      0.1044121  1          0.6854851 
498.8      0.1075723  1          0.6834923 
498.9      0.1023618  1          0.6882327 
499        0.09733013 1          0.6871812 
499.1      0.1006434  1          0.6686498 
499.2      0.1126093  1          0.6286273 
499.3      0.1430577  1          0.5742513 
499.4      0.1716417  1          0.5196366 
499.5      0.1838744  1          0.4777932 
499.6      0.1847427  1          0.4559047 
499.7      0.1868813  1          0.455013  
499.8      0.1866502  1          0.4720055 
499.9      0.1588658  1          0.5016133 
500        0.1249372  1          0.5384492 
500.1      0.09816196 1          0.5786427 
500.2      0.07170759 1          0.6206782 
500.3      0.08219157 1          0.665163  
500.4      0.09129166 1          0.7137015 
500.5      0.08872454 1          0.7674746 
500.6      0.08498847 1          0.8248136 
500.7      0.06200066 1          0.8791006 
500.8      0.04569999 1          0.9182187 
500.9      0.03428496 1          0.929114  
501        0.03413634 1          0.9063316 
501.1      0.05357137 1          0.8576977 
501.2      0.08817596 1          0.8015535 
501.3      0.104816   1          0.7573305 
501.4      0.1106289  1          0.7384262 
501.5      0.09968323 1          0.7497152 
501.6      0.07301826 1          0.7877785 
501.7      0.04151653 1          0.8411205 
501.8      0.01833318 1          0.8915317 
501.9      0.01547525 1          0.9194462 
502        0.02419487 1          0.9129362 
502.1      0.03700463 1          0.8738554 
502.2      0.05805623 1          0.8155763 
502.3      0.08314449 1          0.7544327 
