~Version
 VERS              .         3.0                           : CWLS LOG ASCII STANDARD - VERSION 3.0
 WRAP              .         NO                            : ONE LINE PER DEPTH STEP
 DLM               .         SPACE                         : DELIMITING CHARACTER(SPACE TAB OR COMMA)
~Well Information
#_______________________________________________________________________________
#
#PARAMETER_NAME    .UNIT     VALUE                         : DESCRIPTION
#_______________________________________________________________________________
STRT               .m        0.1                           : First reference value
STOP               .m        909                           : Last reference value
STEP               .m        0.1                           : Step increment
NULL               .         -9999                         : Missing value
COMP               .         ICPetroleum                   : Company
WELL               .         306                           : Well name
FLD                .         Karatobe                      : Field
LOC                .                                       : Location
SRVC               .                                       : Service Company
CTRY               .         KZ                            : Country
DATE               .         13.12.21                      : Service Date
LATI               .         0                             : Latitude
LONG               .         0                             : Longitude
GDAT               .         WGS 84                        : Geodetic Datum
CNTY               .                                       : 
COORDIN            .                                       : Grid System
COUNTRY            .         Kazakhstan                    : 
COUNTRY            .         Kazakhstan                    : 
EREF               .m        133.3                         : 
KB                 .         135                           : KB Elevation
ORIGINALWELLNAME   .         306                           : 
PROV               .                                       : Province
RWS                .         -999                          : Def_Rw
STAT               .                                       : 
UWI                .         1_306                         : Unique Well Identifier (UWI)
WST                .         -999                          : Def_Rwt
X                  .km       466914.63                     : 
XCOORD             .                                       : X or East-West Coordinate
Y                  .km       5308503.06                    : 
YCOORD             .                                       : Y or North-South Coordinate
~Parameter Information Block
#_______________________________________________________________________________
#
#PARAMETER_NAME    .UNIT     VALUE                         : DESCRIPTION
#_______________________________________________________________________________
SET                .         Las                           : 
TLFamily_DEPT      .         Measured Depth                : 
TLFamily_PHI_FINAL .         Porosity                      : 
TLFamily_SW_AR     .         Water Saturation              :
TLFamily_VSH_FINAL .         Shale Volume                  : 
~Curve Information
#_______________________________________________________________________________
#
#LOGNAME           .UNIT     LOG_ID                        : DESCRIPTION
#_______________________________________________________________________________
DEPT               .m                                      :  {F}
PHI_FINAL          .m3/m3                                  : Porosity {F}
SW_AR              .m3/m3                                  :  {F}
VSH_FINAL          .unitless                               : Vshale {F}
~Ascii
# ...
679.4      0.2383591  1          0.3979068 
679.5      0.2125697  1          0.4016628 
679.6      0.1249803  1          0.4055471 
679.6999999999999 0.0955162  1          0.4087254 
679.8      0.06680184 1          0.4093541 
679.9      0.07987751 1          0.4048968 
680        0.09510826 1          0.3931122 
680.1      0.09596772 1          0.3731903 
680.1999999999999 0.09878974 1          0.3465952 
680.3      0.1289707  1          0.31698   
680.4      0.1558597  1          0.2893383 
680.5      0.1428923  1          0.2684906 
680.6      0.1249443  1          0.2577147 
680.6999999999999 0.1278378  1          0.257832  
680.8      0.1109626  1          0.2672075 
680.9      0.1199893  1          0.2825167 
681        0.1283453  1          0.3001062 
681.1      0.171489   1          0.3174177 
681.1999999999999 0.2149831  1          0.3335377 
681.3      0.2013413  1          0.3489198 
681.4      0.1877071  1          0.3642761 
681.5      0.1448593  1          0.3799584 
681.6      0.1020339  1          0.3955649 
681.6999999999999 0.1386882  1          0.4099403 
681.8      0.1763191  1          0.4209953 
681.9      0.1272482  1          0.425836  
682        0.08078476 1          0.4218121 
682.1      0.09391996 1          0.4081526 
682.1999999999999 0.1091505  1          0.3873684 
682.3      0.1102014  1          0.3647956 
682.4      0.1099657  1          0.346597  
682.5      0.1139072  1          0.3371957 
682.6      0.114874   1          0.3379086 
682.6999999999999 0.1054147  1          0.3470707 
682.8      0.09437073 1          0.3616198 
682.9      0.09826753 1          0.3793709 
683        0.1011227  1          0.4006628 
683.0999999999999 0.06626556 1          0.4281776 
683.1999999999999 0.02884957 1          0.4643919 
683.3      0.0206429  1          0.5082944 
683.4      0.01221352 1          0.5529541 
683.5      0.01205395 1          0.5864966 
683.5999999999999 0.01852463 1          0.5974963 
683.6999999999999 0.05428978 1          0.5822099 
683.8      0.07467338 1          0.5476563 
683.9      0.0871334  1          0.5072271 
684        0.07324322 1          0.4734533 
684.0999999999999 0.09299737 1          0.4532892 
684.1999999999999 0.1084222  1          0.4478447 
684.3      0.1176761  1          0.4542308 
684.4      0.1007349  1          0.4682876 
684.5      0.09509052 1          0.4863684 
684.5999999999999 0.08867668 1          0.5060053 
684.6999999999999 0.08605956 1          0.5248331 
684.8      0.08553056 1          0.5394382 
684.9      0.08599417 1          0.5451673 
685        0.09291431 1          0.5378399 
685.0999999999999 0.09689154 1          0.5162617 
685.1999999999999 0.1062942  1          0.483712  
685.3      0.1012659  1          0.4468097 
685.4      0.09481721 1          0.4127797 
685.5      0.1075956  1          0.386939  
685.5999999999999 0.115045   1          0.3718747 
685.6999999999999 0.1626325  1          0.3675298 
685.8      0.1502106  1          0.3717641 
685.9      0.213768   1          0.3806079 
686        0.2172491  1          0.388927  
686.0999999999999 0.1986897  1          0.3914473 
686.1999999999999 0.181947   1          0.3847496 
686.3      0.1460758  1          0.3688228 
686.4      0.1097556  1          0.3473115 
686.5      0.1658176  1          0.3257002 
686.5999999999999 0.2204436  1          0.308972  
686.6999999999999 0.2501923  1          0.3000075 
686.8      0.2426254  1          0.2993292 
686.9      0.2311164  1          0.3056843 
687        0.1339861  1          0.3169279 
687.0999999999999 0.1854746  1          0.3308663 
687.1999999999999 0.202782   1          0.3456484 
687.3      0.1449365  1          0.3596963 
687.4      0.05375883 1          0.3717001 
687.5      0.143441   1          0.3807807 
687.5999999999999 0.2339867  1          0.3869255 
687.6999999999999 0.1901637  1          0.3909239 
687.8      0.1466309  1          0.3939354 
687.9      0.149342   1          0.3967175 
688        0.1521357  1          0.3992185 
688.0999999999999 0.1055053  1          0.4007626 
688.1999999999999 0.05933601 1          0.4007379 
688.3      0.09537226 1          0.3992145 
688.4      0.1225846  1          0.397032  
688.5      0.1067233  1          0.3953695 
688.5999999999999 0.0900214  1          0.3954071 
688.6999999999999 0.09528913 1          0.3982899 
688.8      0.09448622 1          0.4052273 
688.9      0.1202552  1          0.4176127 
689        0.1440494  1          0.4367122 
689.0999999999999 0.1339862  1          0.4629271 
689.1999999999999 0.1222403  1          0.494863  
689.3      0.09607269 1          0.5288331 
689.4      0.07081436 1          0.5597115 
689.5      0.01719224 1          0.5830263 
689.5999999999999 0          1          0.5971635 
689.6999999999999 0.06406457 1          0.6036603 
689.8      0.142579   1          0.6049327 
689.9      0.1452527  1          0.6012084 
690        0.1509776  1          0.5891898 
690.0999999999999 0.1482815  1          0.5641271 
690.1999999999999 0.1247837  1          0.5242155 
690.3      0.09849446 1          0.4735991 
690.4      0.07267647 1          0.4213804 
690.5      0.08917294 1          0.3772925 
690.5999999999999 0.1013543  1          0.3478754 
690.6999999999999 0.0946011  1          0.3348365 
690.8      0.08385647 1          0.3353681 
690.9      0.09092449 1          0.3433369 
691        0.0979847  1          0.3513322 
691.0999999999999 0.1091325  1          0.3534295 
691.1999999999999 0.1226177  1          0.34758   
691.3      0.1336974  1          0.335909  
691.4      0.1452295  1          0.3227    
691.5      0.1690829  1          0.3115982 
691.5999999999999 0.1919294  1          0.30392   
691.6999999999999 0.1920111  1          0.2986426 
691.8      0.1919772  1          0.2937577 
691.9      0.1860468  1          0.287921  
692        0.1802625  1          0.2815877 
692.0999999999999 0.1752876  1          0.2769194 
692.1999999999999 0.1486701  1          0.2768065 
692.3      0.1353755  1          0.283489  
692.4      0.1185234  1          0.2973657 
692.5      0.1138431  1          0.3164138 
692.5999999999999 0.08350099 1          0.3365767 
692.6999999999999 0.09558798 1          0.353481  
692.8      0.1093493  1          0.3646927 
692.9      0.1760335  1          0.3709661 
693        0.2348729  1          0.3752527 
693.0999999999999 0.1809468  1          0.3802615 
693.1999999999999 0.1182412  1          0.3864602 
693.3      0.1257323  1          0.3919899 
693.4      0.1341453  1          0.3943859 
693.5      0.1334185  1          0.3928568 
693.5999999999999 0.1333322  1          0.3891508 
693.6999999999999 0.1385661  1          0.3863553 
693.8      0.142929   1          0.3865217 
693.9      0.1278005  1          0.3889584 
694        0.1129931  1          0.3903039 
694.0999999999999 0.1334843  1          0.3866338 
694.1999999999999 0.1559301  1          0.3763181 
694.3      0.1487763  1          0.3616409 
694.4      0.1413712  1          0.3478183 
694.5      0.1253369  1          0.3403344 
694.5999999999999 0.1063869  1          0.3427646 
694.6999999999999 0.05069308 1          0.356124  
694.8      0          1          0.3797773 
694.9      0.04348212 1          0.4126413 
695        0.04111309 1          0.4539066 
695.0999999999999 0.03034343 1          0.5027559 
695.1999999999999 0.01665414 1          0.5575095 
695.3      0.02440237 1          0.6157802 
695.4      0.03121067 1          0.6759517 
695.5      0.003074056 1          0.7397189 
695.5999999999999 0          1          0.8120703 
695.6999999999999 0          1          0.8975751 
695.8      0          1          0.9931855 
695.9      0          1          1         
696        0          1          1         
696.0999999999999 0          1          1         
696.1999999999999 0          1          1         
696.3      0          1          0.8962528 
696.4      0          1          0.7448263 
696.5      0.05378553 1          0.611609  
696.5999999999999 0.1398343  1          0.5130435 
