~Version
 VERS              .         3.0                           : CWLS LOG ASCII STANDARD - VERSION 3.0
 WRAP              .         NO                            : ONE LINE PER DEPTH STEP
 DLM               .         SPACE                         : DELIMITING CHARACTER(SPACE TAB OR COMMA)
~Well Information
#_______________________________________________________________________________
#
#PARAMETER_NAME    .UNIT     VALUE                         : DESCRIPTION
#_______________________________________________________________________________
STRT               .m        0.1                           : First reference value
STOP               .m        909                           : Last reference value
STEP               .m        0.1                           : Step increment
NULL               .         -9999                         : Missing value
COMP               .         ICPetroleum                   : Company
WELL               .         306                           : Well name
FLD                .         Karatobe                      : Field
LOC                .                                       : Location
SRVC               .                                       : Service Company
CTRY               .         KZ                            : Country
DATE               .         13.12.21                      : Service Date
LATI               .         0                             : Latitude
LONG               .         0                             : Longitude
GDAT               .         WGS 84                        : Geodetic Datum
CNTY               .                                       : 
COORDIN            .                                       : Grid System
COUNTRY            .         Kazakhstan                    : 
COUNTRY            .         Kazakhstan                    : 
EREF               .m        133.3                         : 
KB                 .         135                           : KB Elevation
ORIGINALWELLNAME   .         306                           : 
PROV               .                                       : Province
RWS                .         -999                          : Def_Rw
STAT               .                                       : 
UWI                .         1_306                         : Unique Well Identifier (UWI)
WST                .         -999                          : Def_Rwt
X                  .km       466914.63                     : 
XCOORD             .                                       : X or East-West Coordinate
Y                  .km       5308503.06                    : 
YCOORD             .                                       : Y or North-South Coordinate
~Parameter Information Block
#_______________________________________________________________________________
#
#PARAMETER_NAME    .UNIT     VALUE                         : DESCRIPTION
#_______________________________________________________________________________
SET                .         Las                           : 
TLFamily_DEPT      .         Measured Depth                : 
TLFamily_PHI_FINAL .         Porosity                      : 
TLFamily_SW_AR     .         Water Saturation              :
TLFamily_VSH_FINAL .         Shale Volume                  : 
~Curve Information
#_______________________________________________________________________________
#
#LOGNAME           .UNIT     LOG_ID                        : DESCRIPTION
#_______________________________________________________________________________
DEPT               .m                                      :  {F}
PHI_FINAL          .m3/m3                                  : Porosity {F}
SW_AR              .m3/m3                                  :  {F}
VSH_FINAL          .unitless                               : Vshale {F}
~Ascii
# ...
393.2      0.03599945 1          1         
393.3      0.0344909  1          1         
393.4      0.05607311 1          0.9437246 
393.5      0.06487989 1          0.8979212 
393.6      0.0670359  1          0.8668681 
393.7      0.07108476 1          0.8469384 
393.8      0.07027313 1          0.8347355 
393.9      0.07293608 1          0.829739  
394        0.06660128 1          0.8356161 
394.1      0.07340049 1          0.85914   
394.2      0.06573626 1          0.9067454 
394.3      0.04344642 1          0.9802945 
394.4      0.04628704 1          1         
394.5      0.06337506 1          1         
394.6      0.07524644 1          1         
394.7      0.05269015 1          1         
394.8      0.04097379 1          1         
394.9      0.02651909 1          1         
395        0.01777268 1          1         
395.1      0.02450429 1          1         
395.2      0.02845474 1          1         
395.3      0.04251397 1          1         
395.4      0.06916439 1          0.9308171 
395.5      0.1056161  1          0.8526481 
395.6      0.1445813  1          0.7742627 
395.7      0.1835904  1          0.7066533 
395.8      0.2153029  1          0.6581991 
395.9      0.224537   1          0.6313465 
396        0.2293151  1          0.6223311 
396.1      0.2236059  1          0.6237028 
396.2      0.2193909  1          0.6282164 
396.3      0.2177787  1          0.6329532 
396.4      0.2145382  1          0.6402488 
396.5      0.2155857  1          0.6550904 
396.6      0.20926    1          0.6803524 
396.7      0.200999   1          0.7137443 
396.8      0.1928819  1          0.7475907 
396.9      0.1771887  1          0.772154  
397        0.1681077  1          0.7805446 
397.1      0.1635654  1          0.7723222 
397.2      0.1626117  1          0.7542409 
397.3      0.1466034  1          0.73762   
397.4      0.1244695  1          0.7344594 
397.5      0.1146313  1          0.7531328 
397.6      0.09651016 1          0.794757  
397.7      0.08381854 1          0.8497362 
397.8      0.05833698 1          0.897384  
397.9      0.04196547 1          0.9139619 
398        0.03864658 1          0.8883369 
398.1      0.0552941  1          0.8315822 
398.2      0.07479458 1          0.7688463 
398.3      0.1060244  1          0.724342  
398.4      0.1272469  1          0.7124322 
398.5      0.1343645  1          0.7379529 
398.6      0.1318331  1          0.7985067 
398.7      0.1151975  1          0.8860561 
398.8      0.08572032 1          0.9887851 
398.9      0.07554296 1          1         
399        0.06984767 1          1         
399.1      0.06703921 1          1         
399.2      0.06825054 1          1         
399.3      0.06261238 1          1         
399.4      0.05427064 1          1         
399.5      0.06709066 1          1         
399.6      0.07942872 1          1         
399.7      0.08902349 1          1         
399.8      0.1022722  1          1         
399.9      0.09970561 1          1         
400        0.09481663 1          1         
400.1      0.0965549  1          0.9625677 
400.2      0.1173275  1          0.8807665 
400.3      0.1301172  1          0.8008262 
400.4      0.1348553  1          0.7257467 
400.5      0.1364855  1          0.6625484 
400.6      0.1402935  1          0.6178876 
400.7      0.1245094  1          0.5945456 
400.8      0.09661304 1          0.5903858 
400.9      0.03135272 1          0.5995417 
401        0.00249443 1          0.615021  
401.1      0.0001512449 1          0.6310513 
401.2      0          1          0.6435387 
401.3      0.004404967 1          0.6483024 
401.4      0.05217972 1          0.6399543 
401.5      0.09819146 1          0.6143236 
401.6      0.1585594  1          0.5726891 
401.7      0.2012649  1          0.5230259 
401.8      0.256823   0.9618444  0.4760638 
401.9      0.250396   0.9764674  0.4400914 
402        0.2314774  1          0.4185881 
402.1      0.2367252  1          0.4113089 
402.2      0.2407873  0.996426   0.4164304 
402.3      0.231161   1          0.4327085 
402.4      0.2235481  1          0.4602824 
402.5      0.2102723  1          0.5004382 
402.6      0.1879462  1          0.554192  
402.7      0.1774576  1          0.620346  
402.8      0.1613075  1          0.6935744 
402.9      0.140698   1          0.7639769 
403        0.1285785  1          0.8195511 
403.1      0.113456   1          0.8517646 
403.2      0.1076254  1          0.8606121 
403.3      0.09278419 1          0.8553603 
403.4      0.07899769 1          0.8502521 
403.5      0.06627182 1          0.8584745 
403.6      0.05208902 1          0.8875253 
403.7      0.04263237 1          0.936464  
403.8      0.03727046 1          0.9960274 
403.9      0.03265027 1          1         
404        0.02932052 1          1         
404.1      0.02399833 1          1         
404.2      0.01956886 1          1         
404.3      0.02665451 1          1         
404.4      0.03231337 1          1         
404.5      0.04397006 1          1         
404.6      0.05562311 1          1         
404.7      0.07664987 0.8931458  0.9291047 
404.8      0.1093003  0.5679379  0.8234642 
404.9      0.1557987  0.3727559  0.7047496 
405        0.2013061  0.2684399  0.5862936 
405.1      0.2285236  0.2528047  0.4789501 
405.2      0.2458801  0.2504525  0.3887624 
405.3      0.2652006  0.312737   0.3169841 
405.4      0.2818755  0.3950581  0.2616661 
405.5      0.3131657  0.4624165  0.2197141 
405.6      0.3329229  0.5615605  0.1889491 
405.7      0.3610454  0.6013751  0.1690041 
405.8      0.3858132  0.6508772  0.1612125 
405.9      0.3834332  0.6742319  0.1681097 
406        0.3676572  0.7223576  0.1932085 
406.1      0.349954   0.7498813  0.2409257 
406.2      0.3234154  0.8004773  0.315706  
406.3      0.2815391  0.9111391  0.41973   
406.4      0.2234     1          0.5489706 
406.5      0.1601341  1          0.6901481 
406.6      0.09923404 1          0.8219552 
406.7      0.07343643 1          0.9230524 
406.8      0.06878291 1          0.9819697 
406.9      0.06790663 1          1         
407        0.07212166 1          0.9903805 
407.1      0.1198733  1          0.9606578 
407.2      0.1775306  1          0.9170498 
407.3      0.1989959  1          0.8605261 
407.4      0.2151288  1          0.7913074 
407.5      0.2072852  1          0.712272  
407.6      0.2103179  1          0.6299785 
407.7      0.2392477  1          0.5525673 
407.8      0.2560057  1          0.4871458 
407.9      0.2911609  0.9191997  0.4377428 
408        0.3147222  0.8751203  0.4050327 
408.1      0.3165203  0.8890642  0.3870474 
408.2      0.3194525  0.900112   0.3805557 
408.3      0.3093992  0.924753   0.3830869 
408.4      0.2949231  0.9645011  0.3947663 
408.5      0.2765188  1          0.4192464 
408.6      0.2478954  1          0.4625661 
408.7      0.2434465  1          0.5300502 
408.8      0.2370106  1          0.6211569 
408.9      0.2109153  1          0.7237478 
409        0.1777861  1          0.8133141 
409.1      0.1472536  1          0.8641549 
409.2      0.1354097  1          0.8678998 
409.3      0.1395637  1          0.8406633 
409.4      0.1460473  1          0.8118506 
409.5      0.1274856  1          0.8076574 
409.6      0.09428307 1          0.8431808 
409.7      0.05673034 1          0.9196907 
409.8      0.02467595 1          1         
409.9      0.02071729 1          1         
410        0.02406172 1          1         
410.1      0.02479834 1          1         
410.2      0.02648887 1          1         
410.3      0.06298342 1          0.9058688 
410.4      0.1113167  1          0.7995031 
410.5      0.1451735  1          0.7234913 
410.6      0.164499   1          0.6795047 
410.7      0.16867    1          0.6592163 
410.8      0.1658887  1          0.6496861 
410.9      0.1694981  1          0.6369627 
411        0.1830445  1          0.6116734 
411.1      0.2111198  1          0.5738764 
411.2      0.2322627  1          0.5330514 
411.3      0.262639   0.9359019  0.5023887 
