~Version
 VERS              .         3.0                           : CWLS LOG ASCII STANDARD - VERSION 3.0
 WRAP              .         NO                            : ONE LINE PER DEPTH STEP
 DLM               .         SPACE                         : DELIMITING CHARACTER(SPACE TAB OR COMMA)
~Well Information
#_______________________________________________________________________________
#
#PARAMETER_NAME    .UNIT     VALUE                         : DESCRIPTION
#_______________________________________________________________________________
STRT               .m        0.1                           : First reference value
STOP               .m        909                           : Last reference value
STEP               .m        0.1                           : Step increment
NULL               .         -9999                         : Missing value
COMP               .         ICPetroleum                   : Company
WELL               .         306                           : Well name
FLD                .         Karatobe                      : Field
LOC                .                                       : Location
SRVC               .                                       : Service Company
CTRY               .         KZ                            : Country
DATE               .         13.12.21                      : Service Date
LATI               .         0                             : Latitude
LONG               .         0                             : Longitude
GDAT               .         WGS 84                        : Geodetic Datum
CNTY               .                                       : 
COORDIN            .                                       : Grid System
COUNTRY            .         Kazakhstan                    : 
COUNTRY            .         Kazakhstan                    : 
EREF               .m        133.3                         : 
KB                 .         135                           : KB Elevation
ORIGINALWELLNAME   .         306                           : 
PROV               .                                       : Province
RWS                .         -999                          : Def_Rw
STAT               .                                       : 
UWI                .         1_306                         : Unique Well Identifier (UWI)
WST                .         -999                          : Def_Rwt
X                  .km       466914.63                     : 
XCOORD             .                                       : X or East-West Coordinate
Y                  .km       5308503.06                    : 
YCOORD             .                                       : Y or North-South Coordinate
~Parameter Information Block
#_______________________________________________________________________________
#
#PARAMETER_NAME    .UNIT     VALUE                         : DESCRIPTION
#_______________________________________________________________________________
SET                .         Las                           : 
TLFamily_DEPT      .         Measured Depth                : 
TLFamily_PHI_FINAL .         Porosity                      : 
TLFamily_SW_AR     .         Water Saturation              :
TLFamily_VSH_FINAL .         Shale Volume                  : 
~Curve Information
#_______________________________________________________________________________
#
#LOGNAME           .UNIT     LOG_ID                        : DESCRIPTION
#_______________________________________________________________________________
DEPT               .m                                      :  {F}
PHI_FINAL          .m3/m3                                  : Porosity {F}
SW_AR              .m3/m3                                  :  {F}
VSH_FINAL          .unitless                               : Vshale {F}
~Ascii
# ...
356.8      0.1876861  1          0.7462908 
356.9      0.1833149  1          0.7621399 
357        0.1721632  1          0.7850663 
357.1      0.1477035  1          0.8112856 
357.2      0.1260095  1          0.835084  
357.3      0.1196093  1          0.8484186 
357.4      0.1259658  1          0.8405858 
357.5      0.1450152  1          0.8026671 
357.6      0.1669624  1          0.7354697 
357.7      0.1983816  1          0.6531489 
357.8      0.2273827  1          0.5768536 
357.9      0.2369904  1          0.5243623 
358        0.2392927  1          0.5056775 
358.1      0.234972   1          0.5239793 
358.2      0.2180439  1          0.5772546 
358.3      0.1876078  1          0.6571684 
358.4      0.1498092  1          0.747884  
358.5      0.1236766  1          0.8302152 
358.6      0.1100399  1          0.892533  
358.7      0.1076807  1          0.9394188 
358.8      0.09963464 1          0.9883511 
358.9      0.1084555  1          1         
359        0.1190032  1          1         
359.1      0.1138998  1          1         
359.2      0.1060192  1          1         
359.3      0.1017116  1          1         
359.4      0.09930927 1          1         
359.5      0.07954642 1          1         
359.6      0.05915061 1          1         
359.7      0.03043982 1          1         
359.8      0.02636913 1          0.9531317 
359.9      0.06139239 1          0.8844148 
360        0.08462398 1          0.8381832 
360.1      0.09596045 1          0.8099515 
360.2      0.1018696  1          0.792315  
360.3      0.1328429  1          0.7763463 
360.4      0.1697235  1          0.7538734 
360.5      0.1849142  1          0.7198775 
360.6      0.1930312  1          0.6740068 
360.7      0.203638   1          0.6198095 
360.8      0.220763   1          0.5631273 
360.9      0.2507015  1          0.5101911 
361        0.2647932  0.9789113  0.4664355 
361.1      0.2748647  0.958055   0.4355972 
361.2      0.2849535  0.938738   0.4194655 
361.3      0.2733068  0.9579294  0.4177729 
361.4      0.2505886  1          0.428474  
361.5      0.236464   1          0.4478052 
361.6      0.2284338  1          0.4709976 
361.7      0.2372879  1          0.4932394 
361.8      0.2606002  0.9380358  0.5115114 
361.9      0.2644575  0.9443619  0.525894  
362        0.2429955  1          0.5398062 
362.1      0.2168645  1          0.5586454 
362.2      0.1944399  1          0.5876417 
362.3      0.162708   1          0.6300349 
362.4      0.1282923  1          0.6858678 
362.5      0.1053734  1          0.7514011 
362.6      0.08150493 1          0.8189278 
362.7      0.06852329 1          0.8774096 
362.8      0.06246417 1          0.9148546 
362.9      0.06339201 1          0.9228446 
363        0.07215986 1          0.9013802 
363.1      0.08457774 1          0.8599235 
363.2      0.09786893 1          0.8138371 
363.3      0.11666    1          0.7781692 
363.4      0.1271119  1          0.7639305 
363.5      0.1235233  1          0.7765723 
363.6      0.1124899  1          0.8160008 
363.7      0.1044144  1          0.8753195 
363.8      0.09012257 1          0.9392812 
363.9      0.06794909 1          0.9853261 
364        0.04531799 1          0.9911546 
364.1      0.06025704 1          0.9471444 
364.2      0.09883952 1          0.8636748 
364.3      0.1471951  1          0.765438  
364.4      0.1725392  1          0.6778591 
364.5      0.1849724  1          0.6173429 
364.6      0.1841516  1          0.590157  
364.7      0.1856539  1          0.5956922 
364.8      0.175279   1          0.6301221 
364.9      0.1433817  1          0.6888571 
365        0.1045765  1          0.7686538 
365.1      0.06708626 1          0.8678126 
365.2      0.03005822 1          0.9832916 
365.3      0.02942284 1          1         
365.4      0.02707639 1          1         
365.5      0.02339022 1          1         
365.6      0.02593369 1          1         
365.7      0.03675207 1          1         
365.8      0.05187728 1          1         
365.9      0.04503453 1          1         
366        0.0343902  1          1         
366.1      0.02044838 1          1         
366.2      0.01100314 1          1         
366.3      0.01040778 1          0.9721106 
366.4      0.01709497 1          0.9173564 
366.5      0.04367832 1          0.8730963 
366.6      0.06913694 1          0.8436303 
366.7      0.1003148  1          0.8278241 
366.8      0.1255391  1          0.8205308 
366.9      0.1305436  1          0.8151689 
367        0.1371238  1          0.8071811 
367.1      0.1358616  1          0.796379  
367.2      0.134177   1          0.7866495 
367.3      0.1299349  1          0.7838989 
367.4      0.1219776  1          0.7924765 
367.5      0.09977528 1          0.8122118 
367.6      0.08139807 1          0.8383603 
367.7      0.09736846 1          0.8647848 
367.8      0.1021862  1          0.8889978 
367.9      0.08014107 1          0.9154923 
368        0.05910996 1          0.954032  
368.1      0.03624462 1          1         
368.2      0.03653811 1          1         
368.3      0.04173832 1          1         
368.4      0.04410063 1          1         
368.5      0.03709485 1          1         
368.6      0.02688408 1          1         
368.7      0.02253833 1          1         
368.8      0.02013426 1          1         
368.9      0.02575843 1          1         
369        0.03410141 1          1         
369.1      0.03207013 1          1         
369.2      0.03754887 1          0.9783065 
369.3      0.06104501 1          0.9718705 
369.4      0.06907429 1          0.9906514 
369.5      0.0696867  1          1         
369.6      0.07528746 1          1         
369.7      0.06846198 1          1         
369.8      0.06308537 1          1         
369.9      0.04986814 1          1         
370        0.03106135 1          1         
370.1      0.04434825 1          1         
370.2      0.05268893 1          1         
370.3      0.04937842 1          1         
370.4      0.04412966 1          1         
370.5      0.03419626 1          1         
370.6      0.02942759 1          1         
370.7      0.03684875 1          1         
370.8      0.03967764 1          1         
370.9      0.0483916  1          1         
371        0.06337482 1          1         
371.1      0.06095515 1          1         
371.2      0.05622499 1          1         
371.3      0.06137588 1          1         
371.4      0.06457578 1          1         
371.5      0.07595501 1          1         
371.6      0.08609206 1          1         
371.7      0.08304194 1          1         
371.8      0.07170919 1          1         
371.9      0.06563946 1          1         
372        0.06379402 1          1         
372.1      0.05924278 1          1         
372.2      0.0556439  1          1         
372.3      0.06038674 1          1         
372.4      0.06467769 1          1         
372.5      0.05412077 1          1         
372.6      0.03962192 1          1         
372.7      0.02885183 1          1         
372.8      0.01457483 1          1         
372.9      0.02311999 1          1         
373        0.03500418 1          1         
373.1      0.05537156 1          1         
373.2      0.07443963 1          1         
373.3      0.07847595 1          1         
373.4      0.08386388 1          1         
373.5      0.08667123 1          1         
373.6      0.07749128 1          1         
373.7      0.06580693 1          1         
373.8      0.05640689 1          1         
373.9      0.05453068 1          1         
374        0.05538018 1          1         
374.1      0.0571827  1          1         
374.2      0.05641897 1          1         
374.3      0.04762482 1          1         
374.4      0.0401195  1          1         
374.5      0.04245927 1          1         
374.6      0.04531534 1          1         
374.7      0.04344379 1          1         
374.8      0.04498583 1          1         
374.9      0.05750985 1          1         
