~Version
 VERS              .         3.0                           : CWLS LOG ASCII STANDARD - VERSION 3.0
 WRAP              .         NO                            : ONE LINE PER DEPTH STEP
 DLM               .         SPACE                         : DELIMITING CHARACTER(SPACE TAB OR COMMA)
~Well Information
#_______________________________________________________________________________
#
#PARAMETER_NAME    .UNIT     VALUE                         : DESCRIPTION
#_______________________________________________________________________________
STRT               .m        0.1                           : First reference value
STOP               .m        909                           : Last reference value
STEP               .m        0.1                           : Step increment
NULL               .         -9999                         : Missing value
COMP               .         ICPetroleum                   : Company
WELL               .         306                           : Well name
FLD                .         Karatobe                      : Field
LOC                .                                       : Location
SRVC               .                                       : Service Company
CTRY               .         KZ                            : Country
DATE               .         13.12.21                      : Service Date
LATI               .         0                             : Latitude
LONG               .         0                             : Longitude
GDAT               .         WGS 84                        : Geodetic Datum
CNTY               .                                       : 
COORDIN            .                                       : Grid System
COUNTRY            .         Kazakhstan                    : 
COUNTRY            .         Kazakhstan                    : 
EREF               .m        133.3                         : 
KB                 .         135                           : KB Elevation
ORIGINALWELLNAME   .         306                           : 
PROV               .                                       : Province
RWS                .         -999                          : Def_Rw
STAT               .                                       : 
UWI                .         1_306                         : Unique Well Identifier (UWI)
WST                .         -999                          : Def_Rwt
X                  .km       466914.63                     : 
XCOORD             .                                       : X or East-West Coordinate
Y                  .km       5308503.06                    : 
YCOORD             .                                       : Y or North-South Coordinate
~Parameter Information Block
#_______________________________________________________________________________
#
#PARAMETER_NAME    .UNIT     VALUE                         : DESCRIPTION
#_______________________________________________________________________________
SET                .         Las                           : 
TLFamily_DEPT      .         Measured Depth                : 
TLFamily_PHI_FINAL .         Porosity                      : 
TLFamily_SW_AR     .         Water Saturation              :
TLFamily_VSH_FINAL .         Shale Volume                  : 
~Curve Information
#_______________________________________________________________________________
#
#LOGNAME           .UNIT     LOG_ID                        : DESCRIPTION
#_______________________________________________________________________________
DEPT               .m                                      :  {F}
PHI_FINAL          .m3/m3                                  : Porosity {F}
SW_AR              .m3/m3                                  :  {F}
VSH_FINAL          .unitless                               : Vshale {F}
~Ascii
# ...
429.6      0.07475628 1          1         
429.7      0.0614924  1          1         
429.8      0.04416609 1          1         
429.9      0.04504143 1          1         
430        0.0435706  1          1         
430.1      0.03403375 1          1         
430.2      0.02795796 1          1         
430.3      0.02447285 1          1         
430.4      0.02244327 1          1         
430.5      0.02193381 1          1         
430.6      0.02181658 1          1         
430.7      0.0245324  1          1         
430.8      0.03020165 1          1         
430.9      0.03146409 1          1         
431        0.02550538 1          1         
431.1      0.01667369 1          1         
431.2      0.01049355 1          1         
431.3      0.01164117 1          1         
431.4      0.01087982 1          1         
431.5      0.01034265 1          1         
431.6      0.009525569 1          1         
431.7      0.009989741 1          1         
431.8      0.01284443 1          1         
431.9      0.01167773 1          1         
432        0.01638047 1          1         
432.1      0.02177919 1          1         
432.2      0.02341071 1          0.9419699 
432.3      0.05036051 1          0.8173265 
432.4      0.08417297 1          0.7430031 
432.5      0.1131974  1          0.7136187 
432.6      0.1335854  1          0.7207774 
432.7      0.1410161  1          0.7532116 
432.8      0.1469846  1          0.7970086 
432.9      0.1200895  1          0.8383729 
433        0.09338401 1          0.8692559 
433.1      0.07128216 1          0.8905655 
433.2      0.0518701  1          0.9093994 
433.3      0.04989754 1          0.9326537 
433.4      0.0456159  1          0.9618544 
433.5      0.05170215 1          0.9923385 
433.6      0.06946298 1          1         
433.7      0.0673821  1          1         
433.8      0.06275696 1          1         
433.9      0.07951749 1          1         
434        0.09617582 1          0.9943647 
434.1      0.1320815  1          0.9636394 
434.2      0.1770824  1          0.9181659 
434.3      0.2110352  1          0.8543913 
434.4      0.2563807  1          0.7750669 
434.5      0.2690709  1          0.6898732 
434.6      0.2752852  1          0.6115025 
434.7      0.2995887  1          0.5500087 
434.8      0.3166791  1          0.5101494 
434.9      0.3332131  0.954348   0.4919046 
435        0.3469925  0.9042924  0.4921202 
435.1      0.3658828  0.8257827  0.5058831 
435.2      0.3813832  0.7619403  0.5271347 
435.3      0.3732081  0.746484   0.5490065 
435.4      0.3646235  0.7321163  0.5645233 
435.5      0.3387543  0.825799   0.567524  
435.6      0.3212997  0.9127795  0.5540656 
435.7      0.3465544  0.8478257  0.523819  
435.8      0.378423   0.7783782  0.480486  
435.9      0.4072716  0.7011856  0.4306377 
436        0.4299286  0.6430811  0.3815241 
436.1      0.4074696  0.721962   0.3393101 
436.2      0.3847424  0.8123845  0.3086906 
436.3      0.3822064  0.8242961  0.293237  
436.4      0.3741959  0.8479674  0.2963494 
436.5      0.3705395  0.847079   0.3219032 
436.6      0.3560762  0.8705134  0.3743188 
436.7      0.2968217  1          0.4576651 
436.8      0.2226555  1          0.573823  
436.9      0.1597877  1          0.7212543 
437        0.08592384 1          0.8956046 
437.1      0.04546707 1          1         
437.2      0.04687378 1          1         
437.3      0.03840176 1          1         
437.4      0.03371188 1          1         
437.5      0.03404071 1          1         
437.6      0.02979926 1          1         
437.7      0.02549696 1          1         
437.8      0.01896764 1          1         
437.9      0.01438509 1          1         
438        0.009939097 1          0.9953824 
438.1      0.05545515 1          0.8443931 
438.2      0.1008448  1          0.7236701 
438.3      0.1348838  1          0.6293652 
438.4      0.163583   1          0.5565194 
438.5      0.1865045  1          0.5005804 
438.6      0.2087393  0.9908699  0.4577378 
438.7      0.24105    0.8470098  0.4251177 
438.8      0.2613295  0.768549   0.4005334 
438.9      0.2664788  0.7219948  0.3822222 
439        0.2704974  0.6810089  0.3685062 
439.1      0.2724091  0.7046562  0.3579651 
439.2      0.2755126  0.7260182  0.3497641 
439.3      0.2535941  0.9239621  0.3438954 
439.4      0.2256724  1          0.3409166 
439.5      0.2161911  1          0.3413921 
439.6      0.2056104  1          0.34571   
439.7      0.2242598  1          0.3544505 
439.8      0.2436343  1          0.3688429 
439.9      0.2676731  1          0.3905207 
440        0.2814595  0.9950969  0.4198509 
440.1      0.2833371  1          0.4538384 
440.2      0.2883233  1          0.4852702 
440.3      0.3028753  1          0.5048842 
440.4      0.3167264  1          0.5065295 
440.5      0.3066578  1          0.4908754 
440.6      0.2986494  1          0.46405   
440.7      0.3029078  1          0.4332955 
440.8      0.2943327  1          0.4040135 
440.9      0.2992069  1          0.3799446 
441        0.3056119  0.9599296  0.3643876 
441.1      0.289748   0.9925231  0.3607973 
441.2      0.2689609  1          0.3722784 
441.3      0.2518761  1          0.4005405 
441.4      0.2261825  1          0.4447246 
441.5      0.1985897  1          0.5003532 
441.6      0.1655909  1          0.5591893 
441.7      0.1432613  1          0.6114706 
441.8      0.1345416  1          0.6499975 
441.9      0.1262459  1          0.6743254 
442        0.1203315  1          0.6919693 
442.1      0.1067603  1          0.7155926 
442.2      0.08389114 1          0.7579609 
442.3      0.06433021 1          0.8267397 
442.4      0.03817965 1          0.9187472 
442.5      0.00938068 1          1         
442.6      0.009290588 1          1         
442.7      0.01020635 1          1         
442.8      0.01119918 1          1         
442.9      0.01513978 1          0.9759235 
443        0.03118877 1          0.8949916 
443.1      0.05852231 1          0.8324633 
443.2      0.08417124 1          0.7921848 
443.3      0.1157109  1          0.7656585 
443.4      0.1523129  1          0.7397507 
443.5      0.2035664  1          0.7042723 
443.6      0.2588323  0.9632514  0.6564285 
443.7      0.310142   0.8190206  0.600032  
443.8      0.3607711  0.7161725  0.5416413 
443.9      0.3527695  0.7657182  0.4873473 
444        0.33964    0.8303493  0.4416716 
444.1      0.31576    0.8791307  0.4078257 
444.2      0.2868421  0.9513459  0.3879691 
444.3      0.2739983  1          0.3831443 
444.4      0.252878   1          0.3928908 
444.5      0.2518853  1          0.414984  
444.6      0.2419     0.9887548  0.4456357 
444.7      0.2248609  0.9723258  0.4800862 
444.8      0.2044197  0.97526    0.5132096 
444.9      0.190938   1          0.5394725 
445        0.1857743  1          0.5529348 
445.1      0.1913831  0.9904014  0.5484405 
445.2      0.2067217  0.9116861  0.5247021 
445.3      0.224824   0.8534409  0.4866279 
445.4      0.2432428  0.8028388  0.4439616 
445.5      0.2613545  0.7712233  0.4064558 
445.6      0.2728845  0.7611189  0.3797745 
445.7      0.2779847  0.7479028  0.3643491 
445.8      0.2752495  0.7549312  0.3566354 
445.9      0.2836938  0.7336578  0.3514207 
446        0.2857734  0.7286065  0.3446257 
446.1      0.2797479  0.7413092  0.3354701 
446.2      0.2739296  0.7540235  0.3268348 
446.3      0.2782255  0.7490019  0.3235381 
446.4      0.2798471  0.7508997  0.3301151 
446.5      0.2877163  0.7272572  0.3490635 
446.6      0.2858015  0.7276588  0.3797991 
446.7      0.267598   0.7721803  0.4178605 
446.8      0.2503201  0.8201491  0.4551921 
446.9      0.2364329  0.8621766  0.4825004 
447        0.2345151  0.8653597  0.4936771 
447.1      0.2411342  0.8399762  0.4892158 
447.2      0.2473579  0.8171511  0.4757218 
447.3      0.2372267  0.8201601  0.4621303 
447.4      0.2217103  0.843389   0.4560259 
447.5      0.2150015  0.8507044  0.4616409 
447.6      0.2083198  0.8587255  0.4795602 
447.7      0.2030124  0.8820334  0.5070249 
