~Version
 VERS              .         3.0                           : CWLS LOG ASCII STANDARD - VERSION 3.0
 WRAP              .         NO                            : ONE LINE PER DEPTH STEP
 DLM               .         SPACE                         : DELIMITING CHARACTER(SPACE TAB OR COMMA)
~Well Information
#_______________________________________________________________________________
#
#PARAMETER_NAME    .UNIT     VALUE                         : DESCRIPTION
#_______________________________________________________________________________
STRT               .m        0.1                           : First reference value
STOP               .m        909                           : Last reference value
STEP               .m        0.1                           : Step increment
NULL               .         -9999                         : Missing value
COMP               .         ICPetroleum                   : Company
WELL               .         306                           : Well name
FLD                .         Karatobe                      : Field
LOC                .                                       : Location
SRVC               .                                       : Service Company
CTRY               .         KZ                            : Country
DATE               .         13.12.21                      : Service Date
LATI               .         0                             : Latitude
LONG               .         0                             : Longitude
GDAT               .         WGS 84                        : Geodetic Datum
CNTY               .                                       : 
COORDIN            .                                       : Grid System
COUNTRY            .         Kazakhstan                    : 
COUNTRY            .         Kazakhstan                    : 
EREF               .m        133.3                         : 
KB                 .         135                           : KB Elevation
ORIGINALWELLNAME   .         306                           : 
PROV               .                                       : Province
RWS                .         -999                          : Def_Rw
STAT               .                                       : 
UWI                .         1_306                         : Unique Well Identifier (UWI)
WST                .         -999                          : Def_Rwt
X                  .km       466914.63                     : 
XCOORD             .                                       : X or East-West Coordinate
Y                  .km       5308503.06                    : 
YCOORD             .                                       : Y or North-South Coordinate
~Parameter Information Block
#_______________________________________________________________________________
#
#PARAMETER_NAME    .UNIT     VALUE                         : DESCRIPTION
#_______________________________________________________________________________
SET                .         Las                           : 
TLFamily_DEPT      .         Measured Depth                : 
TLFamily_PHI_FINAL .         Porosity                      : 
TLFamily_SW_AR     .         Water Saturation              :
TLFamily_VSH_FINAL .         Shale Volume                  : 
~Curve Information
#_______________________________________________________________________________
#
#LOGNAME           .UNIT     LOG_ID                        : DESCRIPTION
#_______________________________________________________________________________
DEPT               .m                                      :  {F}
PHI_FINAL          .m3/m3                                  : Porosity {F}
SW_AR              .m3/m3                                  :  {F}
VSH_FINAL          .unitless                               : Vshale {F}
~Ascii
# ...
608.6999999999999 0.217079   1          0.4842067 
608.8      0.2170898  1          0.4979384 
608.9      0.2103596  1          0.5331907 
609        0.1909326  1          0.5938079 
609.1      0.1384669  1          0.6759882 
609.1999999999999 0.07697293 1          0.7660803 
609.3      0.06086401 1          0.8432612 
609.4      0.05454391 1          0.8888745 
609.5      0.04503913 1          0.89653   
609.6      0.03373105 1          0.8738632 
609.6999999999999 0.07532982 1          0.8359169 
609.8      0.1121346  1          0.7970753 
609.9      0.1657156  1          0.7673323 
610        0.2118268  1          0.7516864 
610.1      0.2029799  1          0.7513553 
610.1999999999999 0.1837171  1          0.7643081 
610.3      0.1502292  1          0.7855155 
610.4      0.1130044  1          0.8063818 
610.5      0.09704921 1          0.8151969 
610.6      0.09050512 1          0.8002518 
610.6999999999999 0.09848461 1          0.7562157 
610.8      0.1110956  1          0.6891353 
610.9      0.148314   1          0.6147951 
611        0.1848886  1          0.5504834 
611.1      0.2121975  1          0.5080155 
611.1999999999999 0.2275743  0.9131155  0.4918103 
611.3      0.2161427  0.9250876  0.500634  
611.4      0.1980176  0.9695437  0.5291377 
611.5      0.1745504  1          0.5683072 
611.6      0.1530375  1          0.6059569 
611.6999999999999 0.1474163  1          0.629519  
611.8      0.1499003  1          0.631247  
611.9      0.1653952  1          0.6130891 
612        0.1835206  1          0.5859809 
612.1      0.1926611  1          0.5638969 
612.1999999999999 0.1963986  1          0.5571817 
612.3      0.1908163  1          0.569321  
612.4      0.1775141  1          0.596691  
612.5      0.1602844  1          0.6299191 
612.6      0.1465884  1          0.656912  
612.6999999999999 0.1404753  1          0.6677275 
612.8      0.1442047  1          0.6587207 
612.9      0.156934   1          0.6334599 
613        0.1692513  1          0.5995336 
613.1      0.1627615  1          0.5645402 
613.1999999999999 0.1443742  1          0.5332468 
613.3      0.1586995  1          0.5071807 
613.4      0.1697697  1          0.485958  
613.5      0.1762655  1          0.4695665 
613.6      0.1824023  1          0.4596469 
613.6999999999999 0.1935464  1          0.4591894 
613.8      0.1993614  1          0.4709757 
613.9      0.1884525  1          0.4961928 
614        0.1678187  1          0.533584  
614.1      0.1711568  1          0.5792251 
614.1999999999999 0.1695349  1          0.6272228 
614.3      0.1439805  1          0.6710187 
614.4      0.1189823  1          0.7047517 
614.5      0.1035856  1          0.7240976 
614.6      0.09021807 1          0.7264898 
614.6999999999999 0.0920023  1          0.7111136 
614.8      0.1010877  1          0.6789197 
614.9      0.1246307  1          0.633288  
615        0.1513946  1          0.5808451 
615.1      0.1619996  1          0.5308602 
615.1999999999999 0.1638374  1          0.4929294 
615.3      0.1780794  1          0.4742961 
615.4      0.1858174  1          0.4782346 
615.5      0.1746102  1          0.503028  
615.6      0.1609029  1          0.5409491 
615.6999999999999 0.1331315  1          0.5785385 
615.8      0.1073476  1          0.6010426 
615.9      0.1027823  1          0.6002722 
616        0.1094549  1          0.5797544 
616.1      0.1332964  1          0.5519398 
616.1999999999999 0.1532955  1          0.5305578 
616.3      0.1590897  1          0.5245798 
616.4      0.1611006  1          0.5358304 
616.5      0.1523383  1          0.5588382 
616.6      0.1400019  1          0.5822965 
616.6999999999999 0.1349998  1          0.5937188 
616.8      0.1399193  1          0.5867127 
616.9      0.1577893  1          0.5651206 
617        0.1781001  1          0.5397472 
617.1      0.193093   1          0.5210416 
617.1999999999999 0.1989923  1          0.5142521 
617.3      0.1885305  1          0.5193047 
617.4      0.1799824  1          0.5333487 
617.5      0.1693924  1          0.5543997 
617.6      0.1585314  1          0.5837302 
617.6999999999999 0.1538309  1          0.6261852 
617.8      0.1235184  1          0.6882913 
617.9      0.07268316 1          0.7758141 
618        0.01874045 1          0.8917981 
618.1      0          1          1         
618.1999999999999 0.0003212162 1          1         
618.3      0.007033872 1          1         
618.4      0.02311851 1          1         
618.5      0.03462551 1          1         
618.6      0.05143233 1          1         
618.6999999999999 0.03185562 1          1         
618.8      0.02067657 1          1         
618.9      0.01495629 1          1         
619        0.01127497 1          1         
619.1      0.009721592 1          1         
619.1999999999999 0.008952558 1          1         
619.3      0.01382351 1          1         
619.4      0.01411967 1          1         
619.5      0.005390665 1          1         
619.6      0.000353501 1          0.9812754 
619.6999999999999 0.0009710997 1          0.972048  
619.8      0.00151804 1          0.9648932 
619.9      0.004912793 1          0.9494339 
620        0.01152218 1          0.9249365 
620.1      0.0226458  1          0.8999667 
620.1999999999999 0.0311925  1          0.8856679 
620.3      0.02804955 1          0.8876863 
620.4      0.02255381 1          0.90287   
620.5      0.01742604 1          0.9201347 
620.6      0.01540319 1          0.9252875 
620.6999999999999 0.01567977 1          0.9069354 
620.8      0.01860175 1          0.860855  
620.9      0.03648875 1          0.7916738 
621        0.06831065 1          0.7104126 
621.1      0.1086895  1          0.6302433 
621.1999999999999 0.1467551  1          0.5616918 
621.3      0.1623201  1          0.5109384 
621.4      0.1680393  1          0.4804209 
621.5      0.1819862  1          0.4708464 
621.6      0.1921841  1          0.4823466 
621.6999999999999 0.1677275  1          0.5147541 
621.8      0.1317033  1          0.56635   
621.9      0.09894776 1          0.632731  
622        0.06947597 1          0.7064811 
622.1      0.05522336 1          0.7794954 
622.1999999999999 0.04718735 1          0.8457343 
622.3      0.03389842 1          0.9019464 
622.4      0.02031565 1          0.9446501 
622.5      0.00931452 1          0.9668543 
622.6      0.007801053 1          0.9586229 
622.6999999999999 0.01388783 1          0.9132801 
622.8      0.03514076 1          0.8351082 
622.9      0.07141259 1          0.740428  
623        0.1089104  1          0.650336  
623.1      0.1435085  1          0.5811726 
623.1999999999999 0.1678803  1          0.5404297 
623.3      0.1653188  1          0.5275857 
623.4      0.1492586  1          0.5362738 
623.5      0.1445643  1          0.5562809 
623.6      0.1445671  1          0.5761843 
623.6999999999999 0.1517788  1          0.5877931 
623.8      0.1618193  1          0.5887975 
623.9      0.158377   1          0.5816228 
624        0.1519443  1          0.5687914 
624.1      0.1598062  1          0.549555  
624.1999999999999 0.1753417  1          0.5199514 
624.3      0.1892127  1          0.4763432 
624.4      0.2111749  1          0.4195329 
624.5      0.2327734  1          0.3559005 
624.6      0.2517873  1          0.2945647 
624.6999999999999 0.26638    1          0.2431633 
624.8      0.2707744  1          0.2056284 
624.9      0.2921656  0.8651993  0.1824617 
625        0.3096007  0.7603633  0.1721783 
625.1      0.3253878  0.6167558  0.1724459 
625.1999999999999 0.3396899  0.5015578  0.1806989 
625.3      0.3378828  0.5152071  0.1944045 
625.4      0.3369607  0.5279006  0.2112824 
625.5      0.3268534  0.5798174  0.2295635 
625.6      0.3121055  0.6460407  0.248217  
625.6999999999999 0.2961263  0.696031   0.2670096 
625.8      0.2801044  0.7520009  0.2861317 
625.9      0.267023   0.8073149  0.3053309 
626        0.2453265  0.8974015  0.3230635 
626.1      0.2325324  0.9521362  0.3363843 
626.1999999999999 0.2256838  0.9878327  0.3421839 
