~Version
 VERS              .         3.0                           : CWLS LOG ASCII STANDARD - VERSION 3.0
 WRAP              .         NO                            : ONE LINE PER DEPTH STEP
 DLM               .         SPACE                         : DELIMITING CHARACTER(SPACE TAB OR COMMA)
~Well Information
#_______________________________________________________________________________
#
#PARAMETER_NAME    .UNIT     VALUE                         : DESCRIPTION
#_______________________________________________________________________________
STRT               .m        0.1                           : First reference value
STOP               .m        909                           : Last reference value
STEP               .m        0.1                           : Step increment
NULL               .         -9999                         : Missing value
COMP               .         ICPetroleum                   : Company
WELL               .         306                           : Well name
FLD                .         Karatobe                      : Field
LOC                .                                       : Location
SRVC               .                                       : Service Company
CTRY               .         KZ                            : Country
DATE               .         13.12.21                      : Service Date
LATI               .         0                             : Latitude
LONG               .         0                             : Longitude
GDAT               .         WGS 84                        : Geodetic Datum
CNTY               .                                       : 
COORDIN            .                                       : Grid System
COUNTRY            .         Kazakhstan                    : 
COUNTRY            .         Kazakhstan                    : 
EREF               .m        133.3                         : 
KB                 .         135                           : KB Elevation
ORIGINALWELLNAME   .         306                           : 
PROV               .                                       : Province
RWS                .         -999                          : Def_Rw
STAT               .                                       : 
UWI                .         1_306                         : Unique Well Identifier (UWI)
WST                .         -999                          : Def_Rwt
X                  .km       466914.63                     : 
XCOORD             .                                       : X or East-West Coordinate
Y                  .km       5308503.06                    : 
YCOORD             .                                       : Y or North-South Coordinate
~Parameter Information Block
#_______________________________________________________________________________
#
#PARAMETER_NAME    .UNIT     VALUE                         : DESCRIPTION
#_______________________________________________________________________________
SET                .         Las                           : 
TLFamily_DEPT      .         Measured Depth                : 
TLFamily_PHI_FINAL .         Porosity                      : 
TLFamily_SW_AR     .         Water Saturation              :
TLFamily_VSH_FINAL .         Shale Volume                  : 
~Curve Information
#_______________________________________________________________________________
#
#LOGNAME           .UNIT     LOG_ID                        : DESCRIPTION
#_______________________________________________________________________________
DEPT               .m                                      :  {F}
PHI_FINAL          .m3/m3                                  : Porosity {F}
SW_AR              .m3/m3                                  :  {F}
VSH_FINAL          .unitless                               : Vshale {F}
~Ascii
# ...
555.6      0.1120627  1          0.7342163 
555.6999999999999 0.104167   1          0.7238309 
555.8      0.09246521 1          0.7213963 
555.9      0.0946364  1          0.7202034 
556        0.09943774 1          0.7132452 
556.1      0.1052963  1          0.6960207 
556.1999999999999 0.1157175  1          0.6697699 
556.3      0.1207624  1          0.6412361 
556.4      0.124221   1          0.6188568 
556.5      0.1344393  1          0.6084625 
556.6      0.1394265  1          0.6106322 
556.6999999999999 0.1342599  1          0.6207092 
556.8      0.1307439  1          0.6311073 
556.9      0.1302213  1          0.6354318 
557        0.1307905  1          0.6322373 
557.1      0.13558    1          0.6261494 
557.1999999999999 0.1391301  1          0.6260796 
557.3      0.1377976  1          0.6420869 
557.4      0.1245051  1          0.6828399 
557.5      0.09204742 1          0.7537996 
557.6      0.0536107  1          0.8549849 
557.6999999999999 0.02261714 1          0.9779522 
557.8      0.02409738 1          1         
557.9      0.01778257 1          1         
558        0.01277897 1          1         
558.1      0.01114281 1          1         
558.1999999999999 0.01577261 1          1         
558.3      0.0223267  1          1         
558.4      0.03231565 1          0.9749015 
558.5      0.0530367  1          0.8562673 
558.6      0.06822384 1          0.756885  
558.6999999999999 0.09366561 1          0.6887622 
558.8      0.1097158  1          0.6576731 
558.9      0.1124158  1          0.6637954 
559        0.1019422  1          0.7027039 
559.1      0.08174749 1          0.7654848 
559.1999999999999 0.05511941 1          0.8397689 
559.3      0.03559899 1          0.9123384 
559.4      0.01840221 1          0.9718392 
559.5      0.01134731 1          1         
559.6      0.01143593 1          1         
559.6999999999999 0.01514163 1          0.9975175 
559.8      0.02871083 1          0.9505494 
559.9      0.04036565 1          0.891685  
560        0.05597095 1          0.8379499 
560.1      0.07472497 1          0.8021208 
560.1999999999999 0.08445901 1          0.7889025 
560.3      0.08258755 1          0.7951337 
560.4      0.06846397 1          0.8144057 
560.5      0.06902868 1          0.8420555 
560.6      0.06078354 1          0.8795491 
560.6999999999999 0.03830808 1          0.9325135 
560.8      0.0186235  1          1         
560.9      0.01581725 1          1         
561        0.0142609  1          1         
561.1      0.008920981 1          1         
561.1999999999999 0.005093958 1          1         
561.3      0.006493418 1          1         
561.4      0.03564557 1          0.9054657 
561.5      0.06187206 1          0.8253716 
561.6      0.07475785 1          0.7929848 
561.6999999999999 0.07109217 1          0.8120158 
561.8      0.04892644 1          0.8742014 
561.9      0.006791587 1          0.9597028 
562        0          1          1         
562.1      0          1          1         
562.1999999999999 0          1          1         
562.3      0          1          1         
562.4      0.003910924 1          0.9098634 
562.5      0.0410018  1          0.8179681 
562.6      0.06914758 1          0.7480363 
562.6999999999999 0.08850593 1          0.7119734 
562.8      0.09636859 1          0.7133688 
562.9      0.07502687 1          0.749233  
563        0.04459849 1          0.8102154 
563.1      0.01995409 1          0.8800053 
563.1999999999999 0.008563869 1          0.9380393 
563.3      0.007209984 1          0.9664172 
563.4      0.01436891 1          0.9578521 
563.5      0.02907571 1          0.9173364 
563.6      0.04919367 1          0.8569493 
563.6999999999999 0.0789407  1          0.7886134 
563.8      0.113878   1          0.7203545 
563.9      0.1503457  1          0.6564913 
564        0.184348   1          0.5995274 
564.1      0.1931767  1          0.551116  
564.1999999999999 0.198221   1          0.5119438 
564.3      0.2006985  1          0.480627  
564.4      0.2006726  1          0.4534523 
564.5      0.2108343  1          0.4252534 
564.6      0.2226339  1          0.3921014 
564.6999999999999 0.2433229  1          0.3539547 
564.8      0.2633847  1          0.3151166 
564.9      0.2882983  1          0.2816523 
565        0.3080641  1          0.2581855 
565.1      0.3157372  1          0.2461045 
565.1999999999999 0.3224605  1          0.2435302 
565.3      0.3271464  1          0.2460934 
565.4      0.3298941  1          0.2484076 
565.5      0.3213961  1          0.2460785 
565.6      0.3154949  1          0.2374345 
565.6999999999999 0.3208213  1          0.2238153 
565.8      0.3269751  1          0.2084067 
565.9      0.3314972  1          0.1945247 
566        0.3291271  1          0.1845588 
566.1      0.3393878  1          0.1795127 
566.1999999999999 0.3445683  1          0.1789871 
566.3      0.3434214  1          0.1811448 
566.4      0.34198    1          0.1830483 
566.5      0.3487129  1          0.1814983 
566.6      0.3583748  1          0.1744277 
566.6999999999999 0.3643783  1          0.161921  
566.8      0.3693988  1          0.1461848 
566.9      0.375548   1          0.1303637 
567        0.380366   1          0.1172076 
567.1      0.3810474  1          0.1084115 
567.1999999999999 0.3811203  1          0.104646  
567.3      0.3890777  1          0.1058388 
567.4      0.3928794  1          0.1113346 
567.5      0.4052721  1          0.1198854 
567.6      0.409481   1          0.1296985 
567.6999999999999 0.3915715  1          0.1386048 
567.8      0.3730107  1          0.1445907 
567.9      0.3707845  1          0.146342  
568        0.3754391  1          0.1436461 
568.1      0.3841385  1          0.1372402 
568.1999999999999 0.3896747  1          0.1285012 
568.3      0.3946783  1          0.1189689 
568.4      0.3988665  1          0.1100632 
568.5      0.400934   1          0.1027255 
568.6      0.4032759  1          0.09728906
568.6999999999999 0.405562   1          0.09342851
568.8      0.4057164  1          0.09039555
568.9      0.4048258  1          0.08745457
569        0.4072964  1          0.08436909
569.1      0.4072449  1          0.0815131 
569.1999999999999 0.4068081  1          0.07950871
569.3      0.4100147  1          0.07860109
569.4      0.4102088  1          0.07836676
569.5      0.4047065  1          0.07786486
569.6      0.4026257  1          0.07629994
569.6999999999999 0.4029042  1          0.07362733
569.8      0.4055446  1          0.07069062
569.9      0.414905   1          0.0687754 
570        0.4215425  1          0.06904639
570.1      0.4145725  1          0.07221445
570.1999999999999 0.4041865  1          0.07840261
570.3      0.3946156  1          0.08698075
570.4      0.3838838  1          0.0963559 
570.5      0.3845069  1          0.1040281 
570.6      0.3894751  1          0.1074334 
570.6999999999999 0.4045137  1          0.1054442 
570.8      0.4192361  1          0.09947104
570.9      0.4252058  1          0.09291469
571        0.4267898  1          0.08961363
571.1      0.4179978  1          0.0925447 
571.1999999999999 0.4047809  1          0.1037228 
571.3      0.3868244  1          0.1246786 
571.4      0.3621853  1          0.1572725 
571.5      0.3249964  1          0.2044605 
571.6      0.2826645  1          0.2705909 
571.6999999999999 0.2456668  1          0.360441  
571.8      0.1944197  1          0.4758805 
571.9      0.148243   1          0.6104352 
572        0.1012414  1          0.7456428 
572.1      0.06330801 1          0.8553939 
572.1999999999999 0.03890333 1          0.9197205 
572.3      0.0301486  1          0.9365814 
572.4      0.03238312 1          0.920966  
572.5      0.03191545 1          0.8937582 
572.6      0.02559439 1          0.872691  
572.6999999999999 0.03784013 1          0.8689976 
572.8      0.03750821 1          0.8884818 
572.9      0.01459869 1          0.9315399 
573        0.0002850291 1          0.9921727 
573.1      0.00195001 1          1         
573.1999999999999 0.004391663 1          1         
