~Version information                                                          
  VERS.                            1.20: CWLS LAS  -  VERSION 1.20            
  WRAP.                             NO : One line per depth step              
~Well information                                                             
# MNEM.UNIT         DATA TYPE  INFORMATION                                    
# ====.================================: ===================                  
  STRT.M                       144.000 : First depth in file                  
  STOP.M                       909.000 : Last  depth in file                  
  STEP.M                          .200 : Depth increment                      
  NULL.                       -999.250 : Null  values                         
  WN  .                            WELL: 306
  FN  .                           FIELD: KARATUBE
  DATE.                        LOG DATE: 20.02.2004
~Curve information                                                            
# MNEM.UNIT                   API CODE   CURVE DESCRIPTION                    
# ====.================================:====================                  
  DEPT.M                               : Depth curve                          
  LL3 .OHMM                            : Appar.resist.laterolog,3 electrodes
  RHOB.G/C3                            : Bulk density by gamma-gamma log    
  DTP .US/M                            : Interval travel time (P-wave)
  GR  .UR/H                            : Gamma-ray log
  NGLD.UE                              : Neutron-gamma log
  GZ3 .OHMM                            : App.resistivity by lateral A2.0M0.5N
  GZ3B.OHMM                            : App.resistivity by lateral N0.5M2.0A
  SP  .MV                              : Spontaneous potential  
  CALI.MM                              : Caliper
  C1  .MM                              : Caliper, diameter 1
  C2  .MM                              : Caliper, diameter 2
  CILA.MMHO                            : Conduct. by sonde 7I1.6,active signal
~Parameter information block                                                  
# MNEM.UNIT                     VALUE       DESCRIPTION                       
# ====.================================:====================                  
  BS  .MM                          .00 : Bit Size                             
  DFD .G/C3                        .00 : Drilling Fluid Density               
  DFV .S                           .00 : Drilling Fluid Viscosity             
  RMS .OHMM                        .00 : Mud Sample Resistivity               
~Other information                                                            
# ------------------- REMARKS AREA ------------------------                   
# ==========================================================                  
~ASCII Log Data                                                               
# ...
    653.00        4.036        2.090      385.000        1.251        1.494        5.563        8.206      219.278      224.851      228.762      220.940      160.432
    653.20        5.702        2.050      385.000        1.325        1.550        5.750        7.724      218.749      228.223      226.835      229.612      174.191
    653.40        4.603        2.138      385.000        1.437        1.505        5.980        7.169      217.868      230.921      233.259      228.583      151.465
    653.60        5.768        2.161      388.300        1.456        1.539        6.266        6.834      217.427      234.968      241.611      228.324      139.465
    653.80        5.458        2.182      378.300        1.213        1.582        6.694        6.552      216.633      228.898      235.829      221.966      143.860
    654.00        4.036        2.241      361.700        1.288        1.621        7.232        6.457      214.870      230.246      234.544      225.949      150.234
    654.20        3.258        2.251      361.700        1.643        1.657        7.979        6.499      212.049      228.898      239.041      218.754      167.729
    654.40        2.748        2.388      328.300        1.717        1.720        8.330        6.436      212.842      231.595      239.684      223.507      172.432
    654.60        3.342        2.550      301.700        2.072        1.795        8.034        5.923      211.873      232.944      240.969      224.920      204.521
    654.80        3.516        2.405      311.700        2.819        1.632        7.726        5.473      210.286      246.433      256.387      236.479      190.059
    655.00        4.276        2.566      298.300        3.901        1.537        7.672        5.107      206.494      254.527      261.527      247.526      203.334
    655.20        4.074        2.678      268.300        5.152        1.523        8.111        4.834      206.318      245.084      259.600      230.569      212.389
    655.40        3.436        2.441      261.700        4.555        1.557        8.298        4.321      204.908      236.991      253.175      220.807      195.949
    655.60        2.355        1.884      288.300        4.592        1.491        7.210        3.641      201.822      243.061      259.600      226.522      207.158
    655.80        2.070        1.927      351.700        5.096        1.507        6.255        3.327      199.706      261.271      286.583      235.960      223.334
    656.00        2.333        1.959      371.700        5.675        1.569        5.761        3.358      202.528      301.738      364.962      238.514      303.467
    656.20        2.193        2.203      385.000        6.141        1.539        5.970        3.662      204.114      292.970      361.749      224.191      297.577
    656.40        2.427        2.286      388.300        6.067        1.442        6.013        3.798      204.996      284.877      339.264      230.490      271.907
    656.60        2.371        2.411      375.000        5.880        1.516        6.222        4.039      204.996      257.899      291.722      224.075      265.797
    656.80        2.286        2.438      365.000        5.843        1.537        6.200        4.112      203.321      256.550      278.231      234.869      257.884
    657.00        2.109        2.388      355.000        5.320        1.496        6.057        4.185      201.999      249.131      259.600      238.662      246.895
    657.20        1.936        2.434      345.000        5.059        1.498        5.849        4.290      203.762      249.805      259.600      240.011      244.302
    657.40        1.722        2.436      341.700        4.891        1.514        5.475        4.416      204.996      243.735      257.672      229.798      253.664
    657.60        1.730        2.463      345.000        4.947        1.566        5.102        4.698      204.115      244.410      257.030      231.790      245.181
    657.80        1.991        2.637      331.700        4.835        1.521        4.827        5.065      203.409      249.131      261.527      236.735      244.434
    658.00        2.042        2.455      335.000        4.872        1.514        4.630        5.452      203.497      247.108      263.454      230.761      273.797
    658.20        2.404        2.308      338.300        5.245        1.614        4.454        5.798      201.205      247.782      263.454      232.110      241.532
    658.40        3.444        2.547      295.000        5.264        1.621        4.476        5.777      201.910      248.457      264.097      232.816      241.752
    658.60        2.523        2.285      278.300        5.301        1.467        4.366        5.410      201.910      249.131      261.527      236.735      204.697
    658.80        2.080        1.978      358.300        5.581        1.539        3.894        4.751      199.883      259.248      271.164      247.332      221.708
    659.00        1.928        2.035      405.000        6.477        1.489        3.707        5.054      200.941      280.830      323.845      237.815      226.499
    659.20        2.323        2.397      351.700        6.645        1.555        3.971        5.567      202.439      273.411      293.007      253.815      264.742
    659.40        2.089        2.525      321.700        6.197        1.539        4.311        5.955      200.852      255.201      275.019      235.384      251.159
    659.60        2.198        2.455      328.300        6.216        1.564        4.092        5.944      201.557      245.759      260.242      231.275      225.928
    659.80        2.360        2.371      328.300        5.600        1.584        3.938        5.881      200.940      253.852      268.594      239.110      220.477
    660.00        2.296        2.215      325.000        4.816        1.528        3.817        5.745      200.323      257.899      271.806      243.991      257.708
    660.20        2.307        2.115      345.000        4.816        1.575        3.828        5.787      201.381      260.597      282.085      239.108      220.521
    660.40        2.748        2.356      338.300        5.301        1.521        3.971        5.986      199.794      290.947      333.482      248.412      265.709
    660.60        2.871        2.392      325.000        5.339        1.507        4.333        6.112      199.706      266.667      298.147      235.187      238.763
    660.80        2.911        2.301      318.300        5.525        1.546        4.520        6.133      198.648      261.271      282.085      240.457      204.697
    661.00        3.069        2.464      311.700        5.675        1.659        4.608        6.039      196.268      256.550      272.449      240.651      218.675
    661.20        2.606        2.298      331.700        5.357        1.537        4.575        5.965      196.974      258.573      265.382      251.765      202.894
    661.40        2.729        2.378      348.300        5.675        1.512        4.509        5.892      196.709      259.248      266.667      251.829      212.037
    661.60        2.710        2.405      345.000        6.272        1.534        4.685        5.923      195.915      266.667      282.085      251.248      228.038
    661.80        2.716        2.449      341.700        5.861        1.555        4.751        5.840      198.119      261.946      274.376      249.515      238.148
    662.00        2.831        2.246      325.000        5.619        1.618        4.882        5.787      198.736      268.016      284.655      251.376      212.081
    662.20        2.891        2.555      321.700        6.104        1.646        4.904        5.714      197.414      272.062      291.080      253.045      237.400
    662.40        2.518        2.410      338.300        5.917        1.727        5.014        5.766      197.326      261.946      276.303      247.588      231.642
