~Version information                                                          
  VERS.                            1.20: CWLS LAS  -  VERSION 1.20            
  WRAP.                             NO : One line per depth step              
~Well information                                                             
# MNEM.UNIT         DATA TYPE  INFORMATION                                    
# ====.================================: ===================                  
  STRT.M                       144.000 : First depth in file                  
  STOP.M                       909.000 : Last  depth in file                  
  STEP.M                          .200 : Depth increment                      
  NULL.                       -999.250 : Null  values                         
  WN  .                            WELL: 306
  FN  .                           FIELD: KARATUBE
  DATE.                        LOG DATE: 20.02.2004
~Curve information                                                            
# MNEM.UNIT                   API CODE   CURVE DESCRIPTION                    
# ====.================================:====================                  
  DEPT.M                               : Depth curve                          
  LL3 .OHMM                            : Appar.resist.laterolog,3 electrodes
  RHOB.G/C3                            : Bulk density by gamma-gamma log    
  DTP .US/M                            : Interval travel time (P-wave)
  GR  .UR/H                            : Gamma-ray log
  NGLD.UE                              : Neutron-gamma log
  GZ3 .OHMM                            : App.resistivity by lateral A2.0M0.5N
  GZ3B.OHMM                            : App.resistivity by lateral N0.5M2.0A
  SP  .MV                              : Spontaneous potential  
  CALI.MM                              : Caliper
  C1  .MM                              : Caliper, diameter 1
  C2  .MM                              : Caliper, diameter 2
  CILA.MMHO                            : Conduct. by sonde 7I1.6,active signal
~Parameter information block                                                  
# MNEM.UNIT                     VALUE       DESCRIPTION                       
# ====.================================:====================                  
  BS  .MM                          .00 : Bit Size                             
  DFD .G/C3                        .00 : Drilling Fluid Density               
  DFV .S                           .00 : Drilling Fluid Viscosity             
  RMS .OHMM                        .00 : Mud Sample Resistivity               
~Other information                                                            
# ------------------- REMARKS AREA ------------------------                   
# ==========================================================                  
~ASCII Log Data                                                               
# ...
    297.80        2.851        2.014      485.000        8.101        1.408        6.112        4.897      235.764      220.130      222.338      217.922      186.411
    298.00        2.460        2.009      465.000        8.008        1.414        5.926        4.656      233.560      222.827      226.835      218.820      161.048
    298.20        2.023        1.993      411.700        7.971        1.396        5.508        4.363      234.088      220.130      223.622      216.637      168.212
    298.40        1.567        2.112      428.300        8.083        1.360        4.882        4.133      236.116      224.176      224.265      224.088      191.641
    298.60        1.396        2.131      451.700        8.811        1.437        4.322        4.279      235.059      222.827      226.192      219.463      259.906
    298.80        1.629        2.090      448.300        9.651        1.437        3.949        4.824      235.235      225.525      224.907      226.143      310.369
    299.00        1.914        2.080      455.000        9.781        1.412        3.916        5.410      236.557      221.479      225.550      217.407      305.797
    299.20        2.427        2.022      458.300       10.621        1.392        4.048        5.881      238.761      224.176      223.622      224.730      256.785
    299.40        3.090        2.008      461.700       10.155        1.394        4.300        5.986      241.759      222.153      226.835      217.471      215.378
    299.60        3.148        2.054      458.300        9.315        1.346        4.421        5.881      243.434      221.479      224.907      218.050      185.224
    299.80        2.851        1.999      431.700        8.680        1.374        4.542        5.735      244.756      222.827      224.907      220.748      185.312
    300.00        2.606        2.130      345.000        8.717        1.430        4.520        5.662      245.109      226.200      230.047      222.353      217.840
    300.20        3.972        2.547      241.700        8.941        1.677        4.685        5.525      245.197      222.827      233.259      212.396      213.004
    300.40        4.667        2.548      185.000        8.419        1.961        4.893        5.138      244.315      232.270      240.326      224.213      205.224
    300.60        3.648        2.395      221.700        8.213        1.843        4.948        4.740      244.227      223.502      224.907      222.097      142.278
    300.80        2.773        1.999      358.300        8.157        1.532        4.707        4.426      243.787      228.898      233.259      224.536      143.377
    301.00        2.716        2.010      448.300        9.184        1.326        4.608        4.363      242.552      228.223      234.544      221.902      174.586
    301.20        2.742        2.038      455.000        9.352        1.353        4.729        4.374      242.728      224.851      228.120      221.582      213.048
    301.40        2.710        2.005      471.700        9.259        1.344        4.882        4.416      242.993      222.827      224.265      221.390      218.455
    301.60        2.648        2.045      471.700        9.221        1.301        4.970        4.279      242.640      224.176      226.192      222.161      213.312
    301.80        2.529        2.036      438.300        9.501        1.303        4.959        4.112      242.376      224.851      224.907      224.794      195.949
    302.00        2.466        2.061      461.700        9.165        1.351        4.959        4.007      242.464      225.525      223.622      227.428      191.466
    302.20        2.472        2.064      498.300        9.203        1.355        5.025        3.965      241.670      222.827      226.835      218.820      180.213
    302.40        2.188        2.111      438.300        9.632        1.367        5.124        3.882      240.260      222.153      222.980      221.326      178.938
    302.60        1.556        2.045      431.700        9.221        1.421        5.069        3.787      239.907      218.781      226.192      211.369      205.927
    302.80        1.387        2.068      431.700        8.493        1.460        4.740        4.007      239.114      223.502      222.980      224.024      273.357
    303.00        1.762        2.049      461.700        8.848        1.374        4.202        4.227      240.348      224.176      224.907      223.445      314.193
    303.20        1.841        2.114      508.300        9.277        1.389        3.982        4.468      241.670      228.898      221.695      236.100      295.907
    303.40        2.084        2.070      498.300        9.165        1.392        3.894        4.614      240.877      226.874      222.980      230.768      252.961
    303.60        2.443        2.076      455.000        9.035        1.410        3.916        4.688      239.643      224.851      222.980      226.722      236.214
    303.80        2.606        2.108      418.300        9.072        1.403        4.059        4.688      237.880      226.874      223.622      230.126      218.016
    304.00        2.679        2.067      401.700        8.997        1.358        4.125        4.614      235.852      224.851      222.980      226.722      208.829
    304.20        2.761        2.047      478.300        9.539        1.326        4.169        4.510      234.088      226.200      224.265      228.135      199.817
    304.40        2.667        2.117      465.000        9.408        1.380        4.202        4.353      233.383      225.525      224.907      226.143      192.301
    304.60        2.265        1.959      445.000        9.053        1.405        4.136        4.185      235.852      224.176      222.980      225.373      180.740
    304.80        1.637        2.106      411.700        8.811        1.455        3.883        4.154      236.204      221.479      223.622      219.335      213.312
    305.00        1.892        2.347      401.700        8.325        1.473        3.795        4.562      234.706      223.502      226.192      220.812      276.214
    305.20        2.114        2.181      421.700        8.605        1.432        3.872        5.159      233.383      230.246      234.544      225.949      298.940
    305.40        2.460        2.174      435.000        9.520        1.378        4.169        5.442      230.562      224.176      227.477      220.876      263.687
    305.60        2.455        2.190      441.700       10.565        1.335        4.322        5.557      228.534      222.153      225.550      218.756      210.367
    305.80        2.594        2.174      445.000       10.603        1.315        4.432        5.536      227.741      222.153      224.265      220.041      205.927
    306.00        2.618        2.100      441.700       10.901        1.312        4.520        5.557      227.036      222.827      224.265      221.390      211.686
    306.20        2.512        2.149      441.700       10.901        1.401        4.465        5.295      227.477      218.781      225.550      212.012      206.850
    306.40        2.312        2.078      438.300       10.453        1.328        4.267        5.138      229.857      222.153      226.192      218.114      214.763
    306.60        2.333        2.102      441.700        9.520        1.349        4.169        5.033      232.149      222.153      224.907      219.399      217.576
    306.80        2.208        2.082      445.000        9.371        1.396        4.026        5.065      232.943      222.827      225.550      220.105      226.763
    307.00        2.109        2.047      451.700        9.091        1.312        3.993        5.264      234.529      225.525      225.550      225.501      226.851
    307.20        2.673        1.978      461.700        9.595        1.412        3.916        5.505      235.411      223.502      226.192      220.812      234.807
