~Version information                                                          
  VERS.                            1.20: CWLS LAS  -  VERSION 1.20            
  WRAP.                             NO : One line per depth step              
~Well information                                                             
# MNEM.UNIT         DATA TYPE  INFORMATION                                    
# ====.================================: ===================                  
  STRT.M                       144.000 : First depth in file                  
  STOP.M                       909.000 : Last  depth in file                  
  STEP.M                          .200 : Depth increment                      
  NULL.                       -999.250 : Null  values                         
  WN  .                            WELL: 306
  FN  .                           FIELD: KARATUBE
  DATE.                        LOG DATE: 20.02.2004
~Curve information                                                            
# MNEM.UNIT                   API CODE   CURVE DESCRIPTION                    
# ====.================================:====================                  
  DEPT.M                               : Depth curve                          
  LL3 .OHMM                            : Appar.resist.laterolog,3 electrodes
  RHOB.G/C3                            : Bulk density by gamma-gamma log    
  DTP .US/M                            : Interval travel time (P-wave)
  GR  .UR/H                            : Gamma-ray log
  NGLD.UE                              : Neutron-gamma log
  GZ3 .OHMM                            : App.resistivity by lateral A2.0M0.5N
  GZ3B.OHMM                            : App.resistivity by lateral N0.5M2.0A
  SP  .MV                              : Spontaneous potential  
  CALI.MM                              : Caliper
  C1  .MM                              : Caliper, diameter 1
  C2  .MM                              : Caliper, diameter 2
  CILA.MMHO                            : Conduct. by sonde 7I1.6,active signal
~Parameter information block                                                  
# MNEM.UNIT                     VALUE       DESCRIPTION                       
# ====.================================:====================                  
  BS  .MM                          .00 : Bit Size                             
  DFD .G/C3                        .00 : Drilling Fluid Density               
  DFV .S                           .00 : Drilling Fluid Viscosity             
  RMS .OHMM                        .00 : Mud Sample Resistivity               
~Other information                                                            
# ------------------- REMARKS AREA ------------------------                   
# ==========================================================                  
~ASCII Log Data                                                               
# ...
    451.40        2.495        1.655      498.300       12.880        1.142        5.036        5.505      219.542      237.665      226.835      248.496      259.247
    451.60        3.507        1.308      478.300       12.040        1.054        5.091        5.515      218.220      243.061      235.187      250.935      237.181
    451.80        2.773        1.345      421.700        9.352        1.090        4.970        5.222      217.339      241.712      232.617      250.807      221.532
    452.00        2.685        1.655      425.000        7.896        1.115        4.882        5.128      217.956      239.689      235.187      244.191      220.961
    452.20        2.742        2.027      488.300        8.195        1.142        4.838        5.149      218.749      250.480      242.254      258.706      224.917
    452.40        2.360        2.044      491.700        8.792        1.129        4.937        5.138      219.102      242.387      225.550      259.223      219.774
    452.60        2.168        2.002      521.700        9.968        1.158        4.860        5.117      218.661      236.991      224.907      249.075      203.642
    452.80        2.133        2.028      508.300       10.248        1.197        4.608        5.138      219.454      236.316      231.332      241.301      216.521
    453.00        2.089        2.022      508.300       12.115        1.174        4.399        5.222      219.278      238.340      231.332      245.348      235.730
    453.20        2.153        2.018      505.000       12.544        1.170        4.432        5.567      219.102      234.968      226.192      243.743      229.620
    453.40        2.410        2.187      478.300       13.608        1.185        4.355        5.651      219.983      235.642      230.689      240.595      223.906
    453.60        2.489        2.202      458.300       14.019        1.263        4.267        5.567      220.336      235.642      231.332      239.952      221.224
    453.80        2.438        2.210      441.700       13.701        1.219        4.300        5.557      219.630      235.642      223.622      247.662      231.247
    454.00        2.377        2.201      411.700       14.728        1.238        4.300        5.567      219.630      244.410      231.974      256.845      235.027
    454.20        2.449        2.217      408.300       14.299        1.398        4.267        5.819      219.630      241.038      227.477      254.598      240.038
    454.40        2.541        2.175      465.000       13.683        1.426        4.421        6.269      219.542      248.457      235.187      261.727      237.532
    454.60        2.624        2.212      505.000       13.421        1.326        4.487        6.510      221.041      243.061      232.617      253.505      229.972
    454.80        2.553        2.073      488.300       12.656        1.312        4.509        6.667      222.452      233.619      224.265      242.972      213.928
    455.00        2.460        2.007      435.000       12.525        1.410        4.520        6.855      222.716      242.387      222.338      262.436      217.048
    455.20        2.223        2.156      368.300       12.171        1.550        4.487        7.012      223.510      238.340      226.835      249.845      211.642
    455.40        2.858        2.313      361.700       10.509        1.448        4.388        7.065      223.774      228.898      227.477      230.318      191.597
    455.60        3.126        2.281      401.700        9.240        1.389        4.454        6.950      223.069      230.246      230.047      230.446      185.795
    455.80        2.851        2.192      425.000        9.109        1.335        4.509        6.646      223.862      230.921      227.477      234.365      189.400
    456.00        2.570        2.213      411.700       10.397        1.333        4.443        6.510      224.920      231.595      223.622      239.568      196.257
    456.20        2.296        2.155      408.300       11.405        1.374        4.311        6.573      224.832      234.293      231.332      237.254      203.158
    456.40        2.506        2.157      401.700       11.797        1.378        4.191        6.803      225.625      230.921      232.617      229.225      213.092
    456.60        3.048        2.141      411.700       11.853        1.380        4.234        6.991      227.124      229.572      231.974      227.170      196.565
    456.80        3.819        2.171      428.300       11.163        1.392        4.443        7.054      227.477      231.595      235.829      227.362      165.531
    457.00        4.560        2.042      438.300       10.640        1.398        4.970        7.096      227.300      239.689      239.684      239.694      152.520
    457.20        5.058        2.099      435.000       10.640        1.306        5.464        6.950      228.270      235.642      239.041      232.243      147.157
    457.40        4.989        2.044      435.000       10.789        1.263        6.079        6.761      227.653      229.572      231.974      227.170      144.520
    457.60        4.477        2.060      425.000       10.509        1.421        6.530        6.405      228.446      226.874      226.192      227.556      146.718
    457.80        3.758        2.115      421.700       10.117        1.335        6.804        5.997      227.917      224.851      226.835      222.867      171.685
    458.00        2.904        2.187      425.000        9.931        1.258        6.573        5.609      227.036      225.525      228.120      222.931      197.136
    458.20        2.729        2.207      425.000       10.976        1.267        6.156        5.264      227.036      234.293      237.114      231.472      207.774
    458.40        2.773        2.278      441.700       11.573        1.346        5.904        5.316      227.124      244.410      246.108      242.712      227.202
    458.60        3.027        2.111      438.300       11.629        1.460        5.970        5.651      227.124      236.991      241.611      232.371      227.598
    458.80        3.055        2.222      431.700       11.480        1.428        6.200        5.923      226.771      235.642      235.187      236.098      222.147
    459.00        2.612        2.179      438.300       11.163        1.451        6.365        6.175      225.890      226.200      227.477      224.922      215.950
    459.20        2.158        2.207      425.000       11.629        1.446        6.266        6.552      223.774      224.851      226.835      222.867      211.334
    459.40        1.941        2.227      428.300       11.611        1.317        6.068        7.180      222.628      224.176      228.762      219.591      236.389
    459.60        2.032        2.203      441.700       11.237        1.317        5.772        8.049      221.570      222.827      227.477      218.178      229.093
    459.80        2.042        2.254      445.000       11.349        1.374        5.541        8.918      220.335      228.223      228.762      227.684      245.928
    460.00        2.291        2.241      421.700       11.144        1.340        5.366       10.059      219.454      227.549      227.477      227.620      250.456
    460.20        3.334        2.372      385.000       10.565        1.299        5.497       11.075      219.719      228.898      230.689      227.106      211.818
    460.40        3.864        2.568      428.300       10.061        1.253        5.355       10.803      219.189      227.549      226.192      228.905      191.773
    460.60        2.648        1.948      498.300        8.251        1.226        4.981       10.405      217.338      223.502      227.477      219.527      162.146
    460.80        2.594        1.887      508.300        7.709        1.185        4.432       10.311      217.338      249.131      257.672      240.590      204.960
