~Version information                                                          
  VERS.                            1.20: CWLS LAS  -  VERSION 1.20            
  WRAP.                             NO : One line per depth step              
~Well information                                                             
# MNEM.UNIT         DATA TYPE  INFORMATION                                    
# ====.================================: ===================                  
  STRT.M                       144.000 : First depth in file                  
  STOP.M                       909.000 : Last  depth in file                  
  STEP.M                          .200 : Depth increment                      
  NULL.                       -999.250 : Null  values                         
  WN  .                            WELL: 306
  FN  .                           FIELD: KARATUBE
  DATE.                        LOG DATE: 20.02.2004
~Curve information                                                            
# MNEM.UNIT                   API CODE   CURVE DESCRIPTION                    
# ====.================================:====================                  
  DEPT.M                               : Depth curve                          
  LL3 .OHMM                            : Appar.resist.laterolog,3 electrodes
  RHOB.G/C3                            : Bulk density by gamma-gamma log    
  DTP .US/M                            : Interval travel time (P-wave)
  GR  .UR/H                            : Gamma-ray log
  NGLD.UE                              : Neutron-gamma log
  GZ3 .OHMM                            : App.resistivity by lateral A2.0M0.5N
  GZ3B.OHMM                            : App.resistivity by lateral N0.5M2.0A
  SP  .MV                              : Spontaneous potential  
  CALI.MM                              : Caliper
  C1  .MM                              : Caliper, diameter 1
  C2  .MM                              : Caliper, diameter 2
  CILA.MMHO                            : Conduct. by sonde 7I1.6,active signal
~Parameter information block                                                  
# MNEM.UNIT                     VALUE       DESCRIPTION                       
# ====.================================:====================                  
  BS  .MM                          .00 : Bit Size                             
  DFD .G/C3                        .00 : Drilling Fluid Density               
  DFV .S                           .00 : Drilling Fluid Viscosity             
  RMS .OHMM                        .00 : Mud Sample Resistivity               
~Other information                                                            
# ------------------- REMARKS AREA ------------------------                   
# ==========================================================                  
~ASCII Log Data                                                               
# ...
    797.00    82224.250        3.013      168.300         .859        5.247        1.599       74.456      202.792      237.665      234.544      240.787        7.858
    797.20     8147.043        3.019      168.300         .765        5.259        1.544       74.362      202.087      235.642      235.829      235.455       11.287
    797.40    85703.800        2.891      161.700         .952        5.198        1.544       74.414      201.734      234.293      235.187      233.400        7.506
    797.60    87498.360        2.886      158.300         .691        5.247        1.467       74.508      200.676      232.270      232.617      231.923         .693
    797.80    89742.890        2.910      161.700         .896        5.055        1.445       74.351      200.764      235.642      231.974      239.310       -3.746
    798.00    91833.220        2.994      165.000         .877        5.116        1.500       74.330      200.676      236.991      236.471      237.510       -4.933
    798.20    93756.220        2.962      161.700         .859        5.209        1.467       74.268      199.706      239.014      237.756      240.272        3.418
    798.40    95719.390        2.806      168.300         .765        5.225        1.456       74.791      199.442      234.968      238.399      231.536        5.309
    798.60    97723.670        2.965      168.300         .728        5.354        1.478       75.587      199.089      230.921      235.187      226.655        8.649
    798.80    99083.140        2.937      165.000         .765        5.526        1.522       76.634      199.618      232.944      233.902      231.987       11.111
    799.00    99083.140        2.990      161.700         .765        5.395        1.555       77.671      199.353      231.595      230.047      233.144       10.100
    799.20    99083.140        2.941      161.700         .803        5.349        1.599       78.498      198.648      230.246      232.617      227.876        1.660
    799.40    99311.660        3.024      155.000         .989        5.268        1.599       78.812      197.767      232.270      232.617      231.923       -3.131
    799.60    99311.660        2.978      165.000         .933        5.116        1.610       78.728      197.502      232.270      230.689      233.850       -6.779
    799.80    99311.660        2.894      168.300         .877        5.304        1.566       78.676      197.326      229.572      234.544      224.600        2.451
    800.00    99083.140        3.000      161.700         .709        5.456        1.544       78.906      196.445      229.572      233.259      225.885       -1.109
    800.20    99083.140        2.910      158.300         .821        5.315        1.555       78.854      195.210      230.246      232.617      227.876       -7.351
    800.40    99083.140        2.959      161.700         .877        5.390        1.544       78.320      194.064      226.874      233.259      220.489       -7.043
    800.60    99311.660        2.820      165.000         .859        5.515        1.478       77.681      192.654      232.270      235.829      228.711        2.407
    800.80    99083.140        2.914      165.000         .672        5.497        1.390       77.262      191.860      234.293      237.756      230.830        5.660
    801.00    99311.660        2.952      165.000         .747        5.417        1.423       77.304      191.419      232.944      235.829      230.059        6.803
    801.20    99311.660        2.912      165.000         .803        5.510        1.390       77.461      191.067      230.246      230.689      229.803        5.528
    801.40    99083.140        2.914      165.000         .765        5.445        1.292       77.671      190.008      227.549      233.902      221.196        4.210
    801.60    99311.660        3.059      165.000         .765        5.399        1.226       77.838      188.863      232.270      229.404      235.135         .254
    801.80    99311.660        3.094      165.000         .821        5.637        1.105       78.027      187.628      235.642      235.829      235.455         .517
    802.00    99311.660        2.993      161.700         .915        5.644        1.006       78.121      186.306      234.968      234.544      235.391        5.353
    802.20    99083.140        2.944      165.000         .821        5.547         .896       78.121      185.072      236.991      234.544      239.438        4.693
    802.40    99083.140        2.923      168.300         .840        5.592         .775       78.027      184.543      235.642      232.617      238.667        4.254
    802.60    99083.140        2.896      168.300         .896        5.610         .721       78.016      183.573      234.968      231.974      237.961        5.528
    802.80    99083.140        2.935      165.000         .765        5.655         .644       77.943      181.810      234.968      233.902      236.034         .517
    803.00    99083.140        2.898      201.700         .840        5.549         .556       77.576      180.752      236.316      233.259      239.374       -3.395
    803.20    99083.140        2.878      201.700         .784        5.338         .534       77.021      180.664      240.363      238.399      242.328       -3.131
    803.40    99083.140        2.930      161.700         .765        5.293         .413       76.016      178.812      241.038      236.471      245.604       -2.384
    803.60    99311.660        2.990      165.000         .933        5.413         .446       74.927      177.138      240.363      236.471      244.255       -1.021
    803.80    99083.140        3.023      161.700         .989        5.338         .424       73.891      177.137      240.363      235.829      244.897       -3.527
    804.00    99083.140        3.030      165.000         .933        5.304         .380       72.665      178.636      244.410      236.471      252.348      -12.889
    804.20    99083.140        3.039      175.000         .653        5.222         .369       71.063      179.077      244.410      242.896      245.924      -17.637
    804.40    99311.660        2.951      175.000         .821        5.170         .336       69.262      178.989      251.154      244.823      257.485      -19.131
    804.60    99083.140        2.846      171.700         .859        5.356         .303       67.221      178.812      255.201      252.533      257.869       12.957
    804.80    99083.140        2.915      155.000        1.064        4.869         .281       64.215      178.900      257.224      253.818      260.631       -3.307
    805.00    99083.140        2.618      125.000        1.213        3.735         .160       51.169      178.019      263.294      262.169      264.419      -10.692
    805.20    99083.140        1.652      158.300        1.213        3.384         .084       36.603      177.226      287.575      279.516      295.633      -67.923
    805.40    99311.660        1.761      215.000        1.475        3.506        -.015       25.871      176.873      370.532      364.962      376.102       91.112
    805.60    99083.140        1.737      218.300        1.381        3.418         .040       25.745      175.727      410.324      408.006      412.643      122.937
    805.80    99083.140        1.745      221.700        1.400        3.171         .073       25.389      175.727      413.022      416.358      409.686       75.991
    806.00    99083.140        1.792      225.000        1.493        3.359         .018       25.232      175.639      417.069      417.000      417.137       46.980
    806.20    99083.140        1.776      228.300        1.251        3.389         .051       25.253      175.286      414.371      417.000      411.742       49.485
    806.40    99083.140        1.825      221.700        1.400        3.405         .018       25.159      175.374      411.673      414.430      408.916       44.958
