~Version information                                                          
  VERS.                            1.20: CWLS LAS  -  VERSION 1.20            
  WRAP.                             NO : One line per depth step              
~Well information                                                             
# MNEM.UNIT         DATA TYPE  INFORMATION                                    
# ====.================================: ===================                  
  STRT.M                       144.000 : First depth in file                  
  STOP.M                       909.000 : Last  depth in file                  
  STEP.M                          .200 : Depth increment                      
  NULL.                       -999.250 : Null  values                         
  WN  .                            WELL: 306
  FN  .                           FIELD: KARATUBE
  DATE.                        LOG DATE: 20.02.2004
~Curve information                                                            
# MNEM.UNIT                   API CODE   CURVE DESCRIPTION                    
# ====.================================:====================                  
  DEPT.M                               : Depth curve                          
  LL3 .OHMM                            : Appar.resist.laterolog,3 electrodes
  RHOB.G/C3                            : Bulk density by gamma-gamma log    
  DTP .US/M                            : Interval travel time (P-wave)
  GR  .UR/H                            : Gamma-ray log
  NGLD.UE                              : Neutron-gamma log
  GZ3 .OHMM                            : App.resistivity by lateral A2.0M0.5N
  GZ3B.OHMM                            : App.resistivity by lateral N0.5M2.0A
  SP  .MV                              : Spontaneous potential  
  CALI.MM                              : Caliper
  C1  .MM                              : Caliper, diameter 1
  C2  .MM                              : Caliper, diameter 2
  CILA.MMHO                            : Conduct. by sonde 7I1.6,active signal
~Parameter information block                                                  
# MNEM.UNIT                     VALUE       DESCRIPTION                       
# ====.================================:====================                  
  BS  .MM                          .00 : Bit Size                             
  DFD .G/C3                        .00 : Drilling Fluid Density               
  DFV .S                           .00 : Drilling Fluid Viscosity             
  RMS .OHMM                        .00 : Mud Sample Resistivity               
~Other information                                                            
# ------------------- REMARKS AREA ------------------------                   
# ==========================================================                  
~ASCII Log Data                                                               
# ...
    393.80        2.109        2.236      415.000       12.581        1.330        4.103        4.803      211.255      237.665      238.399      236.932      241.049
    394.00        2.438        2.270      415.000       12.619        1.265        4.048        4.866      211.432      239.689      236.471      242.906      251.818
    394.20        2.636        2.162      435.000       12.805        1.306        4.147        4.824      210.815      243.061      237.756      248.366      228.126
    394.40        2.065        2.148      475.000       12.749        1.281        4.114        4.478      212.137      247.782      235.829      259.735      244.521
    394.60        1.807        2.054      508.300       12.843        1.303        3.795        4.238      212.666      243.061      229.404      256.717      231.247
    394.80        1.892        1.943      431.700       12.432        1.374        3.543        4.217      213.018      264.643      246.751      282.536      256.126
    395.00        2.009        2.049      378.300       11.685        1.430        3.718        4.594      213.371      265.318      242.896      287.740      263.906
    395.20        2.188        2.142      391.700       12.488        1.369        4.026        4.866      212.489      250.480      251.890      249.070      246.675
    395.40        2.382        2.120      448.300       13.589        1.317        4.202        4.845      212.313      247.782      256.387      239.177      238.763
    395.60        2.218        2.082      488.300       13.365        1.256        4.234        4.792      213.459      243.061      241.611      244.511      236.346
    395.80        2.133        2.012      515.000       13.440        1.240        4.224        4.782      213.195      265.992      276.946      255.039      234.060
    396.00        2.065        1.994      508.300       12.973        1.342        4.289        4.876      213.371      254.527      245.466      263.587      247.379
    396.20        2.104        2.045      488.300       12.824        1.303        4.191        4.792      213.107      250.480      247.393      253.567      246.016
    396.40        2.070        2.009      481.700       12.787        1.287        4.114        4.772      213.018      259.248      258.957      259.538      242.675
    396.60        2.148        2.077      518.300       12.432        1.358        4.114        4.887      213.283      262.620      276.946      248.294      246.983
    396.80        2.254        2.038      521.700       12.563        1.296        4.136        4.908      212.578      253.852      258.957      248.747      238.895
    397.00        2.399        2.056      501.700       12.768        1.224        4.081        4.866      212.490      255.875      255.745      256.006      242.455
    397.20        2.355        2.104      478.300       12.563        1.290        4.059        4.908      213.195      259.922      262.812      257.032      231.466
    397.40        2.421        2.199      438.300       12.600        1.369        4.169        4.929      214.164      241.038      243.538      238.537      221.268
    397.60        2.208        2.129      388.300       13.328        1.310        4.158        4.855      214.517      240.363      233.902      246.825      223.510
    397.80        2.037        2.165      378.300       13.141        1.351        3.982        4.813      215.487      242.387      242.254      242.520      226.763
    398.00        2.051        2.179      375.000       13.496        1.389        3.817        4.950      216.457      242.387      242.896      241.877      242.543
    398.20        2.104        2.134      388.300       12.171        1.398        3.839        5.431      216.369      247.108      244.181      250.034      255.159
    398.40        2.443        2.129      438.300       12.581        1.353        4.026        5.672      216.104      245.084      244.181      245.988      228.961
    398.60        2.291        2.124      488.300       12.805        1.365        4.081        5.724      215.663      237.665      235.187      240.144      220.477
    398.80        2.094        2.023      491.700       13.160        1.385        3.982        5.787      214.870      250.480      244.823      256.137      218.103
    399.00        2.158        2.048      485.000       12.656        1.312        4.026        5.819      213.547      259.922      267.309      252.535      231.554
    399.20        2.158        1.982      468.300       11.835        1.292        4.081        5.798      212.754      253.178      251.248      255.108      262.324
    399.40        2.244        2.092      451.700       12.021        1.394        4.136        5.766      212.137      248.457      249.963      246.950      223.686
    399.60        2.084        1.956      485.000       12.507        1.285        3.905        5.442      212.313      258.573      255.745      261.402      238.851
    399.80        2.118        1.921      518.300       12.843        1.321        3.663        5.316      212.578      264.643      257.672      271.614      218.719
    400.00        2.183        1.941      508.300       11.797        1.365        3.422        5.274      213.195      305.785      300.074      311.495      250.807
    400.20        2.218        2.009      491.700       11.536        1.365        3.499        5.902      214.076      292.296      286.583      298.009      257.269
    400.40        2.128        2.187      451.700       12.227        1.296        3.850        6.813      214.076      297.017      300.717      293.317      233.752
    400.60        2.466        2.249      451.700       12.563        1.315        4.267        7.766      214.164      254.527      247.393      261.660      220.873
    400.80        3.062        2.266      381.700       13.403        1.478        4.564        8.709      213.900      240.363      233.259      247.467      197.488
    401.00        9.205        2.563      258.300       13.011        1.646        5.256        9.347      213.283      243.061      237.114      249.008      178.147
    401.20       12.677        2.673      231.700       10.229        1.700        6.123        9.065      212.666      228.223      221.695      234.751      171.773
    401.40        3.589        2.299      335.000        8.157        1.580        6.101        7.745      213.635      228.898      224.265      233.530      163.553
    401.60        2.877        2.228      441.700       10.136        1.324        5.497        6.573      213.547      239.014      231.332      246.697      187.290
    401.80        2.594        2.107      465.000       11.611        1.219        4.948        6.342      212.666      251.154      233.259      269.049      220.081
    402.00        2.691        2.303      461.700       11.816        1.253        4.904        6.719      212.578      245.759      229.404      262.113      237.357
    402.20        2.735        2.208      455.000       11.461        1.355        4.806        7.274      212.666      247.108      221.695      272.520      233.840
    402.40        2.911        2.214      435.000       11.592        1.401        4.806        7.787      212.842      245.084      232.617      257.552      224.521
    402.60        2.845        2.254      435.000       12.133        1.290        4.926        8.217      212.842      243.735      231.974      255.497      215.246
    402.80        2.742        2.204      478.300       12.675        1.315        5.058        8.384      213.547      238.340      228.762      247.918      196.257
    403.00        2.541        2.147      495.000       12.189        1.315        5.179        8.405      213.547      241.038      227.477      254.598      186.630
    403.20        2.559        2.144      478.300       12.563        1.355        5.234        8.478      213.195      236.991      231.332      242.650      191.510
