~Version information                                                          
  VERS.                            1.20: CWLS LAS  -  VERSION 1.20            
  WRAP.                             NO : One line per depth step              
~Well information                                                             
# MNEM.UNIT         DATA TYPE  INFORMATION                                    
# ====.================================: ===================                  
  STRT.M                       144.000 : First depth in file                  
  STOP.M                       909.000 : Last  depth in file                  
  STEP.M                          .200 : Depth increment                      
  NULL.                       -999.250 : Null  values                         
  WN  .                            WELL: 306
  FN  .                           FIELD: KARATUBE
  DATE.                        LOG DATE: 20.02.2004
~Curve information                                                            
# MNEM.UNIT                   API CODE   CURVE DESCRIPTION                    
# ====.================================:====================                  
  DEPT.M                               : Depth curve                          
  LL3 .OHMM                            : Appar.resist.laterolog,3 electrodes
  RHOB.G/C3                            : Bulk density by gamma-gamma log    
  DTP .US/M                            : Interval travel time (P-wave)
  GR  .UR/H                            : Gamma-ray log
  NGLD.UE                              : Neutron-gamma log
  GZ3 .OHMM                            : App.resistivity by lateral A2.0M0.5N
  GZ3B.OHMM                            : App.resistivity by lateral N0.5M2.0A
  SP  .MV                              : Spontaneous potential  
  CALI.MM                              : Caliper
  C1  .MM                              : Caliper, diameter 1
  C2  .MM                              : Caliper, diameter 2
  CILA.MMHO                            : Conduct. by sonde 7I1.6,active signal
~Parameter information block                                                  
# MNEM.UNIT                     VALUE       DESCRIPTION                       
# ====.================================:====================                  
  BS  .MM                          .00 : Bit Size                             
  DFD .G/C3                        .00 : Drilling Fluid Density               
  DFV .S                           .00 : Drilling Fluid Viscosity             
  RMS .OHMM                        .00 : Mud Sample Resistivity               
~Other information                                                            
# ------------------- REMARKS AREA ------------------------                   
# ==========================================================                  
~ASCII Log Data                                                               
# ...
    345.80        2.483        2.189      448.300       12.525        1.272        4.520        4.845      208.082      239.014      249.320      228.708      219.774
    346.00        2.529        2.217      458.300       12.507        1.315        4.531        4.887      206.847      239.014      253.175      224.853      232.345
    346.20        2.535        2.242      461.700       13.067        1.383        4.586        4.855      206.407      237.665      251.890      223.440      219.158
    346.40        2.564        2.129      488.300       13.085        1.389        4.707        4.824      208.346      238.340      251.248      225.432      224.521
    346.60        2.228        2.087      551.700       12.059        1.423        4.729        4.667      210.021      236.991      247.393      226.589      223.730
    346.80        2.075        2.080      528.300       11.984        1.367        4.619        4.478      211.431      232.270      242.896      221.644      214.807
    347.00        2.163        2.094      565.000       12.619        1.315        4.377        4.457      212.401      228.898      235.187      222.609      224.609
    347.20        2.307        2.068      535.000       11.779        1.367        4.289        4.510      211.784      226.874      230.689      223.059      217.444
    347.40        2.249        2.101      518.300       12.040        1.362        4.278        4.416      212.137      228.223      231.332      225.114      208.697
    347.60        2.193        2.053      425.000       12.003        1.355        4.311        4.332      211.343      230.921      230.047      231.795      199.202
    347.80        1.977        2.101      411.700       11.592        1.362        4.191        4.248      210.638      229.572      235.829      223.315      220.829
    348.00        1.959        2.171      438.300       12.077        1.378        4.191        4.353      210.462      228.898      231.974      225.821      224.389
    348.20        2.393        2.255      428.300       12.376        1.442        4.333        4.562      212.225      227.549      231.332      223.765      239.862
    348.40        2.489        2.240      421.700       12.413        1.464        4.586        4.677      211.343      228.898      237.756      220.039      235.466
    348.60        2.371        2.185      415.000       12.301        1.448        4.729        4.709      211.079      228.898      240.969      216.826      224.697
    348.80        2.018        2.133      408.300       13.067        1.380        4.729        4.604      210.815      226.200      234.544      217.855      217.664
    349.00        1.901        2.153      415.000       13.515        1.355        4.520        4.625      209.316      226.874      238.399      215.350      216.609
    349.20        2.118        2.224      455.000       13.813        1.306        4.289        4.531      208.699      230.921      242.896      218.946      233.664
    349.40        2.495        2.187      478.300       13.421        1.371        4.125        4.468      207.993      228.223      241.611      214.835      233.620
    349.60        2.606        2.153      455.000       14.672        1.380        4.213        4.489      206.582      251.154      281.443      220.866      233.884
    349.80        2.153        2.200      441.700       14.952        1.337        4.432        4.646      205.172      249.805      273.734      225.877      223.334
    350.00        2.432        2.111      438.300       14.056        1.330        4.443        4.614      204.820      225.525      241.611      209.440      225.752
    350.20        2.046        2.097      445.000       12.731        1.342        4.278        4.594      206.054      230.246      240.969      219.524      229.796
    350.40        2.307        2.205      445.000       13.739        1.351        4.224        4.552      206.318      232.944      243.538      222.350      232.961
    350.60        1.901        2.204      448.300       13.683        1.294        4.256        4.751      206.671      230.246      244.181      216.312      235.598
    350.80        2.371        2.255      458.300       13.272        1.367        4.245        4.855      206.671      227.549      240.326      214.771      233.093
    351.00        2.377        2.173      441.700       13.235        1.401        4.267        4.709      206.759      228.898      239.684      218.111      232.873
    351.20        2.056        2.125      368.300       13.216        1.389        4.213        4.635      207.641      224.851      239.684      210.018      220.213
    351.40        2.377        2.220      385.000       12.917        1.371        4.158        4.531      209.316      226.200      237.756      214.643      223.906
    351.60        2.366        2.083      398.300       13.179        1.401        4.136        4.395      210.990      224.851      237.756      211.945      218.059
    351.80        1.862        2.167      381.700       14.299        1.405        4.070        4.374      213.459      226.874      240.969      212.780      209.004
    352.00        2.228        2.136      388.300       12.880        1.419        4.180        4.594      215.134      224.176      228.762      219.591      210.631
    352.20        2.421        2.126      411.700       11.536        1.446        4.443        4.677      216.369      221.479      226.835      216.123      217.972
    352.40        2.183        2.117      431.700       11.816        1.421        4.498        4.478      216.192      223.502      227.477      219.527      216.037
    352.60        1.972        2.161      425.000       12.003        1.408        4.213        4.248      216.897      222.827      230.047      215.608      222.455
    352.80        1.981        2.083      441.700       11.443        1.414        4.180        4.552      215.928      220.130      231.974      208.285      241.752
    353.00        2.427        2.287      425.000       12.208        1.353        4.421        4.950      213.635      222.827      231.974      213.681      232.038
    353.20        3.342        2.273      371.700       12.376        1.351        4.641        5.044      211.255      224.851      237.756      211.945      216.081
    353.40        2.661        2.156      328.300       12.077        1.417        4.762        4.761      211.079      232.270      243.538      221.001      199.817
    353.60        2.203        2.093      308.300       11.928        1.335        4.663        4.447      212.842      234.968      256.387      213.548      181.092
    353.80        1.803        2.142      361.700       11.461        1.351        4.432        4.279      212.048      233.619      254.460      212.777      226.983
    354.00        1.726        2.142      428.300       12.040        1.396        4.344        4.279      213.018      234.293      255.103      213.484      236.565
    354.20        1.671        2.138      425.000       11.891        1.337        4.092        4.520      213.106      232.270      251.890      212.649      265.841
    354.40        1.811        2.274      415.000       11.779        1.303        4.180        4.803      211.696      234.293      254.460      214.126      281.225
    354.60        2.037        2.142      455.000       11.517        1.233        4.278        5.012      210.462      238.340      258.315      218.365      277.093
    354.80        1.910        2.229      491.700       12.525        1.283        4.103        4.656      207.553      245.084      264.739      225.429      259.599
    355.00        2.018        1.997      501.700       12.040        1.362        3.773        4.489      207.552      247.782      273.734      221.831      242.587
    355.20        2.080        2.035      491.700       11.704        1.383        3.521        4.395      206.671      275.435      312.923      237.946      263.818
