~Version information                                                          
  VERS.                            1.20: CWLS LAS  -  VERSION 1.20            
  WRAP.                             NO : One line per depth step              
~Well information                                                             
# MNEM.UNIT         DATA TYPE  INFORMATION                                    
# ====.================================: ===================                  
  STRT.M                       144.000 : First depth in file                  
  STOP.M                       909.000 : Last  depth in file                  
  STEP.M                          .200 : Depth increment                      
  NULL.                       -999.250 : Null  values                         
  WN  .                            WELL: 306
  FN  .                           FIELD: KARATUBE
  DATE.                        LOG DATE: 20.02.2004
~Curve information                                                            
# MNEM.UNIT                   API CODE   CURVE DESCRIPTION                    
# ====.================================:====================                  
  DEPT.M                               : Depth curve                          
  LL3 .OHMM                            : Appar.resist.laterolog,3 electrodes
  RHOB.G/C3                            : Bulk density by gamma-gamma log    
  DTP .US/M                            : Interval travel time (P-wave)
  GR  .UR/H                            : Gamma-ray log
  NGLD.UE                              : Neutron-gamma log
  GZ3 .OHMM                            : App.resistivity by lateral A2.0M0.5N
  GZ3B.OHMM                            : App.resistivity by lateral N0.5M2.0A
  SP  .MV                              : Spontaneous potential  
  CALI.MM                              : Caliper
  C1  .MM                              : Caliper, diameter 1
  C2  .MM                              : Caliper, diameter 2
  CILA.MMHO                            : Conduct. by sonde 7I1.6,active signal
~Parameter information block                                                  
# MNEM.UNIT                     VALUE       DESCRIPTION                       
# ====.================================:====================                  
  BS  .MM                          .00 : Bit Size                             
  DFD .G/C3                        .00 : Drilling Fluid Density               
  DFV .S                           .00 : Drilling Fluid Viscosity             
  RMS .OHMM                        .00 : Mud Sample Resistivity               
~Other information                                                            
# ------------------- REMARKS AREA ------------------------                   
# ==========================================================                  
~ASCII Log Data                                                               
# ...
    499.40        1.273        2.159      378.300        9.109        1.471        2.741        2.813      223.333      226.200      221.053      231.347      241.928
    499.60        1.076        2.186      381.700        8.699        1.514        2.510        2.677      223.950      223.502      224.265      222.739      270.676
    499.80        1.188        2.193      405.000        8.475        1.537        2.368        2.918      223.069      221.479      224.907      218.050      302.500
    500.00        1.581        2.284      368.300        8.213        1.426        2.565        3.253      222.892      215.409      223.622      207.195      299.907
    500.20        1.607        2.203      308.300        8.288        1.496        2.829        3.452      221.394      225.525      224.907      226.143      266.500
    500.40        1.542        2.264      408.300        9.632        1.530        2.873        3.337      219.983      224.851      221.695      228.007      253.049
    500.60        1.574        2.213      435.000       10.024        1.396        2.763        3.306      218.308      225.525      222.980      228.071      250.060
    500.80        1.524        2.245      441.700       10.229        1.412        2.708        3.285      218.484      226.874      220.410      233.338      260.038
    501.00        1.479        2.320      435.000        9.968        1.396        2.763        3.400      218.573      230.246      221.053      239.440      271.555
    501.20        1.592        2.185      435.000        9.875        1.328        2.752        3.452      219.190      229.572      220.410      238.734      261.445
    501.40        1.614        2.135      411.700        9.632        1.401        2.796        3.431      219.366      228.223      224.907      231.539      256.829
    501.60        1.459        2.212      411.700       10.005        1.467        2.818        3.463      219.630      225.525      226.835      224.216      259.950
    501.80        1.452        2.271      418.300        9.875        1.360        2.664        3.421      220.071      223.502      224.265      222.739      271.775
    502.00        1.462        2.195      425.000        9.781        1.387        2.543        3.421      220.071      218.781      225.550      212.012      258.412
    502.20        1.374        2.190      408.300        9.165        1.389        2.510        3.316      220.512      225.525      225.550      225.501      268.258
    502.40        1.419        2.158      391.700        9.259        1.365        2.478        3.285      220.248      222.153      222.980      221.326      279.907
    502.60        1.439        2.182      401.700        9.296        1.439        2.510        3.295      219.278      222.153      224.265      220.041      297.929
    502.80        1.429        2.197      408.300        9.147        1.423        2.587        3.421      218.132      223.502      221.053      225.951      274.720
    503.00        1.439        2.180      405.000        9.035        1.423        2.576        3.567      217.956      224.851      225.550      224.152      263.775
    503.20        1.507        2.172      401.700        9.800        1.367        2.642        3.777      217.956      227.549      224.907      230.190      258.280
    503.40        1.625        2.226      405.000        9.259        1.330        2.741        4.070      218.132      227.549      222.980      232.117      258.676
    503.60        1.560        2.206      398.300        8.997        1.301        2.829        4.290      217.603      228.898      221.695      236.100      245.576
    503.80        1.679        2.257      391.700        8.979        1.360        2.873        4.353      217.867      227.549      222.980      232.117      243.906
    504.00        1.641        2.384      391.700        9.539        1.362        2.972        4.552      218.485      227.549      220.410      234.687      262.060
    504.20        2.104        2.461      371.700        9.501        1.290        3.246        4.834      218.220      228.898      225.550      232.245      254.851
    504.40        2.259        2.460      375.000        8.885        1.247        3.499        4.709      217.955      228.223      229.404      227.042      226.279
    504.60        1.542        2.218      395.000        8.101        1.349        3.477        4.342      218.661      219.455      230.047      208.864      229.796
    504.80        1.416        2.205      398.300        9.109        1.460        3.081        3.944      219.630      220.130      222.338      217.922      253.093
    505.00        1.330        2.246      401.700        9.277        1.403        2.730        3.902      219.190      221.479      221.695      221.262      286.412
    505.20        1.479        2.182      395.000        8.979        1.346        2.510        4.164      218.485      220.130      222.980      217.279      293.841
    505.40        1.542        2.182      405.000        9.296        1.328        2.532        4.709      216.721      221.479      220.410      222.547      298.720
    505.60        1.928        1.945      455.000        9.595        1.244        2.697        5.389      214.517      226.200      226.192      226.207      294.193
    505.80        2.818        1.517      481.700        9.184        1.174        2.983        5.808      212.313      224.176      222.338      226.015      257.840
    506.00        2.685        1.867      441.700        7.616        1.204        3.213        5.840      212.313      226.874      223.622      230.126      211.993
    506.20        2.032        2.173      405.000        6.197        1.267        3.290        5.756      212.401      225.525      221.053      229.998      202.587
    506.40        1.663        2.161      395.000        7.765        1.335        3.323        6.049      212.666      224.851      224.265      225.437      246.192
    506.60        1.652        2.159      361.700        9.333        1.389        3.213        6.489      213.195      215.409      224.907      205.910      272.038
    506.80        1.991        2.319      351.700        9.221        1.419        3.158        6.991      213.547      220.130      226.835      213.425      271.467
    507.00        2.004        2.244      411.700        9.371        1.358        3.147        7.400      214.958      228.898      237.114      220.681      253.225
    507.20        1.866        2.064      485.000        9.053        1.256        3.027        7.452      216.281      226.200      232.617      219.783      231.818
    507.40        1.625        1.958      515.000        9.165        1.321        2.807        7.840      215.575      225.525      226.835      224.216      236.829
    507.60        2.084        2.057      488.300        9.856        1.344        2.741        8.866      215.311      236.991      254.460      219.522      264.654
    507.80        2.449        1.913      441.700        9.632        1.437        2.983       10.038      215.134      240.363      243.538      237.188      242.763
    508.00        2.317        2.088      418.300        9.165        1.430        3.114       10.688      216.368      224.851      229.404      220.297      200.653
    508.20        2.472        2.151      418.300        8.661        1.448        3.213       11.295      217.955      220.130      222.338      217.922      156.608
    508.40        2.495        2.137      408.300        8.643        1.444        3.312       12.499      218.749      220.804      223.622      217.986      154.850
    508.60        3.564        2.227      348.300        8.251        1.582        3.674       14.562      218.220      224.176      225.550      222.803      134.278
    508.80        8.318        2.314      298.300        8.120        1.659        4.267       15.724      219.102      218.106      225.550      210.663      121.530
