~Version information                                                          
  VERS.                            1.20: CWLS LAS  -  VERSION 1.20            
  WRAP.                             NO : One line per depth step              
~Well information                                                             
# MNEM.UNIT         DATA TYPE  INFORMATION                                    
# ====.================================: ===================                  
  STRT.M                       144.000 : First depth in file                  
  STOP.M                       909.000 : Last  depth in file                  
  STEP.M                          .200 : Depth increment                      
  NULL.                       -999.250 : Null  values                         
  WN  .                            WELL: 306
  FN  .                           FIELD: KARATUBE
  DATE.                        LOG DATE: 20.02.2004
~Curve information                                                            
# MNEM.UNIT                   API CODE   CURVE DESCRIPTION                    
# ====.================================:====================                  
  DEPT.M                               : Depth curve                          
  LL3 .OHMM                            : Appar.resist.laterolog,3 electrodes
  RHOB.G/C3                            : Bulk density by gamma-gamma log    
  DTP .US/M                            : Interval travel time (P-wave)
  GR  .UR/H                            : Gamma-ray log
  NGLD.UE                              : Neutron-gamma log
  GZ3 .OHMM                            : App.resistivity by lateral A2.0M0.5N
  GZ3B.OHMM                            : App.resistivity by lateral N0.5M2.0A
  SP  .MV                              : Spontaneous potential  
  CALI.MM                              : Caliper
  C1  .MM                              : Caliper, diameter 1
  C2  .MM                              : Caliper, diameter 2
  CILA.MMHO                            : Conduct. by sonde 7I1.6,active signal
~Parameter information block                                                  
# MNEM.UNIT                     VALUE       DESCRIPTION                       
# ====.================================:====================                  
  BS  .MM                          .00 : Bit Size                             
  DFD .G/C3                        .00 : Drilling Fluid Density               
  DFV .S                           .00 : Drilling Fluid Viscosity             
  RMS .OHMM                        .00 : Mud Sample Resistivity               
~Other information                                                            
# ------------------- REMARKS AREA ------------------------                   
# ==========================================================                  
~ASCII Log Data                                                               
# ...
    595.40         .706        2.044      421.700        3.603        1.398         .841        1.934      233.295      224.851      233.902      215.800      289.182
    595.60         .653        2.052      411.700        3.995        1.408         .841        1.965      233.560      224.851      227.477      222.225      307.380
    595.80         .605        2.184      401.700        4.424        1.548         .775        2.185      233.912      222.827      228.762      216.893      337.138
    596.00         .628        2.183      385.000        4.144        1.587         .863        2.698      232.589      226.200      229.404      222.995      384.875
    596.20         .743        2.384      351.700        4.107        1.455         .885        3.222      230.738      227.549      230.689      224.408      376.304
    596.40        1.340        2.358      351.700        4.835        1.408        1.050        3.630      227.830      224.851      234.544      215.158      354.282
    596.60        1.656        2.241      351.700        7.878        1.324        1.204        3.672      224.039      226.200      231.332      221.068      294.588
    596.80        1.560        2.211      378.300       10.752        1.340        1.324        3.557      221.305      229.572      233.902      225.242      263.555
    597.00        1.549        2.066      448.300       11.592        1.376        1.346        3.316      219.719      227.549      234.544      220.553      236.697
    597.20        1.465        2.029      485.000       10.827        1.330        1.401        3.002      218.925      237.665      248.678      226.653      246.807
    597.40        1.416        2.093      478.300        9.987        1.360        1.434        2.845      218.044      236.316      248.678      223.955      264.170
    597.60        1.535        2.180      451.700        9.893        1.394        1.500        2.761      218.220      230.921      239.041      222.801      274.324
    597.80        1.574        2.220      425.000       10.901        1.453        1.566        2.751      217.956      234.968      248.036      221.900      269.533
    598.00        1.452        2.211      418.300       10.939        1.532        1.665        2.656      218.837      237.665      248.678      226.653      277.929
    598.20        1.297        2.187      418.300       11.013        1.534        1.698        2.740      219.895      230.921      233.902      227.940      280.786
    598.40        1.107        2.221      405.000        9.837        1.491        1.775        2.793      220.776      228.223      227.477      228.969      291.116
    598.60        1.208        2.156      398.300       10.229        1.494        1.906        2.751      220.953      222.827      230.047      215.608      284.083
    598.80        1.412        2.109      398.300        9.725        1.519        2.093        2.772      220.071      222.827      226.835      218.820      265.181
    599.00        1.205        2.161      401.700       10.528        1.430        2.214        2.782      219.366      234.968      248.036      221.900      258.807
    599.20        1.538        2.112      391.700       10.733        1.326        2.412        2.845      217.250      225.525      238.399      212.652      278.017
    599.40        1.343        2.087      381.700       10.939        1.285        2.456        2.991      216.280      224.176      228.762      219.591      283.116
    599.60        1.337        2.164      375.000       10.808        1.383        2.532        2.950      216.898      229.572      237.114      222.030      287.379
    599.80        1.138        2.148      375.000       10.192        1.401        2.532        2.908      216.457      227.549      228.762      226.335      273.269
    600.00        1.145        2.113      408.300       10.901        1.428        2.346        2.583      216.986      223.502      229.404      217.599      298.588
    600.20        1.213        1.907      465.000       10.304        1.516        2.027        2.353      216.015      228.223      231.332      225.114      269.621
    600.40        1.439        2.030      451.700        9.483        1.487        1.928        2.227      214.782      270.713      294.935      246.492      303.072
    600.60        1.312        2.131      415.000        9.520        1.482        2.269        2.447      214.517      299.715      318.705      280.724      334.633
    600.80        1.222        2.151      408.300        9.875        1.462        2.456        2.457      215.311      242.387      259.600      225.173      267.555
    601.00        1.208        2.160      411.700       10.248        1.476        2.412        2.374      216.016      230.246      238.399      222.094      283.291
    601.20        1.324        2.217      418.300       10.024        1.319        2.313        2.447      215.663      231.595      238.399      224.792      294.676
    601.40        1.374        2.123      441.700       10.061        1.287        2.247        2.457      214.164      237.665      245.466      229.865      299.423
    601.60        1.409        1.940      481.700       10.211        1.371        2.335        2.604      212.665      243.735      247.393      240.078      300.786
    601.80        1.954        1.428      511.700        9.408        1.210        2.653        2.782      211.960      260.597      273.734      247.460      253.225
    602.00        1.361        1.625      511.700        7.840        1.229        2.840        2.583      210.902      251.829      253.818      249.840      268.434
    602.20        1.148        1.717      475.000        6.720        1.294        2.818        2.552      209.757      230.246      236.471      224.021      193.532
    602.40        1.387        2.101      438.300        7.131        1.328        2.686        2.478      208.787      263.294      267.952      258.637      246.148
    602.60        1.303        2.142      415.000        8.176        1.335        2.675        2.332      207.464      230.246      239.041      221.452      284.083
    602.80        1.148        2.052      408.300        9.725        1.494        2.456        2.259      208.258      234.968      242.254      227.682      260.038
    603.00         .923        2.081      421.700       10.882        1.473        2.401        2.311      209.757      239.014      244.823      233.205      295.863
    603.20         .843        1.963      435.000       10.752        1.446        2.192        2.259      208.522      236.991      246.108      227.874      303.863
    603.40         .975        1.817      428.300        9.744        1.453        1.896        2.196      205.613      244.410      253.175      235.645      297.050
    603.60        1.000        1.747      438.300        9.744        1.337        1.742        2.217      204.114      287.575      294.292      280.857      291.555
    603.80        1.016        1.787      421.700        8.717        1.419        1.928        2.541      202.880      278.132      281.443      274.822      241.444
    604.00        1.365        2.134      395.000        8.848        1.537        2.093        2.688      201.734      292.970      313.566      272.375      291.687
    604.20        1.219        2.015      405.000        9.408        1.539        2.324        2.740      200.587      252.503      255.103      249.904      255.467
    604.40        1.361        2.117      405.000       10.304        1.476        2.181        2.698      199.618      276.109      287.868      264.350      290.280
    604.60        1.585        2.120      405.000        9.632        1.353        2.445        2.845      199.971      268.690      285.940      251.440      287.028
    604.80        1.023        1.973      438.300        9.240        1.330        2.554        2.552      200.323      286.900      309.711      264.089      321.314
