~Version information                                                          
  VERS.                            1.20: CWLS LAS  -  VERSION 1.20            
  WRAP.                             NO : One line per depth step              
~Well information                                                             
# MNEM.UNIT         DATA TYPE  INFORMATION                                    
# ====.================================: ===================                  
  STRT.M                       144.000 : First depth in file                  
  STOP.M                       909.000 : Last  depth in file                  
  STEP.M                          .200 : Depth increment                      
  NULL.                       -999.250 : Null  values                         
  WN  .                            WELL: 306
  FN  .                           FIELD: KARATUBE
  DATE.                        LOG DATE: 20.02.2004
~Curve information                                                            
# MNEM.UNIT                   API CODE   CURVE DESCRIPTION                    
# ====.================================:====================                  
  DEPT.M                               : Depth curve                          
  LL3 .OHMM                            : Appar.resist.laterolog,3 electrodes
  RHOB.G/C3                            : Bulk density by gamma-gamma log    
  DTP .US/M                            : Interval travel time (P-wave)
  GR  .UR/H                            : Gamma-ray log
  NGLD.UE                              : Neutron-gamma log
  GZ3 .OHMM                            : App.resistivity by lateral A2.0M0.5N
  GZ3B.OHMM                            : App.resistivity by lateral N0.5M2.0A
  SP  .MV                              : Spontaneous potential  
  CALI.MM                              : Caliper
  C1  .MM                              : Caliper, diameter 1
  C2  .MM                              : Caliper, diameter 2
  CILA.MMHO                            : Conduct. by sonde 7I1.6,active signal
~Parameter information block                                                  
# MNEM.UNIT                     VALUE       DESCRIPTION                       
# ====.================================:====================                  
  BS  .MM                          .00 : Bit Size                             
  DFD .G/C3                        .00 : Drilling Fluid Density               
  DFV .S                           .00 : Drilling Fluid Viscosity             
  RMS .OHMM                        .00 : Mud Sample Resistivity               
~Other information                                                            
# ------------------- REMARKS AREA ------------------------                   
# ==========================================================                  
~ASCII Log Data                                                               
# ...
    192.20        3.170        2.039      478.300        6.347        1.369        6.266        5.138      244.051      224.851      228.120      221.582      207.993
    192.40        3.048        1.954      478.300        6.347        1.360        6.134        4.876      244.227      224.176      228.120      220.233      189.312
    192.60        2.716        1.953      471.700        6.272        1.349        5.970        4.803      244.844      224.176      226.835      221.518      200.081
    192.80        2.667        2.039      438.300        6.216        1.417        5.761        4.730      245.461      222.153      227.477      216.829      207.510
    193.00        2.547        2.001      431.700        6.085        1.337        5.574        4.803      245.814      222.827      226.192      219.463      216.829
    193.20        2.594        1.956      435.000        6.179        1.317        5.398        4.792      245.726      220.804      224.907      216.701      207.466
    193.40        2.089        2.037      451.700        6.384        1.414        5.223        5.033      246.255      223.502      226.192      220.812      231.466
    193.60        2.897        1.946      451.700        6.067        1.324        5.179        5.285      246.343      220.804      227.477      214.131      230.631
    193.80        3.097        2.027      451.700        6.048        1.269        5.234        5.368      245.990      222.153      225.550      218.756      235.774
    194.00        2.793        1.954      461.700        6.253        1.389        5.157        5.253      245.990      221.479      224.907      218.050      194.543
    194.20        2.999        1.987      455.000        6.851        1.342        5.168        5.211      246.167      220.804      226.835      214.774      186.191
    194.40        2.831        1.993      445.000        6.515        1.235        5.091        5.096      245.638      224.851      224.907      224.794      197.883
    194.60        2.472        1.997      478.300        6.253        1.358        5.014        5.012      245.550      222.153      225.550      218.756      203.246
    194.80        2.958        1.956      525.000        6.309        1.310        4.959        5.096      244.580      222.153      226.192      218.114      208.829
    195.00        3.027        1.948      511.700        6.067        1.233        4.970        5.128      244.756      222.827      228.120      217.535      220.345
    195.20        2.624        2.005      441.700        6.011        1.231        4.915        5.054      245.197      223.502      225.550      221.454      208.960
    195.40        2.547        2.018      405.000        6.328        1.335        4.751        5.023      245.726      221.479      224.907      218.050      198.323
    195.60        2.864        1.977      398.300        5.861        1.340        4.762        5.169      246.431      220.804      226.192      215.416      220.038
    195.80        3.170        2.001      388.300        5.824        1.362        4.795        5.211      246.784      218.106      225.550      210.663      224.433
    196.00        2.761        2.012      395.000        6.141        1.362        4.893        5.190      246.872      223.502      226.192      220.812      200.916
    196.20        2.761        1.984      395.000        6.496        1.387        4.827        5.075      246.696      222.827      228.120      217.535      194.147
    196.40        2.761        1.936      401.700        6.085        1.315        4.838        5.044      247.136      220.804      229.404      212.204      216.213
    196.60        2.838        1.994      481.700        6.197        1.367        4.937        4.981      246.695      223.502      228.762      218.242      200.916
    196.80        2.366        2.003      501.700        6.141        1.367        4.806        4.876      246.167      222.827      224.265      221.390      195.466
    197.00        2.234        2.009      511.700        6.179        1.340        4.630        4.939      245.285      219.455      226.835      212.076      218.147
    197.20        2.716        2.028      525.000        5.955        1.337        4.542        5.086      245.197      223.502      226.192      220.812      228.170
    197.40        2.944        1.980      475.000        5.992        1.328        4.674        5.065      244.580      220.130      227.477      212.782      217.488
    197.60        2.495        2.018      408.300        5.749        1.337        4.707        5.033      245.109      222.827      226.835      218.820      200.960
    197.80        2.489        1.968      391.700        5.488        1.392        4.531        5.054      245.461      222.153      222.980      221.326      202.587
    198.00        2.917        1.955      445.000        5.675        1.256        4.630        5.138      246.255      222.153      224.265      220.041      216.609
    198.20        3.214        2.016      481.700        5.320        1.281        4.795        5.117      245.638      224.851      225.550      224.152      208.257
    198.40        3.251        1.947      468.300        5.675        1.283        4.871        5.075      246.167      221.479      224.907      218.050      197.532
    198.60        3.020        2.029      471.700        5.357        1.367        4.893        4.813      246.607      218.106      224.265      211.948      185.224
    198.80        2.655        2.066      471.700        5.656        1.299        4.729        4.604      246.872      220.804      223.622      217.986      187.334
    199.00        2.483        1.987      478.300        5.264        1.299        4.608        4.541      245.990      220.804      227.477      214.131      197.444
    199.20        2.541        2.053      485.000        5.208        1.326        4.641        4.594      245.902      219.455      225.550      213.361      211.026
    199.40        2.438        2.031      511.700        5.189        1.471        4.707        4.625      246.079      220.130      226.192      214.067      198.411
    199.60        1.795        2.105      508.300        5.096        1.446        4.707        4.970      245.285      221.479      224.907      218.050      213.268
    199.80        1.995        2.021      481.700        4.872        1.401        4.696        5.546      245.726      222.827      224.265      221.390      250.983
    200.00        3.597        2.037      495.000        4.872        1.401        4.773        5.861      245.726      219.455      222.338      216.573      264.126
    200.20        3.715        2.068      495.000        5.003        1.380        4.882        5.641      245.550      222.153      221.695      222.611      222.543
    200.40        2.891        2.043      491.700        4.088        1.312        4.795        5.253      245.109      222.153      224.907      219.399      182.059
    200.60        2.999        2.023      481.700        4.013        1.333        4.696        5.044      244.844      221.479      224.265      218.692      184.433
    200.80        3.013        2.063      451.700        4.424        1.351        4.740        4.981      244.580      224.851      225.550      224.152      193.488
    201.00        2.999        2.020      465.000        4.312        1.396        4.696        4.803      244.051      220.804      224.907      216.701      186.938
    201.20        2.897        2.081      468.300        4.200        1.412        4.487        4.510      244.051      225.525      220.410      230.640      182.235
    201.40        2.773        2.109      455.000        3.883        1.432        4.377        4.185      243.875      230.246      220.410      240.083      186.586
    201.60        2.460        2.062      458.300        3.995        1.365        4.245        4.080      243.522      252.503      220.410      284.596      193.707
