~Version information                                                          
  VERS.                            1.20: CWLS LAS  -  VERSION 1.20            
  WRAP.                             NO : One line per depth step              
~Well information                                                             
# MNEM.UNIT         DATA TYPE  INFORMATION                                    
# ====.================================: ===================                  
  STRT.M                       144.000 : First depth in file                  
  STOP.M                       909.000 : Last  depth in file                  
  STEP.M                          .200 : Depth increment                      
  NULL.                       -999.250 : Null  values                         
  WN  .                            WELL: 306
  FN  .                           FIELD: KARATUBE
  DATE.                        LOG DATE: 20.02.2004
~Curve information                                                            
# MNEM.UNIT                   API CODE   CURVE DESCRIPTION                    
# ====.================================:====================                  
  DEPT.M                               : Depth curve                          
  LL3 .OHMM                            : Appar.resist.laterolog,3 electrodes
  RHOB.G/C3                            : Bulk density by gamma-gamma log    
  DTP .US/M                            : Interval travel time (P-wave)
  GR  .UR/H                            : Gamma-ray log
  NGLD.UE                              : Neutron-gamma log
  GZ3 .OHMM                            : App.resistivity by lateral A2.0M0.5N
  GZ3B.OHMM                            : App.resistivity by lateral N0.5M2.0A
  SP  .MV                              : Spontaneous potential  
  CALI.MM                              : Caliper
  C1  .MM                              : Caliper, diameter 1
  C2  .MM                              : Caliper, diameter 2
  CILA.MMHO                            : Conduct. by sonde 7I1.6,active signal
~Parameter information block                                                  
# MNEM.UNIT                     VALUE       DESCRIPTION                       
# ====.================================:====================                  
  BS  .MM                          .00 : Bit Size                             
  DFD .G/C3                        .00 : Drilling Fluid Density               
  DFV .S                           .00 : Drilling Fluid Viscosity             
  RMS .OHMM                        .00 : Mud Sample Resistivity               
~Other information                                                            
# ------------------- REMARKS AREA ------------------------                   
# ==========================================================                  
~ASCII Log Data                                                               
# ...
    701.00        2.382        2.326      301.700        5.731        1.460        5.794        4.646      205.437      234.968      235.187      234.749      211.070
    701.20        2.228        2.230      285.000        5.973        1.564        5.453        4.279      206.318      235.642      235.829      235.455      220.081
    701.40        1.816        1.897      335.000        6.179        1.621        4.542        3.494      206.758      245.759      244.823      246.694      171.070
    701.60        1.722        1.810      428.300        5.749        1.587        3.488        2.730      206.935      289.598      303.929      275.267      236.126
    701.80        1.449        1.641      451.700        5.955        1.541        2.961        2.646      205.701      344.903      392.587      297.218      325.754
    702.00        1.742        2.022      411.700        6.030        1.566        3.367        3.463      205.613      397.510      454.262      340.757      335.952
    702.20        2.600        2.241      365.000        5.973        1.593        4.827        4.510      207.023      325.344      354.682      296.005      344.919
    702.40        2.270        2.219      365.000        7.224        1.548        5.948        5.086      206.759      261.946      272.449      251.442      215.378
    702.60        1.897        2.096      358.300        6.403        1.584        5.475        4.698      206.406      238.340      237.756      238.923      202.059
    702.80        2.183        2.032      328.300        5.675        1.616        4.948        4.604      205.348      249.131      249.963      248.299      207.774
    703.00        2.917        2.259      301.700        5.749        1.630        4.762        4.363      203.321      278.132      307.784      248.481      254.060
    703.20        2.291        1.761      305.000        6.104        1.698        4.542        4.080      202.704      255.201      264.097      246.305      238.148
    703.40        2.291        1.959      331.700        7.056        1.732        4.158        3.934      201.822      303.087      355.325      250.849      185.663
    703.60        1.995        2.078      375.000        6.757        1.614        4.224        3.965      203.409      328.716      416.358      241.074      263.731
    703.80        1.972        2.223      348.300        6.179        1.578        4.377        4.353      203.850      265.992      298.147      233.838      223.686
    704.00        2.624        2.326      288.300        6.795        1.648        4.597        4.635      203.585      263.294      264.097      262.492      242.499
    704.20        2.193        2.013      338.300        7.168        1.593        4.476        4.238      204.203      257.899      271.164      244.634      223.510
    704.40        1.625        1.553      401.700        7.373        1.559        3.707        3.410      203.321      255.875      255.745      256.006      187.378
    704.60        1.603        1.734      378.300        7.523        1.621        2.950        2.751      203.585      303.761      333.482      274.041      292.039
    704.80        1.714        1.878      351.700        6.851        1.555        3.049        2.950      203.762      348.275      429.207      267.343      274.016
    705.00        1.862        1.870      388.300        6.608        1.628        3.224        3.065      204.115      355.694      419.570      291.818      316.874
    705.20        1.754        1.966      415.000        6.496        1.618        3.510        3.546      203.762      297.691      344.403      250.979      262.104
    705.40        1.977        2.115      405.000        6.795        1.591        3.554        3.630      203.233      344.903      400.297      289.509      305.314
    705.60        2.032        2.192      361.700        6.683        1.671        4.136        4.447      203.585      288.249      331.554      244.944      250.807
    705.80        2.449        2.420      298.300        6.664        1.675        4.509        4.939      202.704      290.272      337.979      242.566      236.917
    706.00        2.377        2.426      311.700        6.235        1.691        4.740        4.845      202.880      245.759      248.036      243.482      202.675
    706.20        2.080        2.173      351.700        5.712        1.553        4.355        4.510      202.968      236.991      246.751      227.231      201.576
    706.40        2.312        2.250      338.300        5.675        1.612        4.421        4.740      202.704      261.271      278.873      243.669      215.642
    706.60        2.291        2.420      291.700        6.309        1.618        4.816        5.169      202.880      246.433      257.030      235.837      257.225
    706.80        2.188        2.404      278.300        5.899        1.695        4.685        4.929      204.291      239.014      244.823      233.205      224.169
    707.00        1.901        1.990      338.300        5.656        1.630        3.894        4.175      203.585      245.759      251.248      240.270      202.719
    707.20        1.603        1.624      408.300        6.645        1.464        2.961        3.473      203.057      300.389      342.476      258.302      230.807
    707.40        1.841        1.891      455.000        6.701        1.528        2.763        3.672      202.616      369.183      447.838      290.528      232.565
    707.60        2.291        1.960      465.000        6.122        1.457        2.972        3.902      201.822      357.717      461.329      254.105      295.995
    707.80        1.991        1.640      471.700        5.656        1.575        3.125        3.850      201.381      305.785      363.034      248.535      275.951
    708.00        2.198        1.827      461.700        5.712        1.750        3.169        3.620      200.940      333.437      403.509      263.365      239.818
    708.20        2.056        1.728      375.000        6.309        1.512        3.455        3.442      201.205      340.182      422.140      258.223      226.851
    708.40        1.596        1.705      331.700        6.179        1.482        3.400        3.306      201.381      321.971      394.514      249.429      236.829
    708.60        1.778        1.720      398.300        5.880        1.602        3.103        3.431      201.558      350.973      408.006      293.940      265.005
    708.80        1.954        2.003      361.700        6.421        1.580        3.466        3.902      201.293      328.042      379.738      276.345      324.479
    709.00        2.213        1.965      335.000        6.011        1.580        3.828        4.143      200.676      334.786      402.866      266.706      289.533
    709.20        2.249        2.073      331.700        6.011        1.655        4.202        4.227      200.323      317.925      384.235      251.614      207.686
    709.40        1.791        1.984      355.000        5.880        1.571        3.927        4.039      201.733      316.576      387.447      245.704      211.774
    709.60        2.080        2.212      325.000        6.048        1.555        3.718        4.217      202.880      330.065      391.945      268.185      231.950
    709.80        2.523        2.262      305.000        5.600        1.641        3.971        4.594      202.968      328.716      401.581      255.851      266.588
    710.00        2.427        2.395      308.300        5.917        1.602        4.410        4.813      202.351      280.156      310.996      249.316      252.961
    710.20        2.449        2.281      305.000        5.992        1.596        4.311        4.363      202.175      279.481      296.219      262.743      195.422
    710.40        1.718        1.862      391.700        6.160        1.605        3.817        3.515      201.558      293.645      327.057      260.232      199.334
