~Version information                                                          
  VERS.                            1.20: CWLS LAS  -  VERSION 1.20            
  WRAP.                             NO : One line per depth step              
~Well information                                                             
# MNEM.UNIT         DATA TYPE  INFORMATION                                    
# ====.================================: ===================                  
  STRT.M                       144.000 : First depth in file                  
  STOP.M                       909.000 : Last  depth in file                  
  STEP.M                          .200 : Depth increment                      
  NULL.                       -999.250 : Null  values                         
  WN  .                            WELL: 306
  FN  .                           FIELD: KARATUBE
  DATE.                        LOG DATE: 20.02.2004
~Curve information                                                            
# MNEM.UNIT                   API CODE   CURVE DESCRIPTION                    
# ====.================================:====================                  
  DEPT.M                               : Depth curve                          
  LL3 .OHMM                            : Appar.resist.laterolog,3 electrodes
  RHOB.G/C3                            : Bulk density by gamma-gamma log    
  DTP .US/M                            : Interval travel time (P-wave)
  GR  .UR/H                            : Gamma-ray log
  NGLD.UE                              : Neutron-gamma log
  GZ3 .OHMM                            : App.resistivity by lateral A2.0M0.5N
  GZ3B.OHMM                            : App.resistivity by lateral N0.5M2.0A
  SP  .MV                              : Spontaneous potential  
  CALI.MM                              : Caliper
  C1  .MM                              : Caliper, diameter 1
  C2  .MM                              : Caliper, diameter 2
  CILA.MMHO                            : Conduct. by sonde 7I1.6,active signal
~Parameter information block                                                  
# MNEM.UNIT                     VALUE       DESCRIPTION                       
# ====.================================:====================                  
  BS  .MM                          .00 : Bit Size                             
  DFD .G/C3                        .00 : Drilling Fluid Density               
  DFV .S                           .00 : Drilling Fluid Viscosity             
  RMS .OHMM                        .00 : Mud Sample Resistivity               
~Other information                                                            
# ------------------- REMARKS AREA ------------------------                   
# ==========================================================                  
~ASCII Log Data                                                               
# ...
    547.40        1.330        2.161      391.700        9.987        1.421        2.159        2.929      223.774      226.874      224.265      229.484      287.116
    547.60        1.377        2.130      388.300        9.837        1.421        2.148        2.939      224.127      225.525      224.265      226.786      277.665
    547.80        1.273        2.194      391.700        9.501        1.428        2.126        2.908      223.157      226.874      226.835      226.914      275.819
    548.00        1.030        2.012      405.000       10.061        1.367        2.060        2.981      222.804      224.851      224.265      225.437      284.434
    548.20        1.145        2.112      415.000        9.315        1.324        2.038        3.159      220.952      222.827      224.907      220.748      325.006
    548.40        1.455        2.184      431.700        8.811        1.315        1.994        3.347      219.190      227.549      222.980      232.117      315.731
    548.60        1.687        2.112      448.300        9.259        1.380        2.148        3.442      216.721      232.270      226.835      237.705      292.346
    548.80        1.807        2.129      471.700       10.938        1.308        2.324        3.431      215.487      239.689      226.192      253.185      266.588
    549.00        1.641        1.988      505.000       11.405        1.369        2.434        3.368      215.663      236.991      227.477      246.505      274.500
    549.20        1.726        1.999      448.300       10.939        1.460        2.543        3.358      214.252      230.921      228.120      233.722      263.511
    549.40        1.589        2.265      385.000        9.128        1.414        2.708        3.368      214.958      233.619      239.041      228.196      272.654
    549.60        1.306        2.180      345.000       10.061        1.369        2.686        3.274      218.748      228.898      232.617      225.178      278.764
    549.80        1.321        2.179      308.300        9.781        1.428        2.642        3.253      220.159      223.502      224.907      222.097      285.797
    550.00        1.349        2.174      425.000        9.707        1.335        2.510        3.243      220.336      223.502      223.622      223.381      282.544
    550.20        1.318        2.167      475.000        9.651        1.403        2.510        3.222      220.071      220.130      222.338      217.922      293.577
    550.40        1.358        2.217      468.300        9.520        1.383        2.445        3.285      218.309      220.804      224.265      217.343      282.105
    550.60        1.346        2.209      448.300        9.520        1.419        2.510        3.442      217.514      220.804      223.622      217.986      286.236
    550.80        1.387        2.249      415.000        9.725        1.482        2.598        3.452      216.633      224.176      225.550      222.803      289.401
    551.00        1.387        2.137      425.000        9.819        1.437        2.576        3.526      215.134      221.479      222.338      220.620      290.368
    551.20        1.393        2.173      428.300        9.651        1.457        2.609        3.620      216.104      222.827      225.550      220.105      284.654
    551.40        1.452        2.186      418.300       10.771        1.389        2.642        3.882      214.694      222.827      225.550      220.105      285.929
    551.60        1.845        2.382      365.000       10.939        1.453        2.719        4.080      213.635      223.502      226.835      220.169      293.270
    551.80        2.143        2.480      355.000        9.856        1.446        2.829        4.070      213.283      225.525      226.192      224.858      279.072
    552.00        1.644        2.244      411.700        8.475        1.428        2.895        3.986      213.900      225.525      224.907      226.143      273.269
    552.20        1.663        2.250      431.700        9.035        1.324        2.851        3.902      213.282      220.130      226.192      214.067      250.412
    552.40        1.552        2.182      428.300       10.603        1.326        2.818        3.934      213.370      222.153      227.477      216.829      275.731
    552.60        1.567        2.091      418.300       10.416        1.281        2.818        3.986      214.605      223.502      231.332      215.672      261.928
    552.80        1.679        2.106      408.300       11.013        1.398        2.829        3.997      215.046      224.176      227.477      220.876      257.752
    553.00        1.563        2.070      408.300       11.237        1.394        2.917        4.112      215.311      222.827      224.265      221.390      273.841
    553.20        1.679        1.907      455.000       11.144        1.324        2.939        4.060      214.693      223.502      225.550      221.454      263.159
    553.40        2.042        1.861      505.000        9.762        1.306        2.829        3.766      214.252      221.479      224.265      218.692      282.324
    553.60        1.648        1.746      488.300        8.811        1.208        2.994        3.724      213.459      227.549      228.762      226.335      237.620
    553.80        2.301        1.718      471.700        8.438        1.176        3.005        3.588      213.547      241.038      244.823      237.252      273.181
    554.00        2.014        1.889      455.000        7.224        1.253        3.246        3.421      213.724      230.246      233.259      227.234      255.203
    554.20        2.065        2.023      425.000        7.392        1.306        3.202        3.232      213.812      239.014      246.108      231.920      243.115
    554.40        1.871        2.145      398.300        8.643        1.335        3.455        3.243      214.429      237.665      234.544      240.787      258.763
    554.60        1.675        2.152      408.300       10.136        1.321        3.543        3.253      213.636      223.502      226.835      220.169      251.027
    554.80        1.614        2.160      415.000       10.267        1.351        3.521        3.222      214.253      220.130      224.907      215.352      249.576
    555.00        1.589        2.152      385.000        9.949        1.460        3.532        3.316      217.162      222.827      222.338      223.317      260.170
    555.20        1.622        2.215      385.000       10.099        1.451        3.499        3.316      217.250      222.153      226.192      218.114      258.192
    555.40        1.507        2.141      375.000        9.949        1.462        3.477        3.295      218.308      223.502      222.980      224.024      256.082
    555.60        1.531        2.163      398.300        9.893        1.405        3.466        3.285      219.102      220.130      224.265      215.995      255.423
    555.80        1.469        2.153      381.700       10.603        1.378        3.543        3.222      219.895      220.130      224.907      215.352      258.324
    556.00        1.409        2.182      395.000       10.285        1.380        3.367        3.253      220.336      219.455      222.980      215.931      264.610
    556.20        1.507        2.168      411.700        9.931        1.362        3.312        3.190      220.247      219.455      222.980      215.931      284.566
    556.40        1.641        2.212      415.000       10.024        1.421        3.147        3.086      220.247      225.525      228.762      222.289      268.654
    556.60        1.482        2.151      415.000        9.781        1.385        3.092        3.044      220.688      234.293      233.902      234.685      272.214
    556.80        1.542        2.156      408.300        9.613        1.421        2.983        2.855      220.512      235.642      236.471      234.813      277.137
