~Version information                                                          
  VERS.                            1.20: CWLS LAS  -  VERSION 1.20            
  WRAP.                             NO : One line per depth step              
~Well information                                                             
# MNEM.UNIT         DATA TYPE  INFORMATION                                    
# ====.================================: ===================                  
  STRT.M                       144.000 : First depth in file                  
  STOP.M                       909.000 : Last  depth in file                  
  STEP.M                          .200 : Depth increment                      
  NULL.                       -999.250 : Null  values                         
  WN  .                            WELL: 306
  FN  .                           FIELD: KARATUBE
  DATE.                        LOG DATE: 20.02.2004
~Curve information                                                            
# MNEM.UNIT                   API CODE   CURVE DESCRIPTION                    
# ====.================================:====================                  
  DEPT.M                               : Depth curve                          
  LL3 .OHMM                            : Appar.resist.laterolog,3 electrodes
  RHOB.G/C3                            : Bulk density by gamma-gamma log    
  DTP .US/M                            : Interval travel time (P-wave)
  GR  .UR/H                            : Gamma-ray log
  NGLD.UE                              : Neutron-gamma log
  GZ3 .OHMM                            : App.resistivity by lateral A2.0M0.5N
  GZ3B.OHMM                            : App.resistivity by lateral N0.5M2.0A
  SP  .MV                              : Spontaneous potential  
  CALI.MM                              : Caliper
  C1  .MM                              : Caliper, diameter 1
  C2  .MM                              : Caliper, diameter 2
  CILA.MMHO                            : Conduct. by sonde 7I1.6,active signal
~Parameter information block                                                  
# MNEM.UNIT                     VALUE       DESCRIPTION                       
# ====.================================:====================                  
  BS  .MM                          .00 : Bit Size                             
  DFD .G/C3                        .00 : Drilling Fluid Density               
  DFV .S                           .00 : Drilling Fluid Viscosity             
  RMS .OHMM                        .00 : Mud Sample Resistivity               
~Other information                                                            
# ------------------- REMARKS AREA ------------------------                   
# ==========================================================                  
~ASCII Log Data                                                               
# ...
    249.80        1.429        2.135      498.300        8.923        1.260        2.445        5.442      183.485      255.875      285.298      226.453      292.830
    250.00        1.563        2.062      505.000        8.923        1.213        2.467        5.861      183.309      258.573      283.370      233.776      292.874
    250.20        1.574        2.029      498.300        9.184        1.235        2.467        6.332      184.807      258.573      279.516      237.631      287.555
    250.40        1.726        2.130      465.000        9.315        1.217        2.401        6.646      186.659      261.271      282.085      240.457      283.687
    250.60        2.018        2.062      451.700        9.165        1.222        2.357        6.740      189.921      251.154      284.655      217.653      260.390
    250.80        2.518        2.133      455.000        9.277        1.274        2.346        6.520      192.653      255.875      285.940      225.811      239.379
    251.00        2.483        2.017      461.700        9.875        1.317        2.379        6.353      195.651      258.573      290.437      226.709      216.785
    251.20        2.443        2.189      475.000        9.837        1.278        2.445        6.258      197.150      261.271      300.717      221.826      203.158
    251.40        2.489        2.165      471.700        9.763        1.287        2.499        6.321      196.621      268.690      287.225      250.155      209.532
    251.60        2.729        2.233      461.700       10.099        1.326        2.719        6.436      196.268      268.016      282.085      253.946      212.873
    251.80        2.938        2.177      445.000       10.061        1.358        2.884        6.594      196.973      259.248      285.298      233.198      209.400
    252.00        2.871        2.138      441.700        9.333        1.346        3.169        6.667      197.150      258.573      288.510      228.637      194.455
    252.20        2.944        2.153      441.700       10.248        1.283        3.378        6.478      197.238      257.899      291.722      224.075      186.455
    252.40        2.965        2.218      445.000       10.005        1.312        3.543        6.374      198.208      255.201      288.510      221.892      185.707
    252.60        3.296        2.205      405.000       10.173        1.335        3.839        6.237      199.353      257.224      290.437      224.011      183.597
    252.80        2.831        2.200      421.700       10.267        1.330        4.234        6.196      201.205      256.550      290.437      222.663      169.136
    253.00        2.178        2.327      438.300       10.341        1.396        4.465        6.258      204.732      258.573      287.868      229.279      168.784
    253.20        2.366        2.188      428.300        9.725        1.417        4.498        6.447      207.200      253.852      280.158      227.546      181.971
    253.40        3.266        2.220      418.300        8.736        1.403        4.542        6.698      208.610      253.178      279.516      226.840      192.872
    253.60        3.524        2.211      395.000        8.064        1.414        4.849        6.866      209.316      252.503      280.801      224.206      172.476
    253.80        2.884        2.201      385.000        8.288        1.432        4.981        6.887      210.374      249.805      279.516      220.095      153.443
    254.00        2.904        2.196      405.000        8.400        1.414        5.069        7.012      211.343      248.457      278.873      218.040      167.817
    254.20        3.532        2.213      405.000        8.512        1.344        5.223        7.107      210.726      251.154      276.946      225.363      173.707
    254.40        2.999        2.350      351.700        8.176        1.476        5.530        7.567      211.167      249.131      276.303      221.959      172.300
    254.60        4.102        2.445      345.000        7.989        1.587        5.937        7.630      211.167      249.805      274.376      225.235      169.619
    254.80        2.944        2.214      388.300        7.224        1.453        6.024        7.358      210.286      249.805      276.946      222.665      161.399
    255.00        2.710        2.174      391.700        7.635        1.405        5.640        6.918      209.580      249.805      278.873      220.738      168.960
    255.20        2.805        2.187      375.000        8.325        1.432        5.420        6.845      209.580      244.410      280.801      208.019      178.718
    255.40        2.506        2.257      375.000        8.325        1.398        5.256        6.876      208.787      251.154      280.801      221.508      193.400
    255.60        2.443        2.207      391.700        7.635        1.389        5.080        7.033      209.140      248.457      281.443      215.470      198.806
    255.80        3.119        2.245      415.000        7.317        1.473        5.047        7.190      209.492      249.131      284.013      214.249      202.587
    256.00        3.750        2.289      418.300        8.027        1.419        5.091        7.033      209.228      252.503      287.225      217.781      198.235
    256.20        3.990        2.199      435.000        9.184        1.306        5.245        6.824      208.170      256.550      289.152      223.947      180.872
    256.40        3.597        2.228      431.700        9.408        1.244        5.486        6.541      207.729      255.201      294.292      216.110      185.444
    256.60        3.589        2.287      431.700        9.184        1.303        5.662        6.405      206.142      260.597      295.577      225.616      183.158
    256.80        3.767        2.236      468.300        9.371        1.278        5.827        6.290      204.908      258.573      296.219      220.927      181.839
    257.00        3.069        2.195      515.000        9.035        1.247        6.002        6.217      203.938      256.550      292.365      220.735      178.454
    257.20        2.931        2.281      435.000        8.549        1.319        6.035        6.332      202.527      257.899      289.795      226.003      190.455
    257.40        4.121        2.355      438.300        8.045        1.439        6.266        6.583      201.117      253.852      284.655      223.049      195.685
    257.60        4.721        2.242      431.700        8.045        1.394        6.650        6.614      199.706      257.224      289.795      224.654      198.323
    257.80        4.446        2.262      381.700        8.027        1.333        6.815        6.290      198.825      253.852      289.795      217.909      175.993
    258.00        4.571        2.397      365.000        7.691        1.351        6.826        5.861      198.736      256.550      287.225      225.875      168.300
    258.20        4.710        2.339      361.700        7.224        1.376        6.947        5.368      199.001      266.667      287.868      245.466      179.202
    258.40        3.855        2.280      365.000        6.328        1.369        7.123        5.096      200.147      260.597      287.868      233.326      180.564
    258.60        2.500        2.288      368.300        6.795        1.344        7.090        4.939      200.147      265.992      292.365      239.620      177.883
    258.80        2.153        2.190      305.000        7.896        1.349        6.793        5.033      200.147      256.550      290.437      222.663      200.169
    259.00        2.432        2.255      355.000        7.933        1.346        6.387        5.107      201.029      254.527      289.152      219.901      213.312
    259.20        2.931        2.248      398.300        7.896        1.378        6.277        5.044      201.646      249.805      284.013      215.598      213.136
