~Version information                                                          
  VERS.                            1.20: CWLS LAS  -  VERSION 1.20            
  WRAP.                             NO : One line per depth step              
~Well information                                                             
# MNEM.UNIT         DATA TYPE  INFORMATION                                    
# ====.================================: ===================                  
  STRT.M                       144.000 : First depth in file                  
  STOP.M                       909.000 : Last  depth in file                  
  STEP.M                          .200 : Depth increment                      
  NULL.                       -999.250 : Null  values                         
  WN  .                            WELL: 306
  FN  .                           FIELD: KARATUBE
  DATE.                        LOG DATE: 20.02.2004
~Curve information                                                            
# MNEM.UNIT                   API CODE   CURVE DESCRIPTION                    
# ====.================================:====================                  
  DEPT.M                               : Depth curve                          
  LL3 .OHMM                            : Appar.resist.laterolog,3 electrodes
  RHOB.G/C3                            : Bulk density by gamma-gamma log    
  DTP .US/M                            : Interval travel time (P-wave)
  GR  .UR/H                            : Gamma-ray log
  NGLD.UE                              : Neutron-gamma log
  GZ3 .OHMM                            : App.resistivity by lateral A2.0M0.5N
  GZ3B.OHMM                            : App.resistivity by lateral N0.5M2.0A
  SP  .MV                              : Spontaneous potential  
  CALI.MM                              : Caliper
  C1  .MM                              : Caliper, diameter 1
  C2  .MM                              : Caliper, diameter 2
  CILA.MMHO                            : Conduct. by sonde 7I1.6,active signal
~Parameter information block                                                  
# MNEM.UNIT                     VALUE       DESCRIPTION                       
# ====.================================:====================                  
  BS  .MM                          .00 : Bit Size                             
  DFD .G/C3                        .00 : Drilling Fluid Density               
  DFV .S                           .00 : Drilling Fluid Viscosity             
  RMS .OHMM                        .00 : Mud Sample Resistivity               
~Other information                                                            
# ------------------- REMARKS AREA ------------------------                   
# ==========================================================                  
~ASCII Log Data                                                               
    144.00         .137    -999.250      388.300        4.629         .882        -.048         .143      233.031      224.851      227.477      222.225     -129.375
    144.20         .120    -999.250      401.700        4.909         .786        -.048        2.677      231.532      225.525      228.762      222.289      299.599
    144.40         .158    -999.250      415.000        4.984         .868         .018        9.473      230.298      237.665      240.969      234.362      -23.087
    144.60        1.361    -999.250      455.000        5.693         .975        -.004       15.525      227.653      227.056      227.576      226.536      -34.648
    144.80        4.315    -999.250      425.000        7.541        1.142        -.026       17.232      225.802      227.419      227.773      227.064       91.112
    145.00        6.653    -999.250      395.000        8.885        1.165        -.037       15.515      225.184      227.782      227.971      227.593     -208.849
    145.20        8.511    -999.250      381.700        8.288        1.054        -.026       14.007      224.303      228.145      228.169      228.122      552.307
    145.40        4.149    -999.250      378.300        8.531        1.106        -.026       12.991      223.422      228.508      228.367      228.650      286.280
    145.60        4.550    -999.250      508.300        8.531        1.088        -.037       12.426      223.069      228.872      228.564      229.179      193.883
    145.80        5.140    -999.250      598.300        8.195        1.156         .018       11.892      222.011      229.235      228.762      229.707      100.959
    146.00        4.560    -999.250      568.300        8.101        1.174        -.026       11.305      221.394      229.598      228.960      230.236      209.180
    146.20        3.846    -999.250      538.300        8.232        1.167        -.070       10.719      221.306      229.961      229.157      230.765      198.191
    146.40        3.564    -999.250      498.300        7.915        1.163        -.048       10.175      221.746      230.324      229.355      231.293      198.279
    146.60        3.681    -999.250      485.000        7.821        1.151        -.026        9.819      221.129      230.687      229.553      231.822      199.378
    146.80        3.622    -999.250      468.300        8.008        1.170         .775        9.808      219.630      231.051      229.750      232.351      145.882
    147.00        4.227    -999.250      451.700        8.493        1.253        2.115        9.913      219.013      231.414      229.948      232.879      201.268
    147.20        5.285    -999.250      448.300        8.381        1.197        3.301       10.164      218.573      232.270      235.187      229.353      210.499
    147.40        4.477    -999.250      488.300        7.355        1.167        4.202       10.101      217.956      235.642      244.181      227.103      191.114
    147.60        4.055    -999.250      491.700        7.317        1.204        4.795        9.902      217.603      226.874      237.114      216.634      159.949
    147.80        4.667    -999.250      488.300        7.037        1.154        5.113        9.829      217.691      230.921      235.829      226.013      182.191
    148.00        5.082    -999.250      478.300        6.981        1.194        5.530        9.724      217.250      235.642      247.393      223.891      176.608
    148.20        4.624    -999.250      461.700        7.336        1.176        5.794        9.494      217.074      230.921      248.036      213.806      164.696
    148.40        4.909    -999.250      468.300        7.896        1.210        5.970        9.138      218.572      233.619      240.326      226.911      156.432
    148.60        4.710    -999.250      485.000        7.131        1.204        6.178        9.127      219.983      228.223      235.829      220.617      109.135
    148.80        4.753    -999.250      505.000        6.291        1.208        6.321        9.127      223.510      229.572      238.399      220.745      157.883
    149.00        4.797    -999.250      508.300        6.963        1.222        6.497        8.887      226.330      230.921      238.399      223.443      156.476
    149.20        4.198    -999.250      515.000        7.299        1.244        6.376        8.415      227.917      230.246      238.399      222.094      154.542
    149.40        5.754    -999.250      521.700        7.392        1.233        6.222        7.965      229.945      234.293      240.326      228.260      134.630
    149.60        6.040    -999.250      511.700        7.317        1.179        6.310        7.651      230.739      252.503      262.812      242.195      110.365
    149.80        6.040    -999.250      511.700        7.597        1.224        6.475        7.232      231.180      245.084      257.672      232.496     -126.782
    150.00        5.794    -999.250      508.300        7.616        1.244        6.628        6.876      231.356      239.689      245.466      233.912      -81.286
    150.20        5.610    -999.250      508.300        7.093        1.326        6.936        6.834      231.620      232.270      240.969      223.571      -20.054
    150.40        4.909    -999.250      505.000        7.373        1.317        7.309        6.698      231.444      230.921      241.611      220.231       28.957
    150.60        3.281    -999.250      505.000        7.336        1.303        7.232        6.761      232.149      232.270      239.041      225.498      -31.307
    150.80        3.428    -999.250      511.700        7.541        1.256        7.232        7.379      230.827      226.874      231.332      222.417       33.529
    151.00        4.966    -999.250      521.700        7.635        1.136        7.716        8.363      229.857      229.572      237.756      221.388       34.979
    151.20        5.297    -999.250      518.300        8.736        1.165        8.341        8.792      229.064      229.572      239.041      220.103      -15.175
    151.40        4.688    -999.250      511.700        9.053        1.335        8.418        8.436      229.769      226.874      238.399      215.350        6.188
    151.60        4.508    -999.250      505.000        8.512        1.337        7.661        7.693      232.325      228.223      238.399      218.047      -32.890
    151.80        4.246    -999.250      508.300        7.299        1.296        7.144        7.641      234.970      226.874      233.902      219.847       -3.790
    152.00        5.248    -999.250      518.300        7.299        1.285        7.254        7.902      234.353      227.549      235.187      219.911      -36.846
    152.20        4.188    -999.250      528.300        8.493        1.344        7.452        8.185      235.058      230.246      240.326      220.167       16.869
    152.40        4.169    -999.250      468.300        8.493        1.367        7.046        8.248      238.056      232.270      238.399      226.141        7.111
    152.60        5.260    -999.250      448.300        7.784        1.346        7.024        8.667      239.555      225.525      237.114      213.937         .737
    152.80        5.309    -999.250      435.000        8.232        1.330        7.221        9.033      237.527      226.200      237.114      215.286       15.770
    153.00        4.864    -999.250      425.000        8.979        1.299        7.068        9.044      235.323      230.246      241.611      218.882        6.803
    153.20        4.688    -999.250      468.300        8.680        1.278        6.782        8.635      235.499      234.293      244.181      224.405      -30.296
    153.40        4.375    -999.250      501.700        8.008        1.283        6.716        8.887      237.968      228.898      237.114      220.681       12.649
    153.60        4.560    -999.250      505.000        7.653        1.258        6.892        9.316      240.348      227.549      231.974      223.123       -2.823
