~Version information                                                          
  VERS.                            1.20: CWLS LAS  -  VERSION 1.20            
  WRAP.                             NO : One line per depth step              
~Well information                                                             
# MNEM.UNIT         DATA TYPE  INFORMATION                                    
# ====.================================: ===================                  
  STRT.M                       144.000 : First depth in file                  
  STOP.M                       909.000 : Last  depth in file                  
  STEP.M                          .200 : Depth increment                      
  NULL.                       -999.250 : Null  values                         
  WN  .                            WELL: 306
  FN  .                           FIELD: KARATUBE
  DATE.                        LOG DATE: 20.02.2004
~Curve information                                                            
# MNEM.UNIT                   API CODE   CURVE DESCRIPTION                    
# ====.================================:====================                  
  DEPT.M                               : Depth curve                          
  LL3 .OHMM                            : Appar.resist.laterolog,3 electrodes
  RHOB.G/C3                            : Bulk density by gamma-gamma log    
  DTP .US/M                            : Interval travel time (P-wave)
  GR  .UR/H                            : Gamma-ray log
  NGLD.UE                              : Neutron-gamma log
  GZ3 .OHMM                            : App.resistivity by lateral A2.0M0.5N
  GZ3B.OHMM                            : App.resistivity by lateral N0.5M2.0A
  SP  .MV                              : Spontaneous potential  
  CALI.MM                              : Caliper
  C1  .MM                              : Caliper, diameter 1
  C2  .MM                              : Caliper, diameter 2
  CILA.MMHO                            : Conduct. by sonde 7I1.6,active signal
~Parameter information block                                                  
# MNEM.UNIT                     VALUE       DESCRIPTION                       
# ====.================================:====================                  
  BS  .MM                          .00 : Bit Size                             
  DFD .G/C3                        .00 : Drilling Fluid Density               
  DFV .S                           .00 : Drilling Fluid Viscosity             
  RMS .OHMM                        .00 : Mud Sample Resistivity               
~Other information                                                            
# ------------------- REMARKS AREA ------------------------                   
# ==========================================================                  
~ASCII Log Data                                                               
# ...
    749.00        5.297        2.528      271.700        3.584        2.230        6.420        6.897      200.500      297.017      327.057      266.977      115.816
    749.20        6.067        2.658      268.300        3.677        2.301        6.617        6.604      200.500      295.668      325.130      266.206      146.806
    749.40        7.031        2.585      331.700        3.491        2.316        6.870        6.332      200.940      293.645      324.487      262.802      168.652
    749.60        7.080        2.530      331.700        3.360        2.310        7.232        5.923      200.500      299.715      325.772      273.657      151.509
    749.80        5.916        2.503      248.300        3.211        2.210        7.485        5.316      201.469      301.738      324.487      278.989      167.773
    750.00        3.819        1.838      205.000        2.912        2.022        7.265        4.751      201.999      303.087      328.342      277.832      121.662
    750.20        2.985        1.846      241.700        3.920        1.788        6.727        4.238      201.381      317.925      359.180      276.670      218.279
    750.40        2.506        2.006      311.700        4.928        1.784        6.464        4.154      201.293      328.716      385.520      271.912      172.564
    750.60        2.618        2.137      331.700        4.629        1.838        6.431        4.290      200.411      344.228      388.090      300.367      226.104
    750.80        2.529        2.195      311.700        4.723        1.893        6.552        4.604      200.676      357.717      420.212      295.222      222.235
    751.00        2.851        2.426      295.000        4.592        1.886        6.562        4.950      200.764      342.879      398.369      287.390      195.949
    751.20        3.055        2.474      285.000        4.163        1.872        6.661        5.201      201.205      316.576      352.113      281.039      195.378
    751.40        3.467        2.464      285.000        4.088        1.918        6.826        5.316      202.087      316.576      355.967      277.184      209.224
    751.60        4.256        2.445      275.000        3.995        2.094        6.859        5.505      202.968      304.436      333.482      275.390      186.147
    751.80        5.610        2.470      245.000        4.125        2.201        7.101        5.400      203.409      314.553      345.688      283.417      200.828
    752.00        4.426        2.443      265.000        3.621        2.131        7.265        5.117      203.497      307.134      328.984      285.283      202.015
    752.20        3.020        2.311      295.000        2.987        2.026        7.002        4.813      203.586      308.482      332.197      284.768      205.576
    752.40        2.710        2.332      301.700        3.547        1.920        6.497        4.635      203.321      332.088      378.453      285.723      231.554
    752.60        2.729        2.380      311.700        4.144        1.847        6.123        4.667      202.351      343.554      395.799      291.308      243.554
    752.80        2.377        2.330      388.300        4.125        1.884        5.464        4.405      202.087      339.507      390.017      288.997      290.105
    753.00        2.213        2.233      371.700        4.107        1.829        4.904        4.196      202.263      352.996      398.369      307.623      299.072
    753.20        2.421        2.319      305.000        3.808        1.884        4.487        4.206      201.910      394.812      487.670      301.954      294.896
    753.40        2.388        2.310      288.300        3.939        1.970        4.553        4.321      202.087      405.603      499.234      311.972      222.323
    753.60        2.404        2.338      291.700        4.088        1.775        4.399        4.080      201.734      373.230      445.268      301.191      220.345
    753.80        2.259        2.183      295.000        4.013        1.811        4.092        3.944      201.029      389.416      459.402      319.431      241.708
    754.00        2.523        2.375      285.000        3.995        1.836        4.158        4.164      202.087      419.092      471.609      366.576      281.357
    754.20        2.648        2.395      268.300        4.219        1.768        4.487        4.384      202.880      430.558      492.809      368.306      227.862
    754.40        2.535        2.297      298.300        4.741        1.736        4.476        4.300      202.792      381.323      461.972      300.674      229.928
    754.60        2.275        2.147      348.300        4.219        1.600        4.300        4.248      202.528      400.882      482.530      319.234      189.092
    754.80        2.685        2.265      358.300        4.349        1.759        4.377        4.531      202.968      398.184      433.061      363.307      267.379
    755.00        3.013        2.453      321.700        4.349        1.827        4.652        4.845      202.792      371.881      418.285      325.476      281.489
    755.20        3.199        2.462      281.700        4.125        1.897        4.806        4.970      201.734      359.741      420.855      298.626      233.356
    755.40        3.296        2.445      271.700        3.509        2.185        4.893        4.918      201.381      364.462      425.995      302.929      199.070
    755.60        3.006        2.380      278.300        3.603        2.117        4.959        4.939      200.852      353.671      408.006      299.335      189.839
    755.80        2.978        2.342      295.000        3.957        2.008        4.948        4.876      200.676      359.066      418.928      299.205      203.114
    756.00        3.048        2.355      298.300        3.733        2.051        4.904        4.740      200.940      359.066      408.648      309.484      230.807
    756.20        2.992        2.464      275.000        3.659        2.017        4.751        4.573      201.646      364.462      422.782      306.141      244.214
    756.40        2.871        2.421      251.700        3.752        2.112        4.685        4.353      201.910      352.322      394.514      310.129      272.654
    756.60        2.716        2.426      245.000        3.323        2.115        4.509        4.143      200.941      377.951      448.480      307.421      253.005
    756.80        2.366        2.353      271.700        3.136        1.995        4.311        3.934      201.029      384.695      464.542      304.849      249.796
    757.00        1.824        2.267      331.700        3.826        1.884        3.927        3.892      201.381      383.346      456.832      309.860      231.466
    757.20        2.270        2.404      345.000        4.461        1.811        3.894        4.133      201.646      414.371      469.039      359.703      267.027
    757.40        2.518        2.238      318.300        4.947        1.813        4.136        4.499      201.381      373.230      422.140      324.319      315.116
    757.60        2.673        2.343      285.000        5.395        1.852        4.355        4.625      201.293      362.438      425.352      299.525      264.698
    757.80        2.761        2.286      281.700        5.301        1.886        4.553        4.688      201.028      363.113      430.492      295.734      236.126
    758.00        2.748        2.255      285.000        5.600        1.850        4.597        4.614      200.676      367.160      440.771      293.548      246.763
    758.20        2.786        2.294      281.700        5.189        1.797        4.652        4.573      200.059      368.508      441.413      295.604      260.829
    758.40        2.582        2.277      295.000        4.349        1.804        4.520        4.416      199.618      373.230      445.268      301.191      263.423
