~Version information                                                          
  VERS.                            1.20: CWLS LAS  -  VERSION 1.20            
  WRAP.                             NO : One line per depth step              
~Well information                                                             
# MNEM.UNIT         DATA TYPE  INFORMATION                                    
# ====.================================: ===================                  
  STRT.M                       144.000 : First depth in file                  
  STOP.M                       909.000 : Last  depth in file                  
  STEP.M                          .200 : Depth increment                      
  NULL.                       -999.250 : Null  values                         
  WN  .                            WELL: 306
  FN  .                           FIELD: KARATUBE
  DATE.                        LOG DATE: 20.02.2004
~Curve information                                                            
# MNEM.UNIT                   API CODE   CURVE DESCRIPTION                    
# ====.================================:====================                  
  DEPT.M                               : Depth curve                          
  LL3 .OHMM                            : Appar.resist.laterolog,3 electrodes
  RHOB.G/C3                            : Bulk density by gamma-gamma log    
  DTP .US/M                            : Interval travel time (P-wave)
  GR  .UR/H                            : Gamma-ray log
  NGLD.UE                              : Neutron-gamma log
  GZ3 .OHMM                            : App.resistivity by lateral A2.0M0.5N
  GZ3B.OHMM                            : App.resistivity by lateral N0.5M2.0A
  SP  .MV                              : Spontaneous potential  
  CALI.MM                              : Caliper
  C1  .MM                              : Caliper, diameter 1
  C2  .MM                              : Caliper, diameter 2
  CILA.MMHO                            : Conduct. by sonde 7I1.6,active signal
~Parameter information block                                                  
# MNEM.UNIT                     VALUE       DESCRIPTION                       
# ====.================================:====================                  
  BS  .MM                          .00 : Bit Size                             
  DFD .G/C3                        .00 : Drilling Fluid Density               
  DFV .S                           .00 : Drilling Fluid Viscosity             
  RMS .OHMM                        .00 : Mud Sample Resistivity               
~Other information                                                            
# ------------------- REMARKS AREA ------------------------                   
# ==========================================================                  
~ASCII Log Data                                                               
# ...
    902.60    99311.660        2.056      225.000        1.251        7.902         .084       81.367      186.041      224.176      225.550      222.803        1.528
    902.80    99083.140        2.053      225.000        1.344        7.881         .029       81.335      184.367      226.874      226.192      227.556        4.473
    903.00    99083.140        2.086      225.000        1.213        7.906         .040       81.398      181.016      226.874      224.265      229.484         .078
    903.20    99311.660        1.981      225.000        1.008        8.033         .018       81.388      179.341      225.525      226.835      224.216        4.034
    903.40    99083.140        2.049      225.000        1.157        8.081         .073       81.388      179.341      227.549      226.835      228.263         .298
    903.60    99311.660        2.098      225.000        1.213        7.906         .029       81.409      177.931      222.827      223.622      222.033        3.199
    903.80    99083.140        2.077      225.000        1.176        7.904         .029       81.419      175.551      226.200      222.980      229.420       -1.549
    904.00    99083.140        2.066      225.000        1.008        7.872         .062       81.398      174.140      223.502      224.265      222.739        2.320
    904.20    99311.660        2.065      225.000        1.083        7.682         .018       81.419      173.082      223.502      221.695      225.309        1.660
    904.40    99083.140        2.113      225.000        1.176        7.874         .018    -999.250      172.200      225.525      224.907      226.143        2.364
    904.60    99311.660        2.079      225.000        1.027        7.788        -.004    -999.250      171.760      224.176      224.907      223.445        -.406
    904.80    99311.660        2.150      225.000        1.307        7.815         .029    -999.250      171.055      224.851      224.907      224.794       -3.571
    905.00    99311.660        2.017      225.000        1.568        7.920        -.037    -999.250      169.820      225.525      224.265      226.786       -2.516
    905.20    99311.660        2.091      225.000        1.381        7.908         .029    -999.250      169.027      224.176      224.907      223.445       -1.373
    905.40    99311.660        2.037      225.000        1.120        7.881         .018    -999.250      168.850      224.851      223.622      226.079       -2.648
    905.60    99083.140        2.115      241.700        1.027        7.970         .018    -999.250      168.850      226.200      224.907      227.492       -4.362
    905.80    99311.660        2.033      241.700        1.120        8.013         .040    -999.250      169.644      224.851      226.192      223.509       -6.428
    906.00    99311.660        2.058      225.000        1.195        7.988        -.059    -999.250      169.115      225.525      223.622      227.428       -5.329
    906.20    99311.660        2.034      225.000        1.232        7.936        -.037    -999.250      170.438      222.153      221.695      222.611       -4.582
    906.40    99083.140        2.061      225.000        1.363        8.015         .029    -999.250      173.258      224.176      221.053      227.300       -4.450
    906.60    99311.660        2.028      225.000        1.157        7.951        -.015    -999.250      174.580      222.827      223.622      222.033      -10.692
    906.80    99311.660        2.115      225.000        1.027        7.786        -.004    -999.250      177.842      225.525      224.265      226.786       -7.219
    907.00    99083.140        1.985      225.000        1.008        7.614        -.015    -999.250      177.754      223.502      224.907      222.097       -4.406
    907.20    99311.660        2.116      225.000        1.344        7.494         .007    -999.250      176.344      223.502      222.980      224.024       -4.098
    907.40    99083.140        2.060      225.000        1.307        7.738        -.015    -999.250      179.518      225.525      225.550      225.501       -6.296
    907.60    99311.660        2.013      225.000        1.288        7.688         .029    -999.250      183.485      225.525      223.622      227.428       -5.461
    907.80    99083.140        2.052      225.000        1.381        7.557        -.026    -999.250      183.221      221.479      223.622      219.335        -.098
    908.00    99311.660        2.028      225.000        1.363        7.704        -.026    -999.250      182.339      224.176      222.980      225.373       -1.637
    908.20    99083.140        2.079      225.000        1.381        7.679        -.004    -999.250      181.897      223.502      224.907      222.097       -5.681
    908.40    99083.140        2.088      225.000        1.288        7.491         .007    -999.250      180.046      224.176      224.265      224.088      -13.241
    908.60    99083.140        2.035      225.000        1.251        7.441        -.015    -999.250      178.724      226.874      224.265      229.484      -13.549
    908.80    99311.660        1.953      225.000        1.307        7.514        -.026    -999.250      179.165      220.804      223.622      217.986      -14.868
    909.00    99083.140        2.067      225.000        1.195        7.412    -999.250    -999.250      177.666      222.827      221.695      223.960       -9.417
