~Version information                                                          
  VERS.                            1.20: CWLS LAS  -  VERSION 1.20            
  WRAP.                             NO : One line per depth step              
~Well information                                                             
# MNEM.UNIT         DATA TYPE  INFORMATION                                    
# ====.================================: ===================                  
  STRT.M                       144.000 : First depth in file                  
  STOP.M                       909.000 : Last  depth in file                  
  STEP.M                          .200 : Depth increment                      
  NULL.                       -999.250 : Null  values                         
  WN  .                            WELL: 306
  FN  .                           FIELD: KARATUBE
  DATE.                        LOG DATE: 20.02.2004
~Curve information                                                            
# MNEM.UNIT                   API CODE   CURVE DESCRIPTION                    
# ====.================================:====================                  
  DEPT.M                               : Depth curve                          
  LL3 .OHMM                            : Appar.resist.laterolog,3 electrodes
  RHOB.G/C3                            : Bulk density by gamma-gamma log    
  DTP .US/M                            : Interval travel time (P-wave)
  GR  .UR/H                            : Gamma-ray log
  NGLD.UE                              : Neutron-gamma log
  GZ3 .OHMM                            : App.resistivity by lateral A2.0M0.5N
  GZ3B.OHMM                            : App.resistivity by lateral N0.5M2.0A
  SP  .MV                              : Spontaneous potential  
  CALI.MM                              : Caliper
  C1  .MM                              : Caliper, diameter 1
  C2  .MM                              : Caliper, diameter 2
  CILA.MMHO                            : Conduct. by sonde 7I1.6,active signal
~Parameter information block                                                  
# MNEM.UNIT                     VALUE       DESCRIPTION                       
# ====.================================:====================                  
  BS  .MM                          .00 : Bit Size                             
  DFD .G/C3                        .00 : Drilling Fluid Density               
  DFV .S                           .00 : Drilling Fluid Viscosity             
  RMS .OHMM                        .00 : Mud Sample Resistivity               
~Other information                                                            
# ------------------- REMARKS AREA ------------------------                   
# ==========================================================                  
~ASCII Log Data                                                               
# ...
    854.60    99311.660        2.026      225.000        1.381        7.825         .095       71.482      179.870      253.178      257.672      248.683       -8.230
    854.80    99083.140        2.086      225.000        1.344        7.743         .095       71.566      180.046      253.178      254.460      251.895       -9.241
    855.00    99083.140        2.029      225.000        1.176        7.630         .084       71.859      179.870      253.178      252.533      253.823       -8.626
    855.20    99311.660        2.038      225.000        1.325        7.725         .073       72.362      179.605      253.178      253.175      253.180      -11.351
    855.40    99083.140        2.030      225.000        1.475        7.802         .106       72.728      178.989      247.108      249.320      244.895       -9.021
    855.60    99083.140        2.073      225.000        1.139        7.668         .117       72.791      178.812      252.503      253.818      251.189       -5.285
    855.80    99311.660        2.003      225.000        1.157        7.790         .106       72.802      179.429      251.829      251.248      252.410      -11.791
    856.00    99083.140        2.093      218.300        1.568        7.732         .150       72.645      178.636      253.178      252.533      253.823       -1.637
    856.20    99311.660        2.108      221.700        1.437        7.868         .128       72.697      178.372      251.154      255.103      247.206      -13.065
    856.40    99083.140        2.075      225.000        1.344        7.734         .128       72.676      178.019      252.503      252.533      252.474       -2.120
    856.60    99311.660        2.066      225.000        1.344        7.616         .106       72.906      175.815      251.154      253.175      249.134       -9.769
    856.80    99083.140        2.055      225.000        1.643        7.623         .106       72.791      173.875      251.154      251.890      250.418       -7.219
    857.00    99083.140        2.095      221.700        1.605        7.534         .128       72.320      173.963      249.805      253.818      245.793      -10.780
    857.20    99311.660        2.078      218.300        1.475        7.557         .128       72.320      173.170      247.782      254.460      241.104       -9.813
    857.40    99311.660        2.085      218.300        1.419        7.698         .095       72.645      173.611      252.503      256.387      248.619      -11.087
    857.60    99083.140        2.049      218.300        1.251        7.906         .150       72.959      173.434      251.829      253.175      250.482      -11.571
    857.80    99311.660        2.089      221.700        1.232        7.856         .182       73.168      171.407      251.829      254.460      249.198      -12.977
    858.00    99311.660        2.044      221.700        1.475        7.979         .117       73.336      169.908      248.457      251.248      245.665      -12.362
    858.20    99083.140        2.032      225.000        1.605        7.829         .128       73.472      171.143      249.805      255.103      244.508      -11.878
    858.40    99083.140        2.029      221.700        1.605        7.825         .150       73.168      176.520      250.480      252.533      248.427      -13.505
    858.60    99083.140        2.037      225.000        1.251        7.727         .128       72.959      176.961      251.829      254.460      249.198       -8.318
    858.80    99311.660        2.072      225.000        1.363        7.714         .139       72.948      176.697      253.178      255.103      251.253      -10.516
    859.00    99311.660        2.054      225.000        1.288        7.738         .117       73.262      177.578      241.038      253.818      228.258       -9.065
    859.20    99311.660        1.989      225.000        1.325        7.795         .073       73.419      178.107      249.805      249.320      250.290      -13.769
    859.40    99311.660        2.049      221.700        1.419        7.772         .117       73.723      178.195      247.108      251.248      242.967       -5.856
    859.60    99311.660        2.093      218.300        1.456        7.759         .117       74.090      178.724      245.084      249.963      240.206       -6.516
    859.80    99083.140        2.050      218.300        1.624        7.498         .128       74.561      178.195      249.131      250.605      247.657       -7.527
    860.00    99083.140        2.086      221.700        1.736        7.700         .139       75.116      178.195      250.480      251.248      249.712      -10.340
    860.20    99083.140        1.990      218.300        1.568        7.741         .117       75.503      178.107      247.108      249.320      244.895      -17.637
    860.40    99083.140        2.059      215.000        1.419        7.786         .117       75.911      178.812      247.108      245.466      248.750       -7.131
    860.60    99083.140        2.103      215.000        1.568        7.811         .139       75.911      178.460      241.038      242.896      239.179      -16.142
    860.80    99083.140        2.076      221.700        1.269        7.972         .171       75.786      177.755      246.433      243.538      249.328      -19.659
    861.00    99311.660        2.063      218.300        1.269        7.958         .139       75.828      177.490      247.108      244.823      249.392      -13.681
    861.20    99083.140        2.061      215.000        1.643        8.017         .117       75.943      175.550      248.457      246.751      250.162      -10.340
    861.40    99083.140        2.094      218.300        1.549        7.970         .150       76.142      176.256      246.433      248.036      244.831      -17.285
    861.60    99083.140        2.011      218.300        1.437        7.847         .139       76.267      177.314      242.387      246.108      238.665      -11.878
    861.80    99311.660        2.021      221.700        1.437        7.890         .139       76.330      178.283      245.084      240.969      249.200      -21.329
    862.00    99311.660        2.021      218.300        1.325        7.917         .171       76.299      178.724      245.759      240.969      250.549       -9.285
    862.20    99083.140        2.037      221.700        1.419        8.024         .150       76.644      175.638      243.735      243.538      243.932      -18.164
    862.40    99311.660        2.089      225.000        1.456        7.845         .139       77.158      174.140      247.108      248.678      245.537      -12.977
    862.60    99083.140        2.004      225.000        1.344        8.092         .139       77.901      173.699      244.410      245.466      243.354      -12.846
    862.80    99311.660        2.068      225.000        1.213        8.065         .128       78.110      173.522      242.387      244.181      240.592      -12.010
    863.00    99083.140        2.044      225.000        1.232        7.902         .139       77.650      175.022      241.712      246.751      236.673      -14.472
    863.20    99311.660        2.064      225.000        1.269        8.092         .095       76.948      172.993      243.735      245.466      242.005      -16.098
    863.40    99083.140        2.052      225.000        1.325        8.108         .128       76.267      172.729      244.410      244.181      244.639      -14.296
    863.60    99311.660        2.041      221.700        1.288        7.772         .128       75.566      172.465      245.759      242.254      249.264      -17.857
    863.80    99311.660        2.092      218.300        1.307        8.004         .095       74.906      173.346      248.457      248.678      248.235       -9.285
    864.00    99083.140        2.043      225.000        1.717        8.056         .139       74.802      173.346      249.131      249.963      248.299      -14.604
