~Version
 VERS              .         3.0                           : CWLS LOG ASCII STANDARD - VERSION 3.0
 WRAP              .         NO                            : ONE LINE PER DEPTH STEP
 DLM               .         SPACE                         : DELIMITING CHARACTER(SPACE TAB OR COMMA)
~Well Information
#_______________________________________________________________________________
#
#PARAMETER_NAME    .UNIT     VALUE                         : DESCRIPTION
#_______________________________________________________________________________
STRT               .M        9.8                           : First reference value
STOP               .M        883                           : Last reference value
STEP               .M        0.1                           : Step increment
NULL               .         -9999                         : Missing value
COMP               .         ICPetroleum                   : Company
WELL               .         301                           : Well name
FLD                .         Karatobe                      : Field
LOC                .                                       : Location
SRVC               .                                       : Service Company
CTRY               .         KZ                            : Country
DATE               .         18.12.2004                    : Service Date
LATI               .         0                             : Latitude
LONG               .         0                             : Longitude
GDAT               .         WGS 84                        : Geodetic Datum
CNTY               .                                       : 
COORDIN            .                                       : Grid System
COUNTRY            .         Kazakhstan                    : 
COUNTRY            .         Kazakhstan                    : 
EREF               .m        140.6                         : 
FN                 .         KARATUBE                      : 
KB                 .         140.6                         : KB Elevation
ORIGINALWELLNAME   .         Скважина                      : 
PROV               .                                       : Province
RWS                .         -999                          : Def_Rw
UWI                .                                       : Уникальный идентификатор скважины
WN                 .         301                           : 
WST                .         -999                          : Def_Rwt
X                  .km       466174.48                     : 
XCOORD             .                                       : X or East-West Coordinate
Y                  .km       5307895.19                    : 
YCOORD             .                                       : Y or North-South Coordinate
~Parameter Information Block
#_______________________________________________________________________________
#
#PARAMETER_NAME    .UNIT     VALUE                         : DESCRIPTION
#_______________________________________________________________________________
SET                .         Las                           : 
BS                 .MM       215.90                        : Bit Size
DFD                .G/C3     1.16                          : Drilling Fluid Density
DFV                .S        30.00                         : Drilling Fluid Viscosity
RMS                .OHMM     .00                           : Mud Sample Resistivity
TLFamily_DEPT      .         Measured Depth                : 
TLFamily_PHI_FINAL .         Porosity                      : 
TLFamily_SW_AR     .         Water Saturation              : 
TLFamily_VSH_FINAL .         Shale Volume                  : 
~Curve Information
#_______________________________________________________________________________
#
#LOGNAME           .UNIT     LOG_ID                        : DESCRIPTION
#_______________________________________________________________________________
DEPT               .M                                      : Depth curve {F}
PHI_FINAL          .m3/m3                                  : Porosity {F}
SW_AR              .m3/m3                                  :  {F}
VSH_FINAL          .unitless                               : Vshale {F}
~Ascii
# ...
116.7      0.01124962 -9999      0.1948831 
116.8      0.005237432 -9999      0.2345938 
116.9      0          -9999      0.2568001 
117        0.006253572 -9999      0.2439432 
117.1      0.004561052 -9999      0.2503895 
117.2      0          -9999      0.2826823 
117.3      0          -9999      0.2742663 
117.4      0          -9999      0.2945855 
117.5      0          -9999      0.284289  
117.6      0.001938016 -9999      0.2645828 
117.7      0.004269504 -9999      0.2688098 
117.8      0.01095869 -9999      0.2447483 
117.9      0.01041643 -9999      0.2419998 
118        0.007404478 -9999      0.2573429 
118.1      0.01163336 -9999      0.2512639 
118.2      0.01976599 -9999      0.2230244 
118.3      0.02356439 -9999      0.1980325 
118.4      0.02235898 -9999      0.2015776 
118.5      0.01975933 -9999      0.1898757 
118.6      0.02682166 -9999      0.1734598 
118.7      0.02068708 -9999      0.1937692 
118.8      0.01577203 -9999      0.2204085 
118.9      0.0170906  -9999      0.2138293 
119        0.01780736 -9999      0.2119877 
119.1      0.01818483 -9999      0.2009754 
119.2      0.008151456 -9999      0.2358502 
119.3      0.01229558 -9999      0.2300268 
119.4      0.01163669 -9999      0.2211133 
119.5      0.006404326 -9999      0.24091   
119.6      0          1          0.2471377 
119.7      0          1          0.2710815 
119.8      0.005665991 -9999      0.2527078 
119.9      0.003266921 1          0.2743937 
120        0          1          0.3046694 
120.1      0          1          0.2856774 
120.2      0.004362118 1          0.2545836 
120.3      0.003902784 1          0.251321  
120.4      0.008081047 -9999      0.2447914 
120.5      0.002829323 1          0.2544503 
120.6      0.004072891 1          0.2681932 
120.7      0.01210053 -9999      0.236635  
120.8      0.01123123 -9999      0.2282209 
120.9      0.01360483 -9999      0.2213517 
121        0.01312377 -9999      0.2185463 
121.1      0.01943205 -9999      0.2196929 
121.2      0.01076894 -9999      0.2516553 
121.3      0.006219773 -9999      0.2479919 
121.4      0.001535961 1          0.2475175 
121.5      0.009114974 -9999      0.2074255 
121.6      0.01460147 -9999      0.196974  
121.7      0.02541634 -9999      0.1623817 
121.8      0.02832236 -9999      0.159704  
121.9      0.02942734 -9999      0.160631  
122        0.02783772 -9999      0.1694477 
122.1      0.03227881 -9999      0.1514397 
122.2      0.02627183 -9999      0.1663418 
122.3      0.01893666 -9999      0.1826495 
122.4      0.01647925 -9999      0.2059864 
122.5      0.01932635 -9999      0.1874835 
122.6      0.01483292 -9999      0.2073031 
122.7      0.00491761 1          0.2332076 
122.8      0.002174184 1          0.2450612 
122.9      0.005455952 -9999      0.2328538 
123        0.008648352 -9999      0.2328143 
123.1      0.01016853 -9999      0.2238519 
123.2      0.008714936 -9999      0.226222  
123.3      0.01261028 -9999      0.1926965 
123.4      0.01306488 -9999      0.1852273 
123.5      0.01676549 -9999      0.1670917 
123.6      0.02040802 -9999      0.1531395 
123.7      0.0236226  -9999      0.155382  
123.8      0.02754496 -9999      0.1447397 
123.9      0.0319798  -9999      0.1417726 
124        0.03057975 -9999      0.1491867 
124.1      0.03121009 -9999      0.1440832 
124.2      0.03113963 -9999      0.1457428 
124.3      0.03349579 -9999      0.1429597 
124.4      0.04462922 -9999      0.1313854 
124.5      0.04286839 -9999      0.1226237 
124.6      0.0404774  -9999      0.1181957 
124.7      0.03887644 -9999      0.1122485 
124.8      0.03573595 -9999      0.1250825 
124.9      0.04298973 -9999      0.1384692 
125        0.05007233 -9999      0.1309929 
125.1      0.05589563 -9999      0.1365172 
125.2      0.05035934 -9999      0.1125939 
125.3      0.03285454 -9999      0.1177309 
125.4      0.0303622  -9999      0.09439365
125.5      0.0281653  -9999      0.07713765
125.6      0.0466758  -9999      0.06453717
125.7      0.07067125 -9999      0.05809047
125.8      0.1272356  -9999      0.06092317
125.9      0.1557803  -9999      0.06521795
126        0.2692552  -9999      0.06501747
126.1      0.2923375  -9999      0.05302295
126.2      0.3348472  -9999      0.04336305
126.3      0.3585359  -9999      0.0476421 
126.4      0.4013878  -9999      0.0492872 
126.5      0.4325995  1          0.07655519
126.6      0.3767129  1          0.1051537 
126.7      0.4278578  0.7240316  0.1463909 
126.8      0.4438465  0.4851505  0.1874892 
126.9      0.3874943  0.4322622  0.2182321 
127        0.3009096  0.4662534  0.2024602 
127.1      0.2143289  0.6192988  0.2085435 
127.2      0.1764496  0.7932941  0.1801001 
127.3      0.1339117  1          0.1807556 
127.4      0.1130411  1          0.1635179 
127.5      0.16001    1          0.172945  
127.6      0.1855582  1          0.1569469 
127.7      0.16252    1          0.1775815 
127.8      0.1129453  1          0.1789092 
127.9      0.17287    1          0.1831042 
128        0.3090025  0.5863328  0.1771605 
128.1      0.400282   0.4526005  0.2034579 
128.2      0.3540103  0.5165232  0.2089244 
128.3      0.3782116  0.5054229  0.2114241 
128.4      0.4185054  0.4747412  0.2022471 
128.5      0.5012713  0.379878   0.1996378 
128.6      0.4557628  0.378235   0.1966901 
128.7      0.5133088  0.3120835  0.174174  
128.8      0.4858158  0.3385586  0.1775012 
128.9      0.5380204  0.3393698  0.1556058 
129        0.5478825  0.3525133  0.1572369 
129.1      0.5763781  0.3362631  0.1615045 
129.2      0.57454    0.3383219  0.1615854 
129.3      0.5822754  0.3422371  0.1691747 
129.4      0.5362908  0.3694648  0.1942738 
129.5      0.531203   0.3605708  0.2273102 
129.6      0.4755603  0.392437   0.2282111 
129.7      0.502633   0.3702926  0.2988186 
129.8      0.5182941  0.3622128  0.2791826 
129.9      0.5415751  0.35492    0.2803854 
130        0.5213127  0.3716914  0.3039628 
130.1      0.493003   0.390339   0.3206186 
130.2      0.4376794  0.4283066  0.3971952 
130.3      0.403807   0.4585327  0.4415109 
130.4      0.4127054  0.4397462  0.4351251 
130.5      0.3816909  0.4425835  0.48857   
130.6      0.3575286  0.4059761  0.4989133 
130.7      0.3271343  0.3171033  0.4282041 
130.8      0.3461928  0.211157   0.3563294 
130.9      0.3357423  0.1635888  0.2847699 
131        0.2763538  0.207043   0.2566764 
131.1      0.1779743  0.4639201  0.2127417 
131.2      0.1251165  0.9761302  0.1748294 
131.3      0.1188381  1          0.1516829 
131.4      0.1350589  1          0.1610458 
131.5      0.1965036  0.9845867  0.1512335 
131.6      0.2906213  0.6467221  0.1510091 
131.7      0.3442545  0.4917018  0.1261907 
131.8      0.3927424  0.3695177  0.1298084 
131.9      0.3994195  0.3339644  0.1355493 
132        0.4415265  0.316779   0.140672  
132.1      0.4082244  0.4036154  0.1537343 
132.2      0.4145779  0.4487591  0.1581353 
132.3      0.4686182  0.4187834  0.1778795 
132.4      0.5558886  0.3592051  0.174615  
132.5      0.5812287  0.348907   0.2079635 
132.6      0.547032   0.3783942  0.2365538 
132.7      0.4987484  0.4202396  0.2619565 
132.8      0.4862529  0.4287948  0.2820734 
132.9      0.4836609  0.4219885  0.2727185 
133        0.4638774  0.4289685  0.2732832 
133.1      0.4500684  0.4281677  0.2724695 
133.2      0.4181851  0.4284706  0.2571614 
133.3      0.3446529  0.4703153  0.2801005 
133.4      0.2935343  0.510107   0.2788036 
133.5      0.2898924  0.5277325  0.2866183 
133.6      0.3409113  0.4778614  0.2783939 
133.7      0.3636694  0.4711317  0.2874706 
133.8      0.3917108  0.4476294  0.2611597 
133.9      0.380374   0.4648415  0.2889637 
134        0.352796   0.4997709  0.2987944 
134.1      0.2876017  0.599627   0.3122669 
134.2      0.1986478  0.8233901  0.3295678 
134.3      0.1392258  1          0.3295065 
134.4      0.1328651  1          0.3479271 
134.5      0.2160272  0.5886242  0.3019832 
134.6      0.3135706  0.4211194  0.2822699 
134.7      0.3234288  0.4639398  0.2781628 
134.8      0.3542416  0.5101632  0.2169467 
