~Version
 VERS              .         3.0                           : CWLS LOG ASCII STANDARD - VERSION 3.0
 WRAP              .         NO                            : ONE LINE PER DEPTH STEP
 DLM               .         SPACE                         : DELIMITING CHARACTER(SPACE TAB OR COMMA)
~Well Information
#_______________________________________________________________________________
#
#PARAMETER_NAME    .UNIT     VALUE                         : DESCRIPTION
#_______________________________________________________________________________
STRT               .M        9.8                           : First reference value
STOP               .M        883                           : Last reference value
STEP               .M        0.1                           : Step increment
NULL               .         -9999                         : Missing value
COMP               .         ICPetroleum                   : Company
WELL               .         301                           : Well name
FLD                .         Karatobe                      : Field
LOC                .                                       : Location
SRVC               .                                       : Service Company
CTRY               .         KZ                            : Country
DATE               .         18.12.2004                    : Service Date
LATI               .         0                             : Latitude
LONG               .         0                             : Longitude
GDAT               .         WGS 84                        : Geodetic Datum
CNTY               .                                       : 
COORDIN            .                                       : Grid System
COUNTRY            .         Kazakhstan                    : 
COUNTRY            .         Kazakhstan                    : 
EREF               .m        140.6                         : 
FN                 .         KARATUBE                      : 
KB                 .         140.6                         : KB Elevation
ORIGINALWELLNAME   .         Скважина                      : 
PROV               .                                       : Province
RWS                .         -999                          : Def_Rw
UWI                .                                       : Уникальный идентификатор скважины
WN                 .         301                           : 
WST                .         -999                          : Def_Rwt
X                  .km       466174.48                     : 
XCOORD             .                                       : X or East-West Coordinate
Y                  .km       5307895.19                    : 
YCOORD             .                                       : Y or North-South Coordinate
~Parameter Information Block
#_______________________________________________________________________________
#
#PARAMETER_NAME    .UNIT     VALUE                         : DESCRIPTION
#_______________________________________________________________________________
SET                .         Las                           : 
BS                 .MM       215.90                        : Bit Size
DFD                .G/C3     1.16                          : Drilling Fluid Density
DFV                .S        30.00                         : Drilling Fluid Viscosity
RMS                .OHMM     .00                           : Mud Sample Resistivity
TLFamily_DEPT      .         Measured Depth                : 
TLFamily_PHI_FINAL .         Porosity                      : 
TLFamily_SW_AR     .         Water Saturation              : 
TLFamily_VSH_FINAL .         Shale Volume                  : 
~Curve Information
#_______________________________________________________________________________
#
#LOGNAME           .UNIT     LOG_ID                        : DESCRIPTION
#_______________________________________________________________________________
DEPT               .M                                      : Depth curve {F}
PHI_FINAL          .m3/m3                                  : Porosity {F}
SW_AR              .m3/m3                                  :  {F}
VSH_FINAL          .unitless                               : Vshale {F}
~Ascii
# ...
353.2      0.01230374 1          1         
353.3      0.01368207 1          1         
353.4      0.010083   1          1         
353.5      0.008044794 1          1         
353.6      0.005893764 1          1         
353.7      0.002817322 1          1         
353.8      0.00349264 1          1         
353.9      0.004510627 1          1         
354        0.00488785 1          1         
354.1      0.005780808 1          1         
354.2      0.005867658 1          1         
354.3      0.008501342 1          1         
354.4      0.008709706 1          1         
354.5      0.01103969 1          1         
354.6      0.01160469 1          1         
354.7      0.01517688 1          1         
354.8      0.01379419 1          1         
354.9      0.0120534  1          1         
355        0.01159423 1          1         
355.1      0.01162993 1          1         
355.2      0.01288537 1          1         
355.3      0.0136682  1          1         
355.4      0.01409933 1          1         
355.5      0.016879   1          1         
355.6      0.01552933 1          1         
355.7      0.01670713 1          1         
355.8      0.01754843 1          1         
355.9      0.01828292 1          1         
356        0.0146974  1          1         
356.1      0.01133147 1          1         
356.2      0.00743587 1          0.9959299 
356.3      0.004766253 1          1         
356.4      0.01202389 1          0.9259598 
356.5      0.007429563 1          0.9417107 
356.6      0.01757397 1          0.8857623 
356.7      0.04436089 1          0.799868  
356.8      0.03102944 1          0.8278259 
356.9      0.006209594 1          0.9217651 
357        0.0001756008 1          0.9846783 
357.1      0.002796097 1          0.9387031 
357.2      0          1          1         
357.3      0          1          1         
357.4      0          1          1         
357.5      0          1          1         
357.6      0          1          1         
357.7      0          1          1         
357.8      0          1          0.9549145 
357.9      0.003248215 1          0.8951591 
358        0.004961952 1          0.9136024 
358.1      0.02463675 1          0.7873437 
358.2      0.01933462 1          0.7712279 
358.3      0.03396079 1          0.6590586 
358.4      0.01661436 1          0.610916  
358.5      0.0237754  1          0.553326  
358.6      0.05091469 1          0.5347103 
358.7      0.1049953  1          0.457275  
358.8      0.138028   1          0.4240471 
358.9      0.1426628  1          0.4153929 
359        0.1602152  1          0.4167444 
359.1      0.1471264  1          0.4690053 
359.2      0.1521496  1          0.4766344 
359.3      0.1461276  1          0.4933164 
359.4      0.1523412  1          0.4732964 
359.5      0.1276838  1          0.4679004 
359.6      0.1003082  1          0.4366187 
359.7      0.05723484 1          0.43507   
359.8      0.02089413 1          0.4442874 
359.9      0.02571817 1          0.4040319 
360        0.01210069 1          0.4074402 
360.1      0.01707743 1          0.3483221 
360.2      0.01081712 1          0.3071392 
360.3      0.009680374 1          0.3191993 
360.4      0.02127062 1          0.3015417 
360.5      0.01622132 1          0.3302554 
360.6      0.00957881 1          0.3603203 
360.7      0.007875352 1          0.358221  
360.8      0.02000402 1          0.3148366 
360.9      0.0134825  1          0.3118325 
361        0.009709136 1          0.3240308 
361.1      0.01192646 1          0.3254293 
361.2      0.01366678 1          0.3634538 
361.3      0.0265811  1          0.3945542 
361.4      0.04437871 1          0.4101713 
361.5      0.05188559 1          0.5015202 
361.6      0.071356   1          0.5362515 
361.7      0.07531043 1          0.6410881 
361.8      0.07076199 1          0.7458112 
361.9      0.04771634 1          0.8922916 
362        0.0307677  1          0.9675624 
362.1      0.01873317 1          1         
362.2      0.01638053 1          1         
362.3      0.01268139 1          1         
362.4      0.01105547 1          1         
362.5      0.01253722 1          1         
362.6      0.01391351 1          1         
362.7      0.009075112 1          1         
362.8      0.004379893 1          1         
362.9      0.003703912 1          1         
363        0.004395378 1          1         
363.1      0.005433245 1          1         
363.2      0.007502555 1          1         
363.3      0.007881862 1          1         
363.4      0.006101132 1          1         
363.5      0.0006613762 1          1         
363.6      0.001570455 1          1         
363.7      0.002706829 1          1         
363.8      0.003994703 1          1         
363.9      0.009366952 1          0.8983163 
364        0.01020591 1          0.9185057 
364.1      0.03372416 1          0.848157  
364.2      0.06290551 1          0.7693667 
364.3      0.08612438 1          0.7039167 
364.4      0.1422409  1          0.583339  
364.5      0.1217254  1          0.6311343 
364.6      0.09581804 1          0.7023978 
364.7      0.09690782 1          0.7194136 
364.8      0.1117444  1          0.7040772 
364.9      0.07241146 1          0.8269133 
365        0.06214112 1          0.8726456 
365.1      0.01917322 1          1         
365.2      0.01730383 1          1         
365.3      0.01964447 1          0.9897152 
365.4      0.009844255 1          1         
365.5      0.01209426 1          0.9498079 
365.6      0.01403937 1          0.9257668 
365.7      0.004646176 1          0.9600615 
365.8      0.001287257 1          1         
365.9      0.002245833 1          1         
366        0.004038162 1          1         
366.1      0.0339311  1          0.8740687 
366.2      0.05450573 1          0.8318484 
366.3      0.08858588 1          0.7480648 
366.4      0.07310553 1          0.7630446 
366.5      0.02214796 1          0.9243954 
366.6      0.009373481 1          1         
366.7      0.008994701 1          1         
366.8      0.00782614 1          1         
366.9      0.008220332 1          1         
367        0.008068828 1          1         
367.1      0.0071206  1          1         
367.2      0.007530703 1          0.9876381 
367.3      0.006721977 1          1         
367.4      0.008628112 1          1         
367.5      0.01298852 1          1         
367.6      0.01512375 1          1         
367.7      0.0385076  1          0.9034497 
367.8      0.03328339 1          0.927963  
367.9      0.03634685 1          0.9345787 
368        0.03978944 1          0.91763   
368.1      0.02707681 1          0.9603949 
368.2      0.03763282 1          0.9282644 
368.3      0.02172285 1          0.9929214 
368.4      0.01882624 1          1         
368.5      0.01878816 1          1         
368.6      0.0212996  1          1         
368.7      0.02330304 1          1         
368.8      0.02167494 1          1         
368.9      0.01870724 1          1         
369        0.01872253 1          1         
369.1      0.01745696 1          1         
369.2      0.01143213 1          1         
369.3      0.007176525 1          1         
369.4      0.005509853 1          1         
369.5      0.003085605 1          1         
369.6      0.002555306 1          1         
369.7      0          1          1         
369.8      0.0005899587 1          1         
369.9      0.002197739 1          1         
370        0.002893593 1          1         
370.1      0.003635544 1          1         
370.2      0.003611601 1          1         
370.3      0.002916788 1          1         
370.4      0.003259335 1          1         
370.5      0.004820058 1          1         
370.6      0.00709542 1          1         
370.7      0.007715505 1          1         
370.8      0.009436162 1          1         
370.9      0.007945436 1          1         
371        0.008294906 1          1         
371.1      0.007830171 1          1         
371.2      0.006893239 1          1         
