~Version
 VERS              .         3.0                           : CWLS LOG ASCII STANDARD - VERSION 3.0
 WRAP              .         NO                            : ONE LINE PER DEPTH STEP
 DLM               .         SPACE                         : DELIMITING CHARACTER(SPACE TAB OR COMMA)
~Well Information
#_______________________________________________________________________________
#
#PARAMETER_NAME    .UNIT     VALUE                         : DESCRIPTION
#_______________________________________________________________________________
STRT               .M        9.8                           : First reference value
STOP               .M        883                           : Last reference value
STEP               .M        0.1                           : Step increment
NULL               .         -9999                         : Missing value
COMP               .         ICPetroleum                   : Company
WELL               .         301                           : Well name
FLD                .         Karatobe                      : Field
LOC                .                                       : Location
SRVC               .                                       : Service Company
CTRY               .         KZ                            : Country
DATE               .         18.12.2004                    : Service Date
LATI               .         0                             : Latitude
LONG               .         0                             : Longitude
GDAT               .         WGS 84                        : Geodetic Datum
CNTY               .                                       : 
COORDIN            .                                       : Grid System
COUNTRY            .         Kazakhstan                    : 
COUNTRY            .         Kazakhstan                    : 
EREF               .m        140.6                         : 
FN                 .         KARATUBE                      : 
KB                 .         140.6                         : KB Elevation
ORIGINALWELLNAME   .         Скважина                      : 
PROV               .                                       : Province
RWS                .         -999                          : Def_Rw
UWI                .                                       : Уникальный идентификатор скважины
WN                 .         301                           : 
WST                .         -999                          : Def_Rwt
X                  .km       466174.48                     : 
XCOORD             .                                       : X or East-West Coordinate
Y                  .km       5307895.19                    : 
YCOORD             .                                       : Y or North-South Coordinate
~Parameter Information Block
#_______________________________________________________________________________
#
#PARAMETER_NAME    .UNIT     VALUE                         : DESCRIPTION
#_______________________________________________________________________________
SET                .         Las                           : 
BS                 .MM       215.90                        : Bit Size
DFD                .G/C3     1.16                          : Drilling Fluid Density
DFV                .S        30.00                         : Drilling Fluid Viscosity
RMS                .OHMM     .00                           : Mud Sample Resistivity
TLFamily_DEPT      .         Measured Depth                : 
TLFamily_PHI_FINAL .         Porosity                      : 
TLFamily_SW_AR     .         Water Saturation              : 
TLFamily_VSH_FINAL .         Shale Volume                  : 
~Curve Information
#_______________________________________________________________________________
#
#LOGNAME           .UNIT     LOG_ID                        : DESCRIPTION
#_______________________________________________________________________________
DEPT               .M                                      : Depth curve {F}
PHI_FINAL          .m3/m3                                  : Porosity {F}
SW_AR              .m3/m3                                  :  {F}
VSH_FINAL          .unitless                               : Vshale {F}
~Ascii
# ...
789.7      0.05148766 1          0.1444019 
789.8      0.06682245 1          0.1202639 
789.9      0.09075979 1          0.1068768 
790        0.09477723 1          0.09721772
790.1      0.0800359  1          0.09933793
790.2      0.07920186 1          0.09817392
790.3      0.07516192 1          0.1139096 
790.4      0.07265701 1          0.1224263 
790.5      0.07605016 1          0.1248895 
790.6      0.08186733 1          0.1171112 
790.7      0.09537271 1          0.1011931 
790.8      0.1004381  1          0.1059708 
790.9      0.1032023  1          0.1025726 
791        0.1108546  1          0.1085545 
791.1      0.112545   1          0.106807  
791.2      0.09815167 1          0.1017444 
791.3      0.1053836  1          0.107156  
791.4      0.1109633  1          0.08418494
791.5      0.1059606  1          0.08319396
791.6      0.1065028  1          0.0813505 
791.7      0.09835368 1          0.07905772
791.8      0.09327068 1          0.07833978
791.9      0.0958344  1          0.07762308
792        0.09894227 1          0.0690566 
792.1      0.07256727 1          0.07873124
792.2      0.0583207  1          0.06116959
792.3      0.06688421 1          0.06405373
792.4      0.05740125 1          0.06029602
792.5      0.05675783 1          0.06248363
792.6      0.06635153 1          0.06386499
792.7      0.06429361 1          0.0788618 
792.8      0.06455104 1          0.08398656
792.9      0.06329305 1          0.09626362
793        0.07114267 1          0.107575  
793.1      0.0788723  1          0.1232941 
793.2      0.05966739 1          0.1305912 
793.3      0.04546308 1          0.1308855 
793.4      0.05554148 1          0.1146191 
793.5      0.0507244  1          0.1049971 
793.6      0.03709    1          0.09735419
793.7      0.02250881 1          0.08293011
793.8      0.03460538 1          0.0638021 
793.9      0.04124916 1          0.06721278
794        0.0405766  1          0.05349969
794.1      0.03079257 1          0.05276548
794.2      0.02734681 1          0.05448084
794.3      0.03606438 1          0.0448411 
794.4      0.04378262 1          0.0565124 
794.5      0.02424003 1          0.04215702
794.6      0.02749036 1          0.04905488
794.7      0.02234945 1          0.0459802 
794.8      0.04612047 1          0.03831391
794.9      0.07991501 1          0.03731535
795        0.0944531  0.9630046  0.0363195 
795.1      0.1068769  0.8043959  0.03807871
795.2      0.1118216  0.7258708  0.0412666 
795.3      0.1216064  0.6230136  0.02999818
795.4      0.07760717 1          0.02959597
795.5      0.05619646 1          0.02839204
795.6      0.06751709 1          0.0219826 
795.7      0.04448074 1          0.02816317
795.8      0.04698025 1          0.02310861
795.9      0.04734238 1          0.0223763 
796        0.05397387 1          0.02243258
796.1      0.06287963 1          0.03166927
796.2      0.05928085 1          0.03990545
796.3      0.05691065 1          0.04996398
796.4      0.03956207 1          0.05294891
796.5      0.02956209 1          0.05294891
796.6      0.01221379 1          0.05301007
796.7      0.02918887 1          0.04562011
796.8      0.03697198 1          0.04334756
796.9      0.02643972 1          0.05117949
797        0.02825153 1          0.06098223
797.1      0.03113209 1          0.05961099
797.2      0.0392502  1          0.06600935
797.3      0.04555789 1          0.06638899
797.4      0.02819247 1          0.08803913
797.5      0.03216127 1          0.1069466 
797.6      0.05567551 1          0.1241636 
797.7      0.06092173 1          0.1443261 
797.8      0.05763098 1          0.1695146 
797.9      0.03786547 1          0.1687175 
798        0.02875814 1          0.1416823 
798.1      0.04608604 1          0.1207676 
798.2      0.03541461 1          0.1003676 
798.3      0.02311311 1          0.09831072
798.4      0.02078034 1          0.106807  
798.5      0.03485689 1          0.1069466 
798.6      0.03160801 1          0.121993  
798.7      0.03802508 1          0.1441746 
798.8      0.04387898 1          0.1502714 
798.9      0.04352195 1          0.1594857 
799        0.04177562 1          0.1514233 
799.1      0.02995436 1          0.1456155 
799.2      0.05265414 1          0.1424362 
799.3      0.04894737 1          0.151039  
799.4      0.04616061 1          0.1645142 
799.5      0.04492164 1          0.1747267 
799.6      0.04161091 1          0.2159829 
799.7      0.04945427 1          0.2413155 
799.8      0.03330481 1          0.2782236 
799.9      0.02388821 1          0.3182404 
800        0.01703758 1          0.3335322 
800.1      0.003731329 1          0.3527734 
800.2      0.01859529 1          0.3722361 
800.3      0.02869323 1          0.3799034 
800.4      0.01794973 1          0.3784312 
800.5      0.01914396 1          0.3463705 
800.6      0.02766895 1          0.3393858 
800.7      0.01765378 1          0.3234372 
800.8      0.02552105 1          0.2954614 
800.9      0.02680333 1          0.2603287 
801        0.04004939 1          0.2172924 
801.1      0.04220836 1          0.1819515 
801.2      0.05986669 1          0.1719134 
801.3      0.0860029  1          0.1550503 
801.4      0.09311264 1          0.132877  
801.5      0.09756729 1          0.1277315 
801.6      0.07625023 1          0.1342095 
801.7      0.07489141 1          0.1288292 
801.8      0.07570934 1          0.1200483 
801.9      0.06575949 1          0.1278777 
802        0.06049744 1          0.1357689 
802.1      0.05095186 1          0.1462236 
802.2      0.05991927 1          0.1497348 
802.3      0.05416853 1          0.1612869 
802.4      0.04885295 1          0.1553602 
802.5      0.0206209  1          0.1533491 
802.6      0.02802008 1          0.120192  
802.7      0.04045193 1          0.09592339
802.8      0.02683085 1          0.08023526
802.9      0.02731068 1          0.05460367
803        0.02738168 1          0.04436252
803.1      0.03955006 1          0.04298999
803.2      0.05488487 1          0.04085182
803.3      0.04408734 1          0.04156318
803.4      0.04192623 1          0.04091104
803.5      0.02508911 1          0.04215702
803.6      0.03090152 1          0.04239482
803.7      0.02508151 1          0.04418321
803.8      0.02441848 1          0.04043746
803.9      0.0356449  1          0.05026748
804        0.03183752 1          0.06721278
804.1      0.04934965 1          0.0736715 
804.2      0.04796879 1          0.0803663 
804.3      0.04881098 1          0.06950295
804.4      0.04208581 1          0.05836859
804.5      0.01843954 1          0.05276548
804.6      0.02503653 1          0.03433589
804.7      0.01384351 1          0.02839204
804.8      0.01787818 1          0.04067418
804.9      0.01582177 1          0.03224731
805        0.009298202 1          0.03984636
805.1      0.002339738 1          0.04604024
805.2      0.00594727 1          0.05221574
805.3      0.002012796 1          0.04670139
805.4      0.007522379 1          0.03555979
805.5      0.001774656 1          0.04718296
805.6      0.002382556 1          0.05942438
805.7      0.01533184 1          0.06017137
805.8      0.01731555 1          0.06963059
805.9      0.01326663 1          0.07781841
806        0          1          0.1048582 
806.1      0          1          0.124599  
806.2      0          1          0.1333947 
806.3      0          1          0.1710325 
806.4      0.006388467 1          0.2129398 
806.5      0.05982843 1          0.2664884 
806.6      0.07358572 1          0.2992685 
806.7      0.07668874 1          0.3401345 
806.8      0.04584211 1          0.3486425 
806.9      0          1          0.3853661 
807        0          1          0.4171246 
807.1      0.01500023 1          0.4648824 
807.2      0.0448841  1          0.462854  
807.3      0.04497343 1          0.4485503 
807.4      0.02634872 1          0.4758745 
807.5      0.003652256 1          0.4550425 
807.6      0          1          0.4422351 
807.7      0          1          0.4461916 
807.8      0          1          0.4397726 
