~Version
 VERS              .         3.0                           : CWLS LOG ASCII STANDARD - VERSION 3.0
 WRAP              .         NO                            : ONE LINE PER DEPTH STEP
 DLM               .         SPACE                         : DELIMITING CHARACTER(SPACE TAB OR COMMA)
~Well Information
#_______________________________________________________________________________
#
#PARAMETER_NAME    .UNIT     VALUE                         : DESCRIPTION
#_______________________________________________________________________________
STRT               .M        9.8                           : First reference value
STOP               .M        883                           : Last reference value
STEP               .M        0.1                           : Step increment
NULL               .         -9999                         : Missing value
COMP               .         ICPetroleum                   : Company
WELL               .         301                           : Well name
FLD                .         Karatobe                      : Field
LOC                .                                       : Location
SRVC               .                                       : Service Company
CTRY               .         KZ                            : Country
DATE               .         18.12.2004                    : Service Date
LATI               .         0                             : Latitude
LONG               .         0                             : Longitude
GDAT               .         WGS 84                        : Geodetic Datum
CNTY               .                                       : 
COORDIN            .                                       : Grid System
COUNTRY            .         Kazakhstan                    : 
COUNTRY            .         Kazakhstan                    : 
EREF               .m        140.6                         : 
FN                 .         KARATUBE                      : 
KB                 .         140.6                         : KB Elevation
ORIGINALWELLNAME   .         Скважина                      : 
PROV               .                                       : Province
RWS                .         -999                          : Def_Rw
UWI                .                                       : Уникальный идентификатор скважины
WN                 .         301                           : 
WST                .         -999                          : Def_Rwt
X                  .km       466174.48                     : 
XCOORD             .                                       : X or East-West Coordinate
Y                  .km       5307895.19                    : 
YCOORD             .                                       : Y or North-South Coordinate
~Parameter Information Block
#_______________________________________________________________________________
#
#PARAMETER_NAME    .UNIT     VALUE                         : DESCRIPTION
#_______________________________________________________________________________
SET                .         Las                           : 
BS                 .MM       215.90                        : Bit Size
DFD                .G/C3     1.16                          : Drilling Fluid Density
DFV                .S        30.00                         : Drilling Fluid Viscosity
RMS                .OHMM     .00                           : Mud Sample Resistivity
TLFamily_DEPT      .         Measured Depth                : 
TLFamily_PHI_FINAL .         Porosity                      : 
TLFamily_SW_AR     .         Water Saturation              : 
TLFamily_VSH_FINAL .         Shale Volume                  : 
~Curve Information
#_______________________________________________________________________________
#
#LOGNAME           .UNIT     LOG_ID                        : DESCRIPTION
#_______________________________________________________________________________
DEPT               .M                                      : Depth curve {F}
PHI_FINAL          .m3/m3                                  : Porosity {F}
SW_AR              .m3/m3                                  :  {F}
VSH_FINAL          .unitless                               : Vshale {F}
~Ascii
# ...
407.6      0.01868898 1          1         
407.7      0.01681572 1          1         
407.8      0.01339189 1          1         
407.9      0.01162614 1          1         
408        0.01108973 1          1         
408.1      0.0121307  1          1         
408.2      0.0137671  1          1         
408.3      0.01384258 1          1         
408.4      0.0133619  1          1         
408.5      0.01188306 1          1         
408.6      0.01016082 1          1         
408.7      0.01011145 1          1         
408.8      0.01225978 1          1         
408.9      0.01484608 1          1         
409        0.01604613 1          1         
409.1      0.01560248 1          1         
409.2      0.01606093 1          1         
409.3      0.01153057 1          1         
409.4      0.007022758 1          1         
409.5      0.006277553 1          1         
409.6      0.00645558 1          1         
409.7      0.008363973 1          1         
409.8      0.008859735 1          1         
409.9      0.00958154 1          1         
410        0.01042414 1          1         
410.1      0.0114415  1          1         
410.2      0.01224922 1          1         
410.3      0.007704799 1          1         
410.4      0.0008283027 1          1         
410.5      0          1          1         
410.6      0          1          1         
410.7      0          1          1         
410.8      0          1          1         
410.9      0          1          1         
411        0          1          1         
411.1      0          1          0.9931416 
411.2      0          1          1         
411.3      0          1          0.961912  
411.4      0.0005995892 1          0.982282  
411.5      0.01059458 1          1         
411.6      0.0185776  1          1         
411.7      0.02575673 1          1         
411.8      0.02458066 1          1         
411.9      0.02337732 1          1         
412        0.0205382  1          1         
412.1      0.0167966  1          1         
412.2      0.01516004 1          1         
412.3      0.01408407 1          1         
412.4      0.01678553 1          1         
412.5      0.0174557  1          1         
412.6      0.01721382 1          1         
412.7      0.01398855 1          1         
412.8      0.01369132 1          1         
412.9      0.01397975 1          1         
413        0.01390397 1          1         
413.1      0.01222894 1          1         
413.2      0.0112614  1          1         
413.3      0.008709706 1          1         
413.4      0.006278713 1          1         
413.5      0.002022578 1          1         
413.6      0.00136765 1          1         
413.7      0.0005726301 1          1         
413.8      0.002107541 1          1         
413.9      0          1          1         
414        0          1          1         
414.1      0          1          1         
414.2      0          1          1         
414.3      0          1          1         
414.4      0.01109861 1          0.8794426 
414.5      0.03074324 1          0.8278325 
414.6      0.05264688 1          0.7699279 
414.7      0.05286402 1          0.7903923 
414.8      0.03453273 1          0.8449096 
414.9      0.01203133 1          0.928367  
415        0.008351226 1          0.9589925 
415.1      0.01116894 1          0.9478417 
415.2      0.007151483 1          1         
415.3      0.01174246 1          0.9803014 
415.4      0.01020412 1          1         
415.5      0.01187895 1          1         
415.6      0.01232133 1          1         
415.7      0.01073648 1          1         
415.8      0.007928193 1          1         
415.9      0.005735666 1          1         
416        0.003435167 1          1         
416.1      0.0002371886 1          1         
416.2      0          1          1         
416.3      0          1          1         
416.4      0          1          1         
416.5      0          1          1         
416.6      0          1          1         
416.7      0          1          1         
416.8      0          1          1         
416.9      0          1          1         
417        0.0002371886 1          1         
417.1      0.002068551 1          1         
417.2      0.007765783 1          1         
417.3      0.1002636  1          0.7023112 
417.4      0.1469945  1          0.6031405 
417.5      0.2002254  0.9507072  0.4776146 
417.6      0.2237996  0.887386   0.4436802 
417.7      0.2072061  1          0.4884385 
417.8      0.1900142  1          0.5292334 
417.9      0.2138523  1          0.4714196 
418        0.2246762  1          0.4562694 
418.1      0.2525834  0.9778898  0.4022098 
418.2      0.2526518  0.9543616  0.4197948 
418.3      0.2561615  0.9254246  0.4166586 
418.4      0.2942775  0.8164312  0.370269  
418.5      0.2878787  0.8533086  0.3639347 
418.6      0.2922057  0.854852   0.3631201 
418.7      0.2860526  0.8985606  0.3567376 
418.8      0.2960714  0.9050253  0.3473621 
418.9      0.3075457  0.8861979  0.344975  
419        0.3103316  0.8661919  0.3629001 
419.1      0.3054556  0.8669176  0.3767015 
419.2      0.3157676  0.8369792  0.3685879 
419.3      0.3372686  0.7988977  0.3375583 
419.4      0.3400252  0.7973675  0.3163292 
419.5      0.3319791  0.7964532  0.3469989 
419.6      0.3242621  0.7875     0.3500274 
419.7      0.3323255  0.7547715  0.3245548 
419.8      0.3397535  0.7260898  0.3115593 
419.9      0.3125389  0.7758534  0.3466457 
420        0.3231954  0.7525637  0.3360676 
420.1      0.324493   0.7848446  0.3365879 
420.2      0.3366338  0.8088035  0.3275131 
420.3      0.3651974  0.7840847  0.2959659 
420.4      0.3838446  0.745014   0.292719  
420.5      0.4026981  0.6709771  0.2631458 
420.6      0.4177547  0.6198076  0.2434671 
420.7      0.4400656  0.5891286  0.2217881 
420.8      0.4723631  0.5773395  0.1705186 
420.9      0.4854235  0.6050692  0.1453215 
421        0.4997264  0.6095408  0.1173245 
421.1      0.4934985  0.6157081  0.1355036 
421.2      0.4683461  0.6211453  0.1766197 
421.3      0.4197899  0.6642043  0.2885419 
421.4      0.3455366  0.7504669  0.4087498 
421.5      0.2699627  0.8833598  0.5382485 
421.6      0.1886837  1          0.6656535 
421.7      0.1264907  1          0.7662703 
421.8      0.1036322  1          0.7698807 
421.9      0.08679041 1          0.7872763 
422        0.07401083 1          0.8077408 
422.1      0.0958203  1          0.7483067 
422.2      0.08756849 1          0.8202114 
422.3      0.03970332 1          0.988454  
422.4      0.05184599 1          1         
422.5      0.05593519 1          1         
422.6      0.05192509 1          1         
422.7      0.05206604 1          1         
422.8      0.07716636 1          0.925428  
422.9      0.105488   1          0.8467504 
423        0.1032293  1          0.8134629 
423.1      0.06994472 1          0.8729502 
423.2      0.06245073 1          0.8737521 
423.3      0.07692617 1          0.8568655 
423.4      0.08361162 1          0.8359078 
423.5      0.08622937 1          0.8820311 
423.6      0.08180247 1          0.9380481 
423.7      0.08397609 1          0.9595391 
423.8      0.08559152 1          0.9572292 
423.9      0.1389258  1          0.8351012 
424        0.0837413  1          0.9564925 
424.1      0.08305082 1          0.9598281 
424.2      0.08513194 1          0.9497914 
424.3      0.1117336  1          0.8822826 
424.4      0.1694343  1          0.7589555 
424.5      0.2393269  1          0.620001  
424.6      0.2871902  0.9627615  0.5225734 
424.7      0.3161211  0.9054313  0.4801551 
424.8      0.3312474  0.8820418  0.4589362 
424.9      0.3454841  0.858099   0.42855   
425        0.3160772  0.9218077  0.4761199 
425.1      0.2693853  1          0.5241867 
425.2      0.1879925  1          0.6540673 
425.3      0.1660412  1          0.6764908 
425.4      0.1623869  1          0.6651421 
425.5      0.1460097  1          0.6502322 
425.6      0.1383848  1          0.6545955 
425.7      0.112627   1          0.7136354 
