~Version
 VERS              .         3.0                           : CWLS LOG ASCII STANDARD - VERSION 3.0
 WRAP              .         NO                            : ONE LINE PER DEPTH STEP
 DLM               .         SPACE                         : DELIMITING CHARACTER(SPACE TAB OR COMMA)
~Well Information
#_______________________________________________________________________________
#
#PARAMETER_NAME    .UNIT     VALUE                         : DESCRIPTION
#_______________________________________________________________________________
STRT               .M        9.8                           : First reference value
STOP               .M        883                           : Last reference value
STEP               .M        0.1                           : Step increment
NULL               .         -9999                         : Missing value
COMP               .         ICPetroleum                   : Company
WELL               .         301                           : Well name
FLD                .         Karatobe                      : Field
LOC                .                                       : Location
SRVC               .                                       : Service Company
CTRY               .         KZ                            : Country
DATE               .         18.12.2004                    : Service Date
LATI               .         0                             : Latitude
LONG               .         0                             : Longitude
GDAT               .         WGS 84                        : Geodetic Datum
CNTY               .                                       : 
COORDIN            .                                       : Grid System
COUNTRY            .         Kazakhstan                    : 
COUNTRY            .         Kazakhstan                    : 
EREF               .m        140.6                         : 
FN                 .         KARATUBE                      : 
KB                 .         140.6                         : KB Elevation
ORIGINALWELLNAME   .         Скважина                      : 
PROV               .                                       : Province
RWS                .         -999                          : Def_Rw
UWI                .                                       : Уникальный идентификатор скважины
WN                 .         301                           : 
WST                .         -999                          : Def_Rwt
X                  .km       466174.48                     : 
XCOORD             .                                       : X or East-West Coordinate
Y                  .km       5307895.19                    : 
YCOORD             .                                       : Y or North-South Coordinate
~Parameter Information Block
#_______________________________________________________________________________
#
#PARAMETER_NAME    .UNIT     VALUE                         : DESCRIPTION
#_______________________________________________________________________________
SET                .         Las                           : 
BS                 .MM       215.90                        : Bit Size
DFD                .G/C3     1.16                          : Drilling Fluid Density
DFV                .S        30.00                         : Drilling Fluid Viscosity
RMS                .OHMM     .00                           : Mud Sample Resistivity
TLFamily_DEPT      .         Measured Depth                : 
TLFamily_PHI_FINAL .         Porosity                      : 
TLFamily_SW_AR     .         Water Saturation              : 
TLFamily_VSH_FINAL .         Shale Volume                  : 
~Curve Information
#_______________________________________________________________________________
#
#LOGNAME           .UNIT     LOG_ID                        : DESCRIPTION
#_______________________________________________________________________________
DEPT               .M                                      : Depth curve {F}
PHI_FINAL          .m3/m3                                  : Porosity {F}
SW_AR              .m3/m3                                  :  {F}
VSH_FINAL          .unitless                               : Vshale {F}
~Ascii
# ...
171.3      0.4502687  0.6116139  0.1960133 
171.4      0.4369376  0.6070921  0.2103682 
171.5      0.4415522  0.6124169  0.2021635 
171.6      0.4611235  0.603205   0.1830205 
171.7      0.4741683  0.5977817  0.1816701 
171.8      0.4875219  0.5873473  0.184294  
171.9      0.4807978  0.5998166  0.1996796 
172        0.485086   0.5970304  0.2000009 
172.1      0.4945065  0.5847574  0.1924342 
172.2      0.5171576  0.5572537  0.1943555 
172.3      0.5033036  0.5709613  0.1973353 
172.4      0.4872097  0.590833   0.1821375 
172.5      0.4550114  0.6317764  0.1947264 
172.6      0.4617381  0.6288043  0.1867441 
172.7      0.4762445  0.6112509  0.1824952 
172.8      0.4839492  0.6009009  0.1783141 
172.9      0.4931076  0.5872878  0.1801369 
173        0.498048   0.5761278  0.188539  
173.1      0.5180779  0.5464146  0.1559406 
173.2      0.5215523  0.5345406  0.1479274 
173.3      0.5144535  0.5346991  0.1548079 
173.4      0.5107287  0.5394183  0.1468341 
173.5      0.4930733  0.5632119  0.1763995 
173.6      0.484757   0.5776298  0.1932487 
173.7      0.4932694  0.5683214  0.1849831 
173.8      0.4977284  0.567017   0.1733271 
173.9      0.4792067  0.5969835  0.1903122 
174        0.4769179  0.6062716  0.2023229 
174.1      0.4682451  0.6181943  0.2184613 
174.2      0.4749079  0.6120067  0.2165583 
174.3      0.4866366  0.6023372  0.2071165 
174.4      0.4912777  0.6021751  0.202907  
174.5      0.5185914  0.5704625  0.1771038 
174.6      0.5298388  0.5531235  0.1562954 
174.7      0.5285441  0.5498433  0.1592652 
174.8      0.5312536  0.5495116  0.1521235 
174.9      0.5263548  0.5612759  0.1741062 
175        0.52319    0.5717084  0.1890894 
175.1      0.5072011  0.5865692  0.2184886 
175.2      0.4979724  0.5835022  0.2232351 
175.3      0.5225176  0.5481803  0.183871  
175.4      0.5278537  0.5391319  0.1577038 
175.5      0.5165207  0.5595873  0.1632241 
175.6      0.5077423  0.5825517  0.1675181 
175.7      0.5180862  0.5774632  0.1732615 
175.8      0.5064651  0.5905749  0.1874001 
175.9      0.514915   0.5815474  0.1827127 
176        0.5214291  0.5758173  0.1663853 
176.1      0.5180002  0.5779835  0.1739014 
176.2      0.5231943  0.5708573  0.1569247 
176.3      0.519453   0.5778891  0.1605016 
176.4      0.5124712  0.5927585  0.1774614 
176.5      0.5195031  0.5912242  0.1712613 
176.6      0.5110771  0.6040615  0.1767629 
176.7      0.5254938  0.5902378  0.158603  
176.8      0.5263362  0.5847214  0.1552072 
176.9      0.4432986  0.6239411  0.1589568 
177        0.3520192  0.6678587  0.1527135 
177.1      0.2585008  0.8358139  0.1416557 
177.2      0.2514075  0.9408323  0.1359517 
177.3      0.3399929  0.7714014  0.1371124 
177.4      0.4582698  0.605433   0.1220754 
177.5      0.5658682  0.5066375  0.1199513 
177.6      0.5769868  0.504538   0.1184313 
177.7      0.5624843  0.5235804  0.131648  
177.8      0.5514129  0.5382897  0.1402214 
177.9      0.5439247  0.5468912  0.1458033 
178        0.5510852  0.5370312  0.1263403 
178.1      0.5428651  0.5405602  0.125805  
178.2      0.5487747  0.5318968  0.1241559 
178.3      0.5481293  0.5329911  0.1296866 
178.4      0.5382906  0.5446457  0.149221  
178.5      0.5371658  0.5448186  0.1442675 
178.6      0.5299857  0.5460026  0.1556905 
178.7      0.5389861  0.5341551  0.1485829 
178.8      0.5227373  0.5556192  0.1647803 
178.9      0.5346588  0.5583081  0.158696  
179        0.5329818  0.5723267  0.1723093 
179.1      0.5446652  0.566091   0.1672768 
179.2      0.5407144  0.5667615  0.1827919 
179.3      0.5416546  0.5635101  0.1854092 
179.4      0.5256923  0.5789422  0.2058315 
179.5      0.5279684  0.5746765  0.1849107 
179.6      0.5055427  0.5933632  0.1912557 
179.7      0.5119913  0.5876122  0.1771248 
179.8      0.5119595  0.5957544  0.1893941 
179.9      0.5441203  0.5679606  0.16117   
180        0.550002   0.5633941  0.1449942 
180.1      0.5517062  0.5621911  0.1419857 
180.2      0.545344   0.5661625  0.1512409 
180.3      0.5452458  0.5560266  0.1622867 
180.4      0.5243708  0.5668548  0.2046805 
180.5      0.519698   0.5642681  0.1965835 
180.6      0.5077576  0.5719171  0.2072365 
180.7      0.5098853  0.565161   0.1969843 
180.8      0.5087721  0.5606453  0.1765136 
180.9      0.49561    0.5719964  0.17939   
181        0.4837645  0.5856324  0.1831736 
181.1      0.4807785  0.5870896  0.1753683 
181.2      0.4721609  0.5923269  0.1795258 
181.3      0.4841833  0.5756159  0.1710954 
181.4      0.5028896  0.5576627  0.1440526 
181.5      0.5161917  0.5508952  0.1305211 
181.6      0.5207205  0.5571327  0.1229903 
181.7      0.5218617  0.5687379  0.1282991 
181.8      0.5261005  0.5752939  0.1223644 
181.9      0.5173076  0.5891699  0.1441381 
182        0.5232297  0.5807785  0.1555194 
182.1      0.5271744  0.5655251  0.162468  
182.2      0.5257118  0.5461524  0.1665182 
182.3      0.5210499  0.5093532  0.1785843 
182.4      0.540124   0.4361262  0.1613896 
182.5      0.5131515  0.4002432  0.163791  
182.6      0.4846547  0.424574   0.1639703 
182.7      0.4369728  0.5285957  0.1863379 
182.8      0.4511459  0.5546557  0.2200537 
182.9      0.4785776  0.5227445  0.2232765 
183        0.4965438  0.4993095  0.2278087 
183.1      0.4638212  0.5349238  0.2571974 
183.2      0.431758   0.5800747  0.2810327 
183.3      0.4160893  0.6025794  0.2919207 
183.4      0.4236302  0.5885697  0.2522117 
183.5      0.4151391  0.5977976  0.2648023 
183.6      0.4125199  0.601603   0.2777151 
183.7      0.4048969  0.6047603  0.3058404 
183.8      0.3850772  0.621529   0.3271225 
183.9      0.3694873  0.6372175  0.3324921 
184        0.2794628  0.8367718  0.2860706 
184.1      0.2832867  0.8337727  0.2632549 
184.2      0.2980784  0.7953922  0.2287786 
184.3      0.3123837  0.7594727  0.2025083 
184.4      0.3088576  0.7804717  0.1869677 
184.5      0.2898274  0.8605166  0.2059846 
184.6      0.2794319  0.9047701  0.2369315 
184.7      0.2772185  0.9089745  0.2803188 
184.8      0.287513   0.86577    0.2908637 
184.9      0.2914789  0.8444139  0.2790329 
185        0.2745447  0.893766   0.3250847 
185.1      0.2755241  0.8935425  0.3358884 
185.2      0.2893893  0.8555132  0.3063205 
185.3      0.2887145  0.8585166  0.3029268 
185.4      0.2999871  0.8264376  0.2905651 
185.5      0.2999487  0.8260797  0.2993546 
185.6      0.2946134  0.8420913  0.331317  
185.7      0.3044643  0.8164468  0.3251847 
185.8      0.2942664  0.8360814  0.3439657 
185.9      0.2953665  0.8130157  0.3330131 
186        0.2896659  0.8221372  0.3541179 
186.1      0.2897316  0.8364661  0.3558498 
186.2      0.2832282  0.8729457  0.3527368 
186.3      0.2879608  0.8677461  0.3110317 
186.4      0.2622132  0.949213   0.347284  
186.5      0.2513154  0.9845803  0.3822637 
186.6      0.2668888  0.9266786  0.4034502 
186.7      0.2723492  0.9062305  0.399799  
186.8      0.2758924  0.8937303  0.4036972 
186.9      0.269217   0.9128284  0.4143064 
187        0.2743939  0.8960351  0.4027481 
187.1      0.2872298  0.8563823  0.3789905 
187.2      0.2820313  0.8637516  0.4140706 
187.3      0.2453629  0.9781931  0.5195218 
187.4      0.2302893  1          0.5668447 
187.5      0.1935622  1          0.6513786 
187.6      0.1813869  1          0.6945691 
187.7      0.1628233  1          0.751835  
187.8      0.2104328  1          0.6226613 
187.9      0.1905017  1          0.6611011 
188        0.2119286  1          0.6086671 
188.1      0.2183872  1          0.6105224 
188.2      0.2513895  0.9607827  0.5095313 
188.3      0.2294273  1          0.5304033 
188.4      0.2360066  0.9737335  0.5095681 
188.5      0.2201157  0.9709605  0.5291836 
188.6      0.2144296  0.9375989  0.5188922 
188.7      0.1951174  1          0.5307233 
188.8      0.1807916  1          0.5278595 
188.9      0.1897198  1          0.4956452 
189        0.1785655  1          0.5539232 
189.1      0.1519927  1          0.6038664 
189.2      0.1114995  1          0.6745673 
189.3      0.02258169 1          0.9366662 
189.4      0.01576166 1          1         
