~Version
 VERS              .         3.0                           : CWLS LOG ASCII STANDARD - VERSION 3.0
 WRAP              .         NO                            : ONE LINE PER DEPTH STEP
 DLM               .         SPACE                         : DELIMITING CHARACTER(SPACE TAB OR COMMA)
~Well Information
#_______________________________________________________________________________
#
#PARAMETER_NAME    .UNIT     VALUE                         : DESCRIPTION
#_______________________________________________________________________________
STRT               .M        9.8                           : First reference value
STOP               .M        883                           : Last reference value
STEP               .M        0.1                           : Step increment
NULL               .         -9999                         : Missing value
COMP               .         ICPetroleum                   : Company
WELL               .         301                           : Well name
FLD                .         Karatobe                      : Field
LOC                .                                       : Location
SRVC               .                                       : Service Company
CTRY               .         KZ                            : Country
DATE               .         18.12.2004                    : Service Date
LATI               .         0                             : Latitude
LONG               .         0                             : Longitude
GDAT               .         WGS 84                        : Geodetic Datum
CNTY               .                                       : 
COORDIN            .                                       : Grid System
COUNTRY            .         Kazakhstan                    : 
COUNTRY            .         Kazakhstan                    : 
EREF               .m        140.6                         : 
FN                 .         KARATUBE                      : 
KB                 .         140.6                         : KB Elevation
ORIGINALWELLNAME   .         Скважина                      : 
PROV               .                                       : Province
RWS                .         -999                          : Def_Rw
UWI                .                                       : Уникальный идентификатор скважины
WN                 .         301                           : 
WST                .         -999                          : Def_Rwt
X                  .km       466174.48                     : 
XCOORD             .                                       : X or East-West Coordinate
Y                  .km       5307895.19                    : 
YCOORD             .                                       : Y or North-South Coordinate
~Parameter Information Block
#_______________________________________________________________________________
#
#PARAMETER_NAME    .UNIT     VALUE                         : DESCRIPTION
#_______________________________________________________________________________
SET                .         Las                           : 
BS                 .MM       215.90                        : Bit Size
DFD                .G/C3     1.16                          : Drilling Fluid Density
DFV                .S        30.00                         : Drilling Fluid Viscosity
RMS                .OHMM     .00                           : Mud Sample Resistivity
TLFamily_DEPT      .         Measured Depth                : 
TLFamily_PHI_FINAL .         Porosity                      : 
TLFamily_SW_AR     .         Water Saturation              : 
TLFamily_VSH_FINAL .         Shale Volume                  : 
~Curve Information
#_______________________________________________________________________________
#
#LOGNAME           .UNIT     LOG_ID                        : DESCRIPTION
#_______________________________________________________________________________
DEPT               .M                                      : Depth curve {F}
PHI_FINAL          .m3/m3                                  : Porosity {F}
SW_AR              .m3/m3                                  :  {F}
VSH_FINAL          .unitless                               : Vshale {F}
~Ascii
# ...
207.7      0.3624167  0.5904366  0.1656653 
207.8      0.3702106  0.5801149  0.1357765 
207.9      0.3704137  0.5932778  0.1345293 
208        0.3771387  0.5894361  0.116407  
208.1      0.3648048  0.6093505  0.1276048 
208.2      0.3636323  0.6086895  0.1286919 
208.3      0.3709509  0.5921222  0.1257996 
208.4      0.3735557  0.5842566  0.1222859 
208.5      0.3718705  0.5864259  0.1261865 
208.6      0.3685847  0.5934897  0.1440516 
208.7      0.3776349  0.582372   0.1349968 
208.8      0.3748174  0.5884731  0.1304687 
208.9      0.3686538  0.5956979  0.1452734 
209        0.3625635  0.5977627  0.1482085 
209.1      0.3607033  0.5948989  0.1430423 
209.2      0.3594635  0.5956824  0.1392394 
209.3      0.3560688  0.6044065  0.1493577 
209.4      0.3624823  0.5992462  0.144807  
209.5      0.3643584  0.6035619  0.1403461 
209.6      0.3547395  0.6281154  0.1589156 
209.7      0.357932   0.6283647  0.1519967 
209.8      0.356999   0.6296316  0.1516925 
209.9      0.3574425  0.6269956  0.1402696 
210        0.3535427  0.6305029  0.1513678 
210.1      0.3582049  0.6204252  0.1535213 
210.2      0.3550304  0.6283787  0.1516081 
210.3      0.3533016  0.6320432  0.1436247 
210.4      0.3577414  0.6151     0.1381226 
210.5      0.3579111  0.5987064  0.1216194 
210.6      0.3502323  0.5974984  0.1366697 
210.7      0.3502576  0.5848208  0.120441  
210.8      0.3466587  0.5852718  0.1176682 
210.9      0.3610146  0.5754963  0.1110793 
211        0.359015   0.5987934  0.1069051 
211.1      0.3678499  0.6013793  0.09429934
211.2      0.3769992  0.5951096  0.08806883
211.3      0.3805737  0.5924945  0.09264786
211.4      0.3834557  0.5914224  0.1062424 
211.5      0.369972   0.6139542  0.1205597 
211.6      0.3646718  0.6222962  0.1294691 
211.7      0.3607177  0.6296194  0.1206914 
211.8      0.3627333  0.6289334  0.1079415 
211.9      0.3709758  0.6168584  0.09434848
212        0.3689027  0.6196539  0.1052536 
212.1      0.3691275  0.6129286  0.1085135 
212.2      0.3355595  0.6546405  0.1032007 
212.3      0.2806027  0.7509733  0.1046111 
212.4      0.1787064  1          0.117745  
212.5      0.1566371  1          0.1176492 
212.6      0.197477   1          0.1066879 
212.7      0.2710607  0.8022876  0.1102028 
212.8      0.3235018  0.7007462  0.1074223 
212.9      0.3517896  0.6585619  0.1097881 
213        0.3687776  0.6385876  0.1109359 
213.1      0.3695427  0.6416793  0.1154001 
213.2      0.3682968  0.644808   0.1161017 
213.3      0.3685655  0.6453349  0.1237242 
213.4      0.3722841  0.6382732  0.1180745 
213.5      0.3653789  0.6431475  0.1226185 
213.6      0.3622211  0.6414309  0.1306589 
213.7      0.3602406  0.6389322  0.1413352 
213.8      0.3674542  0.6213838  0.1278206 
213.9      0.3710065  0.6141328  0.1189655 
214        0.3669327  0.6184782  0.1213078 
214.1      0.3655456  0.6135629  0.1070928 
214.2      0.3666183  0.5996939  0.1024954 
214.3      0.3608122  0.5957224  0.1246388 
214.4      0.3595243  0.5902176  0.1210809 
214.5      0.3615203  0.5893839  0.1049215 
214.6      0.3686342  0.5896147  0.1031128 
214.7      0.3794101  0.5896752  0.1003659 
214.8      0.3896762  0.5905713  0.09969453
214.9      0.3869004  0.6028532  0.1005609 
215        0.381509   0.6130826  0.09713071
215.1      0.369782   0.6276062  0.0825453 
215.2      0.3639243  0.6343189  0.08260164
215.3      0.3662086  0.6322847  0.06160348
215.4      0.3664419  0.6314     0.05998708
215.5      0.3703664  0.6177221  0.0571511 
215.6      0.3695735  0.6142026  0.0575936 
215.7      0.3712359  0.6131099  0.06151805
215.8      0.3660703  0.6238968  0.07086834
215.9      0.3651545  0.621805   0.06823909
216        0.366889   0.6130078  0.06696764
216.1      0.3684885  0.6100293  0.06206886
216.2      0.3730979  0.6134433  0.06096499
216.3      0.3808828  0.6128458  0.05805514
216.4      0.3762122  0.6226578  0.05946416
216.5      0.3725735  0.6236566  0.0596853 
216.6      0.3724504  0.620673   0.06436934
216.7      0.3662713  0.6308742  0.06775463
216.8      0.3617156  0.6384894  0.0768596 
216.9      0.3546769  0.6458602  0.08342808
217        0.3554445  0.6343533  0.08435081
217.1      0.3523464  0.6332844  0.09516365
217.2      0.3452237  0.6499286  0.120233  
217.3      0.3325863  0.6880988  0.1558688 
217.4      0.3237391  0.7173797  0.1792259 
217.5      0.3164448  0.7405053  0.2091439 
217.6      0.3017007  0.77909    0.2530259 
217.7      0.278329   0.8449476  0.3268351 
217.8      0.2384769  0.9771196  0.4449182 
217.9      0.184655   1          0.5959098 
218        0.1433458  1          0.6799369 
218.1      0.1306365  1          0.7032667 
218.2      0.1244213  1          0.6978032 
218.3      0.1303635  1          0.6798047 
218.4      0.08185141 1          0.8058456 
218.5      0.08396657 1          0.8070828 
218.6      0.04509985 1          0.9255711 
218.7      0.04293578 1          0.9273666 
218.8      0.0781012  1          0.8229992 
218.9      0.07975806 1          0.7877681 
219        0.06388858 1          0.8284199 
219.1      0.05447024 1          0.8373557 
219.2      0.05555344 1          0.8082964 
219.3      0.04880504 1          0.8217089 
219.4      0.07483803 1          0.787236  
219.5      0.1092853  1          0.7372478 
219.6      0.1261533  1          0.7429875 
219.7      0.1222988  1          0.7534174 
219.8      0.08992455 1          0.8485545 
219.9      0.04690377 1          0.919565  
220        0.03206075 1          0.8836813 
220.1      0.07038136 1          0.77569   
220.2      0.07974348 1          0.7367721 
220.3      0.135917   1          0.6397309 
220.4      0.1747769  1          0.5811221 
220.5      0.1755384  1          0.6260734 
220.6      0.1354166  1          0.7348252 
220.7      0.1032512  1          0.8431242 
220.8      0.07408485 1          0.9252323 
220.9      0.06235018 1          1         
221        0.06496172 1          1         
221.1      0.07182819 1          1         
221.2      0.06987972 1          1         
221.3      0.07057963 1          1         
221.4      0.06459165 1          1         
221.5      0.06985766 1          0.9608212 
221.6      0.08214479 1          0.9072312 
221.7      0.06187978 1          0.9728878 
221.8      0.0702177  1          0.9506465 
221.9      0.08633304 1          0.9208643 
222        0.06824321 1          0.952667  
222.1      0.07358894 1          0.9101191 
222.2      0.06205337 1          0.9016558 
222.3      0.07840216 1          0.8294904 
222.4      0.08571089 1          0.7916741 
222.5      0.07610979 1          0.7766839 
222.6      0.1170353  1          0.6616701 
222.7      0.1144248  1          0.6686623 
222.8      0.07732967 1          0.7913161 
222.9      0.05069386 1          0.8622858 
223        0.07481673 1          0.8231278 
223.1      0.1078546  1          0.7849084 
223.2      0.1347474  1          0.7268035 
223.3      0.1509796  1          0.6819553 
223.4      0.1802833  1          0.6156194 
223.5      0.1342409  1          0.7464975 
223.6      0.1355188  1          0.7512867 
223.7      0.1545909  1          0.7120083 
223.8      0.1086213  1          0.7673344 
223.9      0.08046988 1          0.7186695 
224        0.05020016 1          0.7440386 
224.1      0.07982703 1          0.6723548 
224.2      0.1147217  1          0.6110131 
224.3      0.1494264  1          0.5556748 
224.4      0.1471329  1          0.5657764 
224.5      0.114719   1          0.5871072 
224.6      0.07467043 1          0.5995936 
224.7      0.05240188 1          0.6738971 
224.8      0.04341568 1          0.7596089 
224.9      0.0757205  1          0.7082829 
225        0.07915495 1          0.6843431 
225.1      0.0804508  1          0.6909177 
225.2      0.09431118 1          0.7097089 
225.3      0.04058089 1          0.8979431 
225.4      0.01686744 1          1         
225.5      0.01753153 1          1         
225.6      0.01844701 1          1         
225.7      0.03047087 1          1         
225.8      0.03072215 1          1         
