~Version
 VERS              .         3.0                           : CWLS LOG ASCII STANDARD - VERSION 3.0
 WRAP              .         NO                            : ONE LINE PER DEPTH STEP
 DLM               .         SPACE                         : DELIMITING CHARACTER(SPACE TAB OR COMMA)
~Well Information
#_______________________________________________________________________________
#
#PARAMETER_NAME    .UNIT     VALUE                         : DESCRIPTION
#_______________________________________________________________________________
STRT               .M        9.8                           : First reference value
STOP               .M        883                           : Last reference value
STEP               .M        0.1                           : Step increment
NULL               .         -9999                         : Missing value
COMP               .         ICPetroleum                   : Company
WELL               .         301                           : Well name
FLD                .         Karatobe                      : Field
LOC                .                                       : Location
SRVC               .                                       : Service Company
CTRY               .         KZ                            : Country
DATE               .         18.12.2004                    : Service Date
LATI               .         0                             : Latitude
LONG               .         0                             : Longitude
GDAT               .         WGS 84                        : Geodetic Datum
CNTY               .                                       : 
COORDIN            .                                       : Grid System
COUNTRY            .         Kazakhstan                    : 
COUNTRY            .         Kazakhstan                    : 
EREF               .m        140.6                         : 
FN                 .         KARATUBE                      : 
KB                 .         140.6                         : KB Elevation
ORIGINALWELLNAME   .         Скважина                      : 
PROV               .                                       : Province
RWS                .         -999                          : Def_Rw
UWI                .                                       : Уникальный идентификатор скважины
WN                 .         301                           : 
WST                .         -999                          : Def_Rwt
X                  .km       466174.48                     : 
XCOORD             .                                       : X or East-West Coordinate
Y                  .km       5307895.19                    : 
YCOORD             .                                       : Y or North-South Coordinate
~Parameter Information Block
#_______________________________________________________________________________
#
#PARAMETER_NAME    .UNIT     VALUE                         : DESCRIPTION
#_______________________________________________________________________________
SET                .         Las                           : 
BS                 .MM       215.90                        : Bit Size
DFD                .G/C3     1.16                          : Drilling Fluid Density
DFV                .S        30.00                         : Drilling Fluid Viscosity
RMS                .OHMM     .00                           : Mud Sample Resistivity
TLFamily_DEPT      .         Measured Depth                : 
TLFamily_PHI_FINAL .         Porosity                      : 
TLFamily_SW_AR     .         Water Saturation              : 
TLFamily_VSH_FINAL .         Shale Volume                  : 
~Curve Information
#_______________________________________________________________________________
#
#LOGNAME           .UNIT     LOG_ID                        : DESCRIPTION
#_______________________________________________________________________________
DEPT               .M                                      : Depth curve {F}
PHI_FINAL          .m3/m3                                  : Porosity {F}
SW_AR              .m3/m3                                  :  {F}
VSH_FINAL          .unitless                               : Vshale {F}
~Ascii
# ...
553.2      0.06210411 1          0.8068463 
553.3      0.06029083 1          0.8536261 
553.4      0.08050605 1          0.8549252 
553.5      0.08456699 1          0.8565168 
553.6      0.07027626 1          0.8663035 
553.7      0.05264972 1          0.8735222 
553.8      0.04837117 1          0.8511329 
553.9      0.007653451 1          0.9652659 
554        0          1          1         
554.1      0          1          1         
554.2      0          1          1         
554.3      0          1          0.9878236 
554.4      0.01259978 1          0.8557302 
554.5      0.01031861 1          0.8755314 
554.6      0.0397987  1          0.7685636 
554.7      0.05323057 1          0.706781  
554.8      0.03939971 1          0.6854592 
554.9      0.03457776 1          0.5988842 
555        0.02050968 1          0.5420426 
555.1      0.02815282 1          0.4372508 
555.2      0.03963429 1          0.3751076 
555.3      0.05455916 1          0.3587812 
555.4      0.1046669  1          0.3448868 
555.5      0.1428449  1          0.3296414 
555.6      0.1677468  1          0.360686  
555.7      0.17873    1          0.3818343 
555.8      0.1828904  1          0.4095886 
555.9      0.1672204  1          0.4575486 
556        0.1833849  1          0.4299769 
556.1      0.1937405  1          0.3967955 
556.2      0.1989374  1          0.3977782 
556.3      0.2116831  1          0.3777976 
556.4      0.2054384  1          0.3908828 
556.5      0.2145219  1          0.3737243 
556.6      0.2228181  1          0.3680641 
556.7      0.2287991  1          0.3843228 
556.8      0.2281755  1          0.3852806 
556.9      0.2254854  1          0.3661048 
557        0.2366166  1          0.3221674 
557.1      0.2368185  1          0.3151787 
557.2      0.2419442  1          0.303627  
557.3      0.2507529  1          0.2942712 
557.4      0.2326624  1          0.3447454 
557.5      0.2326026  1          0.3286344 
557.6      0.2191854  1          0.3450482 
557.7      0.189383   1          0.3979742 
557.8      0.1803804  1          0.4253949 
557.9      0.1652368  1          0.4819279 
558        0.1543919  1          0.5254721 
558.1      0.1355324  1          0.5933245 
558.2      0.1272414  1          0.6060801 
558.3      0.1044925  1          0.6523345 
558.4      0.09925679 1          0.6641194 
558.5      0.1199001  1          0.6047276 
558.6      0.1422568  1          0.5670848 
558.7      0.1533104  1          0.5144963 
558.8      0.1334867  1          0.5705255 
558.9      0.1224627  1          0.5902817 
559        0.1193     1          0.6155709 
559.1      0.08851331 1          0.6989357 
559.2      0.0895089  1          0.7036559 
559.3      0.05908404 1          0.7910196 
559.4      0.08800266 1          0.7144086 
559.5      0.1058647  1          0.664301  
559.6      0.1153683  1          0.6446415 
559.7      0.1219056  1          0.6259379 
559.8      0.1423872  1          0.5950595 
559.9      0.1573667  1          0.5829518 
560        0.1660517  1          0.5869769 
560.1      0.1482557  1          0.6438928 
560.2      0.1168255  1          0.7238265 
560.3      0.07078307 1          0.833477  
560.4      0.05084378 1          0.8631717 
560.5      0.02220659 1          0.9268773 
560.6      0.07804094 1          0.7549987 
560.7      0.08102274 1          0.7507499 
560.8      0.09215807 1          0.7020202 
560.9      0.09971929 1          0.6787969 
561        0.09269591 1          0.6943277 
561.1      0.09202161 1          0.7118849 
561.2      0.0953888  1          0.7044564 
561.3      0.08717117 1          0.7168026 
561.4      0.1117937  1          0.6358609 
561.5      0.09944221 1          0.661436  
561.6      0.07044668 1          0.7137386 
561.7      0.08320641 1          0.6811873 
561.8      0.05450803 1          0.7586231 
561.9      0.05076116 1          0.8001624 
562        0.0577489  1          0.8104131 
562.1      0.07822251 1          0.7466639 
562.2      0.08510774 1          0.7226337 
562.3      0.1159076  1          0.652377  
562.4      0.09844702 1          0.6965434 
562.5      0.09976871 1          0.701722  
562.6      0.08951722 1          0.7266198 
562.7      0.07634456 1          0.776815  
562.8      0.0966893  1          0.7206681 
562.9      0.1097281  1          0.6821887 
563        0.1036767  1          0.7013787 
563.1      0.1105824  1          0.6826698 
563.2      0.07620634 1          0.7703551 
563.3      0.09799486 1          0.714403  
563.4      0.07843897 1          0.7544945 
563.5      0.07848944 1          0.7413368 
563.6      0.07451452 1          0.7526951 
563.7      0.06610488 1          0.7765404 
563.8      0.03675064 1          0.8407974 
563.9      0.0382307  1          0.8489214 
564        0.03050773 1          0.8684542 
564.1      0.05633613 1          0.7925358 
564.2      0.05712488 1          0.7774603 
564.3      0.06965349 1          0.7290252 
564.4      0.0889881  1          0.6944718 
564.5      0.114395   1          0.6099562 
564.6      0.08817229 1          0.6711847 
564.7      0.08701712 1          0.6771227 
564.8      0.09965291 1          0.642334  
564.9      0.07560272 1          0.7078635 
565        0.07117136 1          0.7131078 
565.1      0.1240058  1          0.5715246 
565.2      0.1498907  1          0.5130923 
565.3      0.1359842  1          0.5468932 
565.4      0.1269613  1          0.5811766 
565.5      0.1078751  1          0.6272844 
565.6      0.1358178  1          0.5632906 
565.7      0.1297733  1          0.5802912 
565.8      0.1093003  1          0.6304783 
565.9      0.1115878  1          0.6358734 
566        0.1246344  1          0.6093478 
566.1      0.1314595  1          0.5966167 
566.2      0.1209707  1          0.6296342 
566.3      0.1132608  1          0.6427771 
566.4      0.1002084  1          0.6731399 
566.5      0.06620028 1          0.7603111 
566.6      0.0711784  1          0.7583725 
566.7      0.01938994 1          0.9276833 
566.8      0.008332098 1          0.9786909 
566.9      0.006118814 1          0.9824273 
567        0.00519235 1          0.9944082 
567.1      0.004828032 1          1         
567.2      0.008329771 1          0.9695465 
567.3      0.01146507 1          0.9422869 
567.4      0.03552485 1          0.838053  
567.5      0.0679728  1          0.7523319 
567.6      0.06546307 1          0.7501577 
567.7      0.04435502 1          0.8008213 
567.8      0.08315983 1          0.7051777 
567.9      0.1133176  1          0.6371291 
568        0.1409264  1          0.5725468 
568.1      0.1172627  1          0.6314268 
568.2      0.1325058  1          0.5915275 
568.3      0.11741    1          0.6229522 
568.4      0.1433715  1          0.5569067 
568.5      0.1491195  1          0.5357983 
568.6      0.1459489  1          0.552435  
568.7      0.1495723  1          0.5473072 
568.8      0.1533216  1          0.5378305 
568.9      0.1556184  1          0.5349013 
569        0.1414369  1          0.5640749 
569.1      0.1425182  1          0.551036  
569.2      0.1517676  1          0.5228493 
569.3      0.1697979  1          0.4975176 
569.4      0.1711661  1          0.4865236 
569.5      0.1580745  1          0.5280143 
569.6      0.176508   1          0.4925152 
569.7      0.1663017  1          0.5257987 
569.8      0.1776433  1          0.5120795 
569.9      0.1985702  1          0.4492453 
570        0.2030192  1          0.4302954 
570.1      0.1919224  1          0.4517281 
570.2      0.1748762  1          0.4755895 
570.3      0.1664429  1          0.5102382 
570.4      0.1607692  1          0.5278507 
570.5      0.159775   1          0.5290802 
570.6      0.1507932  1          0.542062  
570.7      0.1408311  1          0.5450464 
570.8      0.1187658  1          0.5463092 
570.9      0.0731951  1          0.4880545 
571        0.04088993 1          0.4916626 
571.1      0.04036204 1          0.4522162 
571.2      0.03949858 1          0.479515  
571.3      0.04758899 1          0.4187894 
