~Version
 VERS              .         3.0                           : CWLS LOG ASCII STANDARD - VERSION 3.0
 WRAP              .         NO                            : ONE LINE PER DEPTH STEP
 DLM               .         SPACE                         : DELIMITING CHARACTER(SPACE TAB OR COMMA)
~Well Information
#_______________________________________________________________________________
#
#PARAMETER_NAME    .UNIT     VALUE                         : DESCRIPTION
#_______________________________________________________________________________
STRT               .M        9.8                           : First reference value
STOP               .M        883                           : Last reference value
STEP               .M        0.1                           : Step increment
NULL               .         -9999                         : Missing value
COMP               .         ICPetroleum                   : Company
WELL               .         301                           : Well name
FLD                .         Karatobe                      : Field
LOC                .                                       : Location
SRVC               .                                       : Service Company
CTRY               .         KZ                            : Country
DATE               .         18.12.2004                    : Service Date
LATI               .         0                             : Latitude
LONG               .         0                             : Longitude
GDAT               .         WGS 84                        : Geodetic Datum
CNTY               .                                       : 
COORDIN            .                                       : Grid System
COUNTRY            .         Kazakhstan                    : 
COUNTRY            .         Kazakhstan                    : 
EREF               .m        140.6                         : 
FN                 .         KARATUBE                      : 
KB                 .         140.6                         : KB Elevation
ORIGINALWELLNAME   .         Скважина                      : 
PROV               .                                       : Province
RWS                .         -999                          : Def_Rw
UWI                .                                       : Уникальный идентификатор скважины
WN                 .         301                           : 
WST                .         -999                          : Def_Rwt
X                  .km       466174.48                     : 
XCOORD             .                                       : X or East-West Coordinate
Y                  .km       5307895.19                    : 
YCOORD             .                                       : Y or North-South Coordinate
~Parameter Information Block
#_______________________________________________________________________________
#
#PARAMETER_NAME    .UNIT     VALUE                         : DESCRIPTION
#_______________________________________________________________________________
SET                .         Las                           : 
BS                 .MM       215.90                        : Bit Size
DFD                .G/C3     1.16                          : Drilling Fluid Density
DFV                .S        30.00                         : Drilling Fluid Viscosity
RMS                .OHMM     .00                           : Mud Sample Resistivity
TLFamily_DEPT      .         Measured Depth                : 
TLFamily_PHI_FINAL .         Porosity                      : 
TLFamily_SW_AR     .         Water Saturation              : 
TLFamily_VSH_FINAL .         Shale Volume                  : 
~Curve Information
#_______________________________________________________________________________
#
#LOGNAME           .UNIT     LOG_ID                        : DESCRIPTION
#_______________________________________________________________________________
DEPT               .M                                      : Depth curve {F}
PHI_FINAL          .m3/m3                                  : Porosity {F}
SW_AR              .m3/m3                                  :  {F}
VSH_FINAL          .unitless                               : Vshale {F}
~Ascii
# ...
698.7      0.04818205 1          0.2776411 
698.8      0.05870475 1          0.2498639 
698.9      0.06108948 1          0.2297557 
699        0.06829467 1          0.2272584 
699.1      0.07242217 1          0.2372245 
699.2      0.06422408 1          0.2310981 
699.3      0.06105922 1          0.237859  
699.4      0.05224502 1          0.2638271 
699.5      0.06216428 1          0.2561016 
699.6      0.05832468 1          0.2771561 
699.7      0.0497627  1          0.2802668 
699.8      0.06281674 1          0.2838834 
699.9      0.05381894 1          0.3004755 
700        0.05840484 1          0.2908835 
700.1      0.0456912  1          0.2681099 
700.2      0.04922142 1          0.2661074 
700.3      0.06391392 1          0.234153  
700.4      0.05943543 1          0.2173798 
700.5      0.0524237  1          0.2292196 
700.6      0.05395477 1          0.2260138 
700.7      0.06086883 1          0.2245064 
700.8      0.05825511 1          0.2253926 
700.9      0.06109197 1          0.2257475 
701        0.05353046 1          0.2314567 
701.1      0.05001825 1          0.2293983 
701.2      0.04915497 1          0.2343333 
701.3      0.06282263 1          0.2418632 
701.4      0.06098533 1          0.2681099 
701.5      0.05764502 1          0.2934669 
701.6      0.06499337 1          0.3164829 
701.7      0.06313676 1          0.3247952 
701.8      0.08797052 1          0.3283602 
701.9      0.07086065 1          0.3485342 
702        0.03011762 1          0.4030603 
702.1      0.01129039 1          0.4010729 
702.2      0          1          0.3847951 
702.3      0          1          0.3884573 
702.4      0.01183959 1          0.3412056 
702.5      0.02337834 1          0.3359738 
702.6      0.02516737 1          0.337891  
702.7      0.02725435 1          0.3247952 
702.8      0.01943154 1          0.3133931 
702.9      0.02372799 1          0.326785  
703        0.02781479 1          0.3268899 
703.1      0.03523872 1          0.3116487 
703.2      0.0301061  1          0.3310995 
703.3      0.02219183 1          0.3600079 
703.4      0.02002992 1          0.3733584 
703.5      0.01543704 1          0.3989744 
703.6      0.01313674 1          0.3847951 
703.7      0.004925016 1          0.392715  
703.8      0.01409415 1          0.38754   
703.9      0.02530349 1          0.3654285 
704        0.0164731  1          0.3474515 
704.1      0.02211656 1          0.3122639 
704.2      0.0303812  1          0.2981641 
704.3      0.01019542 1          0.3027956 
704.4      0.00753691 1          0.3058345 
704.5      0.01715763 1          0.3051241 
704.6      0.02949773 1          0.299168  
704.7      0.03422397 1          0.3030988 
704.8      0.0595109  1          0.2751233 
704.9      0.06479536 1          0.2771561 
705        0.04786894 1          0.288706  
705.1      0.02982317 1          0.2740614 
705.2      0.03473261 1          0.247369  
705.3      0.04252879 1          0.2368623 
705.4      0.02774295 1          0.237134  
705.5      0.0461469  1          0.2305608 
705.6      0.06039608 1          0.2301134 
705.7      0.06212332 1          0.2242408 
705.8      0.05273741 1          0.234153  
705.9      0.04700997 1          0.251626  
706        0.06071227 1          0.2570383 
706.1      0.0600341  1          0.2453441 
706.2      0.07017736 1          0.2388574 
706.3      0.07126974 1          0.2431432 
706.4      0.04686499 1          0.2701191 
706.5      0.03427351 1          0.2869301 
706.6      0.02767857 1          0.2693529 
706.7      0.007293267 1          0.2946628 
706.8      0.03438823 1          0.2585402 
706.9      0.05746164 1          0.2520906 
707        0.05740242 1          0.2482918 
707.1      0.04627953 1          0.2681099 
707.2      0.05636236 1          0.2818281 
707.3      0.05473819 1          0.2773501 
707.4      0.0473851  1          0.2743508 
707.5      0.0536563  1          0.2870286 
707.6      0.04999796 1          0.2934669 
707.7      0.05276443 1          0.296061  
707.8      0.05635477 1          0.3118537 
707.9      0.07041147 1          0.296061  
708        0.06319337 1          0.3226029 
708.1      0.05680635 1          0.3143185 
708.2      0.05940099 1          0.289497  
708.3      0.03802827 1          0.2981641 
708.4      0.03988969 1          0.2778353 
708.5      0.03550085 1          0.2567571 
708.6      0.03852595 1          0.2844719 
708.7      0.0417139  1          0.2816328 
708.8      0.0442049  1          0.2631636 
708.9      0.03187286 1          0.2470924 
709        0.03199497 1          0.2406772 
709.1      0.05070324 1          0.251069  
709.2      0.04443051 1          0.2643964 
709.3      0.04676127 1          0.292472  
709.4      0.05710797 1          0.2792931 
709.5      0.05633361 1          0.2819259 
709.6      0.06235268 1          0.261461  
709.7      0.0754092  1          0.2630689 
709.8      0.07327747 1          0.2823169 
709.9      0.0618627  1          0.2871272 
710        0.05399223 1          0.3018867 
710.1      0.04945859 1          0.3033011 
710.2      0.05547332 1          0.3068507 
710.3      0.04327703 1          0.3103181 
710.4      0.04664644 1          0.2948623 
710.5      0.04488079 1          0.2768654 
710.6      0.06950805 1          0.241133  
710.7      0.07467814 1          0.2175547 
710.8      0.06701141 1          0.2236216 
710.9      0.07321846 1          0.2185174 
711        0.07245109 1          0.2251266 
711.1      0.05263008 1          0.2445177 
711.2      0.06197252 1          0.2487537 
711.3      0.07977539 1          0.2782236 
711.4      0.08996498 1          0.2735792 
711.5      0.09035095 1          0.2802668 
711.6      0.1001413  1          0.2549794 
711.7      0.101091   1          0.2717505 
711.8      0.1057101  1          0.2600459 
711.9      0.09274168 1          0.2361386 
712        0.0841065  1          0.241498  
712.1      0.07644905 1          0.2235332 
712.2      0.06739144 1          0.2243293 
712.3      0.04488258 1          0.2408595 
712.4      0.04684037 1          0.2302028 
712.5      0.04357539 1          0.2253039 
712.6      0.04304302 1          0.253114  
712.7      0.05540798 1          0.2550728 
712.8      0.04417153 1          0.2472768 
712.9      0.04666474 1          0.2608002 
713        0.05546496 1          0.2628795 
713.1      0.07279525 1          0.2499565 
713.2      0.06785487 1          0.2487537 
713.3      0.0558349  1          0.2236216 
713.4      0.05828462 1          0.2172924 
713.5      0.09059273 1          0.2014446 
713.6      0.09567658 1          0.21216   
713.7      0.1009602  1          0.1941957 
713.8      0.1146605  1          0.2016144 
713.9      0.1024666  1          0.1990736 
714        0.1207832  1          0.1967972 
714.1      0.129582   1          0.1968814 
714.2      0.1354698  1          0.2108628 
714.3      0.1473888  1          0.2043381 
714.4      0.1364252  1          0.2276144 
714.5      0.131958   1          0.2328032 
714.6      0.139719   1          0.2144158 
714.7      0.1392823  1          0.2119003 
714.8      0.1303061  1          0.2124198 
714.9      0.1331412  1          0.2187802 
715        0.13       1          0.2134603 
715.1      0.1292082  1          0.2241523 
715.2      0.114482   1          0.2402217 
715.3      0.1161284  1          0.2326235 
715.4      0.1162139  1          0.2343333 
715.5      0.1046735  1          0.22557   
715.6      0.09679937 1          0.2183422 
715.7      0.0712485  1          0.2252152 
715.8      0.05616466 1          0.2365003 
715.9      0.06424092 1          0.229041  
716        0.06490014 1          0.2207996 
716.1      0.04536027 1          0.2352352 
716.2      0.045427   1          0.2310086 
716.3      0.04458893 1          0.2398576 
716.4      0.04470949 1          0.2634479 
716.5      0.04412439 1          0.2814375 
716.6      0.0646788  1          0.2855523 
716.7      0.06145224 1          0.3105226 
716.8      0.06726526 1          0.3187582 
