~Version
 VERS              .         3.0                           : CWLS LOG ASCII STANDARD - VERSION 3.0
 WRAP              .         NO                            : ONE LINE PER DEPTH STEP
 DLM               .         SPACE                         : DELIMITING CHARACTER(SPACE TAB OR COMMA)
~Well Information
#_______________________________________________________________________________
#
#PARAMETER_NAME    .UNIT     VALUE                         : DESCRIPTION
#_______________________________________________________________________________
STRT               .M        9.8                           : First reference value
STOP               .M        883                           : Last reference value
STEP               .M        0.1                           : Step increment
NULL               .         -9999                         : Missing value
COMP               .         ICPetroleum                   : Company
WELL               .         301                           : Well name
FLD                .         Karatobe                      : Field
LOC                .                                       : Location
SRVC               .                                       : Service Company
CTRY               .         KZ                            : Country
DATE               .         18.12.2004                    : Service Date
LATI               .         0                             : Latitude
LONG               .         0                             : Longitude
GDAT               .         WGS 84                        : Geodetic Datum
CNTY               .                                       : 
COORDIN            .                                       : Grid System
COUNTRY            .         Kazakhstan                    : 
COUNTRY            .         Kazakhstan                    : 
EREF               .m        140.6                         : 
FN                 .         KARATUBE                      : 
KB                 .         140.6                         : KB Elevation
ORIGINALWELLNAME   .         Скважина                      : 
PROV               .                                       : Province
RWS                .         -999                          : Def_Rw
UWI                .                                       : Уникальный идентификатор скважины
WN                 .         301                           : 
WST                .         -999                          : Def_Rwt
X                  .km       466174.48                     : 
XCOORD             .                                       : X or East-West Coordinate
Y                  .km       5307895.19                    : 
YCOORD             .                                       : Y or North-South Coordinate
~Parameter Information Block
#_______________________________________________________________________________
#
#PARAMETER_NAME    .UNIT     VALUE                         : DESCRIPTION
#_______________________________________________________________________________
SET                .         Las                           : 
BS                 .MM       215.90                        : Bit Size
DFD                .G/C3     1.16                          : Drilling Fluid Density
DFV                .S        30.00                         : Drilling Fluid Viscosity
RMS                .OHMM     .00                           : Mud Sample Resistivity
TLFamily_DEPT      .         Measured Depth                : 
TLFamily_PHI_FINAL .         Porosity                      : 
TLFamily_SW_AR     .         Water Saturation              : 
TLFamily_VSH_FINAL .         Shale Volume                  : 
~Curve Information
#_______________________________________________________________________________
#
#LOGNAME           .UNIT     LOG_ID                        : DESCRIPTION
#_______________________________________________________________________________
DEPT               .M                                      : Depth curve {F}
PHI_FINAL          .m3/m3                                  : Porosity {F}
SW_AR              .m3/m3                                  :  {F}
VSH_FINAL          .unitless                               : Vshale {F}
~Ascii
# ...
262.3      0.1399975  1          0.6240673 
262.4      0.1220991  1          0.6840661 
262.5      0.07306901 1          0.8060247 
262.6      0.0382801  1          0.9063829 
262.7      0.02589917 1          0.9406434 
262.8      0.0338039  1          0.9231505 
262.9      0.03699264 1          0.8944132 
263        0.03879179 1          0.8896296 
263.1      0.03737231 1          0.907356  
263.2      0.03052535 1          0.921533  
263.3      0.02544793 1          0.9187176 
263.4      0.03641345 1          0.9022253 
263.5      0.04564327 1          0.887769  
263.6      0.04430171 1          0.8837974 
263.7      0.04238981 1          0.8906566 
263.8      0.03951818 1          0.8992542 
263.9      0.03285371 1          0.9031883 
264        0.03496403 1          0.8961152 
264.1      0.03427808 1          0.8730948 
264.2      0.03035767 1          0.8511447 
264.3      0.02040709 1          0.86058   
264.4      0.008737762 1          0.8989679 
264.5      0.007562332 1          0.9304077 
264.6      0.01118671 1          0.9463962 
264.7      0.01650703 1          0.950169  
264.8      0.01759865 1          0.9497361 
264.9      0.02204758 1          0.950494  
265        0.02387102 1          0.9439359 
265.1      0.0308166  1          0.9181169 
265.2      0.02919453 1          0.9062858 
265.3      0.01924476 1          0.9264053 
265.4      0.01158916 1          0.9608129 
265.5      0.01587328 1          0.9813386 
265.6      0.02296601 1          0.9886568 
265.7      0.02114601 1          0.9886568 
265.8      0.022768   1          0.9829795 
265.9      0.02277898 1          0.9604794 
266        0.03289123 1          0.914928  
266.1      0.03028342 1          0.8542938 
266.2      0.02278827 1          0.8208534 
266.3      0.006699014 1          0.8276758 
266.4      0.0009556209 1          0.8470954 
266.5      0          1          0.8645918 
266.6      0          1          0.8743499 
266.7      0          1          0.8823295 
266.8      0          1          0.8846254 
266.9      0.001131545 1          0.8810494 
267        0.001889674 1          0.8765106 
267.1      0.00312905 1          0.8754288 
267.2      0.004269249 1          0.8721114 
267.3      0.009251124 1          0.8513991 
267.4      0.01408715 1          0.8126767 
267.5      0.02658848 1          0.7798195 
267.6      0.05401008 1          0.7279264 
267.7      0.08673464 1          0.6760681 
267.8      0.1074976  1          0.6500311 
267.9      0.1193532  1          0.6328675 
268        0.1241825  1          0.6224745 
268.1      0.1346364  1          0.6127179 
268.2      0.1449356  0.9386101  0.5983517 
268.3      0.1514734  0.8725118  0.5766178 
268.4      0.1625925  0.7939032  0.5575075 
268.5      0.1703363  0.7536317  0.5518854 
268.6      0.1745203  0.7352541  0.5506734 
268.7      0.1700514  0.7451349  0.5428437 
268.8      0.1733884  0.7201256  0.5317994 
268.9      0.1816068  0.6751225  0.5172427 
269        0.1831663  0.654487   0.501081  
269.1      0.1839046  0.633626   0.4808972 
269.2      0.195851   0.5801921  0.4606706 
269.3      0.2040363  0.5481196  0.4478    
269.4      0.2086053  0.5311911  0.4403927 
269.5      0.2180212  0.5022833  0.430293  
269.6      0.2275677  0.4671108  0.4074372 
269.7      0.2448131  0.4121693  0.3673407 
269.8      0.2634343  0.3545965  0.3089989 
269.9      0.2899604  0.3011597  0.2565172 
270        0.30189    0.2811349  0.2342749 
270.1      0.3065693  0.2741879  0.2266716 
270.2      0.3136795  0.266582   0.2219911 
270.3      0.3136453  0.2662883  0.2211151 
270.4      0.3093558  0.2741904  0.2328935 
270.5      0.2950469  0.2977229  0.2601199 
270.6      0.2701613  0.3539436  0.3248636 
270.7      0.2368658  0.4539577  0.4140874 
270.8      0.1971714  0.614354   0.5056022 
270.9      0.1762698  0.7190679  0.5416979 
271        0.1783689  0.6845796  0.5150576 
271.1      0.16996    0.6872293  0.4855747 
271.2      0.153172   0.759792   0.4869851 
271.3      0.1347024  0.8527212  0.4826322 
271.4      0.137903   0.7942306  0.4480191 
271.5      0.173256   0.5953686  0.3964898 
271.6      0.2176103  0.4492486  0.3491929 
271.7      0.2393115  0.402858   0.3354806 
271.8      0.2641336  0.341851   0.2843746 
271.9      0.2765801  0.3202866  0.2687469 
272        0.2797279  0.3098987  0.252618  
272.1      0.3019446  0.2799079  0.2312237 
272.2      0.3136469  0.2670493  0.2231921 
272.3      0.3152061  0.26949    0.2332062 
272.4      0.3140136  0.2778819  0.2528497 
272.5      0.3069805  0.2905547  0.2696319 
272.6      0.3017242  0.2985781  0.2775208 
272.7      0.3012533  0.3003691  0.2807779 
272.8      0.2999392  0.3009598  0.2792079 
272.9      0.3061254  0.2916308  0.2703977 
273        0.307946   0.2869189  0.262665  
273.1      0.3049311  0.2885311  0.2599823 
273.2      0.3062941  0.2891656  0.2646291 
273.3      0.301529   0.3000664  0.2806744 
273.4      0.2951529  0.3124061  0.2951889 
273.5      0.2849198  0.328321   0.3069623 
273.6      0.2808731  0.3364667  0.3148783 
273.7      0.2774798  0.3442581  0.3230903 
273.8      0.276435   0.3504715  0.3334008 
273.9      0.2744817  0.355955   0.3397444 
274        0.2757609  0.3544636  0.3398881 
274.1      0.2776409  0.3493405  0.3340378 
274.2      0.2826677  0.3376219  0.3216909 
274.3      0.2812532  0.3339868  0.3104663 
274.4      0.2820895  0.3314667  0.3070285 
274.5      0.2760133  0.3370774  0.3042772 
274.6      0.2764154  0.3343337  0.2993715 
274.7      0.2719103  0.3402562  0.3008261 
274.8      0.2767341  0.3343208  0.3001307 
274.9      0.2817456  0.3221233  0.2855457 
275        0.2981108  0.2918299  0.2527145 
275.1      0.3120632  0.2651502  0.2145253 
275.2      0.3286358  0.2397028  0.1767096 
275.3      0.3249785  0.2427553  0.1782167 
275.4      0.3147936  0.2614112  0.2101911 
275.5      0.3031048  0.2859415  0.2493301 
275.6      0.2894163  0.3065012  0.2679641 
275.7      0.2894549  0.3018928  0.2570829 
275.8      0.2909193  0.2917025  0.2356425 
275.9      0.3020242  0.2674916  0.1984215 
276        0.3133613  0.2460731  0.1630061 
276.1      0.3192183  0.2385757  0.1532097 
276.2      0.3121409  0.2444389  0.1554506 
276.3      0.3001853  0.2551548  0.1598012 
276.4      0.2998127  0.256525   0.1628514 
276.5      0.298453   0.2598359  0.169069  
276.6      0.3007473  0.2631491  0.1835848 
276.7      0.2966937  0.2716891  0.1974939 
276.8      0.2934923  0.2748416  0.1984215 
276.9      0.2950726  0.2677366  0.183048  
277        0.3152464  0.2366944  0.1387785 
277.1      0.3456085  0.1990301  0.07558901
277.2      0.3592043  0.1856372  0.0512601 
277.3      0.348511   0.2010784  0.08889148
277.4      0.3156548  0.2472959  0.1716525 
277.5      0.2885875  0.2962744  0.2414037 
277.6      0.274617   0.3322478  0.2903916 
277.7      0.2674891  0.3474306  0.3046942 
277.8      0.2656153  0.3461208  0.297167  
277.9      0.2762755  0.3238154  0.2759225 
278        0.2869556  0.3008394  0.2486031 
278.1      0.293804   0.2845302  0.2243426 
278.2      0.303358   0.2658982  0.1971066 
278.3      0.3093268  0.2539786  0.1771259 
278.4      0.3146512  0.2452592  0.163424  
278.5      0.3163125  0.24215    0.1577498 
278.6      0.3168595  0.2417496  0.1577346 
278.7      0.3184171  0.2423498  0.1629288 
278.8      0.322994   0.2340169  0.1472444 
278.9      0.3281457  0.2227285  0.1220529 
279        0.3337703  0.2159441  0.1111839 
279.1      0.3299754  0.2251524  0.1338116 
279.2      0.318844   0.2445687  0.1705005 
279.3      0.3030793  0.2647429  0.193304  
279.4      0.3032976  0.2628817  0.1886624 
279.5      0.2996126  0.2643991  0.1844321 
279.6      0.2906653  0.2737384  0.1888273 
279.7      0.2517997  0.31239    0.186132  
279.8      0.1980393  0.3702512  0.1443682 
279.9      0.1299544  0.4879363  0.05466592
280        0.1160251  0.5011169  0         
280.1      0.102002   0.5897158  0.02554919
280.2      0.08695044 0.8295102  0.1648201 
280.3      0.06879468 1          0.308777  
280.4      0.09145726 1          0.382171  
