~Version
 VERS              .         3.0                           : CWLS LOG ASCII STANDARD - VERSION 3.0
 WRAP              .         NO                            : ONE LINE PER DEPTH STEP
 DLM               .         SPACE                         : DELIMITING CHARACTER(SPACE TAB OR COMMA)
~Well Information
#_______________________________________________________________________________
#
#PARAMETER_NAME    .UNIT     VALUE                         : DESCRIPTION
#_______________________________________________________________________________
STRT               .M        9.8                           : First reference value
STOP               .M        883                           : Last reference value
STEP               .M        0.1                           : Step increment
NULL               .         -9999                         : Missing value
COMP               .         ICPetroleum                   : Company
WELL               .         301                           : Well name
FLD                .         Karatobe                      : Field
LOC                .                                       : Location
SRVC               .                                       : Service Company
CTRY               .         KZ                            : Country
DATE               .         18.12.2004                    : Service Date
LATI               .         0                             : Latitude
LONG               .         0                             : Longitude
GDAT               .         WGS 84                        : Geodetic Datum
CNTY               .                                       : 
COORDIN            .                                       : Grid System
COUNTRY            .         Kazakhstan                    : 
COUNTRY            .         Kazakhstan                    : 
EREF               .m        140.6                         : 
FN                 .         KARATUBE                      : 
KB                 .         140.6                         : KB Elevation
ORIGINALWELLNAME   .         Скважина                      : 
PROV               .                                       : Province
RWS                .         -999                          : Def_Rw
UWI                .                                       : Уникальный идентификатор скважины
WN                 .         301                           : 
WST                .         -999                          : Def_Rwt
X                  .km       466174.48                     : 
XCOORD             .                                       : X or East-West Coordinate
Y                  .km       5307895.19                    : 
YCOORD             .                                       : Y or North-South Coordinate
~Parameter Information Block
#_______________________________________________________________________________
#
#PARAMETER_NAME    .UNIT     VALUE                         : DESCRIPTION
#_______________________________________________________________________________
SET                .         Las                           : 
BS                 .MM       215.90                        : Bit Size
DFD                .G/C3     1.16                          : Drilling Fluid Density
DFV                .S        30.00                         : Drilling Fluid Viscosity
RMS                .OHMM     .00                           : Mud Sample Resistivity
TLFamily_DEPT      .         Measured Depth                : 
TLFamily_PHI_FINAL .         Porosity                      : 
TLFamily_SW_AR     .         Water Saturation              : 
TLFamily_VSH_FINAL .         Shale Volume                  : 
~Curve Information
#_______________________________________________________________________________
#
#LOGNAME           .UNIT     LOG_ID                        : DESCRIPTION
#_______________________________________________________________________________
DEPT               .M                                      : Depth curve {F}
PHI_FINAL          .m3/m3                                  : Porosity {F}
SW_AR              .m3/m3                                  :  {F}
VSH_FINAL          .unitless                               : Vshale {F}
~Ascii
# ...
498.6      0.3609135  0.9445078  0.007423884
498.7      0.3681472  0.9007609  0.008622437
498.8      0.3640083  0.899623   0.01203986
498.9      0.350951   0.9349456  0.01364001
499        0.3585234  0.9151374  0.01663371
499.1      0.3682715  0.8688996  0.01831066
499.2      0.3615874  0.8542766  0.0165992 
499.3      0.3545593  0.8750648  0.01270929
499.4      0.3497267  0.9221009  0.01109305
499.5      0.3432952  0.9701752  0.01036984
499.6      0.3409411  0.9887118  0.01261431
499.7      0.3458649  0.9817331  0.01704162
499.8      0.3467183  0.9881767  0.02302623
499.9      0.3504906  0.9909907  0.0249825 
500        0.3372829  1          0.03103721
500.1      0.3360363  1          0.03008693
500.2      0.3336238  1          0.03136209
500.3      0.3375431  1          0.03554523
500.4      0.34128    0.8904663  0.03388011
500.5      0.3199762  0.7903088  0.04287075
500.6      0.2830698  0.7635894  0.04134165
500.7      0.2280665  0.9060836  0.03776014
500.8      0.2254581  0.9522206  0.03515092
500.9      0.2465739  0.9464211  0.04161076
501        0.25223    1          0.05188258
501.1      0.261224   1          0.06379787
501.2      0.2779521  1          0.07122517
501.3      0.308576   1          0.07320981
501.4      0.3181131  1          0.0719059 
501.5      0.32692    1          0.06860651
501.6      0.3460078  1          0.06840589
501.7      0.3450939  0.9902815  0.07010826
501.8      0.3537672  0.9409159  0.07723341
501.9      0.3456781  0.9796832  0.08538941
502        0.3415658  1          0.08898177
502.1      0.3294647  1          0.08607605
502.2      0.333119   0.9297873  0.07628262
502.3      0.3381858  0.8718541  0.07075781
502.4      0.3308387  0.9013298  0.06222565
502.5      0.3414601  0.9612728  0.05456422
502.6      0.3540753  1          0.04911592
502.7      0.3585802  1          0.04597466
502.8      0.3554175  1          0.03707732
502.9      0.3478434  1          0.03475041
503        0.3535248  1          0.02565017
503.1      0.3576607  1          0.01965926
503.2      0.3586389  1          0.02276184
503.3      0.3630163  1          0.02215209
503.4      0.3690782  1          0.02481022
503.5      0.3723341  1          0.02505022
503.6      0.3659631  1          0.0257773 
503.7      0.3641622  0.943967   0.02834781
503.8      0.3620136  0.8969916  0.02759941
503.9      0.3565021  0.8962709  0.02538881
504        0.3530095  0.931211   0.02428213
504.1      0.3662307  0.8888125  0.02819631
504.2      0.3845213  0.770585   0.03038653
504.3      0.3877168  0.705939   0.0290134 
504.4      0.3683191  0.8155809  0.02628445
504.5      0.326468   1          0.02915224
504.6      0.2988096  1          0.02790082
504.7      0.2924444  1          0.02509578
504.8      0.3139038  1          0.01643359
504.9      0.3372311  1          0.01707063
505        0.3393259  1          0.01933559
505.1      0.3453923  1          0.02215485
505.2      0.3469191  1          0.02760413
505.3      0.3460011  1          0.03311195
505.4      0.3432609  1          0.03765206
505.5      0.3477356  1          0.03535598
505.6      0.3493159  1          0.03649396
505.7      0.3534726  1          0.03306407
505.8      0.3544786  1          0.03313563
505.9      0.3534459  0.9678125  0.03806152
506        0.3529011  0.8258575  0.03391254
506.1      0.3115746  0.9060416  0.02737254
506.2      0.2726173  1          0.02800723
506.3      0.2416178  1          0.03442856
506.4      0.3008259  1          0.03040539
506.5      0.3362445  1          0.02351745
506.6      0.3534849  1          0.02409585
506.7      0.3513173  1          0.02669154
506.8      0.361173   1          0.02215932
506.9      0.374762   1          0.02239305
507        0.372753   1          0.02310075
507.1      0.3681259  1          0.02941454
507.2      0.3673607  1          0.02703192
507.3      0.365429   1          0.03443801
507.4      0.3628532  1          0.04306412
507.5      0.3564496  1          0.0452943 
507.6      0.357119   1          0.04512668
507.7      0.3506117  1          0.05643657
507.8      0.3464347  1          0.06453864
507.9      0.3488168  1          0.06849466
508        0.3559219  1          0.07526121
508.1      0.3668611  1          0.08736534
508.2      0.363961   0.9825781  0.1185023 
508.3      0.3667377  0.8710734  0.1607095 
508.4      0.3311867  0.8588304  0.2264015 
508.5      0.2939142  0.9299418  0.3070397 
508.6      0.2147532  1          0.4044606 
508.7      0.126932   1          0.6089133 
508.8      0.07800406 1          0.7202325 
508.9      0.07635903 1          0.7160181 
509        0.0687369  1          0.6957615 
509.1      0.08790503 1          0.611827  
509.2      0.1056687  1          0.5459118 
509.3      0.1215827  1          0.5317435 
509.4      0.1687043  1          0.4540831 
509.5      0.1733753  1          0.4788933 
509.6      0.1639223  1          0.5046583 
509.7      0.1264754  1          0.6096703 
509.8      0.1119126  1          0.6651269 
509.9      0.1358543  1          0.6059448 
510        0.1077983  1          0.6504964 
510.1      0.09191715 1          0.6564904 
510.2      0.1021284  1          0.6340954 
510.3      0.144241   1          0.5417554 
510.4      0.1674063  1          0.4988109 
510.5      0.1871416  1          0.4671759 
510.6      0.1827323  1          0.509884  
510.7      0.1617551  1          0.5772191 
510.8      0.1883698  1          0.5324343 
510.9      0.2156126  1          0.4834279 
511        0.2542095  1          0.4323844 
511.1      0.2627904  1          0.4442765 
511.2      0.2901995  0.8813487  0.4154646 
511.3      0.3323463  0.7228969  0.3404016 
511.4      0.3648612  0.6623777  0.2636048 
511.5      0.3818478  0.6787592  0.235014  
511.6      0.3737664  0.7481608  0.2430863 
511.7      0.3424759  0.837975   0.2615224 
511.8      0.3206209  0.9119343  0.2721818 
511.9      0.2907733  1          0.3010821 
512        0.265755   1          0.3369837 
512.1      0.2114638  1          0.4424355 
512.2      0.1860336  1          0.4862512 
512.3      0.2010605  1          0.4407998 
512.4      0.196426   1          0.4248107 
512.5      0.1806172  1          0.4526354 
512.6      0.1563818  1          0.5168155 
512.7      0.1603325  1          0.5152094 
512.8      0.1747705  1          0.4798585 
512.9      0.1655295  1          0.5041116 
513        0.1782635  1          0.4591489 
513.1      0.168822   1          0.4674207 
513.2      0.1395657  1          0.5213051 
513.3      0.1431308  1          0.5158653 
513.4      0.1425157  1          0.5182652 
513.5      0.1539655  1          0.4982532 
513.6      0.1409116  1          0.5198248 
513.7      0.1115879  1          0.6052141 
513.8      0.09653991 1          0.6401097 
513.9      0.08612607 1          0.6683607 
514        0.06494334 1          0.7119893 
514.1      0.0677704  1          0.7073305 
514.2      0.1013177  1          0.6276063 
514.3      0.09107582 1          0.6770326 
514.4      0.08243094 1          0.6886004 
514.5      0.09038815 1          0.6681581 
514.6      0.09434192 1          0.6663757 
514.7      0.1061753  1          0.6393743 
514.8      0.1086659  1          0.6317331 
514.9      0.1290865  1          0.5793676 
515        0.1260353  1          0.578222  
515.1      0.1345952  1          0.5611269 
515.2      0.1304971  1          0.5744735 
515.3      0.1269687  1          0.583845  
515.4      0.1177233  1          0.6229823 
515.5      0.1415444  1          0.5562829 
515.6      0.1354612  1          0.5732669 
515.7      0.1275998  1          0.585372  
515.8      0.1262072  1          0.5944643 
515.9      0.1311058  1          0.5930776 
516        0.1256521  1          0.5783326 
516.1      0.1204096  1          0.5723864 
516.2      0.1072428  1          0.6068766 
516.3      0.09761912 1          0.6076527 
516.4      0.1093616  1          0.5733573 
516.5      0.1021214  1          0.5699402 
516.6      0.08993422 1          0.6251052 
516.7      0.1201253  1          0.5745378 
