~Version
 VERS              .         3.0                           : CWLS LOG ASCII STANDARD - VERSION 3.0
 WRAP              .         NO                            : ONE LINE PER DEPTH STEP
 DLM               .         SPACE                         : DELIMITING CHARACTER(SPACE TAB OR COMMA)
~Well Information
#_______________________________________________________________________________
#
#PARAMETER_NAME    .UNIT     VALUE                         : DESCRIPTION
#_______________________________________________________________________________
STRT               .M        9.8                           : First reference value
STOP               .M        883                           : Last reference value
STEP               .M        0.1                           : Step increment
NULL               .         -9999                         : Missing value
COMP               .         ICPetroleum                   : Company
WELL               .         301                           : Well name
FLD                .         Karatobe                      : Field
LOC                .                                       : Location
SRVC               .                                       : Service Company
CTRY               .         KZ                            : Country
DATE               .         18.12.2004                    : Service Date
LATI               .         0                             : Latitude
LONG               .         0                             : Longitude
GDAT               .         WGS 84                        : Geodetic Datum
CNTY               .                                       : 
COORDIN            .                                       : Grid System
COUNTRY            .         Kazakhstan                    : 
COUNTRY            .         Kazakhstan                    : 
EREF               .m        140.6                         : 
FN                 .         KARATUBE                      : 
KB                 .         140.6                         : KB Elevation
ORIGINALWELLNAME   .         Скважина                      : 
PROV               .                                       : Province
RWS                .         -999                          : Def_Rw
UWI                .                                       : Уникальный идентификатор скважины
WN                 .         301                           : 
WST                .         -999                          : Def_Rwt
X                  .km       466174.48                     : 
XCOORD             .                                       : X or East-West Coordinate
Y                  .km       5307895.19                    : 
YCOORD             .                                       : Y or North-South Coordinate
~Parameter Information Block
#_______________________________________________________________________________
#
#PARAMETER_NAME    .UNIT     VALUE                         : DESCRIPTION
#_______________________________________________________________________________
SET                .         Las                           : 
BS                 .MM       215.90                        : Bit Size
DFD                .G/C3     1.16                          : Drilling Fluid Density
DFV                .S        30.00                         : Drilling Fluid Viscosity
RMS                .OHMM     .00                           : Mud Sample Resistivity
TLFamily_DEPT      .         Measured Depth                : 
TLFamily_PHI_FINAL .         Porosity                      : 
TLFamily_SW_AR     .         Water Saturation              : 
TLFamily_VSH_FINAL .         Shale Volume                  : 
~Curve Information
#_______________________________________________________________________________
#
#LOGNAME           .UNIT     LOG_ID                        : DESCRIPTION
#_______________________________________________________________________________
DEPT               .M                                      : Depth curve {F}
PHI_FINAL          .m3/m3                                  : Porosity {F}
SW_AR              .m3/m3                                  :  {F}
VSH_FINAL          .unitless                               : Vshale {F}
~Ascii
# ...
607.8      0.1162868  1          0.4033546 
607.9      0.1036404  1          0.4843416 
608        0.07782762 1          0.5887595 
608.1      0.01895711 1          0.7843426 
608.2      0          1          0.9671863 
608.3      0          1          1         
608.4      0          1          0.9999599 
608.5      0          1          0.9799191 
608.6      0.001557715 1          0.9124756 
608.7      0.01133104 1          0.8484847 
608.8      0.030719   1          0.8035737 
608.9      0.03204267 1          0.8095466 
609        0.01294813 1          0.8694138 
609.1      0.002467259 1          0.9424298 
609.2      0.01312193 1          0.8611909 
609.3      0.02004979 1          0.8218708 
609.4      0.0474432  1          0.7240143 
609.5      0.1019762  1          0.5822242 
609.6      0.139733   1          0.4894355 
609.7      0.1832694  1          0.3832842 
609.8      0.2123515  1          0.3280766 
609.9      0.20648    1          0.3521357 
610        0.2101206  1          0.3356644 
610.1      0.2221567  1          0.3143287 
610.2      0.2154727  1          0.3367023 
610.3      0.2126011  1          0.3604649 
610.4      0.1949622  1          0.4115586 
610.5      0.1702618  1          0.4581047 
610.6      0.169385   1          0.4582007 
610.7      0.1797778  1          0.417768  
610.8      0.2091272  1          0.3435023 
610.9      0.2102843  1          0.3418077 
611        0.1973743  1          0.379017  
611.1      0.1785909  1          0.4113089 
611.2      0.162607   1          0.4592623 
611.3      0.1633304  1          0.4502218 
611.4      0.2049315  1          0.3456537 
611.5      0.2067022  1          0.3122352 
611.6      0.2114154  1          0.2675778 
611.7      0.2221822  1          0.2203739 
611.8      0.2507318  1          0.164933  
611.9      0.2665339  1          0.1512708 
612        0.2933659  1          0.1175752 
612.1      0.3099675  1          0.08548645
612.2      0.3251946  1          0.05255114
612.3      0.3282378  1          0.0447456 
612.4      0.3245186  1          0.05097719
612.5      0.3232172  1          0.05379552
612.6      0.3164636  1          0.06085211
612.7      0.2953736  1          0.07017571
612.8      0.2722131  1          0.08161481
612.9      0.2620771  1          0.1024281 
613        0.2664966  1          0.1162122 
613.1      0.2647531  1          0.1413937 
613.2      0.2647913  1          0.1529571 
613.3      0.2880639  1          0.1532927 
613.4      0.2946219  1          0.1358759 
613.5      0.3088861  1          0.1115859 
613.6      0.3126768  1          0.1004403 
613.7      0.3221354  1          0.09874647
613.8      0.3214426  1          0.1014068 
613.9      0.3241231  1          0.09781124
614        0.3194635  1          0.1059983 
614.1      0.3110683  1          0.104309  
614.2      0.3105969  1          0.08805189
614.3      0.3113945  1          0.08942339
614.4      0.3116286  1          0.08936402
614.5      0.3195289  1          0.0887929 
614.6      0.3187407  1          0.08094749
614.7      0.3197899  1          0.07360091
614.8      0.3169734  1          0.07636643
614.9      0.3124053  1          0.08224753
615        0.3021716  1          0.07999538
615.1      0.2924342  1          0.08287284
615.2      0.2953553  1          0.0801267 
615.3      0.3133288  1          0.07491837
615.4      0.3216236  1          0.0747242 
615.5      0.3236699  1          0.08840688
615.6      0.3259669  1          0.09336025
615.7      0.3266368  1          0.08961789
615.8      0.3269844  1          0.076774  
615.9      0.3306717  1          0.06327002
616        0.3379517  1          0.06033876
616.1      0.3365462  1          0.05738315
616.2      0.3428952  1          0.05642235
616.3      0.3438809  1          0.05137482
616.4      0.3510563  1          0.04038842
616.5      0.3556521  1          0.03885538
616.6      0.3550826  1          0.03737734
616.7      0.3544142  1          0.0331594 
616.8      0.3510685  1          0.03676533
616.9      0.3500567  1          0.03450762
617        0.3462681  1          0.03415655
617.1      0.3459126  1          0.04011033
617.2      0.344149   1          0.04472455
617.3      0.3383643  1          0.05411392
617.4      0.3333147  1          0.06822321
617.5      0.329627   1          0.07477541
617.6      0.3307521  1          0.08005428
617.7      0.3326014  1          0.07778825
617.8      0.3252641  1          0.08081634
617.9      0.3192496  1          0.09353112
618        0.3099217  1          0.1011209 
618.1      0.2998297  1          0.12309   
618.2      0.3007105  1          0.1288445 
618.3      0.2971462  1          0.1483476 
618.4      0.2871045  1          0.1698682 
618.5      0.267041   1          0.2000263 
618.6      0.233424   1          0.2552419 
618.7      0.1991603  1          0.3617369 
618.8      0.1577365  1          0.4644746 
618.9      0.1001516  1          0.6034357 
619        0.07246448 1          0.6763911 
619.1      0.05765954 1          0.7195829 
619.2      0.04624899 1          0.7542298 
619.3      0.05599403 1          0.7101248 
619.4      0.05489555 1          0.7197098 
619.5      0.05259793 1          0.7096605 
619.6      0.06701989 1          0.6650252 
619.7      0.05903001 1          0.6869683 
619.8      0.02932624 1          0.7778906 
619.9      0.01233586 1          0.856699  
620        0.01389651 1          0.8610196 
620.1      0.03143442 1          0.8094532 
620.2      0.03663076 1          0.7974963 
620.3      0.04404936 1          0.7857018 
620.4      0.02402657 1          0.8471093 
620.5      0.02074999 1          0.8757858 
620.6      0.006633333 1          0.9459823 
620.7      0.005833889 1          0.9596251 
620.8      0.0005856075 1          1         
620.9      0          1          1         
621        0          1          1         
621.1      0          1          1         
621.2      0          1          1         
621.3      0          1          1         
621.4      0          1          1         
621.5      0          1          1         
621.6      0          1          1         
621.7      0          1          1         
621.8      0          1          1         
621.9      0.0004341037 1          1         
622        0.002100758 1          1         
622.1      0.004959205 1          1         
622.2      0.007858839 1          1         
622.3      0.01678191 1          0.9456085 
622.4      0.01384872 1          0.9610841 
622.5      0.01246214 1          1         
622.6      0.03523129 1          0.9384423 
622.7      0.1168663  1          0.7872065 
622.8      0.1757697  1          0.6759117 
622.9      0.1930356  1          0.6589329 
623        0.2161934  1          0.5984433 
623.1      0.2293703  1          0.5535356 
623.2      0.181114   1          0.6359422 
623.3      0.1084161  1          0.7343056 
623.4      0.04203004 1          0.8560568 
623.5      0.0001280261 1          0.9800893 
623.6      0          1          1         
623.7      0          1          1         
623.8      0          1          1         
623.9      0          1          1         
624        0.0004560034 1          0.9704686 
624.1      0.0001310588 1          1         
624.2      0          1          1         
624.3      0.0008886338 1          1         
624.4      0.002631056 1          1         
624.5      0.003540154 1          1         
624.6      0.004349566 1          1         
624.7      0.01214957 1          1         
624.8      0.01318901 1          1         
624.9      0.0101565  1          1         
625        0.009989167 1          1         
625.1      0.009372912 1          1         
625.2      0.005758101 1          1         
625.3      0.003237128 1          1         
625.4      0.002555306 1          1         
625.5      0.002782579 1          1         
625.6      0.008314546 1          1         
625.7      0.01387714 1          1         
625.8      0.01707216 1          1         
625.9      0.01728747 1          1         
