~Version
 VERS              .         3.0                           : CWLS LOG ASCII STANDARD - VERSION 3.0
 WRAP              .         NO                            : ONE LINE PER DEPTH STEP
 DLM               .         SPACE                         : DELIMITING CHARACTER(SPACE TAB OR COMMA)
~Well Information
#_______________________________________________________________________________
#
#PARAMETER_NAME    .UNIT     VALUE                         : DESCRIPTION
#_______________________________________________________________________________
STRT               .M        9.8                           : First reference value
STOP               .M        883                           : Last reference value
STEP               .M        0.1                           : Step increment
NULL               .         -9999                         : Missing value
COMP               .         ICPetroleum                   : Company
WELL               .         301                           : Well name
FLD                .         Karatobe                      : Field
LOC                .                                       : Location
SRVC               .                                       : Service Company
CTRY               .         KZ                            : Country
DATE               .         18.12.2004                    : Service Date
LATI               .         0                             : Latitude
LONG               .         0                             : Longitude
GDAT               .         WGS 84                        : Geodetic Datum
CNTY               .                                       : 
COORDIN            .                                       : Grid System
COUNTRY            .         Kazakhstan                    : 
COUNTRY            .         Kazakhstan                    : 
EREF               .m        140.6                         : 
FN                 .         KARATUBE                      : 
KB                 .         140.6                         : KB Elevation
ORIGINALWELLNAME   .         Скважина                      : 
PROV               .                                       : Province
RWS                .         -999                          : Def_Rw
UWI                .                                       : Уникальный идентификатор скважины
WN                 .         301                           : 
WST                .         -999                          : Def_Rwt
X                  .km       466174.48                     : 
XCOORD             .                                       : X or East-West Coordinate
Y                  .km       5307895.19                    : 
YCOORD             .                                       : Y or North-South Coordinate
~Parameter Information Block
#_______________________________________________________________________________
#
#PARAMETER_NAME    .UNIT     VALUE                         : DESCRIPTION
#_______________________________________________________________________________
SET                .         Las                           : 
BS                 .MM       215.90                        : Bit Size
DFD                .G/C3     1.16                          : Drilling Fluid Density
DFV                .S        30.00                         : Drilling Fluid Viscosity
RMS                .OHMM     .00                           : Mud Sample Resistivity
TLFamily_DEPT      .         Measured Depth                : 
TLFamily_PHI_FINAL .         Porosity                      : 
TLFamily_SW_AR     .         Water Saturation              : 
TLFamily_VSH_FINAL .         Shale Volume                  : 
~Curve Information
#_______________________________________________________________________________
#
#LOGNAME           .UNIT     LOG_ID                        : DESCRIPTION
#_______________________________________________________________________________
DEPT               .M                                      : Depth curve {F}
PHI_FINAL          .m3/m3                                  : Porosity {F}
SW_AR              .m3/m3                                  :  {F}
VSH_FINAL          .unitless                               : Vshale {F}
~Ascii
# ...
462.2      0.09654304 1          0.7496257 
462.3      0.0715982  1          0.8053415 
462.4      0.1050713  1          0.7173381 
462.5      0.1302012  1          0.6708702 
462.6      0.1392237  1          0.649931  
462.7      0.1515843  1          0.6622373 
462.8      0.1418796  1          0.7045317 
462.9      0.1734539  1          0.6571118 
463        0.17006    1          0.6947416 
463.1      0.2030087  1          0.6510552 
463.2      0.2147875  1          0.6227273 
463.3      0.2518207  0.9329567  0.5551757 
463.4      0.2945662  0.846464   0.4695457 
463.5      0.3371123  0.7686518  0.3783937 
463.6      0.3453829  0.7595477  0.3532195 
463.7      0.3512414  0.747407   0.3459042 
463.8      0.300521   0.8530229  0.4443686 
463.9      0.2601089  0.9617494  0.5023091 
464        0.1950669  1          0.5934514 
464.1      0.1258939  1          0.6941511 
464.2      0.1126702  1          0.7019977 
464.3      0.09063286 1          0.7257376 
464.4      0.07490875 1          0.7510149 
464.5      0.05055882 1          0.8425747 
464.6      0.06125934 1          0.7937958 
464.7      0.02215519 1          0.9569101 
464.8      0.01407539 1          1         
464.9      0.0140839  1          1         
465        0.01130955 1          1         
465.1      0.002996195 1          1         
465.2      0.0005939577 1          1         
465.3      0          1          1         
465.4      0          1          1         
465.5      0          1          1         
465.6      0.001415158 1          1         
465.7      0.00188056 1          1         
465.8      0.001003318 1          1         
465.9      0.002283319 1          1         
466        0.003665983 1          1         
466.1      0.004796762 1          1         
466.2      0.003942541 1          1         
466.3      0.01379828 1          0.9563224 
466.4      0.03926788 1          0.9058245 
466.5      0.07143798 1          0.8249806 
466.6      0.1096381  1          0.7769132 
466.7      0.1309454  1          0.7473395 
466.8      0.1703444  1          0.6570157 
466.9      0.1796587  1          0.6012489 
467        0.1823007  1          0.5557482 
467.1      0.200489   1          0.4702502 
467.2      0.1819264  1          0.4914719 
467.3      0.1380951  1          0.5573616 
467.4      0.1192223  1          0.5825698 
467.5      0.1348691  1          0.5121639 
467.6      0.1377615  1          0.4706056 
467.7      0.1283217  1          0.4832157 
467.8      0.1298375  1          0.4671955 
467.9      0.1623938  1          0.3849119 
468        0.1846875  1          0.3653075 
468.1      0.2288562  1          0.2954079 
468.2      0.2319225  1          0.3007457 
468.3      0.2266275  1          0.3094932 
468.4      0.2183287  1          0.3363498 
468.5      0.1868839  1          0.4161232 
468.6      0.1430314  1          0.5212811 
468.7      0.1268063  1          0.5257734 
468.8      0.1026766  1          0.5975231 
468.9      0.07871668 1          0.6677992 
469        0.07958126 1          0.6644876 
469.1      0.09057093 1          0.6421533 
469.2      0.08316515 1          0.6704082 
469.3      0.08838869 1          0.6690564 
469.4      0.1079606  1          0.6328426 
469.5      0.1384765  1          0.5530311 
469.6      0.149404   0.9724631  0.5407541 
469.7      0.1485762  0.9793217  0.5380124 
469.8      0.137753   1          0.574378  
469.9      0.1436151  1          0.5657184 
470        0.1313879  1          0.6059536 
470.1      0.1235882  1          0.6330182 
470.2      0.1140712  1          0.6512082 
470.3      0.1193102  1          0.6467768 
470.4      0.1164442  1          0.6457089 
470.5      0.09515522 1          0.7062497 
470.6      0.07100976 1          0.7743356 
470.7      0.04290994 1          0.8440217 
470.8      0.0284236  1          0.8845118 
470.9      0.01405906 1          0.9211566 
471        0.006013175 1          1         
471.1      0.009653667 1          1         
471.2      0.01310246 1          1         
471.3      0.03856308 1          0.908038  
471.4      0.08012503 1          0.8046129 
471.5      0.09558331 1          0.7801018 
471.6      0.0945029  1          0.7601272 
471.7      0.07294779 1          0.7479314 
471.8      0.05175985 1          0.7321683 
471.9      0.05735933 1          0.6404731 
472        0.06164245 1          0.5905383 
472.1      0.1200462  1          0.5136198 
472.2      0.1569988  1          0.4775678 
472.3      0.1746128  1          0.429751  
472.4      0.1391645  1          0.494736  
472.5      0.0968263  1          0.608799  
472.6      0.06495111 1          0.7386115 
472.7      0.05054942 1          0.775579  
472.8      0.03843272 1          0.8334892 
472.9      0.03032827 1          0.8321353 
473        0.06394628 1          0.7356666 
473.1      0.07545713 1          0.7073804 
473.2      0.08949744 1          0.6750998 
473.3      0.1196714  1          0.6079721 
473.4      0.1597898  0.8130574  0.5150797 
473.5      0.1839494  0.6982648  0.4806279 
473.6      0.1957744  0.6461418  0.4346191 
473.7      0.2130937  0.5865206  0.3892733 
473.8      0.2187695  0.5681807  0.3937141 
473.9      0.2231473  0.5628586  0.3934996 
474        0.2251348  0.5724615  0.3763123 
474.1      0.2221642  0.5985822  0.3853532 
474.2      0.2158234  0.626444   0.3906842 
474.3      0.2073992  0.6364471  0.4074824 
474.4      0.1914456  0.6591855  0.4334098 
474.5      0.1981184  0.6118263  0.425972  
474.6      0.201883   0.5749202  0.4252424 
474.7      0.2154562  0.5165399  0.4086808 
474.8      0.2229029  0.4805799  0.3940618 
474.9      0.2365479  0.4503188  0.3663208 
475        0.236221   0.4522189  0.3584116 
475.1      0.2573775  0.4058596  0.2985239 
475.2      0.2477144  0.3995024  0.3123093 
475.3      0.249442   0.3830207  0.3010672 
475.4      0.2362107  0.4065884  0.3356049 
475.5      0.2209434  0.4419012  0.3798457 
475.6      0.2332204  0.4168984  0.3488365 
475.7      0.2315746  0.4067008  0.3513316 
475.8      0.2363977  0.3887844  0.341607  
475.9      0.2324795  0.3891562  0.3543604 
476        0.2177791  0.4123289  0.3947594 
476.1      0.2219841  0.4044889  0.3881961 
476.2      0.2439071  0.3681094  0.3448892 
476.3      0.2345031  0.3888189  0.3654275 
476.4      0.2312422  0.4025766  0.3749873 
476.5      0.2501117  0.3788246  0.3279123 
476.6      0.2512125  0.3843257  0.3209533 
476.7      0.2507905  0.3919852  0.3266151 
476.8      0.2611033  0.3807527  0.307135  
476.9      0.2564652  0.3882032  0.3077294 
477        0.2624556  0.38012    0.2970026 
477.1      0.2631466  0.3764492  0.3013247 
477.2      0.2463488  0.3933776  0.3328452 
477.3      0.2467846  0.3843623  0.3163178 
477.4      0.2491725  0.3752349  0.3062451 
477.5      0.2540847  0.3703591  0.3050624 
477.6      0.2642849  0.3666441  0.2846953 
477.7      0.2525626  0.4034816  0.296347  
477.8      0.2637918  0.4257027  0.2777321 
477.9      0.2680176  0.502777   0.2958952 
478        0.2513099  0.690049   0.3585832 
478.1      0.2346041  0.8706754  0.3830808 
478.2      0.2235481  0.9728866  0.4046233 
478.3      0.2069267  1          0.452544  
478.4      0.1728184  1          0.5250461 
478.5      0.141822   1          0.5823926 
478.6      0.1040353  1          0.6619378 
478.7      0.09105581 1          0.6991294 
478.8      0.08926526 1          0.7059158 
478.9      0.1013324  1          0.6877552 
479        0.113459   1          0.6602671 
479.1      0.1261883  1          0.6249453 
479.2      0.106373   1          0.6744551 
479.3      0.1051355  1          0.6515033 
479.4      0.1177241  1          0.6239349 
479.5      0.1201863  1          0.6298385 
479.6      0.1379588  1          0.5973043 
479.7      0.1411071  1          0.5722054 
479.8      0.1252933  1          0.6309091 
479.9      0.1058844  1          0.6935977 
480        0.1135323  1          0.6659197 
480.1      0.09245071 1          0.6905792 
480.2      0.1003054  1          0.6603463 
480.3      0.08607521 1          0.6734097 
