~Version
 VERS              .         3.0                           : CWLS LOG ASCII STANDARD - VERSION 3.0
 WRAP              .         NO                            : ONE LINE PER DEPTH STEP
 DLM               .         SPACE                         : DELIMITING CHARACTER(SPACE TAB OR COMMA)
~Well Information
#_______________________________________________________________________________
#
#PARAMETER_NAME    .UNIT     VALUE                         : DESCRIPTION
#_______________________________________________________________________________
STRT               .M        9.8                           : First reference value
STOP               .M        883                           : Last reference value
STEP               .M        0.1                           : Step increment
NULL               .         -9999                         : Missing value
COMP               .         ICPetroleum                   : Company
WELL               .         301                           : Well name
FLD                .         Karatobe                      : Field
LOC                .                                       : Location
SRVC               .                                       : Service Company
CTRY               .         KZ                            : Country
DATE               .         18.12.2004                    : Service Date
LATI               .         0                             : Latitude
LONG               .         0                             : Longitude
GDAT               .         WGS 84                        : Geodetic Datum
CNTY               .                                       : 
COORDIN            .                                       : Grid System
COUNTRY            .         Kazakhstan                    : 
COUNTRY            .         Kazakhstan                    : 
EREF               .m        140.6                         : 
FN                 .         KARATUBE                      : 
KB                 .         140.6                         : KB Elevation
ORIGINALWELLNAME   .         Скважина                      : 
PROV               .                                       : Province
RWS                .         -999                          : Def_Rw
UWI                .                                       : Уникальный идентификатор скважины
WN                 .         301                           : 
WST                .         -999                          : Def_Rwt
X                  .km       466174.48                     : 
XCOORD             .                                       : X or East-West Coordinate
Y                  .km       5307895.19                    : 
YCOORD             .                                       : Y or North-South Coordinate
~Parameter Information Block
#_______________________________________________________________________________
#
#PARAMETER_NAME    .UNIT     VALUE                         : DESCRIPTION
#_______________________________________________________________________________
SET                .         Las                           : 
BS                 .MM       215.90                        : Bit Size
DFD                .G/C3     1.16                          : Drilling Fluid Density
DFV                .S        30.00                         : Drilling Fluid Viscosity
RMS                .OHMM     .00                           : Mud Sample Resistivity
TLFamily_DEPT      .         Measured Depth                : 
TLFamily_PHI_FINAL .         Porosity                      : 
TLFamily_SW_AR     .         Water Saturation              : 
TLFamily_VSH_FINAL .         Shale Volume                  : 
~Curve Information
#_______________________________________________________________________________
#
#LOGNAME           .UNIT     LOG_ID                        : DESCRIPTION
#_______________________________________________________________________________
DEPT               .M                                      : Depth curve {F}
PHI_FINAL          .m3/m3                                  : Porosity {F}
SW_AR              .m3/m3                                  :  {F}
VSH_FINAL          .unitless                               : Vshale {F}
~Ascii
# ...
644.1      0.01352326 1          0.8271096 
644.2      0.04591426 1          0.728351  
644.3      0.06169453 1          0.7003129 
644.4      0.07239079 1          0.6732471 
644.5      0.08124771 1          0.6505369 
644.6      0.09441787 1          0.6086535 
644.7      0.112515   1          0.5493029 
644.8      0.1070085  1          0.5455437 
644.9      0.119853   1          0.5086309 
645        0.1041115  1          0.5346597 
645.1      0.09031229 1          0.5519369 
645.2      0.07395222 1          0.5980935 
645.3      0.07922016 1          0.5912831 
645.4      0.0979936  1          0.5659199 
645.5      0.1004532  1          0.570584  
645.6      0.1126541  1          0.5522715 
645.7      0.1089753  1          0.5620838 
645.8      0.1054661  1          0.5573155 
645.9      0.09440536 1          0.5919303 
646        0.09172749 1          0.6009533 
646.1      0.0784898  1          0.6276931 
646.2      0.06140653 1          0.6746651 
646.3      0.04543822 1          0.6901769 
646.4      0.0461495  1          0.6989074 
646.5      0.06037341 1          0.6584053 
646.6      0.08496117 1          0.6002105 
646.7      0.08179314 1          0.5941733 
646.8      0.07875658 1          0.5881904 
646.9      0.0934829  1          0.5745519 
647        0.08804016 1          0.5907573 
647.1      0.1068943  1          0.5525344 
647.2      0.1246019  1          0.4952134 
647.3      0.1191327  1          0.50912   
647.4      0.1049211  1          0.5661337 
647.5      0.122235   1          0.5314626 
647.6      0.113067   1          0.5515736 
647.7      0.1266996  1          0.5277401 
647.8      0.1439178  0.9763874  0.4809915 
647.9      0.1863822  0.7282748  0.3721307 
648        0.2087329  0.6433212  0.3116829 
648.1      0.2346627  0.5819202  0.2574804 
648.2      0.2485488  0.5875587  0.2187013 
648.3      0.2472783  0.5987207  0.2180626 
648.4      0.2571351  0.5371466  0.2089753 
648.5      0.2679973  0.4833499  0.1834491 
648.6      0.2660913  0.5435486  0.1846734 
648.7      0.2625715  0.61375    0.1826359 
648.8      0.2584161  0.675967   0.1682536 
648.9      0.2616945  0.7081941  0.1697027 
649        0.260116   0.7393613  0.1668334 
649.1      0.2452996  0.7904727  0.1965132 
649.2      0.2278835  0.8239313  0.2374522 
649.3      0.2016416  0.8953393  0.2853442 
649.4      0.197569   0.9180027  0.2980629 
649.5      0.1954526  0.9699097  0.2959261 
649.6      0.194608   1          0.2950092 
649.7      0.2022614  1          0.2983972 
649.8      0.2083106  1          0.2906745 
649.9      0.2120623  1          0.2940233 
650        0.1990429  1          0.3303958 
650.1      0.1906288  1          0.3561293 
650.2      0.1828254  1          0.3739291 
650.3      0.1834927  1          0.3776155 
650.4      0.1745071  1          0.3897773 
650.5      0.1643191  1          0.3913778 
650.6      0.1488593  1          0.4131889 
650.7      0.1356145  1          0.4239218 
650.8      0.1221177  1          0.4369975 
650.9      0.1038788  1          0.4626402 
651        0.1023786  1          0.4443349 
651.1      0.1026095  1          0.4345569 
651.2      0.08294655 1          0.4803288 
651.3      0.0771625  1          0.5127546 
651.4      0.07966803 1          0.4829829 
651.5      0.0694581  1          0.5031649 
651.6      0.06908953 1          0.5163525 
651.7      0.08579708 1          0.4553578 
651.8      0.07600077 1          0.4397302 
651.9      0.07605849 1          0.3920314 
652        0.07482907 1          0.34869   
652.1      0.0778588  1          0.3266585 
652.2      0.09973827 1          0.2957238 
652.3      0.1194005  1          0.2709111 
652.4      0.124025   1          0.2618503 
652.5      0.1310137  1          0.2617194 
652.6      0.1375681  1          0.3021213 
652.7      0.1410321  0.9803682  0.3416676 
652.8      0.1529934  0.9094921  0.3597525 
652.9      0.1420922  0.9516423  0.3848108 
653        0.1390667  0.9356723  0.4143064 
653.1      0.1465311  0.8793471  0.4015692 
653.2      0.1184724  1          0.47427   
653.3      0.1501162  0.8497158  0.4034347 
653.4      0.153687   0.8182701  0.3973488 
653.5      0.1681337  0.7465745  0.370214  
653.6      0.1488294  0.8452255  0.4154164 
653.7      0.1549272  0.8219771  0.4101819 
653.8      0.1521409  0.8326221  0.4189322 
653.9      0.1502454  0.8329476  0.4140935 
654        0.1515057  0.8263913  0.399126  
654.1      0.1589517  0.796518   0.3737517 
654.2      0.1499708  0.844497   0.3876903 
654.3      0.137751   0.9045479  0.417197  
654.4      0.11444    1          0.4544401 
654.5      0.09306683 1          0.4708322 
654.6      0.08414411 1          0.446273  
654.7      0.07465371 1          0.4428464 
654.8      0.07447827 1          0.4290935 
654.9      0.08954038 1          0.4240125 
655        0.1201445  1          0.3944256 
655.1      0.1248294  1          0.4061409 
655.2      0.1130024  1          0.4060869 
655.3      0.09466346 1          0.4549663 
655.4      0.08590896 1          0.4710438 
655.5      0.09860253 1          0.4120558 
655.6      0.1026793  1          0.3867037 
655.7      0.09321678 1          0.386381  
655.8      0.09773597 1          0.3830774 
655.9      0.103083   1          0.3846504 
656        0.1025561  1          0.4000229 
656.1      0.102002   1          0.4144554 
656.2      0.1001848  1          0.4449877 
656.3      0.1004637  1          0.4331319 
656.4      0.09824589 1          0.4431866 
656.5      0.09142838 1          0.4405417 
656.6      0.08793601 1          0.4426083 
656.7      0.07715264 1          0.4719558 
656.8      0.07161967 1          0.492345  
656.9      0.08425155 1          0.4457849 
657        0.07073154 1          0.4836099 
657.1      0.08155033 1          0.4493491 
657.2      0.07828372 1          0.4638141 
657.3      0.07980326 1          0.4609079 
657.4      0.08284731 1          0.4905981 
657.5      0.08498254 1          0.5224304 
657.6      0.06932693 1          0.5759349 
657.7      0.0734741  1          0.5817877 
657.8      0.0682782  1          0.6041967 
657.9      0.06217278 1          0.6333455 
658        0.08292386 1          0.5676383 
658.1      0.0812928  1          0.5814428 
658.2      0.08724391 1          0.5637178 
658.3      0.08458693 1          0.5528743 
658.4      0.07987965 1          0.5765886 
658.5      0.06162836 1          0.6319402 
658.6      0.07454174 1          0.5879631 
658.7      0.07160497 1          0.585551  
658.8      0.05912782 1          0.6080723 
658.9      0.06054448 1          0.6133979 
659        0.05484839 1          0.6242653 
659.1      0.04962694 1          0.6693164 
659.2      0.02512568 1          0.7457258 
659.3      0.01745719 1          0.7613274 
659.4      0          1          0.8562517 
659.5      0          1          0.9068475 
659.6      0          1          1         
659.7      0          1          1         
659.8      0          1          1         
659.9      0          1          1         
660        0          1          1         
660.1      0          1          1         
660.2      0          1          1         
660.3      0          1          1         
660.4      0          1          1         
660.5      0          1          1         
660.6      0          1          1         
660.7      0          1          1         
660.8      0          1          1         
660.9      0          1          1         
661        0          1          1         
661.1      0          1          1         
661.2      0.03492209 1          0.7462236 
661.3      0.1043737  1          0.5633968 
661.4      0.1352596  1          0.4876787 
661.5      0.1604932  0.9737266  0.4212749 
661.6      0.1773848  0.890039   0.3771172 
661.7      0.1900188  0.8354415  0.350754  
661.8      0.2058251  0.7812033  0.3040788 
661.9      0.216041   0.7549036  0.2783428 
662        0.2134802  0.7645439  0.2932101 
662.1      0.2248426  0.7248176  0.2610763 
662.2      0.2193111  0.7375286  0.2799156 
