~Version
 VERS              .         3.0                           : CWLS LOG ASCII STANDARD - VERSION 3.0
 WRAP              .         NO                            : ONE LINE PER DEPTH STEP
 DLM               .         SPACE                         : DELIMITING CHARACTER(SPACE TAB OR COMMA)
~Well Information
#_______________________________________________________________________________
#
#PARAMETER_NAME    .UNIT     VALUE                         : DESCRIPTION
#_______________________________________________________________________________
STRT               .M        9.8                           : First reference value
STOP               .M        883                           : Last reference value
STEP               .M        0.1                           : Step increment
NULL               .         -9999                         : Missing value
COMP               .         ICPetroleum                   : Company
WELL               .         301                           : Well name
FLD                .         Karatobe                      : Field
LOC                .                                       : Location
SRVC               .                                       : Service Company
CTRY               .         KZ                            : Country
DATE               .         18.12.2004                    : Service Date
LATI               .         0                             : Latitude
LONG               .         0                             : Longitude
GDAT               .         WGS 84                        : Geodetic Datum
CNTY               .                                       : 
COORDIN            .                                       : Grid System
COUNTRY            .         Kazakhstan                    : 
COUNTRY            .         Kazakhstan                    : 
EREF               .m        140.6                         : 
FN                 .         KARATUBE                      : 
KB                 .         140.6                         : KB Elevation
ORIGINALWELLNAME   .         Скважина                      : 
PROV               .                                       : Province
RWS                .         -999                          : Def_Rw
UWI                .                                       : Уникальный идентификатор скважины
WN                 .         301                           : 
WST                .         -999                          : Def_Rwt
X                  .km       466174.48                     : 
XCOORD             .                                       : X or East-West Coordinate
Y                  .km       5307895.19                    : 
YCOORD             .                                       : Y or North-South Coordinate
~Parameter Information Block
#_______________________________________________________________________________
#
#PARAMETER_NAME    .UNIT     VALUE                         : DESCRIPTION
#_______________________________________________________________________________
SET                .         Las                           : 
BS                 .MM       215.90                        : Bit Size
DFD                .G/C3     1.16                          : Drilling Fluid Density
DFV                .S        30.00                         : Drilling Fluid Viscosity
RMS                .OHMM     .00                           : Mud Sample Resistivity
TLFamily_DEPT      .         Measured Depth                : 
TLFamily_PHI_FINAL .         Porosity                      : 
TLFamily_SW_AR     .         Water Saturation              : 
TLFamily_VSH_FINAL .         Shale Volume                  : 
~Curve Information
#_______________________________________________________________________________
#
#LOGNAME           .UNIT     LOG_ID                        : DESCRIPTION
#_______________________________________________________________________________
DEPT               .M                                      : Depth curve {F}
PHI_FINAL          .m3/m3                                  : Porosity {F}
SW_AR              .m3/m3                                  :  {F}
VSH_FINAL          .unitless                               : Vshale {F}
~Ascii
# ...
753.3      0          1          0.6428311 
753.4      0          1          0.617078  
753.5      0.01905939 1          0.5673122 
753.6      0.05783663 1          0.5072273 
753.7      0.05797897 1          0.4743316 
753.8      0.06319948 1          0.4445818 
753.9      0.05907501 1          0.4426053 
754        0.05424148 1          0.4530392 
754.1      0.05839266 1          0.4569253 
754.2      0.05770738 1          0.4712548 
754.3      0.04448732 1          0.4742033 
754.4      0.05114921 1          0.4675526 
754.5      0.04619719 1          0.4763896 
754.6      0.02859817 1          0.4942265 
754.7      0.03093562 1          0.4722792 
754.8      0.04103858 1          0.4479289 
754.9      0.03709878 1          0.4453244 
755        0.03179423 1          0.4753599 
755.1      0.02124296 1          0.4632339 
755.2      0.02276268 1          0.4320668 
755.3      0.0299373  1          0.3996733 
755.4      0.0005188691 1          0.445696  
755.5      0          1          0.4395268 
755.6      0          1          0.4517897 
755.7      0.01084771 1          0.4605781 
755.8      0.01146249 1          0.4704875 
755.9      0.01396126 1          0.4919919 
756        0.01722802 1          0.4948848 
756.1      0.02903082 1          0.4647555 
756.2      0.04275681 1          0.4440872 
756.3      0.04553738 1          0.4226332 
756.4      0.03705231 1          0.4174825 
756.5      0.006464206 1          0.4000229 
756.6      0          1          0.419036  
756.7      0.001818035 1          0.4057578 
756.8      0.04398976 1          0.3965338 
756.9      0.07355334 1          0.3813788 
757        0.09175517 1          0.3814924 
757.1      0.1055635  1          0.3785443 
757.2      0.09942124 1          0.3534279 
757.3      0.07375074 1          0.3747076 
757.4      0.04468606 1          0.4095274 
757.5      0.02994233 1          0.4116563 
757.6      0.04407403 1          0.3756085 
757.7      0.05615164 1          0.3785443 
757.8      0.05888084 1          0.3812652 
757.9      0.04507343 1          0.3682104 
758        0.03343314 1          0.3717876 
758.1      0.02873675 1          0.3537554 
758.2      0.05369095 1          0.3349111 
758.3      0.05403418 1          0.3337441 
758.4      0.02755201 1          0.3437831 
758.5      0.03483573 1          0.3470188 
758.6      0.03475716 1          0.3552859 
758.7      0.04032067 1          0.37437   
758.8      0.0460557  1          0.3908707 
758.9      0.03335541 1          0.4160515 
759        0.04531671 1          0.3753831 
759.1      0.04795038 1          0.3664286 
759.2      0.03010564 1          0.391101  
759.3      0.003101084 1          0.4189164 
759.4      0.0279757  1          0.3883425 
759.5      0.0258911  1          0.3674303 
759.6      0.01125754 1          0.3491846 
759.7      0          1          0.3130849 
759.8      0          1          0.2992685 
759.9      0          1          0.2533934 
760        0          1          0.2230914 
760.1      0.027238   1          0.2229147 
760.2      0.0262763  1          0.2221206 
760.3      0.03758673 1          0.1996654 
760.4      0.07068058 1          0.1651464 
760.5      0.08014436 1          0.1489693 
760.6      0.09091888 1          0.1203358 
760.7      0.1114172  1          0.1026416 
760.8      0.1205639  1          0.1155431 
760.9      0.1211733  1          0.125471  
761        0.1154849  1          0.1368114 
761.1      0.1359009  1          0.1353971 
761.2      0.1303794  0.9874787  0.1281703 
761.3      0.1251575  0.967704   0.1079246 
761.4      0.08826017 1          0.1053446 
761.5      0.07135785 1          0.09721772
761.6      0.08353587 1          0.07039715
761.7      0.06994992 1          0.06963059
761.8      0.08386867 1          0.05830657
761.9      0.08923786 0.9143274  0.05405129
762        0.09446995 0.9223601  0.0662624 
762.1      0.08013573 1          0.0670225 
762.2      0.06471458 1          0.05985996
762.3      0.06652253 1          0.07405849
762.4      0.07926759 1          0.09776385
762.5      0.1273657  1          0.1214159 
762.6      0.1521267  1          0.1622293 
762.7      0.1580775  0.8954142  0.2039968 
762.8      0.1511044  0.8463051  0.2057051 
762.9      0.1206876  1          0.211122  
763        0.09797714 1          0.2043381 
763.1      0.08240775 1          0.191274  
763.2      0.07228866 1          0.1765839 
763.3      0.09023613 1          0.1645931 
763.4      0.1158167  1          0.1676832 
763.5      0.1327843  1          0.1619935 
763.6      0.1325559  1          0.1827698 
763.7      0.1215744  1          0.1921071 
763.8      0.1113697  1          0.2328032 
763.9      0.1148792  1          0.2648712 
764        0.1261358  1          0.2705985 
764.1      0.1263911  1          0.2817305 
764.2      0.1334337  1          0.2837854 
764.3      0.1532273  1          0.290487  
764.4      0.1438964  1          0.2882122 
764.5      0.1412255  1          0.2792931 
764.6      0.1559709  1          0.2851592 
764.7      0.1510798  1          0.2787095 
764.8      0.1361383  1          0.2635427 
764.9      0.1285138  1          0.2545125 
765        0.1252764  1          0.2477379 
765.1      0.123275   1          0.2533934 
765.2      0.1275163  1          0.2519047 
765.3      0.1468766  1          0.2180796 
765.4      0.1647375  0.9422342  0.1713527 
765.5      0.1838789  0.7919771  0.1262719 
765.6      0.1825467  0.8055887  0.1108013 
765.7      0.1620431  0.9766394  0.1214159 
765.8      0.1213481  1          0.1297828 
765.9      0.1120149  1          0.1205517 
766        0.118847   1          0.1251802 
766.1      0.1365994  1          0.1352485 
766.2      0.1667857  1          0.1392031 
766.3      0.1655236  1          0.1466801 
766.4      0.1614817  1          0.1764222 
766.5      0.1605751  1          0.1795048 
766.6      0.1603583  1          0.2142419 
766.7      0.1520192  1          0.2245949 
766.8      0.1445295  1          0.2280598 
766.9      0.1477974  1          0.2270804 
767        0.1243488  1          0.2572258 
767.1      0.1332849  1          0.2436926 
767.2      0.1541778  1          0.2147636 
767.3      0.1622667  1          0.2117272 
767.4      0.1744023  1          0.1844923 
767.5      0.1770166  0.9892524  0.1676037 
767.6      0.1600466  1          0.1573018 
767.7      0.1509777  1          0.1561359 
767.8      0.1434031  1          0.1443261 
767.9      0.1449575  1          0.1212717 
768        0.1486074  1          0.1171112 
768.1      0.1487347  1          0.1257621 
768.2      0.1519752  1          0.1247442 
768.3      0.1477004  1          0.1291958 
768.4      0.1487135  1          0.127147  
768.5      0.1585488  1          0.1097467 
768.6      0.168987   1          0.104303  
768.7      0.1589621  1          0.1129889 
768.8      0.1469303  1          0.1178973 
768.9      0.1552216  1          0.1377069 
769        0.1309849  1          0.1601115 
769.1      0.1100844  1          0.1591731 
769.2      0.1185486  1          0.1723946 
769.3      0.1171568  1          0.1671271 
769.4      0.09767494 1          0.1673654 
769.5      0.08210359 1          0.1623079 
769.6      0.0759036  1          0.1453878 
769.7      0.0953978  1          0.1251075 
769.8      0.08781267 1          0.116897  
769.9      0.07221639 1          0.1079246 
770        0.06730832 1          0.1166116 
770.1      0.05390471 1          0.1161839 
770.2      0.04585999 1          0.1095361 
770.3      0.04856612 1          0.1143351 
770.4      0.05264214 1          0.1144771 
770.5      0.06765433 1          0.1074353 
770.6      0.06577311 1          0.1058316 
770.7      0.05499771 1          0.0964679 
770.8      0.06046411 1          0.1018823 
770.9      0.05582798 1          0.1076449 
771        0.04682502 1          0.1162552 
771.1      0.04486534 1          0.1029181 
771.2      0.06822062 1          0.08550994
771.3      0.07604321 1          0.08491317
771.4      0.07274624 1          0.07412302
