~Version
 VERS              .         3.0                           : CWLS LOG ASCII STANDARD - VERSION 3.0
 WRAP              .         NO                            : ONE LINE PER DEPTH STEP
 DLM               .         SPACE                         : DELIMITING CHARACTER(SPACE TAB OR COMMA)
~Well Information
#_______________________________________________________________________________
#
#PARAMETER_NAME    .UNIT     VALUE                         : DESCRIPTION
#_______________________________________________________________________________
STRT               .M        9.8                           : First reference value
STOP               .M        883                           : Last reference value
STEP               .M        0.1                           : Step increment
NULL               .         -9999                         : Missing value
COMP               .         ICPetroleum                   : Company
WELL               .         301                           : Well name
FLD                .         Karatobe                      : Field
LOC                .                                       : Location
SRVC               .                                       : Service Company
CTRY               .         KZ                            : Country
DATE               .         18.12.2004                    : Service Date
LATI               .         0                             : Latitude
LONG               .         0                             : Longitude
GDAT               .         WGS 84                        : Geodetic Datum
CNTY               .                                       : 
COORDIN            .                                       : Grid System
COUNTRY            .         Kazakhstan                    : 
COUNTRY            .         Kazakhstan                    : 
EREF               .m        140.6                         : 
FN                 .         KARATUBE                      : 
KB                 .         140.6                         : KB Elevation
ORIGINALWELLNAME   .         Скважина                      : 
PROV               .                                       : Province
RWS                .         -999                          : Def_Rw
UWI                .                                       : Уникальный идентификатор скважины
WN                 .         301                           : 
WST                .         -999                          : Def_Rwt
X                  .km       466174.48                     : 
XCOORD             .                                       : X or East-West Coordinate
Y                  .km       5307895.19                    : 
YCOORD             .                                       : Y or North-South Coordinate
~Parameter Information Block
#_______________________________________________________________________________
#
#PARAMETER_NAME    .UNIT     VALUE                         : DESCRIPTION
#_______________________________________________________________________________
SET                .         Las                           : 
BS                 .MM       215.90                        : Bit Size
DFD                .G/C3     1.16                          : Drilling Fluid Density
DFV                .S        30.00                         : Drilling Fluid Viscosity
RMS                .OHMM     .00                           : Mud Sample Resistivity
TLFamily_DEPT      .         Measured Depth                : 
TLFamily_PHI_FINAL .         Porosity                      : 
TLFamily_SW_AR     .         Water Saturation              : 
TLFamily_VSH_FINAL .         Shale Volume                  : 
~Curve Information
#_______________________________________________________________________________
#
#LOGNAME           .UNIT     LOG_ID                        : DESCRIPTION
#_______________________________________________________________________________
DEPT               .M                                      : Depth curve {F}
PHI_FINAL          .m3/m3                                  : Porosity {F}
SW_AR              .m3/m3                                  :  {F}
VSH_FINAL          .unitless                               : Vshale {F}
~Ascii
# ...
316.9      0.2702268  0.7155167  0.3290239 
317        0.2624099  0.7443044  0.3428283 
317.1      0.2265668  0.868829   0.3566079 
317.2      0.2068938  0.9580082  0.3109527 
317.3      0.1898131  1          0.325799  
317.4      0.2073405  0.9714284  0.3272522 
317.5      0.2129457  0.9557399  0.3566988 
317.6      0.2232077  0.9185205  0.3629853 
317.7      0.2328447  0.8842968  0.3765638 
317.8      0.2542081  0.8154794  0.3653302 
317.9      0.2399693  0.8624599  0.3861599 
318        0.2451632  0.8452805  0.3715099 
318.1      0.2524971  0.8214818  0.3571582 
318.2      0.2547823  0.8141804  0.371054  
318.3      0.2543281  0.8145661  0.3819591 
318.4      0.2403553  0.8565251  0.4210069 
318.5      0.2358158  0.8659845  0.4255816 
318.6      0.2534767  0.7938053  0.3989711 
318.7      0.2402899  0.8237609  0.4409726 
318.8      0.2234613  0.8905692  0.4834993 
318.9      0.2130194  0.9505174  0.4924231 
319        0.2076157  0.9767324  0.4627198 
319.1      0.2061839  0.9729044  0.4570606 
319.2      0.2152671  0.9168105  0.4518536 
319.3      0.2303059  0.8579299  0.4266789 
319.4      0.2268069  0.8869424  0.4286664 
319.5      0.21941    0.9348053  0.425972  
319.6      0.2239307  0.9325802  0.4014896 
319.7      0.2202366  0.9668217  0.4180477 
319.8      0.2266466  0.9516636  0.4148625 
319.9      0.2384107  0.9041329  0.3891859 
320        0.2424093  0.882701   0.3905081 
320.1      0.2087312  1          0.478869  
320.2      0.2068077  1          0.4744751 
320.3      0.2237289  0.9409614  0.4183553 
320.4      0.2134734  0.9791338  0.4375737 
320.5      0.2196851  0.950806   0.4498534 
320.6      0.2229965  0.9365348  0.4424058 
320.7      0.2396429  0.8767022  0.4169697 
320.8      0.2295898  0.9179655  0.4365096 
320.9      0.2242829  0.9455642  0.4290638 
321        0.2511434  0.8582096  0.367036  
321.1      0.2656068  0.8220863  0.331825  
321.2      0.2690916  0.8212869  0.317585  
321.3      0.2405953  0.9108209  0.3643907 
321.4      0.2439853  0.8641014  0.3424368 
321.5      0.2124224  0.9234574  0.3445688 
321.6      0.1520722  1          0.3390684 
321.7      0.06686637 1          0.3625182 
321.8      0.0531805  1          0.3388055 
321.9      0.06753947 1          0.3114175 
322        0.1142079  1          0.2712534 
322.1      0.1427276  1          0.2677288 
322.2      0.1628787  1          0.2586916 
322.3      0.1814822  1          0.2720402 
322.4      0.212242   0.9836841  0.2829494 
322.5      0.2310749  0.934815   0.3138767 
322.6      0.2385724  0.9218735  0.3295236 
322.7      0.2267949  0.974352   0.3834341 
322.8      0.225797   0.9800819  0.3996899 
322.9      0.2192854  1          0.4483697 
323        0.2203064  0.9935672  0.4508247 
323.1      0.2232281  0.9817077  0.4603999 
323.2      0.2106082  1          0.4803544 
323.3      0.2270215  0.9726852  0.4353927 
323.4      0.231699   0.9565969  0.4287255 
323.5      0.2110003  1          0.4809239 
323.6      0.2061956  1          0.5026936 
323.7      0.1841318  1          0.5504962 
323.8      0.1688739  1          0.5846347 
323.9      0.153323   1          0.6175269 
324        0.1227561  1          0.6708097 
324.1      0.1171601  1          0.6660098 
324.2      0.06230667 1          0.7875813 
324.3      0.02997376 1          0.8682556 
324.4      0.007999687 1          1         
324.5      0.009716493 1          1         
324.6      0.008370897 1          1         
324.7      0.01085123 1          1         
324.8      0.009481932 1          1         
324.9      0.009358877 1          1         
325        0.01256716 1          1         
325.1      0.01062988 1          1         
325.2      0.005871853 1          1         
325.3      0.004752278 1          1         
325.4      0.003918953 1          1         
325.5      0.003161378 1          1         
325.6      0.001646228 1          1         
325.7      0          1          1         
325.8      0.005006835 1          1         
325.9      0.008913443 1          1         
326        0.01050198 1          1         
326.1      0.01467997 1          1         
326.2      0.01825637 1          1         
326.3      0.01798289 1          1         
326.4      0.01821644 1          1         
326.5      0.0160382  1          1         
326.6      0.0125473  1          1         
326.7      0.0142264  1          1         
326.8      0.01579379 1          1         
326.9      0.01804513 1          1         
327        0.02021489 1          1         
327.1      0.02362698 1          1         
327.2      0.0221747  1          1         
327.3      0.02490514 1          1         
327.4      0.02321082 1          1         
327.5      0.02459593 1          1         
327.6      0.01984308 1          1         
327.7      0.006040155 1          1         
327.8      0.006343182 1          1         
327.9      0.00528258 1          1         
328        0.004449252 1          1         
328.1      0.001191679 1          1         
328.2      0          1          1         
328.3      0          1          1         
328.4      0          1          1         
328.5      0.003484156 1          1         
328.6      0.008594048 1          1         
328.7      0.01047398 1          1         
328.8      0.0160274  1          1         
328.9      0.02002048 1          1         
329        0.05202475 1          0.8971884 
329.1      0.0854507  1          0.8004078 
329.2      0.1156083  1          0.7137759 
329.3      0.1331348  1          0.6631086 
329.4      0.1325373  1          0.6780651 
329.5      0.1496436  1          0.6475374 
329.6      0.1611669  1          0.6195157 
329.7      0.1995665  1          0.5291278 
329.8      0.2214935  1          0.4697451 
329.9      0.2301269  1          0.4624707 
330        0.2502606  0.9770272  0.4166057 
330.1      0.2613809  0.9371455  0.4052165 
330.2      0.2783724  0.8779697  0.3645012 
330.3      0.280282   0.8716782  0.3621693 
330.4      0.2631783  0.9297284  0.3767547 
330.5      0.2638395  0.9354147  0.3609205 
330.6      0.2609716  0.9547459  0.3555673 
330.7      0.2534385  0.9886959  0.353442  
330.8      0.2563614  0.962278   0.3353624 
330.9      0.2517733  0.9427947  0.3545995 
331        0.228218   1          0.4202753 
331.1      0.2311001  0.9954087  0.4240603 
331.2      0.24291    0.9559001  0.3877546 
331.3      0.267055   0.8866166  0.3379946 
331.4      0.2864209  0.8406889  0.3041856 
331.5      0.3222417  0.7591164  0.2170773 
331.6      0.3341726  0.7358274  0.1962178 
331.7      0.3435608  0.7143527  0.1767168 
331.8      0.3521618  0.6973388  0.1634564 
331.9      0.357815   0.6917471  0.1640629 
332        0.3587878  0.6934952  0.163325  
332.1      0.3490016  0.7090309  0.1836971 
332.2      0.3381976  0.7201819  0.2196012 
332.3      0.3275677  0.7414843  0.238256  
332.4      0.3232561  0.7572695  0.2402111 
332.5      0.3266178  0.7521882  0.2339015 
332.6      0.3347254  0.7321767  0.2144687 
332.7      0.3478794  0.704827   0.1844234 
332.8      0.3515093  0.6949701  0.1580284 
332.9      0.3416905  0.7122099  0.1723279 
333        0.334581   0.7306475  0.1785904 
333.1      0.3250981  0.7559226  0.1934024 
333.2      0.3244163  0.7585203  0.2057833 
333.3      0.3067056  0.7997454  0.2556228 
333.4      0.3007758  0.8120139  0.2762156 
333.5      0.3025341  0.8039445  0.2840795 
333.6      0.2849891  0.8506866  0.3326748 
333.7      0.2647682  0.9190855  0.3928449 
333.8      0.2513449  0.9737542  0.4402164 
333.9      0.2492112  0.9872733  0.4472093 
334        0.2491123  0.9896665  0.4444473 
334.1      0.2622307  0.9396223  0.4088991 
334.2      0.3023692  0.8145747  0.2989843 
334.3      0.3163875  0.7677369  0.2587025 
334.4      0.3196012  0.7305665  0.2451871 
334.5      0.2948016  0.6961673  0.242663  
334.6      0.2631193  0.6430647  0.2302391 
334.7      0.2053995  0.6910882  0.2765927 
334.8      0.1533493  0.8892981  0.3251845 
334.9      0.1216274  1          0.4028625 
335        0.1112397  1          0.461345  
