~Version
 VERS              .         3.0                           : CWLS LOG ASCII STANDARD - VERSION 3.0
 WRAP              .         NO                            : ONE LINE PER DEPTH STEP
 DLM               .         SPACE                         : DELIMITING CHARACTER(SPACE TAB OR COMMA)
~Well Information
#_______________________________________________________________________________
#
#PARAMETER_NAME    .UNIT     VALUE                         : DESCRIPTION
#_______________________________________________________________________________
STRT               .M        9.8                           : First reference value
STOP               .M        883                           : Last reference value
STEP               .M        0.1                           : Step increment
NULL               .         -9999                         : Missing value
COMP               .         ICPetroleum                   : Company
WELL               .         301                           : Well name
FLD                .         Karatobe                      : Field
LOC                .                                       : Location
SRVC               .                                       : Service Company
CTRY               .         KZ                            : Country
DATE               .         18.12.2004                    : Service Date
LATI               .         0                             : Latitude
LONG               .         0                             : Longitude
GDAT               .         WGS 84                        : Geodetic Datum
CNTY               .                                       : 
COORDIN            .                                       : Grid System
COUNTRY            .         Kazakhstan                    : 
COUNTRY            .         Kazakhstan                    : 
EREF               .m        140.6                         : 
FN                 .         KARATUBE                      : 
KB                 .         140.6                         : KB Elevation
ORIGINALWELLNAME   .         Скважина                      : 
PROV               .                                       : Province
RWS                .         -999                          : Def_Rw
UWI                .                                       : Уникальный идентификатор скважины
WN                 .         301                           : 
WST                .         -999                          : Def_Rwt
X                  .km       466174.48                     : 
XCOORD             .                                       : X or East-West Coordinate
Y                  .km       5307895.19                    : 
YCOORD             .                                       : Y or North-South Coordinate
~Parameter Information Block
#_______________________________________________________________________________
#
#PARAMETER_NAME    .UNIT     VALUE                         : DESCRIPTION
#_______________________________________________________________________________
SET                .         Las                           : 
BS                 .MM       215.90                        : Bit Size
DFD                .G/C3     1.16                          : Drilling Fluid Density
DFV                .S        30.00                         : Drilling Fluid Viscosity
RMS                .OHMM     .00                           : Mud Sample Resistivity
TLFamily_DEPT      .         Measured Depth                : 
TLFamily_PHI_FINAL .         Porosity                      : 
TLFamily_SW_AR     .         Water Saturation              : 
TLFamily_VSH_FINAL .         Shale Volume                  : 
~Curve Information
#_______________________________________________________________________________
#
#LOGNAME           .UNIT     LOG_ID                        : DESCRIPTION
#_______________________________________________________________________________
DEPT               .M                                      : Depth curve {F}
PHI_FINAL          .m3/m3                                  : Porosity {F}
SW_AR              .m3/m3                                  :  {F}
VSH_FINAL          .unitless                               : Vshale {F}
~Ascii
# ...
844.3      0          1          0.04996398
844.4      0          1          0.05614222
844.5      0          1          0.05620391
844.6      0          1          0.05124036
844.7      0          1          0.04394425
844.8      0          1          0.04556013
844.9      0          1          0.0413852 
845        0          1          0.04370547
845.1      0          1          0.04114804
845.2      0          1          0.04132589
845.3      0          1          0.04454193
845.4      0          1          0.04257328
845.5      0          1          0.04382486
845.6      0          1          0.0393152 
845.7      0          1          0.03766748
845.8      0          1          0.04120732
845.9      0          1          0.0392562 
846        0          1          0.04604024
846.1      0          1          0.05638897
846.2      0          1          0.0690566 
846.3      0          1          0.08484692
846.4      0          1          0.1000241 
846.5      0          1          0.129636  
846.6      0          1          0.1541217 
846.7      0          1          0.1901929 
846.8      0          1          0.2364099 
846.9      0          1          0.3085821 
847        0          1          0.4176019 
847.1      0          1          0.5925957 
847.2      0          1          0.8315071 
847.3      0          1          1         
847.4      0          1          1         
847.5      0          1          1         
847.6      0          1          1         
847.7      0          1          1         
847.8      0          1          1         
847.9      0          1          1         
848        0          1          1         
848.1      0          1          1         
848.2      0          1          1         
848.3      0          1          0.6980976 
848.4      0          1          0.6131538 
848.5      0          1          0.6372543 
848.6      0          1          0.6892698 
848.7      0          1          0.7688934 
848.8      0          1          0.87304   
848.9      0          1          0.9857956 
849        0          1          0.9591722 
849.1      0          1          0.8151155 
849.2      0          1          0.671681  
849.3      0          1          0.570758  
849.4      0          1          0.4459438 
849.5      0          1          0.3466946 
849.6      0          1          0.2468161 
849.7      0          1          0.1753719 
849.8      0          1          0.1234389 
849.9      0          1          0.07541581
850        0          1          0.03702217
850.1      0          1          0.009505547
850.2      0          1          0.0000961 
850.3      0          1          0         
850.4      0          1          0         
850.5      0          1          0         
850.6      0          1          0         
850.7      0          1          0.01129946
850.8      0          1          0.0000434 
850.9      0          1          0         
851        0          1          0         
851.1      0          1          0         
851.2      0          1          0         
851.3      0          1          0         
851.4      0          1          0         
851.5      0          1          0         
851.6      0          1          0         
851.7      0          1          0         
851.8      0          1          0         
851.9      0          1          0         
852        0          1          0         
852.1      0          1          0         
852.2      0          1          0         
852.3      0          1          0         
852.4      0          1          0         
852.5      0          1          0         
852.6      0          1          0         
852.7      0          1          0         
852.8      0          1          0         
852.9      0          1          0         
853        0          1          0         
853.1      0          1          0         
853.2      0          1          0         
853.3      0          1          0         
853.4      0          1          0         
853.5      0          1          0         
853.6      0          1          0         
853.7      0          1          0         
853.8      0          1          0         
853.9      0          1          0         
854        0          1          0         
854.1      0          1          0         
854.2      0          1          0         
854.3      0          1          0         
854.4      0          1          0         
854.5      0          1          0         
854.6      0          1          0         
854.7      0          1          0.006590378
854.8      0          1          0.03218947
854.9      0          1          0.06154458
855        0          1          0.08843986
855.1      0          1          0.1264905 
855.2      0          1          0.1367369 
855.3      0          1          0.09038223
855.4      0          1          0.03955118
855.5      0          1          0.01996483
855.6      0          1          0         
855.7      0          1          0         
855.8      0          1          0         
855.9      0          1          0         
856        0          1          0         
856.1      0          1          0         
856.2      0          1          0         
856.3      0          1          0         
856.4      0          1          0         
856.5      0          1          0         
856.6      0          1          0         
856.7      0          1          0         
856.8      0          1          0         
856.9      0          1          0         
857        0          1          0         
857.1      0          1          0         
857.2      0          1          0         
857.3      0          1          0         
857.4      0          1          0         
857.5      0          1          0         
857.6      0          1          0         
857.7      0          1          0         
857.8      0          1          0         
857.9      0          1          0         
858        0          1          0         
858.1      0          1          0         
858.2      0          1          0         
858.3      0          1          0         
858.4      0          1          0         
858.5      0          1          0         
858.6      0          1          0         
858.7      0          1          0         
858.8      0          1          0         
858.9      0          1          0         
859        0          1          0         
859.1      0          1          0         
859.2      0          1          0         
859.3      0          1          0         
859.4      0          1          0         
859.5      0          1          0         
859.6      0          1          0         
859.7      0          1          0         
859.8      0          1          0         
859.9      0          1          0         
860        0          1          0         
860.1      0          1          0         
860.2      0          1          0         
860.3      0          1          0         
860.4      0          1          0         
860.5      0          1          0         
860.6      0          1          0         
860.7      0          1          0         
860.8      0          1          0         
860.9      0          1          0         
861        0          1          0         
861.1      0          1          0         
861.2      0          1          0         
861.3      0          1          0         
861.4      0          1          0         
861.5      0          1          0         
861.6      0          1          0         
861.7      0          1          0         
861.8      0          1          0         
861.9      0          1          0         
862        0          1          0         
862.1      0          1          0         
862.2      0          1          0         
862.3      0          1          0         
862.4      0          1          0         
