~Version information                                                          
  VERS.                            1.20: CWLS LAS  -  VERSION 1.20            
  WRAP.                             NO : One line per depth step              
~Well information                                                             
# MNEM.UNIT         DATA TYPE  INFORMATION                                    
# ====.================================: ===================                  
  STRT.M                         9.800 : First depth in file                  
  STOP.M                       883.000 : Last  depth in file                  
  STEP.M                          .100 : Depth increment                      
  NULL.                       -999.250 : Null  values                         
  WN  .                            WELL: 301
  FN  .                           FIELD: KARATUBE
  DATE.                        LOG DATE: 18.12.2004
~Curve information                                                            
# MNEM.UNIT                   API CODE   CURVE DESCRIPTION                    
# ====.================================:====================                  
  DEPT.M                               : Depth curve                          
  GZ3 .OHMM                            : App.resistivity by lateral A2.0M0.5N
  SP  .MV                              : Spontaneous potential
  LL3 .OHMM                            : Appar.resist.laterolog,3 electrodes
  CALI.MM                              : Caliper  
  GR  .UR/H                            : Gamma-ray
  RHOB.G/C3                            : Bulk density by gamma-gamma log
  CILR.MMHO                            : Conduct. by sonde 7I1.6,reactive signal
  MLL .OHMM                            : Microlaterolog sonde  
  DTP .US/M                            : Interval travel time (P-wave)
  T1  .US                              : Travel time 1
  C1  .MM                              : Caliper, diameter 1
  C2  .MM                              : Caliper, diameter 2
  BSC .MM                              : Bit size
  T2  .US                              : Travel time 2
  NGLD.UE                              : Neutron-gamma log
  GZ3B.OHMM                            : App.resistivity by lateral N0.5M2.0A
  CILA.MMHO                            : Conduct. by sonde 7I1.6,active signal
~Parameter information block                                                  
# MNEM.UNIT                     VALUE       DESCRIPTION                       
# ====.================================:====================                  
  BS  .MM                       215.90 : Bit Size                             
  DFD .G/C3                       1.16 : Drilling Fluid Density
  DFV .S                         30.00 : Drilling Fluid Viscosity             
  RMS .OHMM                        .00 : Mud Sample Resistivity               
~Other information                                                            
# ------------------- REMARKS AREA ------------------------                   
# ==========================================================                  
~ASCII Log Data                                                               
# ...
    464.80        4.345       51.911        3.470      221.730       10.881        2.150      199.437        1.859      436.667     1040.000      229.151      214.308      215.900     1214.667        1.023        4.143      335.958
    464.90        4.335       51.477        3.464      221.026       10.931        2.153      206.704        2.005      436.667     1040.000      228.708      213.344      215.900     1214.667        1.022        4.210      339.872
    465.00        4.338       51.422        3.502      221.182       11.266        2.170      201.323        2.013      433.333     1038.667      230.073      212.290      215.900     1212.000        1.024        4.296      331.875
    465.10        4.342       53.179        3.554      222.235       11.283        2.163      194.936        1.987      420.000     1038.667      231.771      212.700      215.900     1206.667        1.060        4.428      330.771
    465.20        4.354       54.865        3.690      224.443       11.494        2.169      198.805        2.252      410.000     1038.667      233.290      215.596      215.900     1202.667        1.071        4.519      339.823
    465.30        4.348       56.466        3.729      223.287       11.711        2.163      204.902        2.490      400.000     1040.000      230.862      215.712      215.900     1200.000        1.076        4.565      342.488
    465.40        4.330       58.820        3.656      224.389       11.950        2.156      201.184        2.312      403.333     1038.667      237.685      211.094      215.900     1200.000        1.107        4.603      334.666
    465.50        4.364       60.341        3.582      220.956       11.795        2.167      192.540        2.205      413.333     1033.333      230.275      211.637      215.900     1198.667        1.140        4.686      330.572
    465.60        4.388       59.026        3.615      220.430       11.805        2.167      191.144        2.330      423.333     1024.000      225.174      215.686      215.900     1193.333        1.106        4.751      331.798
    465.70        4.408       59.935        3.680      213.607       11.813        2.163      192.397        2.526      430.000     1016.000      216.160      211.053      215.900     1188.000        1.122        4.785      332.741
    465.80        4.432       60.243        3.723      215.392       11.745        2.174      191.916        2.494      433.333     1012.000      215.805      214.979      215.900     1185.333        1.167        4.819      332.313
    465.90        4.431       60.794        3.740      222.381       11.396        2.176      200.080        2.245      440.000     1010.667      216.918      227.843      215.900     1186.667        1.176        4.846      338.450
    466.00        4.392       61.249        3.707      226.466       11.326        2.153      196.033        2.273      446.667     1008.000      214.551      238.381      215.900     1186.667        1.185        4.872      340.313
    466.10        4.387       61.145        3.653      228.225       10.960        2.128      192.274        2.324      446.667     1006.667      219.404      237.045      215.900     1185.333        1.147        4.904      336.398
    466.20        4.378       60.089        3.591      226.378       10.808        2.108      186.332        2.307      443.333     1008.000      217.101      235.656      215.900     1185.333        1.148        4.931      333.836
    466.30        4.379       59.503        3.532      228.374       10.484        2.084      185.231        2.445      440.000     1010.667      214.671      242.076      215.900     1186.667        1.104        4.981      332.370
    466.40        4.367       59.420        3.587      234.750       10.333        2.059      181.147        2.376      443.333     1012.000      216.127      253.374      215.900     1189.333        1.081        5.033      325.651
    466.50        4.361       58.947        3.718      238.697       10.074        2.043      185.215        2.458      446.667     1013.333      215.520      261.874      215.900     1192.000        1.072        5.113      333.575
    466.60        4.376       58.919        3.749      241.783        9.909        2.024      186.124        2.353      456.667     1014.667      219.071      264.495      215.900     1197.333        1.026        5.269      340.308
    466.70        4.443       58.611        3.615      238.271        9.803        2.023      182.900        2.563      466.667     1016.000      223.135      253.407      215.900     1202.667        1.012        5.526      338.009
    466.80        4.511       57.944        3.583      229.816        9.453        2.026      184.143        2.752      473.333     1017.333      225.793      233.840      215.900     1206.667        1.006        5.716      333.514
    466.90        4.531       57.086        3.661      225.313        9.215        2.012      185.485        2.240      463.333     1021.333      226.886      223.740      215.900     1206.667        1.041        5.900      330.736
    467.00        4.490       57.014        3.760      219.623        9.006        2.003      181.958        2.646      450.000     1026.667      218.750      220.497      215.900     1206.667        1.083        6.003      333.156
    467.10        4.389       57.209        3.724      216.276        8.569        2.005      177.046        3.214      436.667     1030.667      214.050      218.503      215.900     1205.333        1.121        6.065      333.956
    467.20        4.261       57.614        3.572      225.034        8.684        2.058      175.427        2.326      440.000     1030.667      227.204      222.865      215.900     1206.667        1.132        6.164      330.753
    467.30        4.252       57.784        3.517      234.352        9.015        2.185      175.057        2.136      440.000     1030.667      240.706      227.999      215.900     1206.667        1.075        6.400      323.367
    467.40        4.283       57.783        3.674      233.614        9.133        2.238      183.078        2.264      443.333     1029.333      235.428      231.799      215.900     1206.667        1.069        6.674      307.595
    467.50        4.321       57.918        4.022      229.309        8.793        2.253      165.905        2.368      433.333     1029.333      235.357      223.260      215.900     1202.667        1.081        6.923      309.422
    467.60        4.385       58.454        4.740      226.954        8.573        2.255      156.047        2.608      410.000     1026.667      241.680      212.228      215.900     1190.667        1.078        7.147      302.916
    467.70        4.423       57.583        5.316      227.871        8.642        2.203      155.707        2.520      383.333     1025.333      244.766      210.976      215.900     1178.667        1.085        7.387      289.600
    467.80        4.421       56.872        5.355      231.250        8.555        2.171      144.867        3.012      366.667     1022.667      244.691      217.810      215.900     1169.333        1.097        7.451      292.042
    467.90        4.448       57.642        4.712      226.384        8.062        2.156      144.470        3.195      373.333     1018.667      238.017      214.751      215.900     1168.000        1.137        7.373      286.214
    468.00        4.530       57.336        4.129      214.246        7.932        2.151      142.373        2.529      400.000     1008.000      221.806      206.686      215.900     1168.000        1.149        7.160      287.951
    468.10        4.590       57.076        3.872      215.024        7.416        2.137      143.396        2.408      423.333      997.333      221.527      208.521      215.900     1166.667        1.140        6.880      294.821
    468.20        4.600       58.123        3.747      221.329        7.459        2.142      145.162        2.962      436.667      989.333      227.422      215.236      215.900     1164.000        1.147        6.516      301.397
