~Version information                                                          
  VERS.                            1.20: CWLS LAS  -  VERSION 1.20            
  WRAP.                             NO : One line per depth step              
~Well information                                                             
# MNEM.UNIT         DATA TYPE  INFORMATION                                    
# ====.================================: ===================                  
  STRT.M                         9.800 : First depth in file                  
  STOP.M                       883.000 : Last  depth in file                  
  STEP.M                          .100 : Depth increment                      
  NULL.                       -999.250 : Null  values                         
  WN  .                            WELL: 301
  FN  .                           FIELD: KARATUBE
  DATE.                        LOG DATE: 18.12.2004
~Curve information                                                            
# MNEM.UNIT                   API CODE   CURVE DESCRIPTION                    
# ====.================================:====================                  
  DEPT.M                               : Depth curve                          
  GZ3 .OHMM                            : App.resistivity by lateral A2.0M0.5N
  SP  .MV                              : Spontaneous potential
  LL3 .OHMM                            : Appar.resist.laterolog,3 electrodes
  CALI.MM                              : Caliper  
  GR  .UR/H                            : Gamma-ray
  RHOB.G/C3                            : Bulk density by gamma-gamma log
  CILR.MMHO                            : Conduct. by sonde 7I1.6,reactive signal
  MLL .OHMM                            : Microlaterolog sonde  
  DTP .US/M                            : Interval travel time (P-wave)
  T1  .US                              : Travel time 1
  C1  .MM                              : Caliper, diameter 1
  C2  .MM                              : Caliper, diameter 2
  BSC .MM                              : Bit size
  T2  .US                              : Travel time 2
  NGLD.UE                              : Neutron-gamma log
  GZ3B.OHMM                            : App.resistivity by lateral N0.5M2.0A
  CILA.MMHO                            : Conduct. by sonde 7I1.6,active signal
~Parameter information block                                                  
# MNEM.UNIT                     VALUE       DESCRIPTION                       
# ====.================================:====================                  
  BS  .MM                       215.90 : Bit Size                             
  DFD .G/C3                       1.16 : Drilling Fluid Density
  DFV .S                         30.00 : Drilling Fluid Viscosity             
  RMS .OHMM                        .00 : Mud Sample Resistivity               
~Other information                                                            
# ------------------- REMARKS AREA ------------------------                   
# ==========================================================                  
~ASCII Log Data                                                               
# ...
    870.80       23.791      121.708     6956.318     -999.250        1.257     -999.250     -999.250        4.069      216.667      456.000     -999.250     -999.250     -999.250      542.667        6.037       48.930     -999.250
    870.90       23.019      119.924     6864.400     -999.250        1.295     -999.250     -999.250        4.655      220.000      456.000     -999.250     -999.250     -999.250      544.000        6.073       47.406     -999.250
    871.00       22.024      118.903     6748.579     -999.250        1.282     -999.250     -999.250        6.152      220.000      456.000     -999.250     -999.250     -999.250      544.000        5.964       45.282     -999.250
    871.10       21.175      118.685     6647.211     -999.250        1.281     -999.250     -999.250       12.800      220.000      457.333     -999.250     -999.250     -999.250      545.333        5.813       43.581     -999.250
    871.20       20.908      118.654     6519.164     -999.250        1.305     -999.250     -999.250        8.036      223.333      458.667     -999.250     -999.250     -999.250      548.000        5.718       42.756     -999.250
    871.30       21.280      119.098     6483.420     -999.250        1.369     -999.250     -999.250       10.837      223.333      460.000     -999.250     -999.250     -999.250      549.333        5.679       43.260     -999.250
    871.40       21.758      119.016     6614.760     -999.250     -999.250     -999.250     -999.250       15.044      226.667      458.667     -999.250     -999.250     -999.250      549.333        5.608       44.450     -999.250
    871.50       22.228      118.269     6745.086     -999.250     -999.250     -999.250     -999.250        9.465      220.000      458.667     -999.250     -999.250     -999.250      546.667        5.529       45.397     -999.250
    871.60       22.811      117.265     6800.329     -999.250     -999.250     -999.250     -999.250        5.331      213.333      458.667     -999.250     -999.250     -999.250      544.000        5.441       47.030     -999.250
    871.70       23.020      118.364     6912.788     -999.250     -999.250     -999.250     -999.250       13.593      203.333      461.333     -999.250     -999.250     -999.250      542.667        5.292       47.994     -999.250
    871.80       23.144      117.604     7050.736     -999.250     -999.250     -999.250     -999.250       10.786      203.333      461.333     -999.250     -999.250     -999.250      542.667        5.298       48.315     -999.250
    871.90       23.339      117.267     7053.627     -999.250     -999.250     -999.250     -999.250        3.473      203.333      461.333     -999.250     -999.250     -999.250      542.667        5.351       48.595     -999.250
    872.00       23.359      116.525     7003.887     -999.250     -999.250     -999.250     -999.250        2.769      206.667      460.000     -999.250     -999.250     -999.250      542.667        5.409       49.258     -999.250
    872.10       23.184      117.213     6980.643     -999.250     -999.250     -999.250     -999.250        2.345      206.667      460.000     -999.250     -999.250     -999.250      542.667        5.432       49.272     -999.250
    872.20       22.955      116.821     6865.605     -999.250     -999.250     -999.250     -999.250        3.134      206.667      460.000     -999.250     -999.250     -999.250      542.667        5.532       49.283     -999.250
    872.30       22.543      117.619     6747.615     -999.250     -999.250     -999.250     -999.250        6.909      210.000      456.000     -999.250     -999.250     -999.250      540.000        5.432       48.841     -999.250
    872.40       22.209      118.521     6677.438     -999.250     -999.250     -999.250     -999.250       14.530      213.333      450.667     -999.250     -999.250     -999.250      536.000        5.503       48.274     -999.250
    872.50       22.021      118.652     6556.677     -999.250     -999.250     -999.250     -999.250        6.879      216.667      445.333     -999.250     -999.250     -999.250      532.000        5.498       47.847     -999.250
    872.60       21.842      118.088     6479.462     -999.250     -999.250     -999.250     -999.250       21.131      213.333      445.333     -999.250     -999.250     -999.250      530.667        5.439       47.456     -999.250
    872.70       21.731      116.119     6465.285     -999.250     -999.250     -999.250     -999.250        6.020      213.333      446.667     -999.250     -999.250     -999.250      532.000        5.402       47.134     -999.250
    872.80       21.733      113.175     6449.900     -999.250     -999.250     -999.250     -999.250       23.724      213.333      449.333     -999.250     -999.250     -999.250      534.667        5.489       47.078     -999.250
    872.90       21.698      112.273     6440.701     -999.250     -999.250     -999.250     -999.250       27.765      216.667      450.667     -999.250     -999.250     -999.250      537.333        5.491       47.071     -999.250
    873.00       21.800      113.337     6410.423     -999.250     -999.250     -999.250     -999.250       27.990      213.333      452.000     -999.250     -999.250     -999.250      537.333        5.438       47.384     -999.250
    873.10       21.613      112.708     6444.291     -999.250     -999.250     -999.250     -999.250       59.706      213.333      450.667     -999.250     -999.250     -999.250      536.000        5.480       47.694     -999.250
    873.20       21.354      112.921     6536.792     -999.250     -999.250     -999.250     -999.250      106.485      206.667      450.667     -999.250     -999.250     -999.250      533.333        5.430       47.399     -999.250
    873.30       21.262      114.702     6508.984     -999.250     -999.250     -999.250     -999.250       50.379      203.333      453.333     -999.250     -999.250     -999.250      534.667        5.505       47.076     -999.250
    873.40       21.095      115.920     6476.397     -999.250     -999.250     -999.250     -999.250       20.553      203.333      457.333     -999.250     -999.250     -999.250      538.667     -999.250       47.126     -999.250
    873.50       20.812      116.439     6512.319     -999.250     -999.250     -999.250     -999.250       27.702      206.667      461.333     -999.250     -999.250     -999.250      544.000     -999.250       47.278     -999.250
    873.60       20.739      117.061     6462.903     -999.250     -999.250     -999.250     -999.250       48.813      210.000      462.667     -999.250     -999.250     -999.250      546.667     -999.250       47.194     -999.250
    873.70       20.846      117.626     6379.302     -999.250     -999.250     -999.250     -999.250       21.167      213.333      462.667     -999.250     -999.250     -999.250      548.000     -999.250       47.059     -999.250
    873.80       20.743      118.014     6386.310     -999.250     -999.250     -999.250     -999.250       21.167      213.333      461.333     -999.250     -999.250     -999.250      546.667     -999.250       47.084     -999.250
    873.90       20.825      117.144     6443.032     -999.250     -999.250     -999.250     -999.250     -999.250      213.333      461.333     -999.250     -999.250     -999.250      546.667     -999.250       47.212     -999.250
    874.00       20.899      114.538     6382.795     -999.250     -999.250     -999.250     -999.250     -999.250      206.667      462.667     -999.250     -999.250     -999.250      545.333     -999.250       47.205     -999.250
    874.10       20.859      115.348     6325.107     -999.250     -999.250     -999.250     -999.250     -999.250      206.667      462.667     -999.250     -999.250     -999.250      545.333     -999.250       47.166     -999.250
    874.20       20.798      116.064     6385.372     -999.250     -999.250     -999.250     -999.250     -999.250      206.667      461.333     -999.250     -999.250     -999.250      544.000     -999.250       47.160     -999.250
