~Version information                                                          
  VERS.                            1.20: CWLS LAS  -  VERSION 1.20            
  WRAP.                             NO : One line per depth step              
~Well information                                                             
# MNEM.UNIT         DATA TYPE  INFORMATION                                    
# ====.================================: ===================                  
  STRT.M                         9.800 : First depth in file                  
  STOP.M                       883.000 : Last  depth in file                  
  STEP.M                          .100 : Depth increment                      
  NULL.                       -999.250 : Null  values                         
  WN  .                            WELL: 301
  FN  .                           FIELD: KARATUBE
  DATE.                        LOG DATE: 18.12.2004
~Curve information                                                            
# MNEM.UNIT                   API CODE   CURVE DESCRIPTION                    
# ====.================================:====================                  
  DEPT.M                               : Depth curve                          
  GZ3 .OHMM                            : App.resistivity by lateral A2.0M0.5N
  SP  .MV                              : Spontaneous potential
  LL3 .OHMM                            : Appar.resist.laterolog,3 electrodes
  CALI.MM                              : Caliper  
  GR  .UR/H                            : Gamma-ray
  RHOB.G/C3                            : Bulk density by gamma-gamma log
  CILR.MMHO                            : Conduct. by sonde 7I1.6,reactive signal
  MLL .OHMM                            : Microlaterolog sonde  
  DTP .US/M                            : Interval travel time (P-wave)
  T1  .US                              : Travel time 1
  C1  .MM                              : Caliper, diameter 1
  C2  .MM                              : Caliper, diameter 2
  BSC .MM                              : Bit size
  T2  .US                              : Travel time 2
  NGLD.UE                              : Neutron-gamma log
  GZ3B.OHMM                            : App.resistivity by lateral N0.5M2.0A
  CILA.MMHO                            : Conduct. by sonde 7I1.6,active signal
~Parameter information block                                                  
# MNEM.UNIT                     VALUE       DESCRIPTION                       
# ====.================================:====================                  
  BS  .MM                       215.90 : Bit Size                             
  DFD .G/C3                       1.16 : Drilling Fluid Density
  DFV .S                         30.00 : Drilling Fluid Viscosity             
  RMS .OHMM                        .00 : Mud Sample Resistivity               
~Other information                                                            
# ------------------- REMARKS AREA ------------------------                   
# ==========================================================                  
~ASCII Log Data                                                               
# ...
    667.80       16.702       80.483       13.992      214.753        6.193        2.039       37.464        4.849      405.910      888.000      220.348      209.158      215.900     1050.364        1.233       25.240      108.946
    667.90       16.742       80.816       15.232      215.645        6.225        2.021       35.556        4.770      413.826      888.000      222.393      208.898      215.900     1053.530        1.241       25.279      102.176
    668.00       16.961       81.055       15.880      216.105        6.103        2.005       34.568        4.734      421.262      888.505      222.589      209.621      215.900     1057.010        1.226       25.164       98.767
    668.10       17.203       81.264       15.558      214.659        6.099        2.006       34.680        5.209      422.084      890.333      218.509      210.810      215.900     1059.166        1.197       24.913       98.490
    668.20       17.530       81.220       14.620      212.397        6.045        2.011       33.799        5.014      416.292      892.989      213.871      210.923      215.900     1059.505        1.209       24.605      100.893
    668.30       17.989       80.675       14.196      211.848        6.221        2.025       33.641        4.773      407.554      895.156      212.954      210.742      215.900     1058.177        1.247       24.421      101.223
    668.40       18.252       80.701       14.365      211.759        6.198        2.030       33.699        5.439      402.123      896.000      213.200      210.319      215.900     1056.849        1.267       24.254      101.643
    668.50       18.536       80.504       14.677      212.396        6.449        2.032       34.968        4.827      400.000      896.000      213.630      211.163      215.900     1056.000        1.288       24.199      101.811
    668.60       18.677       80.100       14.977      211.053        6.409        2.038       34.788        4.942      401.184      895.526      212.998      209.108      215.900     1056.000        1.260       24.243      107.800
    668.70       18.769       80.117       15.205      210.732        6.298        2.047       35.219        5.647      404.505      894.198      212.852      208.612      215.900     1056.000        1.305       24.314      106.596
    668.80       18.849       79.852       16.136      210.660        6.387        2.044       36.720        5.589      407.826      892.406      212.180      209.141      215.900     1055.536        1.284       24.341      104.489
    668.90       19.046       79.556       17.314      210.160        6.026        2.048       32.352        5.146      411.146      889.750      211.001      209.319      215.900     1054.208        1.275       24.431       99.069
    669.00       19.264       79.827       18.743      209.658        5.958        2.029       33.567        5.634      414.466      887.094      210.403      208.914      215.900     1052.880        1.271       24.527      102.217
    669.10       19.523       79.942       20.185      209.409        5.473        2.024       33.139        5.512      415.547      885.333      210.333      208.485      215.900     1051.552        1.266       24.617      100.516
    669.20       19.930       80.549       21.290      209.347        5.221        2.016       28.125        5.746      412.227      885.333      210.324      208.370      215.900     1050.224        1.252       24.693       99.700
    669.30       20.472       81.148       21.537      209.480        5.243        2.003       30.221        5.677      407.813      885.771      210.368      208.592      215.900     1048.896        1.267       24.653       98.564
    669.40       21.047       81.290       20.901      209.650        5.099        1.987       31.567        5.005      404.414      886.667      210.655      208.644      215.900     1048.432        1.267       24.571       97.516
    669.50       21.645       81.105       20.629      209.600        5.037        1.984       30.422        4.530      406.667      887.094      210.781      208.419      215.900     1049.760        1.295       24.350       95.820
    669.60       22.065       80.987       21.359      210.262        5.215        1.989       32.148        4.490      407.721      887.578      211.797      208.727      215.900     1050.667        1.310       24.108       93.865
    669.70       22.634       80.322       22.443      211.302        5.038        1.989       32.949        5.306      410.000      886.250      212.532      210.073      215.900     1050.250        1.279       23.854       94.881
    669.80       23.225       80.221       21.138      213.656        5.200        2.006       32.543        5.859      410.000      884.922      216.936      210.378      215.900     1048.921        1.292       23.565       98.299
    669.90       23.882       80.476       17.464      215.353        5.169        2.009       31.978        5.207      410.000      884.406      220.443      210.262      215.900     1048.406        1.251       23.215      103.679
    670.00       24.512       80.934       14.844      215.874        5.289        2.006       31.649        4.716      408.997      885.735      222.240      209.509      215.900     1049.333        1.221       22.867      110.624
    670.10       24.893       80.833       13.205      214.878        5.334        2.017       32.070        5.040      405.676      887.063      220.429      209.328      215.900     1049.333        1.245       22.588      117.096
    670.20       25.032       80.928       12.100      214.160        5.319        2.033       33.206        5.875      401.379      888.000      218.941      209.380      215.900     1048.551        1.284       22.489      119.905
    670.30       24.879       81.330       11.887      215.561        5.478        2.026       31.589        5.694      395.702      888.000      223.152      207.969      215.900     1046.281        1.265       22.548      120.340
    670.40       24.471       80.014       11.941      214.968        5.360        2.033       30.039        4.585      394.285      887.239      222.314      207.622      215.900     1044.953        1.271       22.758      119.982
    670.50       23.852       79.250       12.072      215.510        5.219        2.027       30.628        4.597      397.605      884.583      225.168      205.852      215.900     1043.625        1.273       23.159      119.108
    670.60       23.293       78.371       12.128      216.492        5.540        2.027       26.520        4.448      400.925      881.556      226.955      206.030      215.900     1041.926        1.296       23.568      117.883
    670.70       22.742       77.951       12.192      215.902        5.688        2.031       29.910        4.076      401.509      878.302      224.018      207.786      215.900     1038.905        1.285       24.129      112.947
    670.80       22.246       78.412       12.398      216.261        5.419        2.028       26.745        4.104      395.767      876.973      223.758      208.764      215.900     1035.280        1.322       24.625      107.505
    670.90       21.885       79.622       12.795      217.579        5.532        2.014       29.116        4.337      393.333      876.000      224.549      210.609      215.900     1033.333        1.352       25.302      111.679
    671.00       21.559       80.752       13.391      217.176        5.547        2.001       29.472        4.801      394.207      876.000      223.249      211.103      215.900     1033.683        1.281       26.036      111.249
    671.10       21.299       81.160       14.043      215.991        5.655        1.982       30.379        4.726      398.389      876.000      220.330      211.653      215.900     1035.355        1.278       26.608      107.034
    671.20       21.189       81.511       15.534      217.008        5.565        1.993       25.959        4.657      404.181      876.000      221.240      212.776      215.900     1037.672        1.254       27.402      102.916
