~Version information                                                          
  VERS.                            1.20: CWLS LAS  -  VERSION 1.20            
  WRAP.                             NO : One line per depth step              
~Well information                                                             
# MNEM.UNIT         DATA TYPE  INFORMATION                                    
# ====.================================: ===================                  
  STRT.M                         9.800 : First depth in file                  
  STOP.M                       883.000 : Last  depth in file                  
  STEP.M                          .100 : Depth increment                      
  NULL.                       -999.250 : Null  values                         
  WN  .                            WELL: 301
  FN  .                           FIELD: KARATUBE
  DATE.                        LOG DATE: 18.12.2004
~Curve information                                                            
# MNEM.UNIT                   API CODE   CURVE DESCRIPTION                    
# ====.================================:====================                  
  DEPT.M                               : Depth curve                          
  GZ3 .OHMM                            : App.resistivity by lateral A2.0M0.5N
  SP  .MV                              : Spontaneous potential
  LL3 .OHMM                            : Appar.resist.laterolog,3 electrodes
  CALI.MM                              : Caliper  
  GR  .UR/H                            : Gamma-ray
  RHOB.G/C3                            : Bulk density by gamma-gamma log
  CILR.MMHO                            : Conduct. by sonde 7I1.6,reactive signal
  MLL .OHMM                            : Microlaterolog sonde  
  DTP .US/M                            : Interval travel time (P-wave)
  T1  .US                              : Travel time 1
  C1  .MM                              : Caliper, diameter 1
  C2  .MM                              : Caliper, diameter 2
  BSC .MM                              : Bit size
  T2  .US                              : Travel time 2
  NGLD.UE                              : Neutron-gamma log
  GZ3B.OHMM                            : App.resistivity by lateral N0.5M2.0A
  CILA.MMHO                            : Conduct. by sonde 7I1.6,active signal
~Parameter information block                                                  
# MNEM.UNIT                     VALUE       DESCRIPTION                       
# ====.================================:====================                  
  BS  .MM                       215.90 : Bit Size                             
  DFD .G/C3                       1.16 : Drilling Fluid Density
  DFV .S                         30.00 : Drilling Fluid Viscosity             
  RMS .OHMM                        .00 : Mud Sample Resistivity               
~Other information                                                            
# ------------------- REMARKS AREA ------------------------                   
# ==========================================================                  
~ASCII Log Data                                                               
# ...
    111.30     -999.250     -999.250     -999.250      226.351        4.272     -999.250     -999.250     -999.250      160.000      396.000      229.502      223.200      227.000      460.000         .890     -999.250     -999.250
    111.40     -999.250     -999.250     -999.250      224.809        4.413     -999.250     -999.250     -999.250      163.333      394.667      226.667      222.952      227.000      460.000         .875     -999.250     -999.250
    111.50     -999.250     -999.250     -999.250      224.437        4.369     -999.250     -999.250     -999.250      166.667      393.333      226.138      222.736      227.000      460.000         .889     -999.250     -999.250
    111.60     -999.250     -999.250     -999.250      224.696        4.661     -999.250     -999.250     -999.250      166.667      392.000      226.743      222.650      227.000      458.667         .908     -999.250     -999.250
    111.70     -999.250     -999.250     -999.250      224.525        4.632     -999.250     -999.250     -999.250      166.667      392.000      226.490      222.560      227.000      458.667         .919     -999.250     -999.250
    111.80     -999.250     -999.250     -999.250      223.371        4.394     -999.250     -999.250     -999.250      166.667      392.000      224.184      222.558      227.000      458.667         .894     -999.250     -999.250
    111.90     -999.250     -999.250     -999.250      223.109        4.177     -999.250     -999.250     -999.250      170.000      392.000      223.674      222.545      227.000      460.000         .881     -999.250     -999.250
    112.00     -999.250     -999.250     -999.250      223.425        4.073     -999.250     -999.250     -999.250      173.333      392.000      223.624      223.226      227.000      461.333         .900     -999.250     -999.250
    112.10     -999.250     -999.250     -999.250      223.287        4.307     -999.250     -999.250     -999.250      183.333      392.000      223.387      223.187      227.000      465.333         .890     -999.250     -999.250
    112.20     -999.250     -999.250     -999.250      223.240        4.669     -999.250     -999.250     -999.250      180.000      393.333      223.418      223.062      227.000      465.333         .891     -999.250     -999.250
    112.30     -999.250     -999.250     -999.250      223.430        5.084     -999.250     -999.250     -999.250      176.667      394.667      223.720      223.139      227.000      465.333         .877     -999.250     -999.250
    112.40     -999.250     -999.250     -999.250      223.104        5.333     -999.250     -999.250     -999.250      166.667      396.000      223.351      222.858      227.000      462.667         .875     -999.250     -999.250
    112.50     -999.250     -999.250     -999.250      221.821        5.530     -999.250     -999.250     -999.250      170.000      396.000      220.818      222.824      227.000      464.000         .900     -999.250     -999.250
    112.60     -999.250     -999.250     -999.250      221.798        5.612     -999.250     -999.250     -999.250      170.000      396.000      220.590      223.006      227.000      464.000         .884     -999.250     -999.250
    112.70     -999.250     -999.250     -999.250      221.829        5.800     -999.250     -999.250     -999.250      170.000      396.000      220.414      223.245      227.000      464.000         .858     -999.250     -999.250
    112.80     -999.250     -999.250     -999.250      221.684        5.983     -999.250     -999.250     -999.250      173.333      396.000      220.212      223.155      227.000      465.333         .888     -999.250     -999.250
    112.90     -999.250     -999.250     -999.250      222.220        5.982     -999.250     -999.250     -999.250      176.667      396.000      221.304      223.136      227.000      466.667         .895     -999.250     -999.250
    113.00     -999.250     -999.250     -999.250      223.114        6.052     -999.250     -999.250     -999.250      180.000      397.333      222.577      223.650      227.000      469.333         .869     -999.250     -999.250
    113.10     -999.250     -999.250     -999.250      222.872        6.102     -999.250     -999.250     -999.250      183.333      397.333      221.420      224.325      227.000      470.667         .846     -999.250     -999.250
    113.20     -999.250     -999.250     -999.250      222.375        6.191     -999.250     -999.250     -999.250      183.333      398.667      221.235      223.514      227.000      472.000         .879     -999.250     -999.250
    113.30     -999.250     -999.250     -999.250      222.853        6.223     -999.250     -999.250     -999.250      186.667      397.333      222.411      223.295      227.000      472.000         .884     -999.250     -999.250
    113.40     -999.250     -999.250     -999.250      224.740        6.248     -999.250     -999.250     -999.250      200.000      398.667      226.000      223.480      227.000      478.667         .924     -999.250     -999.250
    113.50     -999.250     -999.250     -999.250      226.955        5.804     -999.250     -999.250     -999.250      220.000      398.667      230.047      223.862      227.000      486.667         .937     -999.250     -999.250
    113.60     -999.250     -999.250     -999.250      228.083        5.499     -999.250     -999.250     -999.250      250.000      401.333      232.236      223.931      227.000      501.333         .963     -999.250     -999.250
    113.70     -999.250     -999.250     -999.250      227.903        5.535     -999.250     -999.250     -999.250      233.333      405.333      232.300      223.506      227.000      498.667         .956     -999.250     -999.250
    113.80     -999.250     -999.250     -999.250      227.760        5.382     -999.250     -999.250     -999.250      216.667      408.000      232.387      223.133      227.000      494.667         .995     -999.250     -999.250
    113.90     -999.250     -999.250     -999.250      227.031        5.246     -999.250     -999.250     -999.250      173.333      413.333      230.782      223.279      227.000      482.667        1.001     -999.250     -999.250
    114.00     -999.250     -999.250     -999.250      231.690        5.063     -999.250     -999.250     -999.250      180.000      412.000      233.220      230.160      227.000      484.000        1.001     -999.250     -999.250
    114.10     -999.250     -999.250     -999.250      229.000        5.095     -999.250     -999.250     -999.250      180.000      412.000      231.715      226.286      227.000      484.000        1.004     -999.250     -999.250
    114.20     -999.250     -999.250     -999.250      226.721        5.381     -999.250     -999.250     -999.250      193.333      408.000      229.668      223.774      227.000      485.333        1.031     -999.250     -999.250
    114.30     -999.250     -999.250     -999.250      226.448        5.496     -999.250     -999.250     -999.250      190.000      408.000      229.215      223.680      227.000      484.000        1.057     -999.250     -999.250
    114.40     -999.250     -999.250     -999.250      226.568        5.758     -999.250     -999.250     -999.250      190.000      408.000      229.689      223.447      227.000      484.000        1.039     -999.250     -999.250
    114.50     -999.250     -999.250     -999.250      226.343        5.673     -999.250     -999.250     -999.250      196.667      408.000      228.905      223.781      227.000      486.667        1.026     -999.250     -999.250
    114.60     -999.250     -999.250     -999.250      227.120        6.066     -999.250     -999.250     -999.250      193.333      409.333      230.188      224.051      227.000      486.667         .962     -999.250     -999.250
    114.70     -999.250     -999.250     -999.250      225.809        5.963     -999.250     -999.250     -999.250      196.667      409.333      228.408      223.209      227.000      488.000         .893     -999.250     -999.250
