~Version information                                                          
  VERS.                            1.20: CWLS LAS  -  VERSION 1.20            
  WRAP.                             NO : One line per depth step              
~Well information                                                             
# MNEM.UNIT         DATA TYPE  INFORMATION                                    
# ====.================================: ===================                  
  STRT.M                         9.800 : First depth in file                  
  STOP.M                       883.000 : Last  depth in file                  
  STEP.M                          .100 : Depth increment                      
  NULL.                       -999.250 : Null  values                         
  WN  .                            WELL: 301
  FN  .                           FIELD: KARATUBE
  DATE.                        LOG DATE: 18.12.2004
~Curve information                                                            
# MNEM.UNIT                   API CODE   CURVE DESCRIPTION                    
# ====.================================:====================                  
  DEPT.M                               : Depth curve                          
  GZ3 .OHMM                            : App.resistivity by lateral A2.0M0.5N
  SP  .MV                              : Spontaneous potential
  LL3 .OHMM                            : Appar.resist.laterolog,3 electrodes
  CALI.MM                              : Caliper  
  GR  .UR/H                            : Gamma-ray
  RHOB.G/C3                            : Bulk density by gamma-gamma log
  CILR.MMHO                            : Conduct. by sonde 7I1.6,reactive signal
  MLL .OHMM                            : Microlaterolog sonde  
  DTP .US/M                            : Interval travel time (P-wave)
  T1  .US                              : Travel time 1
  C1  .MM                              : Caliper, diameter 1
  C2  .MM                              : Caliper, diameter 2
  BSC .MM                              : Bit size
  T2  .US                              : Travel time 2
  NGLD.UE                              : Neutron-gamma log
  GZ3B.OHMM                            : App.resistivity by lateral N0.5M2.0A
  CILA.MMHO                            : Conduct. by sonde 7I1.6,active signal
~Parameter information block                                                  
# MNEM.UNIT                     VALUE       DESCRIPTION                       
# ====.================================:====================                  
  BS  .MM                       215.90 : Bit Size                             
  DFD .G/C3                       1.16 : Drilling Fluid Density
  DFV .S                         30.00 : Drilling Fluid Viscosity             
  RMS .OHMM                        .00 : Mud Sample Resistivity               
~Other information                                                            
# ------------------- REMARKS AREA ------------------------                   
# ==========================================================                  
~ASCII Log Data                                                               
# ...
    720.30        5.625       90.085        4.747      215.586        5.982        2.217      228.421        3.184      355.811      747.351      215.266      215.906      215.900      889.675        1.432        4.046      307.981
    720.40        5.841       89.014        4.966      213.914        5.988        2.217      227.344        2.880      353.333      749.670      212.931      214.897      215.900      891.003        1.438        4.041      309.579
    720.50        6.057       88.743        5.672      212.092        5.856        2.235      228.242        3.584      353.333      750.997      210.243      213.940      215.900      892.330        1.441        4.024      311.567
    720.60        6.304       90.669        6.041      212.689        6.085        2.239      217.298        5.478      354.956      752.000      210.954      214.425      215.900      893.982        1.446        3.946      317.464
    720.70        6.523       91.619        4.812      212.333        6.252        2.237      219.154        6.208      359.204      752.637      210.059      214.607      215.900      896.318        1.445        3.830      335.372
    720.80        6.697       91.271        3.358      211.759        6.377        2.268      231.643        3.363      353.540      755.605      209.108      214.409      215.900      897.021        1.453        3.673      352.455
    720.90        6.633       90.271        2.539      212.699        6.244        2.285      241.801        2.184      340.265      759.894      209.302      216.095      215.900      896.000        1.413        3.412      370.239
    721.00        6.415       90.049        2.205      212.502        6.263        2.296      259.765        1.165      330.000      764.903      209.373      215.631      215.900      896.903        1.405        3.213      398.953
    721.10        6.000       91.970        2.219      212.153        6.314        2.290      266.123        1.254      334.424      768.295      210.551      213.755      215.900      902.064        1.385        3.123      414.414
    721.20        5.520       91.407        2.347      216.328        6.640        2.303      263.820        1.569      357.227      768.755      215.057      217.598      215.900      911.646        1.332        3.078      435.535
    721.30        5.062       91.481        2.430      229.482        7.272        2.299      265.259        1.642      389.705      765.817      226.140      232.823      215.900      921.699        1.264        3.195      441.044
    721.40        4.844       91.532        2.294      235.262        7.320        2.297      266.975        2.148      413.333      762.667      232.678      237.846      215.900      928.000        1.227        3.318      441.957
    721.50        4.597       92.294        2.115      232.925        7.269        2.315      267.764        1.167      405.194      764.566      235.353      230.496      215.900      926.643        1.245        3.435      424.741
    721.60        4.448       93.202        2.265      238.646        7.144        2.348      271.489        1.166      367.360      773.858      242.247      235.044      215.900      920.802        1.295        3.693      414.072
    721.70        4.365       93.844        2.727      239.854        7.102        2.342      253.823        1.687      342.035      783.150      235.632      244.077      215.900      919.965        1.300        3.949      420.935
    721.80        4.133       93.827        2.996      223.784        7.176        2.325      248.125        2.296      340.473      790.413      221.584      225.985      215.900      926.602        1.310        4.113      417.710
    721.90        3.948       91.979        2.851      241.001        7.294        2.295      238.514        2.334      357.905      789.086      234.202      247.800      215.900      932.248        1.301        4.218      399.552
    722.00        3.899       92.814        2.620      235.146        7.125        2.290      238.546        1.895      359.705      788.242      224.006      246.285      215.900      932.124        1.313        4.354      374.476
    722.10        3.860       93.596        2.615      223.642        6.970        2.321      241.375        1.577      339.203      790.277      219.953      227.332      215.900      925.959        1.331        4.533      359.596
    722.20        3.820       93.940        3.238      221.106        6.690        2.330      227.394        1.918      318.274      795.127      219.973      222.239      215.900      922.436        1.306        4.768      352.353
    722.30        3.806       94.446        4.168      227.082        6.725        2.313      216.027        2.398      311.681      796.213      227.841      226.323      215.900      920.885        1.310        5.007      343.665
    722.40        3.864       94.898        4.939      234.580        6.954        2.322      201.316        3.738      320.546      789.357      232.290      236.869      215.900      917.575        1.307        5.202      332.628
    722.50        4.028       93.600        5.311      234.025        7.205        2.344      192.528        5.098      320.147      782.029      232.498      235.553      215.900      910.088        1.325        5.275      319.002
    722.60        4.201       93.702        4.604      226.636        7.252        2.369      191.748        4.326      300.235      778.460      228.274      224.999      215.900      898.554        1.391        5.163      306.069
    722.70        4.302       93.525        4.103      223.781        7.266        2.377      185.637        2.784      281.328      777.133      222.593      224.970      215.900      889.664        1.431        4.977      303.667
    722.80        4.367       95.254        3.806      224.364        7.099        2.341      188.344        2.476      271.947      774.832      223.110      225.618      215.900      883.611        1.408        4.793      318.400
    722.90        4.372       93.708        3.492      216.417        7.298        2.302      194.963        2.798      286.637      766.678      217.621      215.213      215.900      881.333        1.441        4.627      326.848
    723.00        4.321       90.721        3.250      214.421        7.412        2.285      197.455        2.464      310.783      757.203      218.798      210.044      215.900      881.516        1.455        4.558      332.700
    723.10        4.237       91.460        3.371      214.593        7.543        2.270      194.670        1.895      338.878      747.292      219.596      209.590      215.900      882.844        1.454        4.612      336.930
    723.20        4.214       92.421        3.752      215.551        7.421        2.261      192.158        3.626      354.189      742.324      221.619      209.484      215.900      884.000        1.407        4.648      343.320
    723.30        4.183       91.696        3.506      214.565        7.043        2.259      192.047        4.168      359.174      740.165      218.171      210.960      215.900      883.835        1.411        4.572      342.751
    723.40        4.105       90.996        2.880      213.030        7.093        2.278      195.003        2.415      352.138      741.652      214.162      211.899      215.900      882.507        1.431        4.455      334.154
    723.50        4.021       91.598        2.572      212.990        6.946        2.264      206.823        1.590      341.800      744.920      212.851      213.129      215.900      881.640        1.421        4.420      319.975
    723.60        3.978       91.242        3.079      212.506        7.051        2.300      203.413        1.311      329.631      753.032      211.929      213.084      215.900      884.885        1.401        4.576      316.816
    723.70        3.917       89.611        4.257      211.185        7.106        2.319      202.343        3.111      328.791      762.041      211.103      211.266      215.900      893.558        1.428        4.752      318.127
