~Version information                                                          
  VERS.                            1.20: CWLS LAS  -  VERSION 1.20            
  WRAP.                             NO : One line per depth step              
~Well information                                                             
# MNEM.UNIT         DATA TYPE  INFORMATION                                    
# ====.================================: ===================                  
  STRT.M                         9.800 : First depth in file                  
  STOP.M                       883.000 : Last  depth in file                  
  STEP.M                          .100 : Depth increment                      
  NULL.                       -999.250 : Null  values                         
  WN  .                            WELL: 301
  FN  .                           FIELD: KARATUBE
  DATE.                        LOG DATE: 18.12.2004
~Curve information                                                            
# MNEM.UNIT                   API CODE   CURVE DESCRIPTION                    
# ====.================================:====================                  
  DEPT.M                               : Depth curve                          
  GZ3 .OHMM                            : App.resistivity by lateral A2.0M0.5N
  SP  .MV                              : Spontaneous potential
  LL3 .OHMM                            : Appar.resist.laterolog,3 electrodes
  CALI.MM                              : Caliper  
  GR  .UR/H                            : Gamma-ray
  RHOB.G/C3                            : Bulk density by gamma-gamma log
  CILR.MMHO                            : Conduct. by sonde 7I1.6,reactive signal
  MLL .OHMM                            : Microlaterolog sonde  
  DTP .US/M                            : Interval travel time (P-wave)
  T1  .US                              : Travel time 1
  C1  .MM                              : Caliper, diameter 1
  C2  .MM                              : Caliper, diameter 2
  BSC .MM                              : Bit size
  T2  .US                              : Travel time 2
  NGLD.UE                              : Neutron-gamma log
  GZ3B.OHMM                            : App.resistivity by lateral N0.5M2.0A
  CILA.MMHO                            : Conduct. by sonde 7I1.6,active signal
~Parameter information block                                                  
# MNEM.UNIT                     VALUE       DESCRIPTION                       
# ====.================================:====================                  
  BS  .MM                       215.90 : Bit Size                             
  DFD .G/C3                       1.16 : Drilling Fluid Density
  DFV .S                         30.00 : Drilling Fluid Viscosity             
  RMS .OHMM                        .00 : Mud Sample Resistivity               
~Other information                                                            
# ------------------- REMARKS AREA ------------------------                   
# ==========================================================                  
~ASCII Log Data                                                               
# ...
    160.30        4.009       72.742        3.116      224.806        5.763        1.956      185.034        2.776      533.333     1166.667      225.061      224.551      215.900     1380.000        1.210        1.835      278.818
    160.40        3.989       70.670        3.135      221.417        5.757        1.939      184.196        2.795      533.333     1165.333      221.161      221.672      215.900     1378.667        1.158        1.834      284.832
    160.50        3.998       68.544        3.151      217.611        5.782        1.939      184.166        3.047      530.000     1164.000      218.007      217.215      215.900     1376.000        1.132        1.836      284.411
    160.60        3.952       68.253        3.132      217.204        5.406        1.946      185.982        2.841      523.333     1164.000      219.146      215.262      215.900     1373.333        1.174        1.835      284.500
    160.70        3.965       66.236        3.061      217.298        5.342        1.946      187.075        2.625      523.333     1162.667      220.936      213.659      215.900     1372.000        1.170        1.836      284.892
    160.80        3.950       66.085        2.963      217.241        5.242        1.946      185.684        2.341      526.667     1161.333      220.639      213.842      215.900     1372.000        1.205        1.837      286.770
    160.90        3.944       63.626        2.889      216.353        5.267        1.945      187.480        2.092      533.333     1160.000      218.720      213.986      215.900     1373.333        1.225        1.828      287.725
    161.00        3.938       62.962        2.926      215.917        5.226        1.945      188.496        2.339      533.333     1161.333      217.716      214.119      215.900     1374.667        1.240        1.817      288.437
    161.10        3.897       62.102        3.009      215.608        5.195        1.949      189.169        2.388      533.333     1162.667      217.221      213.994      215.900     1376.000        1.228        1.806      289.361
    161.20        3.859       62.002        3.051      215.491        5.115        1.963      187.590        2.340      530.000     1164.000      217.036      213.947      215.900     1376.000        1.214        1.807      288.304
    161.30        3.844       64.526        3.083      215.915        4.968        1.965      187.784        2.370      526.667     1165.333      217.451      214.379      215.900     1376.000        1.208        1.823      287.164
    161.40        3.785       66.268        3.087      217.099        4.944        1.951      187.520        2.418      526.667     1168.000      218.890      215.307      215.900     1378.667        1.176        1.817      286.055
    161.50        3.747       67.574        3.063      216.517        5.029        1.939      187.949        2.424      530.000     1169.333      216.262      216.772      215.900     1381.333        1.186        1.828      284.539
    161.60        3.729       66.793        3.026      216.737        5.130        1.950      187.286        2.330      536.667     1169.333      216.051      217.423      215.900     1384.000        1.175        1.840      283.949
    161.70        3.727       65.046        3.004      218.225        5.182        1.940      187.352        2.367      540.000     1168.000      217.822      218.628      215.900     1384.000        1.161        1.850      284.032
    161.80        3.708       64.785        3.020      220.457        5.221        1.937      187.073        2.434      533.333     1169.333      221.601      219.314      215.900     1382.667        1.147        1.855      284.463
    161.90        3.685       64.088        3.029      222.947        5.198        1.935      187.364        2.286      530.000     1169.333      225.988      219.906      215.900     1381.333        1.132        1.857      283.179
    162.00        3.664       62.090        3.013      224.678        5.044        1.923      188.974        2.401      526.667     1169.333      228.870      220.485      215.900     1380.000        1.160        1.858      282.890
    162.10        3.651       62.117        2.996      222.786        5.037        1.927      188.339        2.414      530.000     1168.000      227.174      218.399      215.900     1380.000        1.174        1.865      283.388
    162.20        3.638       61.880        2.997      224.169        5.273        1.908      190.120        2.298      530.000     1168.000      230.562      217.775      215.900     1380.000        1.148        1.873      286.414
    162.30        3.633       61.072        3.014      226.032        5.506        1.896      200.266        2.205      533.333     1168.000      233.702      218.363      215.900     1381.333        1.137        1.874      296.872
    162.40        3.625       61.033        3.029      224.678        5.577        1.897      198.257        2.357      533.333     1169.333      230.851      218.505      215.900     1382.667        1.170        1.872      294.732
    162.50        3.618       60.628        3.032      222.419        5.641        1.906      197.882        2.388      536.667     1170.667      228.124      216.714      215.900     1385.333        1.189        1.870      295.056
    162.60        3.616       59.473        3.025      220.356        5.732        1.905      197.071        2.297      533.333     1173.333      226.492      214.219      215.900     1386.667        1.205        1.872      295.694
    162.70        3.599       59.872        2.964      218.063        5.771        1.928      196.156        2.279      536.667     1174.667      223.189      212.938      215.900     1389.333        1.186        1.873      296.874
    162.80        3.607       59.060        2.906      216.949        5.858        1.927      196.955        2.328      536.667     1176.000      219.110      214.789      215.900     1390.667        1.154        1.871      298.110
    162.90        3.612       60.494        2.867      216.474        5.598        1.921      198.525        2.369      543.333     1176.000      217.467      215.480      215.900     1393.333        1.173        1.871      300.050
    163.00        3.614       57.263        2.872      217.440        5.431        1.928      200.593        2.360      543.333     1177.333      216.773      218.107      215.900     1394.667        1.163        1.864      301.482
    163.10        3.594       56.724        2.940      217.734        5.231        1.938      201.810        2.213      540.000     1180.000      217.473      217.996      215.900     1396.000        1.163        1.852      301.512
    163.20        3.549       57.086        3.032      219.540        5.230        1.932      203.234        2.354      530.000     1184.000      220.357      218.724      215.900     1396.000        1.151        1.838      301.427
    163.30        3.511       58.372        3.096      221.416        5.267        1.928      202.883        2.411      523.333     1186.667      222.594      220.239      215.900     1396.000        1.172        1.830      300.511
    163.40        3.482       62.640        3.076      219.236        5.386        1.928      202.810        2.329      520.000     1188.000      219.550      218.922      215.900     1396.000        1.209        1.834      298.702
    163.50        3.427       64.302        3.026      217.629        5.284        1.895      199.995        2.308      520.000     1188.000      216.656      218.602      215.900     1396.000        1.186        1.842      295.501
    163.60        3.403       65.108        2.988      215.963        5.322        1.902      197.626        2.261      520.000     1189.333      213.208      218.718      215.900     1397.333        1.243        1.857      295.667
    163.70        3.395       66.393        2.966      215.052        5.404        1.925      197.319        2.282      523.333     1190.667      210.976      219.128      215.900     1400.000        1.261        1.863      297.789
