~Version information                                                          
  VERS.                            1.20: CWLS LAS  -  VERSION 1.20            
  WRAP.                             NO : One line per depth step              
~Well information                                                             
# MNEM.UNIT         DATA TYPE  INFORMATION                                    
# ====.================================: ===================                  
  STRT.M                         9.800 : First depth in file                  
  STOP.M                       883.000 : Last  depth in file                  
  STEP.M                          .100 : Depth increment                      
  NULL.                       -999.250 : Null  values                         
  WN  .                            WELL: 301
  FN  .                           FIELD: KARATUBE
  DATE.                        LOG DATE: 18.12.2004
~Curve information                                                            
# MNEM.UNIT                   API CODE   CURVE DESCRIPTION                    
# ====.================================:====================                  
  DEPT.M                               : Depth curve                          
  GZ3 .OHMM                            : App.resistivity by lateral A2.0M0.5N
  SP  .MV                              : Spontaneous potential
  LL3 .OHMM                            : Appar.resist.laterolog,3 electrodes
  CALI.MM                              : Caliper  
  GR  .UR/H                            : Gamma-ray
  RHOB.G/C3                            : Bulk density by gamma-gamma log
  CILR.MMHO                            : Conduct. by sonde 7I1.6,reactive signal
  MLL .OHMM                            : Microlaterolog sonde  
  DTP .US/M                            : Interval travel time (P-wave)
  T1  .US                              : Travel time 1
  C1  .MM                              : Caliper, diameter 1
  C2  .MM                              : Caliper, diameter 2
  BSC .MM                              : Bit size
  T2  .US                              : Travel time 2
  NGLD.UE                              : Neutron-gamma log
  GZ3B.OHMM                            : App.resistivity by lateral N0.5M2.0A
  CILA.MMHO                            : Conduct. by sonde 7I1.6,active signal
~Parameter information block                                                  
# MNEM.UNIT                     VALUE       DESCRIPTION                       
# ====.================================:====================                  
  BS  .MM                       215.90 : Bit Size                             
  DFD .G/C3                       1.16 : Drilling Fluid Density
  DFV .S                         30.00 : Drilling Fluid Viscosity             
  RMS .OHMM                        .00 : Mud Sample Resistivity               
~Other information                                                            
# ------------------- REMARKS AREA ------------------------                   
# ==========================================================                  
~ASCII Log Data                                                               
# ...
    566.30        1.962       72.218        1.988      209.397        9.859        2.014      481.996        1.689      433.333      966.667      209.606      209.188      215.900     1140.000        1.245        1.345      425.614
    566.40        1.960       72.705        2.076      209.767        9.993        2.003      480.812        1.724      433.333      964.000      210.148      209.386      215.900     1137.333        1.265        1.356      422.200
    566.50        1.969       73.324        2.169      210.032       10.349        1.993      479.595        1.757      433.333      961.333      210.504      209.560      215.900     1134.667        1.273        1.367      419.472
    566.60        1.997       73.681        2.236      209.895       10.342        1.988      481.144        1.771      433.333      960.000      210.301      209.489      215.900     1133.333        1.238        1.373      413.312
    566.70        2.015       73.151        2.262      209.663       10.940        1.978      481.366        1.879      430.000      958.667      209.803      209.523      215.900     1130.667        1.224        1.378      410.388
    566.80        2.046       73.075        2.244      208.717       11.101        1.985      480.772        1.859      433.333      953.333      207.734      209.699      215.900     1126.667        1.244        1.374      408.823
    566.90        2.081       72.513        2.231      208.936       11.113        2.007      483.335        1.831      433.333      946.667      208.231      209.641      215.900     1120.000        1.245        1.366      409.190
    567.00        2.113       72.561        2.235      209.014       11.150        2.000      484.927        1.821      433.333      941.333      208.331      209.697      215.900     1114.667        1.248        1.358      411.048
    567.10        2.142       73.246        2.208      209.189       11.241        1.999      490.233        1.886      430.000      940.000      209.053      209.324      215.900     1112.000        1.272        1.346      411.375
    567.20        2.140       73.263        2.128      211.732       11.075        1.989      496.427        1.793      430.000      940.000      214.590      208.874      215.900     1112.000        1.301        1.328      415.280
    567.30        2.143       73.406        2.026      213.617       10.990        2.000      503.319        1.617      430.000      940.000      218.856      208.378      215.900     1112.000        1.286        1.309      420.104
    567.40        2.130       74.490        1.934      214.465       10.641        1.992      511.714        1.669      430.000      940.000      220.394      208.536      215.900     1112.000        1.294        1.284      426.496
    567.50        2.104       75.180        1.865      215.204       10.323        1.995      519.710        1.562      430.000      940.000      220.955      209.454      215.900     1112.000        1.260        1.258      433.689
    567.60        2.068       73.305        1.825      215.254       10.315        2.017      525.397        1.536      430.000      940.000      220.861      209.647      215.900     1112.000        1.269        1.243      438.032
    567.70        2.034       72.475        1.806      213.615       10.508        2.020      530.461        1.547      430.000      940.000      218.117      209.114      215.900     1112.000        1.291        1.240      441.493
    567.80        1.995       72.546        1.803      213.448       10.135        2.026      532.647        1.581      430.000      940.000      218.154      208.742      215.900     1112.000        1.261        1.246      444.030
    567.90        1.957       73.639        1.806      212.898        9.841        2.023      529.108        1.606      430.000      940.000      219.330      206.466      215.900     1112.000        1.235        1.260      443.432
    568.00        1.918       75.287        1.804      211.491        9.535        2.003      524.405        1.540      430.000      940.000      217.328      205.654      215.900     1112.000        1.236        1.287      443.145
    568.10        1.884       77.105        1.808      211.390        9.816        1.995      518.906        1.523      430.000      940.000      217.293      205.487      215.900     1112.000        1.247        1.307      444.400
    568.20        1.848       78.606        1.816      212.088        9.629        1.998      516.023        1.508      430.000      940.000      219.007      205.169      215.900     1112.000        1.249        1.340      446.113
    568.30        1.809       79.111        1.818      212.518        9.778        2.011      509.373        1.551      430.000      940.000      220.273      204.763      215.900     1112.000        1.260        1.372      447.527
    568.40        1.777       79.212        1.816      212.725        9.458        2.016      503.773        1.542      430.000      940.000      220.708      204.742      215.900     1112.000        1.254        1.406      448.342
    568.50        1.768       79.788        1.822      212.027        9.349        2.026      496.053        1.535      430.000      940.000      219.108      204.945      215.900     1112.000        1.259        1.438      446.949
    568.60        1.744       80.003        1.833      207.893        9.436        2.029      487.089        1.556      430.000      940.000      210.910      204.876      215.900     1112.000        1.226        1.474      446.631
    568.70        1.727       79.980        1.839      207.181        9.410        2.022      477.583        1.552      430.000      940.000      209.600      204.762      215.900     1112.000        1.223        1.503      446.365
    568.80        1.708       78.819        1.833      207.371        9.361        2.015      466.787        1.513      430.000      940.000      209.597      205.144      215.900     1112.000        1.233        1.535      448.360
    568.90        1.696       77.975        1.826      207.547        9.346        1.988      456.232        1.419      426.667      940.000      209.681      205.414      215.900     1110.667        1.232        1.570      448.301
    569.00        1.688       77.749        1.831      207.831        9.497        1.985      443.936        1.416      423.333      940.000      209.982      205.681      215.900     1109.333        1.237        1.604      444.726
    569.10        1.681       77.884        1.841      208.164        9.431        2.001      428.758        1.452      420.000      940.000      210.061      206.268      215.900     1108.000        1.237        1.637      435.765
    569.20        1.667       78.383        1.852      208.185        9.283        1.991      410.833        1.408      423.333      938.667      209.737      206.633      215.900     1108.000        1.290        1.670      428.948
    569.30        1.657       78.735        1.862      207.844        9.144        1.988      396.870        1.400      426.667      937.333      209.885      205.804      215.900     1108.000        1.237        1.707      420.633
    569.40        1.652       78.732        1.859      208.074        9.082        1.990      379.553        1.392      426.667      937.333      210.349      205.799      215.900     1108.000        1.263        1.732      416.721
    569.50        1.649       78.503        1.853      207.532        9.312        1.990      365.256        1.387      426.667      937.333      209.792      205.272      215.900     1108.000        1.232        1.759      412.928
    569.60        1.642       78.199        1.858      208.070        9.117        1.974      353.899        1.424      430.000      937.333      209.353      206.787      215.900     1109.333        1.229        1.775      406.399
    569.70        1.631       78.024        1.860      207.773        9.301        1.977      340.542        1.380      433.333      936.000      208.544      207.002      215.900     1109.333        1.221        1.784      399.897
