~Version information                                                          
  VERS.                            1.20: CWLS LAS  -  VERSION 1.20            
  WRAP.                             NO : One line per depth step              
~Well information                                                             
# MNEM.UNIT         DATA TYPE  INFORMATION                                    
# ====.================================: ===================                  
  STRT.M                         9.800 : First depth in file                  
  STOP.M                       883.000 : Last  depth in file                  
  STEP.M                          .100 : Depth increment                      
  NULL.                       -999.250 : Null  values                         
  WN  .                            WELL: 301
  FN  .                           FIELD: KARATUBE
  DATE.                        LOG DATE: 18.12.2004
~Curve information                                                            
# MNEM.UNIT                   API CODE   CURVE DESCRIPTION                    
# ====.================================:====================                  
  DEPT.M                               : Depth curve                          
  GZ3 .OHMM                            : App.resistivity by lateral A2.0M0.5N
  SP  .MV                              : Spontaneous potential
  LL3 .OHMM                            : Appar.resist.laterolog,3 electrodes
  CALI.MM                              : Caliper  
  GR  .UR/H                            : Gamma-ray
  RHOB.G/C3                            : Bulk density by gamma-gamma log
  CILR.MMHO                            : Conduct. by sonde 7I1.6,reactive signal
  MLL .OHMM                            : Microlaterolog sonde  
  DTP .US/M                            : Interval travel time (P-wave)
  T1  .US                              : Travel time 1
  C1  .MM                              : Caliper, diameter 1
  C2  .MM                              : Caliper, diameter 2
  BSC .MM                              : Bit size
  T2  .US                              : Travel time 2
  NGLD.UE                              : Neutron-gamma log
  GZ3B.OHMM                            : App.resistivity by lateral N0.5M2.0A
  CILA.MMHO                            : Conduct. by sonde 7I1.6,active signal
~Parameter information block                                                  
# MNEM.UNIT                     VALUE       DESCRIPTION                       
# ====.================================:====================                  
  BS  .MM                       215.90 : Bit Size                             
  DFD .G/C3                       1.16 : Drilling Fluid Density
  DFV .S                         30.00 : Drilling Fluid Viscosity             
  RMS .OHMM                        .00 : Mud Sample Resistivity               
~Other information                                                            
# ------------------- REMARKS AREA ------------------------                   
# ==========================================================                  
~ASCII Log Data                                                               
# ...
    212.80        5.558       50.271        4.135      210.148        4.867        1.921       79.887        2.663      420.000     1024.000      211.039      209.257      215.900     1192.000        1.281        3.007      159.394
    212.90        5.669       50.805        4.026      209.104        4.898        1.919       81.205        2.557      460.000     1008.000      210.633      207.575      215.900     1192.000        1.268        2.991      163.176
    213.00        5.738       52.364        3.941      209.235        4.913        1.916       84.108        2.706      486.667     1000.000      210.576      207.893      215.900     1194.667        1.253        2.932      166.676
    213.10        5.769       52.375        3.900      209.385        4.970        1.938       84.740        2.697      500.000      994.667      210.161      208.609      215.900     1194.667        1.252        2.867      167.863
    213.20        5.765       51.282        3.890      209.036        4.979        1.963       85.706        2.604      510.000      996.000      210.044      208.028      215.900     1200.000        1.251        2.805      169.742
    213.30        5.692       50.899        3.881      209.689        5.073        1.945       85.009        2.818      503.333     1004.000      211.280      208.099      215.900     1205.333        1.224        2.747      170.234
    213.40        5.586       51.149        3.890      211.833        5.004        1.939       83.931        2.587      500.000     1010.667      215.433      208.233      215.900     1210.667        1.202        2.702      167.590
    213.50        5.510       50.394        3.951      214.841        5.060        1.953       82.245        2.553      496.667     1014.667      221.480      208.202      215.900     1213.333        1.200        2.684      167.607
    213.60        5.435       50.105        4.018      217.449        5.156        1.960       83.279        2.641      500.000     1014.667      224.365      210.533      215.900     1214.667        1.203        2.685      166.800
    213.70        5.360       47.896        4.075      219.449        5.278        1.952       83.469        2.663      500.000     1020.000      225.854      213.044      215.900     1220.000        1.201        2.696      167.986
    213.80        5.281       47.031        4.133      217.587        5.123        1.940       83.733        2.532      503.333     1022.667      221.677      213.497      215.900     1224.000        1.234        2.719      166.681
    213.90        5.242       48.169        4.150      217.010        5.016        1.951       83.008        2.439      513.333     1024.000      221.299      212.720      215.900     1229.333        1.263        2.754      167.949
    214.00        5.235       48.007        4.172      214.877        5.045        1.949       85.715        2.477      506.667     1030.667      220.192      209.561      215.900     1233.333        1.266        2.789      162.758
    214.10        5.244       47.916        4.248      214.400        4.865        1.952       84.465        2.498      500.000     1037.333      221.154      207.647      215.900     1237.333        1.301        2.825      164.575
    214.20        5.269       48.116        4.384      214.990        4.804        1.953       87.899        2.555      500.000     1044.000      222.359      207.622      215.900     1244.000        1.307        2.852      161.922
    214.30        5.314       47.543        4.537      214.359        5.086        1.969       83.947        2.656      510.000     1045.333      221.072      207.646      215.900     1249.333        1.287        2.895      159.410
    214.40        5.340       46.682        4.629      213.739        5.043        1.968       83.543        2.535      506.667     1048.000      220.092      207.386      215.900     1250.667        1.303        2.919      157.959
    214.50        5.382       46.348        4.601      210.372        4.837        1.966       83.509        2.563      493.333     1053.333      214.023      206.722      215.900     1250.667        1.272        2.944      155.737
    214.60        5.429       46.351        4.466      213.052        4.813        1.973       84.434        2.509      506.667     1053.333      220.280      205.823      215.900     1256.000        1.256        2.970      158.561
    214.70        5.489       46.300        4.278      213.701        4.776        1.973       86.265        2.387      533.333     1054.667      222.191      205.210      215.900     1268.000        1.309        2.990      160.266
    214.80        5.556       46.454        4.103      211.112        4.767        1.988       85.630        2.496      556.667     1060.000      217.398      204.827      215.900     1282.667        1.282        2.992      163.100
    214.90        5.627       45.391        4.016      209.131        4.779        1.986       87.757        2.672      546.667     1073.333      214.169      204.092      215.900     1292.000        1.255        2.981      166.775
    215.00        5.680       45.141        3.994      208.883        4.732        1.965       89.104        2.679      523.333     1093.333      214.133      203.634      215.900     1302.667        1.256        2.948      169.483
    215.10        5.711       44.941        4.032      207.306        4.521        1.985       90.697        2.877      503.333     1105.333      209.860      204.751      215.900     1306.667        1.282        2.914      171.759
    215.20        5.688       44.276        4.060      205.957        4.522        1.992       91.195        2.641      493.333     1114.667      207.100      204.815      215.900     1312.000        1.267        2.890      173.681
    215.30        5.643       44.457        4.043      204.106        4.183        2.015       92.604        2.661      493.333     1114.667      204.266      203.946      215.900     1312.000        1.272        2.871      167.578
    215.40        5.568       44.464        4.048      205.714        4.155        2.031       89.870        3.045      500.000     1113.333      205.365      206.064      215.900     1313.333        1.275        2.859      165.380
    215.50        5.469       45.081        4.123      208.587        4.105        2.036       89.617        3.059      510.000     1109.333      208.400      208.775      215.900     1313.333        1.288        2.841      166.455
    215.60        5.358       44.572        4.173      210.353        4.113        2.038       91.355        3.166      510.000     1106.667      210.420      210.285      215.900     1310.667        1.290        2.814      163.405
    215.70        5.276       43.915        4.157      210.985        4.182        2.029       88.884        3.203      506.667     1105.333      211.304      210.666      215.900     1308.000        1.260        2.783      165.447
    215.80        5.191       43.924        4.130      212.116        4.339        2.035       88.971        3.153      506.667     1101.333      212.980      211.253      215.900     1304.000        1.263        2.747      164.643
    215.90        5.125       44.373        4.167      214.005        4.296        2.021       88.195        3.160      503.333     1104.000      214.521      213.490      215.900     1305.333        1.296        2.710      166.960
    216.00        5.069       45.214        4.231      211.569        4.275        2.021       93.080        3.117      503.333     1105.333      213.389      209.750      215.900     1306.667        1.284        2.677      165.711
    216.10        5.032       46.272        4.236      211.903        4.192        2.018       88.298        3.172      503.333     1108.000      214.258      209.549      215.900     1309.333        1.293        2.656      168.542
    216.20        5.032       46.493        4.123      211.338        4.173        2.015       91.886        2.897      510.000     1105.333      213.025      209.650      215.900     1309.333        1.294        2.638      167.058
