~Version information                                                          
  VERS.                            1.20: CWLS LAS  -  VERSION 1.20            
  WRAP.                             NO : One line per depth step              
~Well information                                                             
# MNEM.UNIT         DATA TYPE  INFORMATION                                    
# ====.================================: ===================                  
  STRT.M                         9.800 : First depth in file                  
  STOP.M                       883.000 : Last  depth in file                  
  STEP.M                          .100 : Depth increment                      
  NULL.                       -999.250 : Null  values                         
  WN  .                            WELL: 301
  FN  .                           FIELD: KARATUBE
  DATE.                        LOG DATE: 18.12.2004
~Curve information                                                            
# MNEM.UNIT                   API CODE   CURVE DESCRIPTION                    
# ====.================================:====================                  
  DEPT.M                               : Depth curve                          
  GZ3 .OHMM                            : App.resistivity by lateral A2.0M0.5N
  SP  .MV                              : Spontaneous potential
  LL3 .OHMM                            : Appar.resist.laterolog,3 electrodes
  CALI.MM                              : Caliper  
  GR  .UR/H                            : Gamma-ray
  RHOB.G/C3                            : Bulk density by gamma-gamma log
  CILR.MMHO                            : Conduct. by sonde 7I1.6,reactive signal
  MLL .OHMM                            : Microlaterolog sonde  
  DTP .US/M                            : Interval travel time (P-wave)
  T1  .US                              : Travel time 1
  C1  .MM                              : Caliper, diameter 1
  C2  .MM                              : Caliper, diameter 2
  BSC .MM                              : Bit size
  T2  .US                              : Travel time 2
  NGLD.UE                              : Neutron-gamma log
  GZ3B.OHMM                            : App.resistivity by lateral N0.5M2.0A
  CILA.MMHO                            : Conduct. by sonde 7I1.6,active signal
~Parameter information block                                                  
# MNEM.UNIT                     VALUE       DESCRIPTION                       
# ====.================================:====================                  
  BS  .MM                       215.90 : Bit Size                             
  DFD .G/C3                       1.16 : Drilling Fluid Density
  DFV .S                         30.00 : Drilling Fluid Viscosity             
  RMS .OHMM                        .00 : Mud Sample Resistivity               
~Other information                                                            
# ------------------- REMARKS AREA ------------------------                   
# ==========================================================                  
~ASCII Log Data                                                               
# ...
    415.80        4.392       61.435        3.513      218.078       10.880        2.077      109.882        2.127      460.000     1020.000      218.760      217.397      215.900     1204.000        1.151        5.380      232.276
    415.90        4.381       61.629        3.509      217.884       10.954        2.080      113.550        2.078      453.333     1018.667      218.849      216.919      215.900     1200.000        1.170        5.375      235.787
    416.00        4.396       60.998        3.487      221.085       11.230        2.071      109.160        2.091      446.667     1017.333      219.269      222.900      215.900     1196.000        1.193        5.389      230.099
    416.10        4.439       62.559        3.464      228.691       11.333        2.078      111.229        2.317      436.667     1017.333      225.511      231.872      215.900     1192.000        1.228        5.441      227.339
    416.20        4.485       63.256        3.464      235.258       11.700        2.096      111.633        2.211      416.667     1017.333      242.530      227.986      215.900     1184.000        1.236        5.522      222.721
    416.30        4.564       63.160        3.853      230.803       12.095        2.122      111.172        2.741      390.000     1014.667      240.407      221.200      215.900     1170.667        1.233        5.654      218.663
    416.40        4.686       62.231        4.867      224.439       13.018        2.130      111.199        7.021      356.667     1009.333      218.309      230.569      215.900     1152.000        1.217        5.908      212.525
    416.50        4.945       59.840        5.915      223.014       13.420        2.139      108.700        7.665      326.667     1005.333      211.749      234.280      215.900     1136.000        1.218        6.325      209.679
    416.60        5.179       58.545        5.897      224.435       13.775        2.137      109.750        3.900      310.000     1004.000      211.181      237.689      215.900     1128.000        1.208        6.761      197.600
    416.70        5.516       58.885        5.619      226.179       14.882        2.138      108.794        3.270      340.000     1000.000      209.947      242.412      215.900     1136.000        1.238        7.028      192.330
    416.80        5.855       60.485        5.867      224.526       15.731        2.144      110.635        3.487      383.333      996.000      210.934      238.118      215.900     1149.333        1.236        7.099      189.320
    416.90        6.151       60.949        6.079      220.601       16.455        2.143      114.114        3.448      426.667      992.000      215.180      226.022      215.900     1162.667        1.239        7.002      192.063
    417.00        6.360       59.122        5.998      218.303       15.913        2.119      111.599        3.453      436.667      993.333      217.763      218.843      215.900     1168.000        1.222        6.726      193.773
    417.10        6.454       57.662        5.789      216.225       13.490        2.051      119.098        3.368      440.000      994.667      218.549      213.902      215.900     1170.667        1.258        6.291      199.646
    417.20        6.422       58.148        5.617      216.698       10.887        1.985      122.694        3.172      443.333      994.667      219.562      213.835      215.900     1172.000        1.279        5.918      206.518
    417.30        6.380       57.248        5.522      217.093        9.394        1.968      126.270        3.165      443.333      994.667      220.507      213.680      215.900     1172.000        1.262        5.522      209.643
    417.40        6.384       55.194        5.425      217.212        8.998        1.938      133.130        3.284      450.000      993.333      220.897      213.528      215.900     1173.333        1.269        5.195      212.641
    417.50        6.391       52.795        5.237      217.517        8.405        1.944      134.344        3.219      453.333      993.333      221.733      213.301      215.900     1174.667        1.246        4.873      221.353
    417.60        6.397       51.513        4.939      217.858        8.222        1.936      136.700        3.047      460.000      992.000      222.370      213.347      215.900     1176.000        1.201        4.579      226.231
    417.70        6.421       51.893        4.552      217.572        8.462        1.937      140.699        3.138      460.000      993.333      221.500      213.643      215.900     1177.333        1.191        4.351      235.553
    417.80        6.440       52.331        4.141      215.521        8.665        1.923      146.945        2.568      456.667      996.000      217.513      213.529      215.900     1178.667        1.197        4.126      244.839
    417.90        6.451       52.955        3.786      216.357        8.374        1.931      153.408        2.506      460.000      998.667      219.209      213.505      215.900     1182.667        1.198        3.941      252.857
    418.00        6.437       53.640        3.589      215.436        8.293        1.931      158.429        2.738      463.333     1000.000      217.143      213.729      215.900     1185.333        1.175        3.759      257.512
    418.10        6.375       54.775        3.552      215.109        7.983        1.921      163.366        2.556      470.000     1001.333      214.960      215.259      215.900     1189.333        1.166        3.625      260.415
    418.20        6.318       55.453        3.684      215.810        8.088        1.928      163.796        2.800      470.000     1004.000      213.804      217.815      215.900     1192.000        1.114        3.522      265.301
    418.30        6.229       56.521        3.785      217.082        8.070        1.913      166.125        2.750      466.667     1006.667      214.706      219.459      215.900     1193.333        1.097        3.477      268.016
    418.40        6.122       56.381        3.751      218.522        7.784        1.895      167.891        2.411      473.333     1009.333      218.401      218.642      215.900     1198.667        1.030        3.432      267.706
    418.50        6.025       56.056        3.620      219.971        7.743        1.903      168.234        2.492      470.000     1013.333      221.364      218.578      215.900     1201.333        1.056        3.400      271.697
    418.60        5.959       55.732        3.534      219.550        7.738        1.889      171.987        2.769      470.000     1016.000      219.571      219.529      215.900     1204.000        1.044        3.358      274.463
    418.70        5.896       55.604        3.380      221.555        7.696        1.889      176.503        2.594      456.667     1017.333      223.240      219.870      215.900     1200.000        1.044        3.327      280.612
    418.80        5.910       55.682        3.187      218.621        7.633        1.878      181.013        2.240      463.333     1013.333      217.008      220.234      215.900     1198.667        1.040        3.310      281.449
    418.90        5.992       57.579        3.118      217.781        7.617        1.880      184.403        2.409      466.667     1013.333      215.070      220.492      215.900     1200.000        1.007        3.313      283.222
    419.00        6.190       59.548        3.184      219.374        7.738        1.870      184.266        2.725      473.333     1017.333      216.400      222.349      215.900     1206.667         .992        3.363      287.419
    419.10        6.377       60.855        3.251      218.154        7.828        1.867      183.515        2.648      476.667     1029.333      210.378      225.928      215.900     1220.000         .998        3.433      291.472
    419.20        6.524       62.160        3.269      217.080        7.776        1.848      185.251        2.536      483.333     1040.000      212.692      221.468      215.900     1233.333         .994        3.519      293.283
