~Version information                                                          
  VERS.                            1.20: CWLS LAS  -  VERSION 1.20            
  WRAP.                             NO : One line per depth step              
~Well information                                                             
# MNEM.UNIT         DATA TYPE  INFORMATION                                    
# ====.================================: ===================                  
  STRT.M                         9.800 : First depth in file                  
  STOP.M                       883.000 : Last  depth in file                  
  STEP.M                          .100 : Depth increment                      
  NULL.                       -999.250 : Null  values                         
  WN  .                            WELL: 301
  FN  .                           FIELD: KARATUBE
  DATE.                        LOG DATE: 18.12.2004
~Curve information                                                            
# MNEM.UNIT                   API CODE   CURVE DESCRIPTION                    
# ====.================================:====================                  
  DEPT.M                               : Depth curve                          
  GZ3 .OHMM                            : App.resistivity by lateral A2.0M0.5N
  SP  .MV                              : Spontaneous potential
  LL3 .OHMM                            : Appar.resist.laterolog,3 electrodes
  CALI.MM                              : Caliper  
  GR  .UR/H                            : Gamma-ray
  RHOB.G/C3                            : Bulk density by gamma-gamma log
  CILR.MMHO                            : Conduct. by sonde 7I1.6,reactive signal
  MLL .OHMM                            : Microlaterolog sonde  
  DTP .US/M                            : Interval travel time (P-wave)
  T1  .US                              : Travel time 1
  C1  .MM                              : Caliper, diameter 1
  C2  .MM                              : Caliper, diameter 2
  BSC .MM                              : Bit size
  T2  .US                              : Travel time 2
  NGLD.UE                              : Neutron-gamma log
  GZ3B.OHMM                            : App.resistivity by lateral N0.5M2.0A
  CILA.MMHO                            : Conduct. by sonde 7I1.6,active signal
~Parameter information block                                                  
# MNEM.UNIT                     VALUE       DESCRIPTION                       
# ====.================================:====================                  
  BS  .MM                       215.90 : Bit Size                             
  DFD .G/C3                       1.16 : Drilling Fluid Density
  DFV .S                         30.00 : Drilling Fluid Viscosity             
  RMS .OHMM                        .00 : Mud Sample Resistivity               
~Other information                                                            
# ------------------- REMARKS AREA ------------------------                   
# ==========================================================                  
~ASCII Log Data                                                               
# ...
    769.30        3.015       95.554        2.748      230.102        4.738        2.280      233.206        1.578      312.681      705.333      233.819      226.385      215.900      830.406        1.411        2.967      336.142
    769.40        3.051       92.544        2.754      229.320        4.741        2.313      231.321        1.674      306.667      705.101      222.965      235.674      215.900      827.768        1.420        3.148      329.987
    769.50        3.119       93.074        2.843      232.281        4.677        2.342      231.747        1.604      306.667      702.565      224.199      240.363      215.900      825.232        1.439        3.399      330.664
    769.60        3.234       94.595        2.946      234.759        4.458        2.361      230.137        1.677      306.667      701.246      233.167      236.350      215.900      823.913        1.449        3.680      326.067
    769.70        3.425       95.194        3.009      246.853        4.185        2.338      226.848        1.924      306.304      700.000      245.978      247.727      215.900      822.522        1.444        4.035      324.151
    769.80        3.630       94.984        3.007      248.443        4.071        2.355      226.761        2.198      299.710      699.942      240.986      255.899      215.900      819.826        1.505        4.210      323.026
    769.90        3.746       93.745        2.927      228.109        3.944        2.386      229.030        1.763      293.225      698.580      218.115      238.104      215.900      815.870        1.494        4.348      327.424
    770.00        3.769       94.570        2.851      221.153        4.067        2.390      233.783        1.283      290.145      695.884      215.840      226.465      215.900      811.942        1.489        4.436      333.946
    770.10        3.747       94.994        2.858      216.092        4.061        2.413      237.600        1.176      296.703      690.623      216.278      215.907      215.900      809.304        1.531        4.523      343.127
    770.20        3.715       95.238        2.963      214.674        3.967        2.430      243.007        1.424      300.000      686.667      217.026      212.322      215.900      806.667        1.502        4.652      350.986
    770.30        3.697       96.170        3.122      216.815        4.035        2.423      245.646        1.956      303.333      685.333      218.874      214.755      215.900      806.667        1.534        4.864      358.379
    770.40        3.723       96.384        3.356      218.696        4.037        2.416      245.776        1.808      303.333      686.667      221.256      216.135      215.900      808.000        1.519        5.185      360.879
    770.50        3.776       96.448        3.557      218.841        3.937        2.394      244.083        1.848      303.333      686.667      222.930      214.753      215.900      808.000        1.510        5.415      359.654
    770.60        3.810       96.267        3.653      220.059        3.914        2.398      241.195        2.217      300.000      686.667      223.755      216.362      215.900      806.667        1.520        5.562      354.243
    770.70        3.813       96.065        3.644      220.720        3.778        2.421      238.465        2.047      293.333      686.667      222.991      218.449      215.900      804.000        1.570        5.581      351.836
    770.80        3.739       94.731        3.649      219.814        3.857        2.409      237.051        2.394      286.667      688.000      219.465      220.163      215.900      802.667        1.553        5.487      351.053
    770.90        3.580       94.789        3.682      218.556        3.940        2.414      236.481        2.581      286.667      686.667      221.757      215.356      215.900      801.333        1.605        5.322      355.418
    771.00        3.428       94.413        3.610      220.065        4.062        2.425      235.685        2.587      283.333      686.667      226.516      213.614      215.900      800.000        1.659        5.151      356.047
    771.10        3.281       94.499        3.454      219.924        3.872        2.435      233.993        2.143      286.667      685.333      226.033      213.814      215.900      800.000        1.607        5.014      357.325
    771.20        3.163       93.946        3.293      222.070        3.615        2.404      232.954        1.956      286.667      684.000      229.312      214.829      215.900      798.667        1.595        4.922      358.553
    771.30        3.091       93.053        3.256      222.010        3.606        2.391      230.751        1.714      290.000      682.667      230.490      213.529      215.900      798.667        1.549        4.879      364.147
    771.40        3.010       92.695        3.273      221.185        3.441        2.402      224.971        1.844      293.333      681.333      228.995      213.374      215.900      798.667        1.508        4.898      365.217
    771.50        2.949       90.398        3.234      220.978        3.515        2.385      224.338        2.097      300.000      678.667      227.148      214.809      215.900      798.667        1.497        4.986      364.413
    771.60        2.906       87.081        3.176      221.745        3.925        2.341      222.329        1.836      310.000      673.333      227.331      216.159      215.900      797.333        1.535        5.137      361.378
    771.70        2.870       87.584        3.150      222.254        4.049        2.348      217.525        1.497      316.667      669.333      227.915      216.593      215.900      796.000        1.536        5.319      361.833
    771.80        2.846       87.166        3.148      221.911        4.124        2.352      207.240        1.669      316.667      666.667      226.774      217.048      215.900      793.333        1.548        5.474      366.263
    771.90        2.860       88.392        3.093      223.212        3.784        2.348      201.534        1.912      316.667      664.000      224.694      221.729      215.900      790.667        1.513        5.665      361.085
    772.00        2.912       89.729        3.049      226.610        3.989        2.385      199.464        2.052      313.333      660.000      223.107      230.113      215.900      785.333        1.513        5.771      350.446
    772.10        2.973       89.695        2.952      228.196        3.937        2.399      188.656        1.712      316.667      657.333      226.412      229.980      215.900      784.000        1.512        5.918      347.280
    772.20        3.010       89.832        2.910      232.396        4.051        2.420      180.015        1.813      316.667      656.000      227.677      237.115      215.900      782.667        1.498        6.063      347.178
    772.30        3.028       91.585        2.887      234.085        4.099        2.403      180.016        1.254      320.000      656.000      227.378      240.793      215.900      784.000        1.477        6.157      345.764
    772.40        3.025       92.582        2.858      238.952        4.131        2.362      171.495        1.328      320.000      656.000      229.064      248.840      215.900      784.000        1.482        6.168      335.680
    772.50        3.073       93.762        2.872      239.362        4.120        2.362      166.816        1.295      320.000      654.667      225.245      253.478      215.900      782.667        1.502        6.174      325.290
    772.60        3.102       94.684        3.003      237.502        4.052        2.370      161.652        1.571      316.667      654.667      225.661      249.343      215.900      781.333        1.533        6.298      315.252
    772.70        3.190       94.952        3.152      238.948        3.977        2.382      148.174        1.434      313.333      654.667      227.071      250.824      215.900      780.000        1.534        6.535      309.487
