~Version information                                                          
  VERS.                            1.20: CWLS LAS  -  VERSION 1.20            
  WRAP.                             NO : One line per depth step              
~Well information                                                             
# MNEM.UNIT         DATA TYPE  INFORMATION                                    
# ====.================================: ===================                  
  STRT.M                         9.800 : First depth in file                  
  STOP.M                       883.000 : Last  depth in file                  
  STEP.M                          .100 : Depth increment                      
  NULL.                       -999.250 : Null  values                         
  WN  .                            WELL: 301
  FN  .                           FIELD: KARATUBE
  DATE.                        LOG DATE: 18.12.2004
~Curve information                                                            
# MNEM.UNIT                   API CODE   CURVE DESCRIPTION                    
# ====.================================:====================                  
  DEPT.M                               : Depth curve                          
  GZ3 .OHMM                            : App.resistivity by lateral A2.0M0.5N
  SP  .MV                              : Spontaneous potential
  LL3 .OHMM                            : Appar.resist.laterolog,3 electrodes
  CALI.MM                              : Caliper  
  GR  .UR/H                            : Gamma-ray
  RHOB.G/C3                            : Bulk density by gamma-gamma log
  CILR.MMHO                            : Conduct. by sonde 7I1.6,reactive signal
  MLL .OHMM                            : Microlaterolog sonde  
  DTP .US/M                            : Interval travel time (P-wave)
  T1  .US                              : Travel time 1
  C1  .MM                              : Caliper, diameter 1
  C2  .MM                              : Caliper, diameter 2
  BSC .MM                              : Bit size
  T2  .US                              : Travel time 2
  NGLD.UE                              : Neutron-gamma log
  GZ3B.OHMM                            : App.resistivity by lateral N0.5M2.0A
  CILA.MMHO                            : Conduct. by sonde 7I1.6,active signal
~Parameter information block                                                  
# MNEM.UNIT                     VALUE       DESCRIPTION                       
# ====.================================:====================                  
  BS  .MM                       215.90 : Bit Size                             
  DFD .G/C3                       1.16 : Drilling Fluid Density
  DFV .S                         30.00 : Drilling Fluid Viscosity             
  RMS .OHMM                        .00 : Mud Sample Resistivity               
~Other information                                                            
# ------------------- REMARKS AREA ------------------------                   
# ==========================================================                  
~ASCII Log Data                                                               
# ...
    261.80        2.966        6.930        6.454      213.886        9.177        1.993       90.211        3.964      440.000     1085.333      219.088      208.683      215.900     1261.333        1.143        4.219      175.381
    261.90        3.298        9.155        6.932      215.320        9.453        1.982       91.910        4.061      443.333     1081.333      220.222      210.419      215.900     1258.667        1.125        4.290      176.956
    262.00        3.518        9.199        7.114      214.360        9.295        1.987       92.170        4.173      450.000     1077.333      217.256      211.464      215.900     1257.333        1.165        4.296      177.159
    262.10        3.809        9.748        7.478      213.440        9.213        1.993       97.053        3.979      456.667     1070.667      214.955      211.925      215.900     1253.333        1.194        4.270      176.015
    262.20        4.161        9.770        8.157      213.255        9.191        1.993       94.253        4.969      456.667     1066.667      214.291      212.219      215.900     1249.333        1.180        4.255      172.154
    262.30        4.473       10.009        8.364      214.913        8.670        1.993       96.768        5.951      453.333     1062.667      218.130      211.695      215.900     1244.000        1.198        4.245      176.920
    262.40        4.821        9.514        7.211      213.540        8.516        1.989       96.297        4.461      456.667     1061.333      216.703      210.377      215.900     1244.000        1.196        4.175      185.924
    262.50        5.180        9.600        5.334      213.126        8.772        1.998      100.315        2.380      460.000     1060.000      216.537      209.716      215.900     1244.000        1.223        4.095      196.533
    262.60        5.539       10.324        4.162      213.287        8.868        2.011      104.350        2.200      463.333     1060.000      216.775      209.800      215.900     1245.333        1.202        4.014      207.503
    262.70        5.906       10.815        3.824      212.108        8.910        2.022      111.320        2.319      456.667     1061.333      214.393      209.824      215.900     1244.000        1.186        3.779      221.789
    262.80        6.232       11.768        3.993      209.980        9.210        2.016      113.772        2.505      456.667     1062.667      210.441      209.518      215.900     1245.333        1.159        3.643      232.722
    262.90        6.400       11.988        4.287      209.658        9.173        2.033      118.548        2.951      456.667     1064.000      209.939      209.377      215.900     1246.667        1.178        3.466      243.598
    263.00        6.421       10.919        4.338      209.585        9.075        2.041      123.734        2.753      456.667     1064.000      209.923      209.246      215.900     1246.667        1.169        3.308      249.530
    263.10        6.302       11.354        4.152      209.587        8.922        2.049      124.137        2.532      456.667     1064.000      209.827      209.348      215.900     1246.667        1.139        3.208      252.406
    263.20        6.069       11.467        4.009      209.767        8.718        2.066      127.048        2.580      460.000     1065.333      209.934      209.599      215.900     1249.333        1.144        3.144      250.177
    263.30        5.865       11.496        4.037      210.108        8.582        2.070      128.049        2.539      463.333     1066.667      210.257      209.960      215.900     1252.000        1.190        3.133      249.086
    263.40        5.744       10.710        4.205      210.298        8.346        2.059      127.849        2.612      466.667     1066.667      210.392      210.205      215.900     1253.333        1.181        3.120      248.016
    263.50        5.701       10.635        4.358      210.093        8.424        2.045      127.771        2.555      463.333     1064.000      210.217      209.969      215.900     1249.333        1.160        3.105      248.375
    263.60        5.679       10.443        4.401      210.084        8.497        2.030      127.530        2.597      460.000     1061.333      210.363      209.805      215.900     1245.333        1.189        3.293      247.424
    263.70        5.647       10.326        4.327      209.494        8.545        2.045      128.337        2.588      460.000     1058.667      209.657      209.332      215.900     1242.667        1.161        3.303      246.907
    263.80        5.635        9.876        4.236      209.205        8.538        2.046      133.656        2.464      463.333     1056.000      209.712      208.698      215.900     1241.333        1.169        3.140      246.062
    263.90        5.683        9.295        4.195      209.872        8.723        2.057      133.200        2.281      466.667     1053.333      209.723      210.021      215.900     1240.000        1.198        3.050      248.327
    264.00        5.796       10.112        4.269      210.629        8.808        2.061      131.832        2.450      463.333     1050.667      209.842      211.415      215.900     1236.000        1.179        3.040      256.611
    264.10        5.958       10.087        4.519      211.286        8.707        2.063      135.506        2.808      446.667     1050.667      210.423      212.149      215.900     1229.333        1.198        3.055      263.744
    264.20        6.061       10.240        4.771      213.394        8.565        2.071      136.889        3.927      423.333     1050.667      212.531      214.257      215.900     1220.000        1.216        3.067      264.658
    264.30        6.131       10.863        4.661      219.703        8.836        2.068      137.307        2.878      403.333     1052.000      222.923      216.482      215.900     1213.333        1.203        3.092      265.649
    264.40        6.183       11.643        4.239      217.433        8.948        2.075      136.230        2.217      400.000     1050.667      220.553      214.314      215.900     1210.667        1.185        3.125      264.574
    264.50        6.233       11.145        3.922      216.142        9.098        2.089      137.176        1.956      426.667     1042.667      217.676      214.608      215.900     1213.333        1.177        3.144      262.979
    264.60        6.286       10.225        3.770      215.322        9.215        2.114      137.642        1.878      450.000     1034.667      217.267      213.378      215.900     1214.667        1.166        3.142      260.855
    264.70        6.298        9.279        3.735      213.501        9.186        2.112      135.104        1.735      470.000     1029.333      216.381      210.622      215.900     1217.333        1.165        3.124      261.070
    264.80        6.254        7.673        3.739      210.378        9.388        2.121      133.627        1.942      473.333     1030.667      214.525      206.231      215.900     1220.000        1.149        3.102      263.239
    264.90        6.178        7.622        3.732      207.245        9.319        2.101      131.859        2.019      476.667     1032.000      214.240      200.250      215.900     1222.667        1.122        3.095      263.477
    265.00        6.045        7.942        3.793      205.874        9.531        2.091      131.042        2.250      473.333     1030.667      211.879      199.868      215.900     1220.000        1.113        3.109      261.285
    265.10        5.840        6.871        4.043      209.495        9.345        2.082      129.051        2.665      463.333     1029.333      220.483      198.507      215.900     1214.667        1.114        3.165      261.294
    265.20        5.640        5.744        4.163      210.066        9.471        2.064      127.232        2.485      450.000     1028.000      220.144      199.987      215.900     1208.000        1.139        3.252      261.889
