~Version information                                                          
  VERS.                            1.20: CWLS LAS  -  VERSION 1.20            
  WRAP.                             NO : One line per depth step              
~Well information                                                             
# MNEM.UNIT         DATA TYPE  INFORMATION                                    
# ====.================================: ===================                  
  STRT.M                         9.800 : First depth in file                  
  STOP.M                       883.000 : Last  depth in file                  
  STEP.M                          .100 : Depth increment                      
  NULL.                       -999.250 : Null  values                         
  WN  .                            WELL: 301
  FN  .                           FIELD: KARATUBE
  DATE.                        LOG DATE: 18.12.2004
~Curve information                                                            
# MNEM.UNIT                   API CODE   CURVE DESCRIPTION                    
# ====.================================:====================                  
  DEPT.M                               : Depth curve                          
  GZ3 .OHMM                            : App.resistivity by lateral A2.0M0.5N
  SP  .MV                              : Spontaneous potential
  LL3 .OHMM                            : Appar.resist.laterolog,3 electrodes
  CALI.MM                              : Caliper  
  GR  .UR/H                            : Gamma-ray
  RHOB.G/C3                            : Bulk density by gamma-gamma log
  CILR.MMHO                            : Conduct. by sonde 7I1.6,reactive signal
  MLL .OHMM                            : Microlaterolog sonde  
  DTP .US/M                            : Interval travel time (P-wave)
  T1  .US                              : Travel time 1
  C1  .MM                              : Caliper, diameter 1
  C2  .MM                              : Caliper, diameter 2
  BSC .MM                              : Bit size
  T2  .US                              : Travel time 2
  NGLD.UE                              : Neutron-gamma log
  GZ3B.OHMM                            : App.resistivity by lateral N0.5M2.0A
  CILA.MMHO                            : Conduct. by sonde 7I1.6,active signal
~Parameter information block                                                  
# MNEM.UNIT                     VALUE       DESCRIPTION                       
# ====.================================:====================                  
  BS  .MM                       215.90 : Bit Size                             
  DFD .G/C3                       1.16 : Drilling Fluid Density
  DFV .S                         30.00 : Drilling Fluid Viscosity             
  RMS .OHMM                        .00 : Mud Sample Resistivity               
~Other information                                                            
# ------------------- REMARKS AREA ------------------------                   
# ==========================================================                  
~ASCII Log Data                                                               
# ...
    314.30        6.108       57.328        4.971      210.219        7.065        2.023       60.034        2.874      483.333      993.333      210.263      210.176      215.900     1186.667        1.165        4.993      144.872
    314.40        5.993       56.570        5.056      210.702        7.153        2.003       60.016        2.826      473.333      996.000      210.598      210.807      215.900     1185.333        1.170        5.445      144.111
    314.50        5.903       56.644        5.101      210.874        7.265        2.000       58.815        2.757      476.667     1000.000      210.275      211.474      215.900     1190.667        1.204        5.211      143.656
    314.60        5.810       56.847        5.414      210.843        7.220        2.000       59.878        2.962      486.667     1004.000      210.165      211.521      215.900     1198.667        1.227        5.248      142.506
    314.70        5.698       55.536        5.631      210.703        7.353        1.969       60.150        3.275      500.000     1002.667      210.014      211.392      215.900     1202.667        1.198        5.075      140.957
    314.80        5.663       56.337        5.761      210.674        7.075        1.972       60.130        3.511      506.667     1002.667      209.965      211.382      215.900     1205.333        1.215        5.092      137.716
    314.90        5.640       55.103        5.871      211.267        7.427        1.969       60.561        3.882      490.000     1008.000      210.815      211.718      215.900     1204.000        1.248        5.188      136.377
    315.00        5.646       55.506        5.990      212.926        7.269        1.979       60.162        4.991      466.667     1016.000      213.211      212.640      215.900     1202.667        1.287        5.357      135.116
    315.10        5.668       54.443        6.288      215.808        7.154        1.981       59.882       13.764      443.333     1024.000      217.354      214.263      215.900     1201.333        1.237        5.184      133.240
    315.20        5.733       54.509        6.711      220.139        7.112        1.985       56.161       20.778      403.333     1026.667      225.862      214.416      215.900     1188.000        1.269        4.942      129.875
    315.30        5.805       55.748        6.672      223.266        7.353        1.995       55.320       11.700      423.333     1049.333      228.989      217.544      215.900     1218.667        1.286        4.978      132.527
    315.40        5.898       56.544        6.032      222.699        7.119        2.006       54.053        4.140      456.667     1072.000      230.573      214.826      215.900     1254.667        1.265        5.090      133.335
    315.50        6.031       56.311        5.582      222.063        7.404        2.023       55.729        3.022      526.667     1096.000      229.935      214.192      215.900     1306.667        1.263        4.735      130.608
    315.60        6.191       55.139        5.444      222.199        7.158        2.032       56.847        3.083      533.333     1101.333      228.683      215.715      215.900     1314.667        1.246        4.523      131.035
    315.70        6.308       50.418        5.409      222.791        7.391        2.073       56.182        3.045      533.333     1105.333      228.853      216.728      215.900     1318.667        1.261        4.449      133.370
    315.80        6.382       51.666        5.316      223.802        7.341        2.092       57.306        3.002      506.667     1084.000      230.993      216.612      215.900     1286.667        1.301        4.351      137.872
    315.90        6.379       51.743        5.239      223.613        7.438        2.104       57.875        2.988      486.667     1064.000      229.342      217.883      215.900     1258.667        1.282        4.221      140.366
    316.00        6.333       50.738        5.137      227.521        7.153        2.072       58.368        3.017      466.667     1044.000      232.639      222.402      215.900     1230.667        1.242        4.100      142.710
    316.10        6.287       51.579        5.063      225.982        7.270        2.032       59.342        3.052      466.667     1052.000      233.439      218.524      215.900     1238.667        1.215        4.025      141.901
    316.20        6.279       53.215        4.999      221.221        7.079        1.988       59.508        3.012      470.000     1054.667      227.821      214.622      215.900     1242.667        1.226        3.989      141.768
    316.30        6.308       53.707        4.990      217.477        6.836        1.969       59.266        2.997      470.000     1057.333      222.480      212.474      215.900     1245.333        1.198        3.982      140.723
    316.40        6.349       53.918        5.032      216.113        7.018        1.967       58.384        2.985      486.667     1009.333      220.726      211.500      215.900     1204.000        1.207        4.004      141.764
    316.50        6.409       54.410        5.082      216.171        7.013        1.996       61.037        3.070      496.667      966.667      221.329      211.013      215.900     1165.333        1.185        4.158      141.141
    316.60        6.459       54.290        5.129      215.051        7.201        1.986       60.927        3.070      493.333      925.333      221.004      209.097      215.900     1122.667        1.199        4.160      141.767
    316.70        6.483       53.392        5.197      215.443        7.375        1.968       59.505        3.130      476.667      936.000      221.785      209.101      215.900     1126.667        1.192        4.128      140.717
    316.80        6.506       54.354        5.252      212.368        6.932        1.960       62.424        3.279      456.667      953.333      215.248      209.489      215.900     1136.000        1.156        4.161      138.846
    316.90        6.533       52.777        5.242      210.734        7.153        1.943       59.287        3.208      456.667      977.333      211.883      209.586      215.900     1160.000        1.166        4.175      137.495
    317.00        6.581       53.697        5.144      210.677        7.243        1.952       58.805        3.065      460.000      992.000      212.216      209.138      215.900     1176.000        1.191        4.246      137.134
    317.10        6.644       54.576        5.015      210.939        7.330        1.957       57.298        3.081      420.000     1004.000      213.141      208.738      215.900     1172.000        1.219        4.289      139.798
    317.20        6.709       54.564        4.921      211.718        7.032        1.966       58.168        3.134      370.000     1014.667      214.420      209.016      215.900     1162.667        1.221        4.275      139.140
    317.30        6.785       55.749        4.866      211.263        7.133        1.977       61.852        3.019      356.667     1016.000      214.117      208.410      215.900     1158.667        1.217        4.247      140.933
    317.40        6.830       54.875        4.797      210.619        7.143        1.979       61.545        2.848      380.000     1016.000      212.812      208.425      215.900     1168.000        1.214        4.186      140.692
    317.50        6.848       55.758        4.729      210.388        7.332        1.989       60.332        2.833      403.333     1022.667      212.240      208.537      215.900     1184.000        1.204        3.693      140.730
    317.60        6.811       55.893        4.693      211.235        7.371        2.000       60.438        2.845      423.333     1029.333      213.539      208.931      215.900     1198.667        1.203        4.065      143.751
    317.70        6.742       55.579        4.678      212.099        7.453        1.998       60.764        2.824      450.000     1032.000      214.804      209.395      215.900     1212.000        1.211        4.276      145.518
