~Version information                                                          
  VERS.                            1.20: CWLS LAS  -  VERSION 1.20            
  WRAP.                             NO : One line per depth step              
~Well information                                                             
# MNEM.UNIT         DATA TYPE  INFORMATION                                    
# ====.================================: ===================                  
  STRT.M                         9.800 : First depth in file                  
  STOP.M                       883.000 : Last  depth in file                  
  STEP.M                          .100 : Depth increment                      
  NULL.                       -999.250 : Null  values                         
  WN  .                            WELL: 301
  FN  .                           FIELD: KARATUBE
  DATE.                        LOG DATE: 18.12.2004
~Curve information                                                            
# MNEM.UNIT                   API CODE   CURVE DESCRIPTION                    
# ====.================================:====================                  
  DEPT.M                               : Depth curve                          
  GZ3 .OHMM                            : App.resistivity by lateral A2.0M0.5N
  SP  .MV                              : Spontaneous potential
  LL3 .OHMM                            : Appar.resist.laterolog,3 electrodes
  CALI.MM                              : Caliper  
  GR  .UR/H                            : Gamma-ray
  RHOB.G/C3                            : Bulk density by gamma-gamma log
  CILR.MMHO                            : Conduct. by sonde 7I1.6,reactive signal
  MLL .OHMM                            : Microlaterolog sonde  
  DTP .US/M                            : Interval travel time (P-wave)
  T1  .US                              : Travel time 1
  C1  .MM                              : Caliper, diameter 1
  C2  .MM                              : Caliper, diameter 2
  BSC .MM                              : Bit size
  T2  .US                              : Travel time 2
  NGLD.UE                              : Neutron-gamma log
  GZ3B.OHMM                            : App.resistivity by lateral N0.5M2.0A
  CILA.MMHO                            : Conduct. by sonde 7I1.6,active signal
~Parameter information block                                                  
# MNEM.UNIT                     VALUE       DESCRIPTION                       
# ====.================================:====================                  
  BS  .MM                       215.90 : Bit Size                             
  DFD .G/C3                       1.16 : Drilling Fluid Density
  DFV .S                         30.00 : Drilling Fluid Viscosity             
  RMS .OHMM                        .00 : Mud Sample Resistivity               
~Other information                                                            
# ------------------- REMARKS AREA ------------------------                   
# ==========================================================                  
~ASCII Log Data                                                               
# ...
    821.80        9.589       92.025       10.450      216.548        3.156        2.549       66.026        7.874      190.000      473.333      218.958      214.138      215.900      549.333        2.195       16.640      151.826
    821.90        9.982       91.477        9.965      214.727        3.101        2.539       66.515        8.005      196.667      472.000      216.097      213.357      215.900      550.667        2.170       16.441      145.844
    822.00       10.255       90.718        9.763      214.597        3.108        2.511       63.881        9.130      200.000      472.000      215.761      213.432      215.900      552.000        2.165       16.426      144.825
    822.10       10.638       89.996       10.233      215.214        3.150        2.477       64.888        8.589      206.667      470.667      216.232      214.196      215.900      553.333        2.117       16.514      139.468
    822.20       11.108       89.706       10.612      215.368        3.103        2.484       73.872        9.341      210.000      468.000      214.990      215.745      215.900      552.000        2.095       16.602      139.011
    822.30       11.615       89.724       10.434      216.895        3.160        2.473       70.004        8.101      216.667      465.333      217.863      215.927      215.900      552.000        2.129       16.685      136.224
    822.40       12.217       90.598       10.490      219.188        3.249        2.461       66.875        7.513      223.333      461.333      220.753      217.624      215.900      550.667        2.182       16.841      136.100
    822.50       12.771       91.195       11.247      216.967        3.299        2.458       67.714        8.565      223.333      458.667      217.009      216.926      215.900      548.000        2.232       16.963      136.802
    822.60       13.226       91.393       12.444      213.493        3.342        2.485       65.316        7.122      226.667      453.333      214.751      212.235      215.900      544.000        2.265       16.986      136.538
    822.70       13.742       90.816       13.555      214.725        3.326        2.499       65.685        7.705      223.333      449.333      214.775      214.676      215.900      538.667        2.300       16.951      133.414
    822.80       14.311       90.723       14.925      215.318        3.250        2.500       70.100       11.188      220.000      445.333      215.053      215.583      215.900      533.333        2.303       16.963      134.169
    822.90       14.982       90.889       16.610      215.112        3.370        2.492       66.023       14.916      213.333      441.333      216.253      213.972      215.900      526.667        2.297       16.829      134.715
    823.00       15.607       91.229       17.730      216.375        3.321        2.511       61.223       18.479      206.667      438.667      218.526      214.224      215.900      521.333        2.314       16.531      132.973
    823.10       16.294       91.233       18.709      219.720        3.239        2.511       62.025       16.902      200.000      434.667      225.813      213.627      215.900      514.667        2.309       16.202      129.886
    823.20       17.133       91.628       19.389      221.750        3.108        2.525       63.735       13.843      196.667      432.000      230.806      212.693      215.900      510.667        2.288       15.946      128.856
    823.30       17.844       91.688       18.915      220.111        3.156        2.534       63.791       11.833      196.667      428.000      225.839      214.382      215.900      506.667        2.257       15.616      136.249
    823.40       18.581       91.775       17.177      218.592        3.209        2.555       64.024       12.200      203.333      424.000      222.825      214.359      215.900      505.333        2.240       15.200      136.423
    823.50       19.252       91.680       14.883      221.799        3.294        2.545       64.274       12.385      210.000      420.000      231.089      212.509      215.900      504.000        2.191       14.905      134.938
    823.60       19.737       90.790       12.453      221.994        3.177        2.546       64.301        8.325      213.333      418.667      230.204      213.784      215.900      504.000        2.110       14.559      137.271
    823.70       19.933       88.083        9.659      220.109        3.329        2.527       61.557        5.804      216.667      418.667      226.325      213.892      215.900      505.333        2.052       14.153      143.690
    823.80       19.796       87.135        7.473      221.417        3.397        2.499       60.932        8.042      213.333      421.333      228.344      214.489      215.900      506.667        1.935       14.031      151.306
    823.90       19.350       87.340        6.238      222.097        3.403        2.448       65.227        4.304      216.667      422.667      230.170      214.024      215.900      509.333        1.911       14.305      159.939
    824.00       18.533       86.849        5.711      222.239        3.425        2.422       67.923        3.676      220.000      424.000      230.279      214.200      215.900      512.000        1.848       14.869      175.523
    824.10       17.627       87.269        5.669      221.806        3.505        2.433       63.990        3.563      230.000      425.333      227.996      215.617      215.900      517.333        1.790       15.694      188.645
    824.20       16.698       87.937        6.059      222.502        3.428        2.443       73.636        3.394      236.667      428.000      226.293      218.710      215.900      522.667        1.769       16.900      194.767
    824.30       16.002       88.967        6.909      225.505        3.729        2.436       75.611        3.758      246.667      430.667      228.583      222.427      215.900      529.333        1.793       17.900      195.222
    824.40       15.350       88.981        7.358      223.779        3.830        2.403       71.796        2.939      256.667      433.333      227.158      220.401      215.900      536.000        1.802       18.739      180.250
    824.50       15.287       89.778        7.816      226.148        3.894        2.359       75.923        3.766      266.667      437.333      237.921      214.374      215.900      544.000        1.808       19.650      158.138
    824.60       15.303       90.153        8.726      224.420        3.859        2.379       84.434        5.450      270.000      441.333      232.517      216.323      215.900      549.333        1.833       20.367      144.664
    824.70       15.389       89.773       10.258      224.136        3.898        2.418       74.308        7.119      266.667      446.667      230.870      217.403      215.900      553.333        1.878       20.824      141.806
    824.80       15.564       89.470       11.682      220.352        3.853        2.445       67.493        7.477      256.667      452.000      224.124      216.580      215.900      554.667        1.909       21.074      144.900
    824.90       15.825       89.252       12.628      218.872        3.453        2.453       63.971        8.002      240.000      460.000      221.618      216.126      215.900      556.000        1.965       21.065      141.679
    825.00       16.102       88.705       12.662      218.570        3.416        2.457       64.675        8.126      223.333      465.333      220.285      216.856      215.900      554.667        2.006       20.466      136.043
    825.10       16.178       88.232       10.931      217.233        3.507        2.472       66.952       12.172      213.333      468.000      218.377      216.089      215.900      553.333        2.005       19.683      128.120
    825.20       16.123       88.114        8.924      215.450        3.435        2.463       70.931       15.302      206.667      469.333      217.008      213.892      215.900      552.000        2.030       19.117      124.774
