~Version information                                                          
  VERS.                            1.20: CWLS LAS  -  VERSION 1.20            
  WRAP.                             NO : One line per depth step              
~Well information                                                             
# MNEM.UNIT         DATA TYPE  INFORMATION                                    
# ====.================================: ===================                  
  STRT.M                         9.800 : First depth in file                  
  STOP.M                       883.000 : Last  depth in file                  
  STEP.M                          .100 : Depth increment                      
  NULL.                       -999.250 : Null  values                         
  WN  .                            WELL: 301
  FN  .                           FIELD: KARATUBE
  DATE.                        LOG DATE: 18.12.2004
~Curve information                                                            
# MNEM.UNIT                   API CODE   CURVE DESCRIPTION                    
# ====.================================:====================                  
  DEPT.M                               : Depth curve                          
  GZ3 .OHMM                            : App.resistivity by lateral A2.0M0.5N
  SP  .MV                              : Spontaneous potential
  LL3 .OHMM                            : Appar.resist.laterolog,3 electrodes
  CALI.MM                              : Caliper  
  GR  .UR/H                            : Gamma-ray
  RHOB.G/C3                            : Bulk density by gamma-gamma log
  CILR.MMHO                            : Conduct. by sonde 7I1.6,reactive signal
  MLL .OHMM                            : Microlaterolog sonde  
  DTP .US/M                            : Interval travel time (P-wave)
  T1  .US                              : Travel time 1
  C1  .MM                              : Caliper, diameter 1
  C2  .MM                              : Caliper, diameter 2
  BSC .MM                              : Bit size
  T2  .US                              : Travel time 2
  NGLD.UE                              : Neutron-gamma log
  GZ3B.OHMM                            : App.resistivity by lateral N0.5M2.0A
  CILA.MMHO                            : Conduct. by sonde 7I1.6,active signal
~Parameter information block                                                  
# MNEM.UNIT                     VALUE       DESCRIPTION                       
# ====.================================:====================                  
  BS  .MM                       215.90 : Bit Size                             
  DFD .G/C3                       1.16 : Drilling Fluid Density
  DFV .S                         30.00 : Drilling Fluid Viscosity             
  RMS .OHMM                        .00 : Mud Sample Resistivity               
~Other information                                                            
# ------------------- REMARKS AREA ------------------------                   
# ==========================================================                  
~ASCII Log Data                                                               
# ...
    618.80         .982       84.046        2.113      211.383        9.154        2.075      470.263        1.863      400.000      957.333      212.181      210.586      215.900     1117.333        1.190        1.986      424.448
    618.90        1.006       83.827        2.161      210.752        9.917        2.095      472.284        1.898      403.333      952.000      211.232      210.271      215.900     1113.333        1.207        1.974      427.149
    619.00        1.023       83.394        2.234      209.727       10.258        2.109      474.734        2.079      403.333      948.000      210.950      208.503      215.900     1109.333        1.182        1.955      427.122
    619.10        1.042       83.980        2.279      209.939       10.445        2.099      475.414        2.126      396.667      944.000      211.141      208.738      215.900     1102.667        1.184        1.932      426.875
    619.20        1.064       83.882        2.282      210.267       10.588        2.080      475.473        2.150      396.667      940.000      211.515      209.018      215.900     1098.667        1.212        1.910      426.354
    619.30        1.085       84.385        2.276      210.147       10.406        2.084      476.279        2.111      396.667      936.000      211.411      208.883      215.900     1094.667        1.245        1.883      426.699
    619.40        1.110       84.931        2.270      210.015       10.447        2.088      477.578        2.098      403.333      930.667      211.406      208.624      215.900     1092.000        1.243        1.851      431.664
    619.50        1.138       85.876        2.239      210.472       10.405        2.109      478.047        2.060      406.667      925.333      211.663      209.280      215.900     1088.000        1.267        1.816      438.609
    619.60        1.165       86.087        2.159      211.253       10.210        2.112      479.364        1.995      410.000      920.000      211.767      210.740      215.900     1084.000        1.293        1.775      445.219
    619.70        1.196       85.219        2.044      211.669       10.308        2.102      485.111        1.922      410.000      916.000      212.078      211.260      215.900     1080.000        1.311        1.731      457.711
    619.80        1.219       84.728        1.879      211.590       10.685        2.110      491.312        1.808      413.333      912.000      211.833      211.347      215.900     1077.333        1.305        1.668      471.479
    619.90        1.226       83.873        1.788      211.250       10.981        2.092      497.989        1.684      413.333      909.333      211.409      211.092      215.900     1074.667        1.296        1.608      484.928
    620.00        1.218       83.405        1.743      211.017       10.997        2.091      504.526        1.429      420.000      906.667      211.916      210.119      215.900     1074.667        1.277        1.553      491.886
    620.10        1.195       83.560        1.749      211.793       10.808        2.076      507.664        1.249      420.000      905.333      213.168      210.417      215.900     1073.333        1.274        1.527      497.956
    620.20        1.162       84.186        1.768      215.268       10.763        2.071      508.329        1.396      423.333      904.000      219.645      210.892      215.900     1073.333        1.280        1.526      504.794
    620.30        1.151       83.869        1.774      216.635       10.718        2.046      506.031        1.514      423.333      902.667      223.038      210.232      215.900     1072.000        1.285        1.547      507.916
    620.40        1.149       82.926        1.766      215.077       10.949        2.047      498.916        1.442      423.333      901.333      220.368      209.786      215.900     1070.667        1.291        1.580      506.071
    620.50        1.168       83.428        1.761      216.337       11.052        2.023      493.368        1.408      423.333      900.000      221.568      211.107      215.900     1069.333        1.280        1.617      503.407
    620.60        1.199       83.345        1.759      215.946       11.291        2.030      478.266        1.421      423.333      900.000      219.772      212.120      215.900     1069.333        1.276        1.635      493.804
    620.70        1.246       81.334        1.787      213.501       11.336        2.031      465.443        1.369      426.667      898.667      218.293      208.710      215.900     1069.333        1.246        1.650      484.483
    620.80        1.309       80.455        1.893      215.800       11.627        2.055      441.922        1.530      426.667      897.333      221.453      210.148      215.900     1068.000        1.237        1.671      468.187
    620.90        1.398       80.776        2.000      216.494       11.685        2.074      429.978        1.811      423.333      897.333      223.247      209.741      215.900     1066.667        1.231        1.696      452.480
    621.00        1.477       79.919        1.992      217.811       11.968        2.088      425.314        1.656      416.667      900.000      225.025      210.597      215.900     1066.667        1.234        1.715      436.892
    621.10        1.566       80.100        1.949      217.920       12.216        2.090      412.598        1.581      416.667      902.667      223.236      212.604      215.900     1069.333        1.252        1.725      427.509
    621.20        1.611       81.419        1.922      218.796       12.018        2.084      402.641        1.469      416.667      904.000      222.273      215.320      215.900     1070.667        1.267        1.714      424.255
    621.30        1.678       82.116        1.934      220.264       11.987        2.091      402.009        1.564      420.000      904.000      223.664      216.865      215.900     1072.000        1.247        1.698      424.420
    621.40        1.730       82.010        1.965      221.069       11.822        2.110      411.109        1.654      420.000      905.333      223.747      218.391      215.900     1073.333        1.220        1.691      425.581
    621.50        1.765       82.627        2.009      224.740       11.876        2.108      412.641        1.604      420.000      906.667      217.450      232.030      215.900     1074.667        1.223        1.677      427.856
    621.60        1.804       83.316        2.077      227.704       11.958        2.102      412.749        1.622      416.667      909.333      213.699      241.708      215.900     1076.000        1.212        1.669      429.181
    621.70        1.849       83.868        2.126      226.993       12.303        2.085      407.042        1.719      413.333      910.667      220.566      233.420      215.900     1076.000        1.170        1.682      429.510
    621.80        1.889       84.559        2.126      221.459       12.424        2.072      404.869        1.738      410.000      913.333      221.262      221.655      215.900     1077.333        1.152        1.687      427.796
    621.90        1.911       84.731        2.110      221.169       11.907        2.057      404.646        1.673      410.000      914.667      215.706      226.632      215.900     1078.667        1.164        1.689      425.292
    622.00        1.943       84.581        2.052      221.494       12.432        2.035      406.640        1.619      416.667      916.000      211.964      231.024      215.900     1082.667        1.169        1.687      423.523
    622.10        1.946       85.134        1.964      218.032       12.062        2.025      411.786        1.427      426.667      916.000      212.651      223.413      215.900     1086.667        1.126        1.667      423.706
    622.20        1.942       85.312        1.927      215.152       11.854        2.009      415.884        1.303      433.333      916.000      213.912      216.393      215.900     1089.333        1.123        1.656      424.874
