~Version information                                                          
  VERS.                            1.20: CWLS LAS  -  VERSION 1.20            
  WRAP.                             NO : One line per depth step              
~Well information                                                             
# MNEM.UNIT         DATA TYPE  INFORMATION                                    
# ====.================================: ===================                  
  STRT.M                         9.800 : First depth in file                  
  STOP.M                       883.000 : Last  depth in file                  
  STEP.M                          .100 : Depth increment                      
  NULL.                       -999.250 : Null  values                         
  WN  .                            WELL: 301
  FN  .                           FIELD: KARATUBE
  DATE.                        LOG DATE: 18.12.2004
~Curve information                                                            
# MNEM.UNIT                   API CODE   CURVE DESCRIPTION                    
# ====.================================:====================                  
  DEPT.M                               : Depth curve                          
  GZ3 .OHMM                            : App.resistivity by lateral A2.0M0.5N
  SP  .MV                              : Spontaneous potential
  LL3 .OHMM                            : Appar.resist.laterolog,3 electrodes
  CALI.MM                              : Caliper  
  GR  .UR/H                            : Gamma-ray
  RHOB.G/C3                            : Bulk density by gamma-gamma log
  CILR.MMHO                            : Conduct. by sonde 7I1.6,reactive signal
  MLL .OHMM                            : Microlaterolog sonde  
  DTP .US/M                            : Interval travel time (P-wave)
  T1  .US                              : Travel time 1
  C1  .MM                              : Caliper, diameter 1
  C2  .MM                              : Caliper, diameter 2
  BSC .MM                              : Bit size
  T2  .US                              : Travel time 2
  NGLD.UE                              : Neutron-gamma log
  GZ3B.OHMM                            : App.resistivity by lateral N0.5M2.0A
  CILA.MMHO                            : Conduct. by sonde 7I1.6,active signal
~Parameter information block                                                  
# MNEM.UNIT                     VALUE       DESCRIPTION                       
# ====.================================:====================                  
  BS  .MM                       215.90 : Bit Size                             
  DFD .G/C3                       1.16 : Drilling Fluid Density
  DFV .S                         30.00 : Drilling Fluid Viscosity             
  RMS .OHMM                        .00 : Mud Sample Resistivity               
~Other information                                                            
# ------------------- REMARKS AREA ------------------------                   
# ==========================================================                  
~ASCII Log Data                                                               
# ...
    363.30        6.094       39.189        3.098      214.004       11.282        2.047      138.302        1.812      453.333      893.333      223.430      204.579      215.900     1074.667        1.178        2.428      230.498
    363.40        5.832       37.729        3.197      218.133       11.382        2.037      136.048        1.938      446.667      916.000      231.571      204.694      215.900     1094.667        1.213        2.471      230.156
    363.50        5.579       38.582        3.364      222.737       10.937        2.054      136.209        2.133      413.333      946.667      239.885      205.589      215.900     1112.000        1.209        2.547      225.090
    363.60        5.337       39.417        3.496      217.771       10.931        2.042      132.191        2.245      390.000      973.333      229.824      205.718      215.900     1129.333        1.209        2.641      221.314
    363.70        5.082       39.355        3.501      213.407       10.587        2.027      129.572        2.151      363.333     1004.000      221.487      205.328      215.900     1149.333        1.198        2.714      222.230
    363.80        4.804       39.639        3.546      215.308       10.271        2.010      130.758        2.346      373.333     1024.000      225.953      204.663      215.900     1173.333        1.196        2.784      213.669
    363.90        4.607       40.443        3.592      215.702        9.764        2.018      128.471        2.525      386.667     1044.000      227.631      203.773      215.900     1198.667        1.210        2.816      217.301
    364.00        4.362       41.972        3.576      215.219        9.822        2.024      129.703        2.564      410.000     1057.333      225.137      205.302      215.900     1221.333        1.207        2.824      211.266
    364.10        4.136       42.984        3.516      212.889        9.617        2.016      121.401        2.451      420.000     1070.667      220.292      205.486      215.900     1238.667        1.213        2.825      213.218
    364.20        3.958       44.122        3.460      211.769        9.368        2.018      121.536        2.466      426.667     1074.667      217.896      205.641      215.900     1245.333        1.206        2.819      212.555
    364.30        3.806       45.470        3.468      212.406        9.143        1.992      120.528        2.402      423.333     1076.000      219.869      204.943      215.900     1245.333        1.230        2.797      212.684
    364.40        3.690       47.183        3.532      212.536        8.674        1.988      116.883        2.552      433.333     1073.333      221.053      204.020      215.900     1246.667        1.222        2.799      213.955
    364.50        3.619       47.703        3.548      210.626        8.870        1.991      116.729        2.611      426.667     1073.333      217.788      203.465      215.900     1244.000        1.195        2.830      214.603
    364.60        3.561       47.699        3.473      208.006        9.139        1.988      110.606        2.569      426.667     1072.000      212.446      203.565      215.900     1242.667        1.180        2.871      214.424
    364.70        3.519       47.008        3.376      208.067        9.200        1.991      110.874        2.514      426.667     1068.000      212.422      203.712      215.900     1238.667        1.124        2.928      214.171
    364.80        3.503       46.391        3.309      208.334        9.146        1.997      109.226        2.376      443.333     1062.667      212.227      204.441      215.900     1240.000        1.139        2.983      215.615
    364.90        3.504       46.566        3.198      208.508        9.556        2.023      109.423        2.429      466.667     1053.333      212.407      204.610      215.900     1240.000        1.154        3.066      217.403
    365.00        3.503       46.426        3.079      209.058        9.695        2.027      107.098        2.280      476.667     1048.000      213.051      205.065      215.900     1238.667        1.139        3.145      221.166
    365.10        3.501       45.356        2.970      210.980       10.054        2.033      106.735        1.992      486.667     1044.000      215.673      206.288      215.900     1238.667        1.139        3.212      221.342
    365.20        3.480       44.409        2.924      213.207       10.211        2.040      105.762        1.912      483.333     1045.333      218.743      207.672      215.900     1238.667        1.139        3.331      221.727
    365.30        3.476       43.539        3.015      212.437       10.023        2.051      105.787        1.968      483.333     1046.667      216.838      208.037      215.900     1240.000        1.125        3.520      218.869
    365.40        3.448       43.335        3.270      212.519       10.068        2.068      101.610        2.362      466.667     1048.000      215.525      209.513      215.900     1234.667        1.141        3.754      212.081
    365.50        3.409       43.118        3.747      209.174        9.917        2.078       99.169        2.761      450.000     1048.000      210.559      207.788      215.900     1228.000        1.155        4.254      203.953
    365.60        3.363       42.977        4.362      208.069        9.851        2.057       94.750        4.096      430.000     1048.000      209.463      206.674      215.900     1220.000        1.179        4.480      191.432
    365.70        3.340       42.755        5.844      210.188        9.946        2.068       92.566        4.996      430.000     1042.667      213.248      207.128      215.900     1214.667        1.216        4.852      178.823
    365.80        3.360       43.355        6.833      212.507       10.100        2.052       83.558        4.603      436.667     1033.333      216.368      208.646      215.900     1208.000        1.254        5.264      164.300
    365.90        3.453       45.406        7.011      214.641       10.082        2.060       77.797        4.360      446.667     1020.000      219.516      209.766      215.900     1198.667        1.251        5.689      156.510
    366.00        3.611       48.635        7.132      217.145       10.074        2.056       74.352        5.500      450.000     1010.667      224.544      209.745      215.900     1190.667        1.237        5.944      152.243
    366.10        3.826       49.976        6.291      217.934        9.705        2.031       74.102        4.947      450.000     1004.000      226.639      209.229      215.900     1184.000        1.236        6.108      151.478
    366.20        4.089       52.023        5.056      219.509        9.578        2.009       74.276        3.337      450.000     1001.333      229.428      209.589      215.900     1181.333        1.213        6.181      152.421
    366.30        4.322       54.031        4.532      218.439        9.307        1.979       73.547        3.471      446.667     1000.000      227.289      209.590      215.900     1178.667        1.212        6.102      158.273
    366.40        4.444       56.176        4.208      217.438        9.358        1.958       71.417        3.208      440.000     1000.000      225.152      209.723      215.900     1176.000        1.284        5.843      167.679
    366.50        4.510       56.879        4.028      216.028        9.852        1.944       71.820        2.884      433.333     1000.000      222.630      209.425      215.900     1173.333        1.303        5.695      173.543
    366.60        4.523       56.844        3.901      214.125       10.149        1.939       72.594        2.859      430.000      998.667      220.772      207.478      215.900     1170.667        1.309        5.545      171.524
    366.70        4.459       56.348        3.898      213.186       10.433        1.944       68.664        2.878      433.333      996.000      220.685      205.687      215.900     1169.333        1.314        5.421      173.895
