~Version information                                                          
  VERS.                            1.20: CWLS LAS  -  VERSION 1.20            
  WRAP.                             NO : One line per depth step              
~Well information                                                             
# MNEM.UNIT         DATA TYPE  INFORMATION                                    
# ====.================================: ===================                  
  STRT.M                         9.800 : First depth in file                  
  STOP.M                       883.000 : Last  depth in file                  
  STEP.M                          .100 : Depth increment                      
  NULL.                       -999.250 : Null  values                         
  WN  .                            WELL: 301
  FN  .                           FIELD: KARATUBE
  DATE.                        LOG DATE: 18.12.2004
~Curve information                                                            
# MNEM.UNIT                   API CODE   CURVE DESCRIPTION                    
# ====.================================:====================                  
  DEPT.M                               : Depth curve                          
  GZ3 .OHMM                            : App.resistivity by lateral A2.0M0.5N
  SP  .MV                              : Spontaneous potential
  LL3 .OHMM                            : Appar.resist.laterolog,3 electrodes
  CALI.MM                              : Caliper  
  GR  .UR/H                            : Gamma-ray
  RHOB.G/C3                            : Bulk density by gamma-gamma log
  CILR.MMHO                            : Conduct. by sonde 7I1.6,reactive signal
  MLL .OHMM                            : Microlaterolog sonde  
  DTP .US/M                            : Interval travel time (P-wave)
  T1  .US                              : Travel time 1
  C1  .MM                              : Caliper, diameter 1
  C2  .MM                              : Caliper, diameter 2
  BSC .MM                              : Bit size
  T2  .US                              : Travel time 2
  NGLD.UE                              : Neutron-gamma log
  GZ3B.OHMM                            : App.resistivity by lateral N0.5M2.0A
  CILA.MMHO                            : Conduct. by sonde 7I1.6,active signal
~Parameter information block                                                  
# MNEM.UNIT                     VALUE       DESCRIPTION                       
# ====.================================:====================                  
  BS  .MM                       215.90 : Bit Size                             
  DFD .G/C3                       1.16 : Drilling Fluid Density
  DFV .S                         30.00 : Drilling Fluid Viscosity             
  RMS .OHMM                        .00 : Mud Sample Resistivity               
~Other information                                                            
# ------------------- REMARKS AREA ------------------------                   
# ==========================================================                  
~ASCII Log Data                                                               
# ...
    517.30        3.149       68.513        2.807      210.349       10.089        2.127      282.219        1.851      446.667      929.333      214.314      206.383      215.900     1108.000        1.224        3.226      371.089
    517.40        3.134       68.433        2.953      210.793       10.325        2.134      274.635        2.077      443.333      932.000      215.577      206.009      215.900     1109.333        1.252        3.263      358.131
    517.50        3.121       67.543        3.401      211.713       10.404        2.118      271.604        2.289      403.333      936.000      215.982      207.445      215.900     1097.333        1.278        3.316      353.299
    517.60        3.150       68.188        3.621      213.795       10.659        2.117      266.023        2.484      363.333      938.667      217.662      209.929      215.900     1084.000        1.284        3.399      349.554
    517.70        3.234       65.489        3.388      216.509       10.737        2.121      256.502        2.290      330.000      940.000      221.408      211.610      215.900     1072.000        1.248        3.494      341.684
    517.80        3.331       63.824        3.168      217.736       10.714        2.139      252.985        2.367      333.333      938.667      221.826      213.645      215.900     1072.000        1.281        3.530      338.245
    517.90        3.385       63.602        3.115      219.130       10.569        2.154      253.524        3.173      366.667      925.333      220.977      217.282      215.900     1072.000        1.289        3.519      340.929
    518.00        3.410       63.501        3.020      216.880       10.672        2.188      255.717        3.207      400.000      912.000      219.612      214.148      215.900     1072.000        1.319        3.464      348.879
    518.10        3.376       63.029        2.911      214.825       10.342        2.248      259.488        1.912      430.000      900.000      217.114      212.536      215.900     1072.000        1.278        3.249      358.413
    518.20        3.258       63.347        2.868      214.390       10.283        2.261      264.920        1.843      430.000      898.667      216.437      212.343      215.900     1070.667        1.284        2.913      366.755
    518.30        3.145       63.995        2.855      215.092       10.100        2.202      270.074        1.932      430.000      897.333      216.631      213.553      215.900     1069.333        1.257        2.677      373.347
    518.40        3.090       65.788        2.867      214.454        9.679        2.162      264.804        2.011      430.000      896.000      216.130      212.779      215.900     1068.000        1.222        2.766      368.923
    518.50        3.056       67.540        2.912      213.046        9.858        2.142      263.124        1.989      430.000      896.000      216.479      209.611      215.900     1068.000        1.192        2.994      374.389
    518.60        3.040       69.535        2.960      214.344        9.306        2.125      269.537        2.115      430.000      896.000      218.862      209.826      215.900     1068.000        1.166        2.977      373.567
    518.70        3.038       70.071        3.003      210.546        9.126        2.096      269.459        2.158      430.000      897.333      211.359      209.733      215.900     1069.333        1.208        3.050      372.332
    518.80        3.041       69.392        3.051      210.139        9.383        2.091      267.293        2.215      433.333      898.667      210.869      209.409      215.900     1072.000        1.192        3.134      368.967
    518.90        3.047       68.948        3.119      210.273        9.476        2.118      263.664        2.230      433.333      901.333      210.897      209.649      215.900     1074.667        1.170        3.197      365.858
    519.00        3.072       68.511        3.194      210.141        9.683        2.118      261.074        2.233      433.333      902.667      210.397      209.885      215.900     1076.000        1.212        3.168      364.952
    519.10        3.100       69.564        3.260      209.947        9.834        2.119      258.842        2.283      430.000      905.333      210.087      209.807      215.900     1077.333        1.249        3.269      362.755
    519.20        3.129       69.779        3.268      209.857       10.037        2.128      256.031        2.428      430.000      908.000      210.028      209.685      215.900     1080.000        1.228        3.351      361.093
    519.30        3.170       70.157        3.209      209.747        9.964        2.134      254.300        2.412      430.000      910.667      209.799      209.695      215.900     1082.667        1.190        3.199      360.040
    519.40        3.213       70.096        3.096      209.463        9.998        2.114      253.806        2.160      430.000      912.000      209.370      209.556      215.900     1084.000        1.158        3.194      360.594
    519.50        3.259       70.995        3.012      209.573       10.037        2.093      253.697        2.173      430.000      912.000      209.285      209.861      215.900     1084.000        1.125        3.292      361.751
    519.60        3.290       72.008        2.955      209.742       10.033        2.105      250.250        2.111      426.667      912.000      210.107      209.377      215.900     1082.667        1.103        3.398      361.966
    519.70        3.308       72.656        2.938      209.804       10.176        2.096      249.259        2.148      426.667      909.333      210.259      209.349      215.900     1080.000        1.128        3.187      361.685
    519.80        3.297       73.537        2.978      209.571       10.017        2.075      249.035        2.011      430.000      905.333      210.732      208.411      215.900     1077.333        1.161        3.022      360.605
    519.90        3.266       76.035        3.067      209.727        9.844        2.086      246.936        2.003      430.000      900.000      211.248      208.206      215.900     1072.000        1.165        3.147      358.838
    520.00        3.237       78.323        3.164      209.951        9.700        2.096      243.403        2.079      423.333      902.667      211.413      208.489      215.900     1072.000        1.201        3.421      358.408
    520.10        3.228       79.490        3.254      210.454        9.402        2.110      237.272        2.277      413.333      906.667      211.978      208.930      215.900     1072.000        1.162        3.444      358.338
    520.20        3.251       78.796        3.315      211.628        9.732        2.119      233.097        2.370      413.333      917.333      213.551      209.704      215.900     1082.667        1.153        3.554      358.061
    520.30        3.269       78.318        3.317      212.545        9.800        2.106      229.970        2.315      420.000      921.333      215.098      209.992      215.900     1089.333        1.133        3.782      357.911
    520.40        3.292       77.727        3.288      214.900        9.663        2.094      232.126        2.275      426.667      926.667      218.759      211.042      215.900     1097.333        1.125        4.308      354.577
    520.50        3.311       76.445        3.243      217.112        9.851        2.071      230.140        2.159      430.000      928.000      224.040      210.185      215.900     1100.000        1.130        4.525      353.427
    520.60        3.331       76.134        3.160      216.293       10.068        2.052      227.150        2.178      440.000      930.667      221.267      211.320      215.900     1106.667        1.141        4.579      352.485
    520.70        3.355       74.098        3.003      217.471       10.286        2.009      226.316        2.181      456.667      930.667      222.884      212.059      215.900     1113.333        1.100        4.846      350.988
