~VERSION INFORMATION
 VERS.                 2.0:   CWLS LOG ASCII STANDARD - VERSION 2.0
 WRAP.                  NO:   SINGLE LINE PER DEPTH STEP
~WELL INFORMATION
#MNEM.UNIT       DATA           DESCRIPTION MNEMONIC
#---------    -------------   --------------------------
 STRT.M         0.0000                        : START DEPTH
 STOP.M         829.0000                      : STOP DEPTH
 STEP.M         0.1000                        : STEP VALUE
 NULL.          -999.0000                     : NULL VALUE
 SRVC.          SCH                           : Service Company/Logging company
 DATE.          24.09.2023                    : LAS file Creation Date
 WELL    .      Каратобе 335                  : Well Name
 STATE   .      1                             : State
 COUNT   .      KAZAKHSTAN                    : Country
~CURVE INFORMATION
#MNEM          UNIT     API CODE   Description
#---------- ---------- ----------  -----------
 DEPTH     .M                    : DEPTH
 AZIM      .deg                  : Azimuth
 DEVI      .deg                  : Deviatiom
 GZ3       .OHMM                 : APP.RESISTIVITY BY LATERAL A2.0M0.5N
 GZB       .OHMM                 : APP.RESISTIVITY BY LATERAL N0.5M2.0A
 SP        .mV                   : Spontaneous Potential
 RB        .OHMM                 : Mud Resistivity
 RHOB      .G/C3                 : BULK DENSITY BY DGGL
 GR        .uR/h                 : GAMMA RAYS
 RFTN      .CPM                  : NEUTRON-NEUTRON(T) FAR
 RNTN      .CPM                  : NEUTRON-NEUTRON(T) NEAR
 TNPH      .V/V                  : Neutron porosity
 LL3       .OHMM                 : APPAR.RESIST. LATEROLOG 3 ELECTRODES
 C1        .mm                   : CALIPER DIAMETER 1
 C2        .mm                   : CALIPER DIAMETER 2
 CALI      .mm                   : Caliper
 BSC       .mm                   : Nominal Caliper
 TP1       .MCS                  : Sonic Time 1
 TP2       .MCS                  : Sonic Time 2
 DTP       .uSec/m               : Sonic travel time
 MLL       .OHMM                 : MICROLATEROLOG
 MNOR      .OHMM                 : MICRONORMAL A0.05M
 MINV      .OHMM                 : MICROLATERAL A0.025M0.025N
 TEMP      .C                    : Formation Temperature
 IKD1F3    .OHMM                 : Induction zonde IKD1F3
 IKD2F3    .OHMM                 : Induction zonde IKD2F3
 IKD3F3    .OHMM                 : Induction zonde IKD3F3
 IKD4F3    .OHMM                 : Induction zonde IKD4F3
 IKD5F3    .OHMM                 : Induction zonde IKD5F3
~A Log data section
# ...
 414.4000  312.4680    1.1190    3.5720    2.8180  263.8610    0.3570    2.0440    8.6150    0.7170    0.6760    0.7152    2.9420  216.4950  220.4230  220.6524  215.9000 1392.7500 1489.6040  328.7188    3.3585    1.0010    0.6390   32.9420    2.6980    2.5840    2.6670    2.7400    2.8100 
 414.5000  312.6050    1.0410    3.6280    2.8240  263.8990    0.3580    2.0170    9.0310    0.7090    0.6790    0.7263    2.8450  215.8390  216.8930  220.6440  215.9000 1391.2500 1493.3080  327.9167    3.2969    1.0010    1.0170   32.9410    2.6140    2.5450    2.6260    2.7060    2.8000 
 414.6000  311.1550    1.1280    3.6970    2.8190  264.0000    0.3570    2.0010    9.3540    0.7700    0.6880    0.6478    2.7580  215.3170  214.6650  220.5933  215.9000 1391.3020 1497.3800  344.4051    3.1053    0.9980    0.8270   32.9410    2.5590    2.5430    2.6130    2.6930    2.7900 
 414.7000  308.5410    1.1760    3.7610    2.8080  264.1020    0.3590    2.0070    9.4530    0.8430    0.6980    0.5706    2.6950  215.5900  214.3290  220.5880  215.9000 1392.3800 1499.0280  384.5023    3.5620    0.9410    1.0490   32.9430    2.5980    2.5720    2.6310    2.6840    2.7420 
 414.8000  307.7090    1.1870    3.8160    2.7960  264.2310    0.3660    2.0230    9.3150    0.8770    0.7050    0.5395    2.6380  216.0970  214.3870  220.6600  215.9000 1393.8280 1502.0980  396.0648    3.6765    0.8030    1.0320   32.9450    2.6220    2.6030    2.6360    2.6600    2.6880 
 414.9000  308.6830    1.2240    3.8290    2.7630  264.3180    0.3670    2.0420    9.1370    0.8650    0.7020    0.5501    2.5380  216.2190  214.5850  220.6680  215.9000 1392.8540 1503.1660  396.0648    3.5274    0.6530    1.0140   32.9470    2.6000    2.5680    2.5740    2.5730    2.6160 
 415.0000  309.1090    1.2790    3.7620    2.7310  264.3800    0.3690    2.0570    9.2760    0.8430    0.6940    0.5706    2.3570  216.6240  216.2150  220.5978  215.9000 1393.5060 1494.1121  395.4745    3.3650    0.5520    0.8910   32.9480    2.4560    2.4100    2.4420    2.4630    2.5250 
 415.1000  309.1620    1.2630    3.6160    2.6900  264.3790    0.3510    2.0650    9.6880    0.8090    0.6850    0.6046    2.1650  216.6320  224.1340  220.5882  215.9000 1396.5520 1482.6920  382.9780    2.2602    0.4990    0.6970   32.9470    2.1940    2.2010    2.2650    2.3440    2.4250 
 415.2000  309.7540    1.2510    3.4240    2.6710  264.3390    0.3500    2.0860   10.2240    0.7630    0.6820    0.6561    2.0640  217.6850  226.7730  220.5880  215.9000 1397.6021 1474.0720  365.3785    2.4011    0.4750    0.5020   32.9460    2.0190    2.0790    2.1230    2.2220    2.3140 
 415.3000  309.2550    1.2730    3.2100    2.7110  264.3270    0.3380    2.1370   10.7120    0.7420    0.6880    0.6821    2.0530  218.6090  221.6950  220.4791  215.9000 1398.5439 1471.5520  380.9028    2.4429    0.4680    0.3960   32.9460    2.0610    2.0760    2.1060    2.1950    2.2640 
 415.4000  307.5730    1.2780    3.0120    2.7800  264.3140    0.3330    2.1820   10.9150    0.7290    0.6910    0.6990    2.1160  221.6960  216.9350  219.5121  215.9000 1397.6820 1471.0780  411.8669    2.6881    0.4670    0.4500   32.9480    2.1480    2.1400    2.1550    2.1840    2.2240 
 415.5000  307.5870    1.2740    2.8610    2.8520  264.3670    0.3310    2.1820   10.5010    0.6410    0.6640    0.8342    2.1160  223.7590  217.1960  218.8480  215.9000 1395.8900 1471.2960  421.3264    2.3933    0.4670    0.3270   32.9490    2.1940    2.1990    2.1990    2.1850    2.2090 
 415.6000  308.3520    1.2540    2.7680    2.9260  264.4400    0.3290    2.1270    9.5140    0.5140    0.6100    1.1263    2.1160  221.2020  218.5020  217.5719  215.9000 1393.5720 1465.3940  424.4977    2.1600    0.4670    0.4070   32.9510    2.1870    2.1820    2.2060    2.2210    2.2130 
 415.7000  308.2630    1.2290    2.7170    2.9970  264.5720    0.3360    2.0310    8.3740    0.4430    0.5530    1.3776    2.0520  216.3800  217.4560  217.3470  215.9000 1397.2419 1457.2500  440.5938    2.3037    0.4700    0.5490   32.9510    2.0600    2.1280    2.1830    2.2250    2.2260 
 415.8000  307.9380    1.2370    2.6670    2.9900  264.6840    0.3510    1.9160    7.4150    0.4360    0.5130    1.4077    2.1160  213.9030  215.1730  217.3757  215.9000 1402.1440 1454.5540  460.8472    2.6997    0.4860    0.5960   32.9520    2.0590    2.1280    2.1970    2.2430    2.2530 
 415.9000  307.5950    1.2490    2.6770    2.9510  264.8130    0.3510    1.8020    6.9060    0.4750    0.4910    1.2533    2.1760  213.8300  214.3860  217.3242  215.9000 1398.0040 1461.0060  481.1076    3.1576    0.5210    0.5800   32.9530    2.1940    2.2090    2.2550    2.2860    2.2730 
 416.0000  307.2360    1.2460    2.6500    2.9200  264.9450    0.3450    1.7130    7.1430    0.5130    0.4960    1.1292    2.2780  214.5490  213.8080  217.3621  215.9000 1400.2679 1469.9480  501.2176    2.6038    0.5300    0.5680   32.9540    2.3330    2.3120    2.3300    2.3130    2.2980 
 416.1000  306.3270    1.2370    2.5940    2.8690  265.0310    0.3520    1.6820    8.0730    0.5450    0.5320    1.0403    2.2720  214.8800  214.5020  217.3787  215.9000 1412.1980 1468.8220  517.8657    2.6652    0.5140    0.6230   32.9560    2.3700    2.3480    2.3290    2.3220    2.2990 
 416.2000  306.4840    1.2270    2.5390    2.8120  265.1140    0.3440    1.7500    9.0900    0.6090    0.5920    0.8946    2.2600  217.4740  216.6480  217.3125  215.9000 1411.0200 1466.2500  523.4051    2.0577    0.5110    0.4310   32.9580    2.3000    2.2920    2.2860    2.3240    2.3080 
 416.3000  306.7510    1.2500    2.4610    2.7590  265.1920    0.3260    1.9170    9.8350    0.6530    0.6540    0.8133    2.2630  219.6840  217.0510  216.7929  215.9000 1407.2939 1464.7500  528.6644    2.1358    0.5100    0.3920   32.9580    2.1800    2.2420    2.2360    2.2900    2.3190 
 416.4000  306.9080    1.2720    2.3630    2.7030  265.3240    0.3180    2.0990   10.1920    0.6530    0.7000    0.8133    2.3710  220.9500  220.1650  215.9836  215.9000 1402.6080 1464.7500  536.1319    2.3073    0.5100    0.4040   32.9580    2.2610    2.2780    2.2650    2.3120    2.3660 
 416.5000  307.1360    1.2910    2.2810    2.6380  265.4490    0.3190    2.2190   10.1950    0.6700    0.7220    0.7851    2.5350  222.8850  222.0890  214.4339  215.9000 1398.6980 1464.7500  510.0116    2.5350    0.5090    0.4450   32.9570    2.4070    2.3860    2.3600    2.3790    2.4230 
 416.6000  308.1910    1.2990    2.2340    2.5810  265.6290    0.3220    2.2900    9.9540    0.7530    0.7310    0.6683    2.7050  223.6160  218.7710  213.0677  215.9000 1395.6780 1464.9540  458.7870    2.5056    0.4980    0.4340   32.9580    2.5730    2.5410    2.5020    2.4560    2.4830 
 416.7000  308.2500    1.2630    2.2150    2.5310  265.7930    0.3290    2.3330    9.6900    0.8920    0.7300    0.5266    2.8830  220.0520  212.4290  212.4066  215.9000 1400.6360 1469.2040  416.8588    2.5562    0.4730    0.4270   32.9600    2.8100    2.7220    2.6540    2.5840    2.5700 
 416.8000  304.9500    1.1860    2.2060    2.4980  265.9600    0.3300    2.3390    9.5240    1.0160    0.7190    0.4362    3.0180  215.7130  210.0140  212.3552  215.9000 1409.5260 1474.0720  397.5046    2.5559    0.4440    0.4240   32.9610    2.9530    2.8510    2.7640    2.6840    2.6600 
 416.9000  303.1890    1.1290    2.2170    2.4640  266.0800    0.3200    2.3150    9.5010    1.0370    0.7040    0.4232    3.1610  219.3870  211.0600  212.4028  215.9000 1407.3740 1471.5520  395.2766    2.6536    0.4200    0.4150   32.9620    2.9620    2.8920    2.8020    2.7350    2.7350 
 417.0000  301.7100    1.1660    2.2390    2.4300  266.1450    0.3200    2.2940    9.6280    0.9520    0.7000    0.4796    3.2560  221.6870  215.0980  212.4080  215.9000 1404.3280 1471.1300  401.4664    2.4323    0.4060    0.3710   32.9620    3.0120    2.9100    2.8430    2.7920    2.7890 
 417.1000  301.4460    1.2040    2.2740    2.4060  266.1990    0.3170    2.2920    9.8810    0.8960    0.7070    0.5232    3.3100  222.3970  220.0940  212.4080  215.9000 1403.0980 1472.5780  393.0405    2.3179    0.4010    0.3640   32.9630    3.0590    2.9600    2.8710    2.8240    2.8120 
