~VERSION INFORMATION
 VERS.                 2.0:   CWLS LOG ASCII STANDARD - VERSION 2.0
 WRAP.                  NO:   SINGLE LINE PER DEPTH STEP
~WELL INFORMATION
#MNEM.UNIT       DATA           DESCRIPTION MNEMONIC
#---------    -------------   --------------------------
 STRT.M         0.0000                        : START DEPTH
 STOP.M         829.0000                      : STOP DEPTH
 STEP.M         0.1000                        : STEP VALUE
 NULL.          -999.0000                     : NULL VALUE
 SRVC.          SCH                           : Service Company/Logging company
 DATE.          24.09.2023                    : LAS file Creation Date
 WELL    .      Каратобе 335                  : Well Name
 STATE   .      1                             : State
 COUNT   .      KAZAKHSTAN                    : Country
~CURVE INFORMATION
#MNEM          UNIT     API CODE   Description
#---------- ---------- ----------  -----------
 DEPTH     .M                    : DEPTH
 AZIM      .deg                  : Azimuth
 DEVI      .deg                  : Deviatiom
 GZ3       .OHMM                 : APP.RESISTIVITY BY LATERAL A2.0M0.5N
 GZB       .OHMM                 : APP.RESISTIVITY BY LATERAL N0.5M2.0A
 SP        .mV                   : Spontaneous Potential
 RB        .OHMM                 : Mud Resistivity
 RHOB      .G/C3                 : BULK DENSITY BY DGGL
 GR        .uR/h                 : GAMMA RAYS
 RFTN      .CPM                  : NEUTRON-NEUTRON(T) FAR
 RNTN      .CPM                  : NEUTRON-NEUTRON(T) NEAR
 TNPH      .V/V                  : Neutron porosity
 LL3       .OHMM                 : APPAR.RESIST. LATEROLOG 3 ELECTRODES
 C1        .mm                   : CALIPER DIAMETER 1
 C2        .mm                   : CALIPER DIAMETER 2
 CALI      .mm                   : Caliper
 BSC       .mm                   : Nominal Caliper
 TP1       .MCS                  : Sonic Time 1
 TP2       .MCS                  : Sonic Time 2
 DTP       .uSec/m               : Sonic travel time
 MLL       .OHMM                 : MICROLATEROLOG
 MNOR      .OHMM                 : MICRONORMAL A0.05M
 MINV      .OHMM                 : MICROLATERAL A0.025M0.025N
 TEMP      .C                    : Formation Temperature
 IKD1F3    .OHMM                 : Induction zonde IKD1F3
 IKD2F3    .OHMM                 : Induction zonde IKD2F3
 IKD3F3    .OHMM                 : Induction zonde IKD3F3
 IKD4F3    .OHMM                 : Induction zonde IKD4F3
 IKD5F3    .OHMM                 : Induction zonde IKD5F3
~A Log data section
# ...
 820.4000   49.2450    0.4800 -999.0000 -999.0000 -999.0000 -999.0000    2.8190 -999.0000    7.3500    1.8150   -0.0666 -999.0000  208.7430  209.6170  207.3240  215.9000  705.9560  732.5900  217.1771   17.6558    0.6800    0.5780   36.5500   20.6920   21.2500   39.4880   54.8580   64.7460 
 820.5000   45.0100    0.4750 -999.0000 -999.0000 -999.0000 -999.0000    2.8550 -999.0000    7.7500    1.7990   -0.0704 -999.0000  208.0610  208.8530  207.3033  215.9000  708.3480  732.0720  215.8484   17.8830    0.6870    0.5440   36.5500   21.2610   23.4440   46.8140   59.3400   70.9950 
 820.6000   43.7690    0.3730 -999.0000 -999.0000 -999.0000 -999.0000    2.8080 -999.0000    7.9480    1.8040   -0.0721 -999.0000  208.4640  207.2470  206.4865  215.9000  707.4240  734.0700  213.6771   12.3864    0.6920    0.5740   36.5490   22.4070   23.5300   41.4110   61.1250   75.5020 
 820.7000   36.7810    0.3890 -999.0000 -999.0000 -999.0000 -999.0000    2.7850 -999.0000    7.6570    1.8140   -0.0695 -999.0000  208.1760  205.8110  205.6355  215.9000  707.2400  733.5500  202.9965   17.0369    0.6850    0.5570 -999.0000   20.1760   24.2400   45.1570   63.3350   81.4220 
 820.8000   37.2290    0.3610 -999.0000 -999.0000 -999.0000 -999.0000    2.8290 -999.0000    7.5140    1.8190   -0.0682 -999.0000  207.7580  204.0950  205.5672  215.9000  709.3040  733.0920  199.3345   17.9443    0.6680    0.5680 -999.0000   24.3800   25.3560   48.0280   65.7220   85.7260 
 820.9000   34.3280    0.7950 -999.0000 -999.0000 -999.0000 -999.0000    2.8840 -999.0000    7.7280    1.8270   -0.0702 -999.0000  207.2640  200.4660  205.5528  215.9000  708.8580  732.6880  203.5498   18.1602    0.6540    0.5510 -999.0000   31.3390   25.6490   46.2820   65.7590   95.0800 
 821.0000   24.2220    0.5060 -999.0000 -999.0000 -999.0000 -999.0000    2.8670 -999.0000    7.8250    1.8320   -0.0710 -999.0000  206.6410  195.2440  204.8454  215.9000  708.4060  733.0860  205.3947   17.2691    0.6460    0.5440 -999.0000   24.4570   25.5190   49.7850   68.7770  103.9200 
 821.1000   23.0740    0.4880 -999.0000 -999.0000 -999.0000 -999.0000    2.8340 -999.0000    7.6490    1.8180   -0.0695 -999.0000  205.9090  190.0100  204.6419  215.9000  708.2060  735.0020  205.9271   17.8059    0.6430    0.5350 -999.0000   35.0420   29.5280   63.3370   90.8110  123.5360 
 821.2000   11.7500    0.5140 -999.0000 -999.0000 -999.0000 -999.0000    2.8420 -999.0000    7.4490    1.7960   -0.0676 -999.0000  205.4930  186.2340  203.9035  215.9000  706.5560  732.5240  209.0521   16.4536    0.6420    0.5050 -999.0000   38.4190   32.9060   76.4620  119.5130  147.7340 
 821.3000    8.9100    0.5420 -999.0000 -999.0000 -999.0000 -999.0000    2.9000 -999.0000    7.3500    1.7920   -0.0666 -999.0000  205.1770  182.3590  203.6439  215.9000  706.0020  732.4520  205.3889   16.0053    0.6400    0.4970 -999.0000   26.5510   33.9580  100.2460  150.7390  168.1490 
 821.4000    6.6730    0.5860 -999.0000 -999.0000 -999.0000 -999.0000    2.9500 -999.0000    7.2010    1.8070   -0.0651 -999.0000  203.7040  177.4810  202.9427  215.9000  708.3000  732.0080  205.9225   15.8024    0.6320    0.5130 -999.0000   45.6390   39.4990  128.9990  181.2200  197.6120 
 821.5000    5.2580    0.5930 -999.0000 -999.0000 -999.0000 -999.0000    2.9440 -999.0000    6.9820    1.8140   -0.0628 -999.0000  203.5870  175.9500  202.6348  215.9000  708.7020  732.0720  216.6100   16.6128    0.6180    0.5200 -999.0000   89.8050   44.0320  154.2380  174.2880  235.4470 
 821.6000   74.0720    0.5760 -999.0000 -999.0000 -999.0000 -999.0000    2.9410 -999.0000    6.9150    1.8050   -0.0621 -999.0000  202.9880  171.7800  201.9178  215.9000  706.6020  733.5900  216.2037   15.8340    0.5980    0.5200 -999.0000   49.6460   39.1060  104.6980  135.2430  211.9600 
 821.7000  357.2630    0.5990 -999.0000 -999.0000 -999.0000 -999.0000    2.9650 -999.0000    7.0000    1.7910   -0.0630 -999.0000  192.6240  170.0450  201.2335  215.9000  705.5240  734.0200  207.0903   15.2272    0.5650    0.5080 -999.0000   78.0080   37.3510  109.5540  130.1780  195.9830 
 821.8000  358.1750    0.5650 -999.0000 -999.0000 -999.0000 -999.0000    2.8810 -999.0000    7.0150    1.7680   -0.0632 -999.0000  180.4970  165.8860  201.0895  215.9000  707.4080  735.1520  208.4606   14.3068    0.5150    0.4880 -999.0000   74.0730   38.7840  118.0390  137.2180  192.0360 
 821.9000  353.9670    0.5820 -999.0000 -999.0000 -999.0000 -999.0000    2.6900 -999.0000    6.9830    1.7490   -0.0628 -999.0000  161.0740  162.4730  201.0396  215.9000  709.7440  734.2180  213.8669   13.5779    0.4510    0.4660 -999.0000   49.7570   37.2990  113.2570  114.7770  179.5400 
 822.0000  354.4470    0.6020 -999.0000 -999.0000 -999.0000 -999.0000    2.5330 -999.0000    7.1070    1.7590   -0.0641 -999.0000  157.0230  162.2000  201.0044  215.9000  709.3700  732.0140  206.8125   11.0181    0.3840    0.4890 -999.0000   85.3200   40.1590  133.7780  159.6660  174.6340 
 822.1000  348.4490    0.6140 -999.0000 -999.0000 -999.0000 -999.0000    2.4550 -999.0000    7.2490    1.7900   -0.0656 -999.0000  156.5300  159.3470  199.0867  215.9000  708.1700  733.8200  212.4688    9.0524    0.3280    0.4430 -999.0000  104.5530   45.0920  202.0950  206.7650  180.4840 
 822.2000  344.6740    0.5370 -999.0000 -999.0000 -999.0000 -999.0000    2.4460 -999.0000    7.1130    1.8170   -0.0642 -999.0000  149.5630  144.6730  195.5035  215.9000  708.1700  733.8200  214.3333    7.6538    0.2930    0.3790 -999.0000  105.9990   40.0340  218.8280  217.0420  214.0360 
 822.3000  344.9790    0.5660 -999.0000 -999.0000 -999.0000 -999.0000    2.4770 -999.0000    6.9000    1.8210   -0.0619 -999.0000  131.8290  121.6800  191.7000  215.9000  708.1700  733.8200  206.7234    5.8034    0.2790    0.3280 -999.0000  102.5880   39.1510  185.3350  256.1750  224.7170 
 822.4000  338.2130    0.6350 -999.0000 -999.0000 -999.0000 -999.0000    2.5350 -999.0000    6.9200    1.7990   -0.0621 -999.0000  109.6200  115.7640  186.7497  215.9000  708.1700  733.8200  204.4155    4.2213    0.2750    0.2640 -999.0000   99.8260   39.0250  198.9970  243.6960   69.0930 
 822.5000  346.0950    0.5890 -999.0000 -999.0000 -999.0000 -999.0000    2.5840 -999.0000    7.0570    1.7760   -0.0636 -999.0000  110.1370  113.3400  177.1331  215.9000  708.1700  733.8200  206.9074    3.1907    0.2750    0.2030 -999.0000   96.3660   39.1200  160.7990  140.9280   69.1200 
 822.6000  339.4610    0.4890 -999.0000 -999.0000 -999.0000 -999.0000    2.5890 -999.0000    7.1590    1.7830   -0.0647 -999.0000  111.7640  113.8710  154.8126  215.9000  708.1700  733.8200  213.8472    2.8611    0.2750    0.2260 -999.0000   92.4730   39.2470   51.1670   45.6550   70.1220 
 822.7000  328.4150    0.5770 -999.0000 -999.0000 -999.0000 -999.0000    2.5640 -999.0000    7.1380    1.8000   -0.0645 -999.0000  111.8290  113.9820  103.2006  215.9000  708.1700  733.8200  213.4873    2.6552    0.2750    0.2330 -999.0000   38.7470   20.9170   27.9090   45.9340   68.8040 
 822.8000  339.7560    0.5670 -999.0000 -999.0000 -999.0000 -999.0000    2.5390 -999.0000 -999.0000    1.7880 -999.0000 -999.0000  110.8390  114.0050   87.4681  215.9000  708.1700  733.8200  214.0764    2.4699    0.2760    0.2290 -999.0000   13.0470   15.3210   27.9650   44.7890   68.7660 
 822.9000  341.4110    0.5930 -999.0000 -999.0000 -999.0000 -999.0000    2.5340 -999.0000 -999.0000    1.8000 -999.0000 -999.0000  110.7960  115.5150   80.3304  215.9000  708.1700  733.8200  206.6100    2.3369    0.2800    0.2220 -999.0000   25.0730   27.7160   28.0280   47.4360   70.1850 
 823.0000  342.7310    0.6570 -999.0000 -999.0000 -999.0000 -999.0000    2.5660 -999.0000 -999.0000 -999.0000 -999.0000 -999.0000  112.2000  117.3600   77.1323  215.9000  708.1700  733.8200  202.9792    2.2800    0.2820    0.2450 -999.0000  190.9910   81.2380  341.4880  444.7500  528.0400 
 823.1000  336.6580    0.6220 -999.0000 -999.0000 -999.0000 -999.0000    2.6320 -999.0000 -999.0000 -999.0000 -999.0000 -999.0000  122.6590  119.4620   75.1203  215.9000  708.1700  733.8200  213.1238    2.2751    0.2810    0.2330 -999.0000  180.9280   81.4950  341.6700  450.8060  484.1120 
