~VERSION INFORMATION
 VERS.                 2.0:   CWLS LOG ASCII STANDARD - VERSION 2.0
 WRAP.                  NO:   SINGLE LINE PER DEPTH STEP
~WELL INFORMATION
#MNEM.UNIT       DATA           DESCRIPTION MNEMONIC
#---------    -------------   --------------------------
 STRT.M         0.0000                        : START DEPTH
 STOP.M         829.0000                      : STOP DEPTH
 STEP.M         0.1000                        : STEP VALUE
 NULL.          -999.0000                     : NULL VALUE
 SRVC.          SCH                           : Service Company/Logging company
 DATE.          24.09.2023                    : LAS file Creation Date
 WELL    .      Каратобе 335                  : Well Name
 STATE   .      1                             : State
 COUNT   .      KAZAKHSTAN                    : Country
~CURVE INFORMATION
#MNEM          UNIT     API CODE   Description
#---------- ---------- ----------  -----------
 DEPTH     .M                    : DEPTH
 AZIM      .deg                  : Azimuth
 DEVI      .deg                  : Deviatiom
 GZ3       .OHMM                 : APP.RESISTIVITY BY LATERAL A2.0M0.5N
 GZB       .OHMM                 : APP.RESISTIVITY BY LATERAL N0.5M2.0A
 SP        .mV                   : Spontaneous Potential
 RB        .OHMM                 : Mud Resistivity
 RHOB      .G/C3                 : BULK DENSITY BY DGGL
 GR        .uR/h                 : GAMMA RAYS
 RFTN      .CPM                  : NEUTRON-NEUTRON(T) FAR
 RNTN      .CPM                  : NEUTRON-NEUTRON(T) NEAR
 TNPH      .V/V                  : Neutron porosity
 LL3       .OHMM                 : APPAR.RESIST. LATEROLOG 3 ELECTRODES
 C1        .mm                   : CALIPER DIAMETER 1
 C2        .mm                   : CALIPER DIAMETER 2
 CALI      .mm                   : Caliper
 BSC       .mm                   : Nominal Caliper
 TP1       .MCS                  : Sonic Time 1
 TP2       .MCS                  : Sonic Time 2
 DTP       .uSec/m               : Sonic travel time
 MLL       .OHMM                 : MICROLATEROLOG
 MNOR      .OHMM                 : MICRONORMAL A0.05M
 MINV      .OHMM                 : MICROLATERAL A0.025M0.025N
 TEMP      .C                    : Formation Temperature
 IKD1F3    .OHMM                 : Induction zonde IKD1F3
 IKD2F3    .OHMM                 : Induction zonde IKD2F3
 IKD3F3    .OHMM                 : Induction zonde IKD3F3
 IKD4F3    .OHMM                 : Induction zonde IKD4F3
 IKD5F3    .OHMM                 : Induction zonde IKD5F3
~A Log data section
# ...
 551.6000  354.0750    0.6180    1.3310    1.3560  268.6420    0.3440    2.2270   11.4320    1.2190    0.8050    0.3312    1.4610  211.9360  213.9760  217.5793  215.9000 1421.5020 1485.2491  368.5468    2.2360    0.6730    0.7260   34.4780    1.5950    1.5710    1.4940    1.4710    1.4650 
 551.7000  352.7280    0.6050    1.3400    1.2980  268.6080    0.3470    2.2200   10.9780    1.2050    0.8010    0.3372    1.5110  211.9200  213.9610  217.6586  215.9000 1422.0640 1485.5992  365.7775    2.4336    0.7010    0.8460   34.4770    1.6300    1.6150    1.5390    1.5140    1.4940 
 551.8000  353.6710    0.5850    1.3200    1.2370  268.5780    0.3430    2.2060   10.3830    1.1550    0.7970    0.3600    1.4800  211.9320  213.9510  217.5581  215.9000 1422.3700 1485.7900  361.9692    2.0126    0.6820    0.7150   34.4780    1.6270    1.5980    1.5470    1.5440    1.5020 
 551.9000  356.5660    0.5710    1.2760    1.1910  268.5280    0.3360    2.2060    9.7500    1.0980    0.8010    0.3886    1.4640  211.9130  213.9580  217.5118  215.9000 1422.3635 1485.8420  361.4800    1.8530    0.6510    0.6210   34.4790    1.5600    1.5550    1.5260    1.5220    1.4950 
 552.0000  356.8700    0.5620    1.2210    1.1530  268.4270    0.3400    2.2200    9.1540    1.1240    0.8150    0.3752    1.4120  211.8780  213.9600  217.5422  215.9000 1422.2300 1486.8580  367.2593    1.9655    0.6330    0.6850   34.4800    1.5080    1.5240    1.4820    1.4770    1.4720 
 552.1000  355.6410    0.5790    1.1740    1.1440  268.2800    0.3240    2.2230    8.6620    1.2540    0.8280    0.3169    1.3740  211.9180  213.9500  217.5460  215.9000 1422.1405 1484.5365  372.1100    1.5269    0.6180    0.4910   34.4800    1.5170    1.4970    1.4580    1.4450    1.4440 
 552.2000  356.2990    0.6010    1.1280    1.1580  268.1230    0.3230    2.2050    8.3820    1.4030    0.8300    0.2644    1.3060  211.9240  213.9880  217.5460  215.9000 1421.8148 1481.4438  372.5545    1.7138    0.6030    0.5160   34.4800    1.4340    1.4480    1.3990    1.3840    1.3870 
 552.3000  357.3780    0.5770    1.0670    1.2080  268.0110    0.3260    2.1700    8.5260    1.4790    0.8200    0.2420    1.2520  211.8500  213.9610  217.5766  215.9000 1421.6632 1482.1942  371.9688    1.5724    0.5930    0.5230   34.4800    1.3890    1.4120    1.3690    1.3520    1.3420 
 552.4000  170.8050    0.5560    1.0250    1.2920  267.9120    0.3290    2.1370    9.0360    1.5070    0.8140    0.2344    1.2320  211.9370  214.0110  217.5494  215.9000 1421.9274 1481.2642  369.2218    1.4080    0.5880    0.4900   34.4810    1.4070    1.4130    1.3510    1.3320    1.3090 
 552.5000   30.5610    0.5730    1.0090    1.3840  267.8600    0.3300    2.1400    9.7500    1.5470    0.8140    0.2240    1.2090  211.9270  213.9730  217.5460  215.9000 1422.1467 1478.7900  367.2010    1.4522    0.5870    0.4660   34.4820    1.3990    1.4140    1.3400    1.3000    1.2980 
 552.6000  342.6800    0.5850    1.0180    1.4610  267.8180    0.3300    2.1700   10.5060    1.5400    0.8140    0.2257    1.2040  211.9420  214.0200  217.5460  215.9000 1423.8650 1479.6750  370.3201    1.4520    0.5870    0.4720   34.4830    1.3780    1.3930    1.3240    1.2960    1.3020 
 552.7000  355.9600    0.5920    1.0520    1.5180  267.7930    0.3320    2.2070   11.1500    1.3600    0.8050    0.2783    1.1910  211.9750  214.0470  217.5460  215.9000 1424.8240 1480.6742  372.8203    1.3529    0.5870    0.4460   34.4840    1.3430    1.3550    1.3070    1.3050    1.3110 
 552.8000  355.7130    0.5770    1.1020    1.5460  267.7270    0.3450    2.2470   11.5530    1.1560    0.7940    0.3595    1.2250  212.0880  214.0290  217.5460  215.9000 1427.4695 1484.1033  366.4575    1.8469    0.5880    0.6380   34.4860    1.3070    1.3510    1.3260    1.3270    1.3390 
 552.9000  356.8500    0.5580    1.1670    1.5240  267.6160    0.3470    2.2710   11.7010    1.1220    0.7840    0.3762    1.2960  212.2120  214.0540  217.5460  215.9000 1428.8821 1485.9260  360.8592    2.1822    0.6010    0.7300   34.4870    1.4080    1.4310    1.3980    1.3940    1.3970 
 553.0000  358.0300    0.5330    1.2430    1.4740  267.4790    0.3460    2.2600   11.7970    1.1960    0.7750    0.3412    1.3850  212.2340  214.1290  217.5460  215.9000 1431.6836 1489.2264  359.1171    2.2425    0.6440    0.7310   34.4870    1.5600    1.5470    1.4970    1.4750    1.4610 
 553.1000  359.2890    0.5490    1.2820    1.4220  267.3400    0.3440    2.2300   11.9550    1.2700    0.7710    0.3106    1.4390  212.2300  214.1500  217.5460  215.9000 1433.1128 1487.5236  358.5600    2.2147    0.7120    0.7190   34.4850    1.5990    1.6080    1.5700    1.5350    1.5020 
 553.2000  219.9530    0.6000    1.2700    1.3800  267.2350    0.3420    2.2180   12.1590    1.3120    0.7800    0.2949    1.4610  212.2930  214.1300  217.5460  215.9000 1435.9275 1489.6161  357.7795    2.0955    0.7300    0.6900   34.4840    1.6090    1.6160    1.5850    1.5710    1.5230 
 553.3000   58.5720    0.6180    1.2380    1.3510  267.1380    0.3390    2.2160   12.3480    1.2920    0.7950    0.3022    1.4580  212.2100  214.0880  217.6171  215.9000 1437.1801 1494.7031  357.2572    1.9842    0.7070    0.6930   34.4840    1.6010    1.6190    1.5750    1.5710    1.5350 
 553.4000  254.7280    0.6000    1.1960    1.3420  267.0690    0.3330    2.2070   12.4170    1.1960    0.8040    0.3412    1.4500  212.2260  214.0690  217.5989  215.9000 1437.3663 1496.2500  357.3542    1.8916    0.6990    0.6590   34.4880    1.5910    1.6030    1.5440    1.5360    1.5250 
 553.5000  261.1470    0.5440    1.1510    1.3620  266.9880    0.3290    2.1980   12.2500    1.1250    0.8110    0.3747    1.4310  212.1960  213.8860  217.5996  215.9000 1441.0394 1496.4312  360.9713    1.6470    0.6980    0.5300   34.4910    1.5650    1.5570    1.5020    1.5010    1.4970 
 553.6000   66.1380    0.5490    1.1140    1.4020  266.8700    0.3310    2.1930   11.9520    1.1620    0.8150    0.3567    1.3970  212.1540  213.7900  217.5514  215.9000 1442.6560 1500.3600  354.8212    1.6379    0.6980    0.5590   34.4930    1.5030    1.5050    1.4490    1.4500    1.4590 
 553.7000  130.2770    0.5840    1.1030    1.4380  266.6710    0.3350    2.1900   11.7230    1.2610    0.8050    0.3141    1.3740  212.1760  213.7550  217.5460  215.9000 1443.7300 1508.9120  344.7668    1.7110    0.6980    0.6020   34.4910    1.4880    1.4800    1.4210    1.4290    1.4470 
 553.8000  319.1140    0.5940    1.1180    1.4710  266.3750    0.3370    2.1860   11.6520    1.3330    0.7860    0.2875    1.3740  212.1970  213.6620  217.6189  215.9000 1444.2220 1510.2111  345.3530    1.6878    0.7000    0.5500   34.4900    1.4880    1.4790    1.4190    1.4270    1.4470 
 553.9000  205.0930    0.5990    1.1470    1.4950  266.0030    0.3380    2.1840   11.7290    1.3030    0.7770    0.2982    1.3910  212.1650  213.5340  217.6252  215.9000 1445.0461 1511.0837  342.2755    1.8095    0.7060    0.6370   34.4880    1.4870    1.4970    1.4440    1.4410    1.4520 
 554.0000   13.6460    0.5730    1.1750    1.5000  265.6480    0.3400    2.1850   11.8820    1.2100    0.7780    0.3351    1.4290  212.1720  213.5040  217.5539  215.9000 1445.3090 1508.0125  333.1833    1.9789    0.7190    0.6630   34.4900    1.5380    1.5450    1.5040    1.4850    1.4840 
 554.1000  305.2780    0.5640    1.1990    1.4860  265.3460    0.3390    2.1900   11.9710    1.1320    0.7780    0.3712    1.4540  212.2020  213.3710  217.5460  215.9000 1443.8955 1502.9471  328.5215    2.0834    0.7280    0.7300   34.4910    1.5900    1.6060    1.5580    1.5320    1.5120 
 554.2000  192.9520    0.5600    1.2190    1.4750  265.0880    0.3390    2.1900   11.7850    1.0870    0.7720    0.3946    1.4910  212.2090  213.5370  217.5460  215.9000 1443.2726 1501.8658  327.9386    2.0138    0.7010    0.6700   34.4930    1.6330    1.6460    1.6080    1.5740    1.5350 
 554.3000   11.3450    0.5740    1.2150    1.4940  264.8600    0.3410    2.1770   11.3890    1.0510    0.7640    0.4149    1.5080  212.1900  213.4700  217.5460  215.9000 1442.0908 1509.1093  330.3986    2.0929    0.6640    0.6810   34.4940    1.6430    1.6650    1.6290    1.5930    1.5350 
