~VERSION INFORMATION
 VERS.                 2.0:   CWLS LOG ASCII STANDARD - VERSION 2.0
 WRAP.                  NO:   SINGLE LINE PER DEPTH STEP
~WELL INFORMATION
#MNEM.UNIT       DATA           DESCRIPTION MNEMONIC
#---------    -------------   --------------------------
 STRT.M         0.0000                        : START DEPTH
 STOP.M         829.0000                      : STOP DEPTH
 STEP.M         0.1000                        : STEP VALUE
 NULL.          -999.0000                     : NULL VALUE
 SRVC.          SCH                           : Service Company/Logging company
 DATE.          24.09.2023                    : LAS file Creation Date
 WELL    .      Каратобе 335                  : Well Name
 STATE   .      1                             : State
 COUNT   .      KAZAKHSTAN                    : Country
~CURVE INFORMATION
#MNEM          UNIT     API CODE   Description
#---------- ---------- ----------  -----------
 DEPTH     .M                    : DEPTH
 AZIM      .deg                  : Azimuth
 DEVI      .deg                  : Deviatiom
 GZ3       .OHMM                 : APP.RESISTIVITY BY LATERAL A2.0M0.5N
 GZB       .OHMM                 : APP.RESISTIVITY BY LATERAL N0.5M2.0A
 SP        .mV                   : Spontaneous Potential
 RB        .OHMM                 : Mud Resistivity
 RHOB      .G/C3                 : BULK DENSITY BY DGGL
 GR        .uR/h                 : GAMMA RAYS
 RFTN      .CPM                  : NEUTRON-NEUTRON(T) FAR
 RNTN      .CPM                  : NEUTRON-NEUTRON(T) NEAR
 TNPH      .V/V                  : Neutron porosity
 LL3       .OHMM                 : APPAR.RESIST. LATEROLOG 3 ELECTRODES
 C1        .mm                   : CALIPER DIAMETER 1
 C2        .mm                   : CALIPER DIAMETER 2
 CALI      .mm                   : Caliper
 BSC       .mm                   : Nominal Caliper
 TP1       .MCS                  : Sonic Time 1
 TP2       .MCS                  : Sonic Time 2
 DTP       .uSec/m               : Sonic travel time
 MLL       .OHMM                 : MICROLATEROLOG
 MNOR      .OHMM                 : MICRONORMAL A0.05M
 MINV      .OHMM                 : MICROLATERAL A0.025M0.025N
 TEMP      .C                    : Formation Temperature
 IKD1F3    .OHMM                 : Induction zonde IKD1F3
 IKD2F3    .OHMM                 : Induction zonde IKD2F3
 IKD3F3    .OHMM                 : Induction zonde IKD3F3
 IKD4F3    .OHMM                 : Induction zonde IKD4F3
 IKD5F3    .OHMM                 : Induction zonde IKD5F3
~A Log data section
# ...
 280.0000  275.5660    0.7470    2.6400    3.8970  264.9830    0.2770    2.1810   10.4470    1.0550    0.7020    0.4125    4.0250  254.8590  233.2140  238.9307  215.9000 1409.1980 1466.4260  341.7222    2.8249    0.5930    0.5660   31.7650    3.2900    3.0740    3.1250    3.1390    3.2060 
 280.1000  275.6850    0.7470    2.6910    3.9240  265.3110    0.2760    2.2010   10.8980    1.2000    0.7010    0.3394    4.0870  246.0480  223.7780  239.8137  215.9000 1408.5460 1468.5580  301.9190    2.5888    0.6050    0.5090   31.7660    3.2700    3.0950    3.1560    3.2190    3.2300 
 280.2000  274.7520    0.7480    2.7660    3.9150  265.6310    0.2750    2.2330   11.2450    1.2640    0.7000    0.3129    4.0440  237.9200  219.6660  236.9719  215.9000 1407.8280 1471.1660  286.0706    2.4076    0.6230    0.5340   31.7680    3.2650    3.0620    3.1680    3.2800    3.2980 
 280.3000  274.1900    0.7460    2.8410    3.8750  265.9480    0.2770    2.2430   11.2940    1.2380    0.6980    0.3233    4.0180  234.4960  217.8620  231.5135  215.9000 1411.8101 1468.6000  285.4248    2.5818    0.6390    0.4970   31.7710    3.1610    3.0310    3.1490    3.2980    3.3680 
 280.4000  274.6960    0.7460    2.8790    3.8210  266.2760    0.2770    2.2430   11.0090    1.1180    0.7010    0.3782    3.9800  231.6470  218.2240  228.6733  215.9000 1417.5560 1472.3020  296.0324    2.5495    0.6460    0.5190   31.7740    3.1710    3.0200    3.1500    3.3160    3.3910 
 280.5000  274.3640    0.7480    2.8790    3.7880  266.6020    0.2770    2.2700   10.6050    1.0170    0.7300    0.4355    4.0400  227.5500  223.0310  229.1662  215.9000 1421.6860 1476.4280  301.5162    2.6532    0.6490    0.5890   31.7740    3.1810    3.0280    3.1860    3.3530    3.3950 
 280.6000  273.6370    0.7580    2.8640    3.7680  266.9260    0.2750    2.3320   10.2810    1.0000    0.7720    0.4464    4.0150  223.2480  218.0890  228.3535  215.9000 1427.5360 1479.4080  288.1308    2.5264    0.6570    0.6560   31.7720    3.2210    3.0730    3.2290    3.3760    3.3990 
 280.7000  271.8810    0.7480    2.8550    3.7890  267.2240    0.2750    2.3740   10.1770    1.0190    0.7950    0.4343    4.1020  221.5660  219.4540  226.6205  215.9000 1429.5520 1489.5120  273.2060    2.2495    0.6770    0.6370   31.7690    3.3390    3.1260    3.2410    3.3930    3.4090 
 280.8000  272.2080    0.7360    2.8430    3.8460  267.5220    0.2760    2.3630   10.3040    1.0930    0.7920    0.3913    3.9930  225.0480  218.4940  226.3895  215.9000 1432.3600 1501.5520  270.0671    2.8823    0.7000    0.5960   31.7680    3.3010    3.1410    3.2650    3.3870    3.4210 
 280.9000  272.3480    0.7430    2.8320    3.9140  267.7770    0.2780    2.3090   10.5120    1.2020    0.7830    0.3385    3.9800  225.7810  217.3550  225.9295  215.9000 1432.3560 1502.6300  277.2083    2.5855    0.7100    0.5970   31.7690    3.2460    3.1320    3.2650    3.3870    3.4320 
 281.0000  269.9260    0.7450    2.8220    3.9670  267.9960    0.2780    2.2600   10.6050    1.2070    0.7800    0.3364    3.8800  226.3630  219.1910  225.6144  215.9000 1432.2540 1504.1300  292.5451    2.6554    0.7090    0.5540   31.7710    3.2410    3.1620    3.3430    3.4280    3.4570 
 281.1000  269.1980    0.7470    2.8170    4.0100  268.1610    0.2790    2.2350   10.5000    1.1330    0.7830    0.3707    3.8450  227.3650  220.9390  225.5445  215.9000 1432.0861 1504.0780  309.3345    2.7972    0.7090    0.5560   31.7730    3.2910    3.2540    3.4310    3.4860    3.4800 
 281.2000  269.3200    0.8060    2.8200    4.0470  268.2450    0.2790    2.2120   10.2510    1.1110    0.7970    0.3818    3.8460  226.5390  219.8000  225.5400  215.9000 1431.5179 1503.0000  308.7593    2.5743    0.7090    0.5510   31.7760    3.4220    3.3660    3.5140    3.5360    3.4990 
 281.3000  274.9060    0.8060    2.8280    4.1080  268.2650    0.2790    2.1850   10.0610    1.1910    0.8150    0.3434    3.8020  221.8550  218.6870  225.5400  215.9000 1430.7679 1501.4480  313.0104    2.4011    0.7090    0.5740   31.7790    3.4870    3.4380    3.5960    3.5570    3.5200 
 281.4000  274.1080    0.7470    2.8140    4.2040  268.2390    0.2790    2.1790   10.0740    1.2830    0.8210    0.3056    3.7270  220.8630  218.5570  225.5517  215.9000 1431.8680 1500.3220  321.6632    2.2723    0.7110    0.6190   31.7820    3.4760    3.4470    3.5620    3.5410    3.5420 
 281.5000  267.7160    0.7410    2.7840    4.3310  268.1920    0.2780    2.2140   10.2890    1.3130    0.8150    0.2945    3.6100  220.5140  216.4770  225.5413  215.9000 1434.3459 1497.8500  330.9479    2.1369    0.7190    0.6430   31.7830    3.3800    3.3860    3.5240    3.5270    3.6050 
 281.6000  268.5100    0.7610    2.7610    4.4600  268.1140    0.2750    2.2620   10.5590    1.2890    0.8050    0.3034    3.5250  219.3780  216.2620  224.9838  215.9000 1434.7500 1498.5520  341.3495    2.1319    0.7360    0.6280   31.7830    3.2570    3.3490    3.4710    3.5380    3.6650 
 281.7000  268.8560    0.7940    2.7680    4.5440  268.0150    0.2740    2.2740   10.7100    1.2010    0.7920    0.3390    3.6760  220.2800  216.5540  224.7186  215.9000 1433.2500 1502.6300  353.6563    2.6244    0.7630    0.6860   31.7830    3.4020    3.4170    3.5290    3.6370    3.7450 
 281.8000  268.9740    0.7950    2.8090    4.5540  267.9310    0.2710    2.2370   10.6600    1.1010    0.7700    0.3871    3.9200  224.8920  217.2310  224.9003  215.9000 1433.3020 1504.1300  337.9236    2.9340    0.7590    0.7010   31.7840    3.6640    3.6150    3.7380    3.7870    3.8600 
 281.9000  268.5880    0.7840    2.8730    4.5020  267.8710    0.2710    2.1940   10.4210    1.0370    0.7410    0.4232    4.2560  231.2640  217.9500  228.4969  215.9000 1434.3800 1504.1300  325.6840    3.3490    0.7210    0.6720   31.7870    4.0850    3.9370    3.9720    3.9300    3.9910 
 282.0000  269.3250    0.7490    2.9530    4.4430  267.8450    0.2680    2.1800   10.0630    0.9960    0.7200    0.4491    4.3960  235.1790  218.4830  235.1463  215.9000 1435.9280 1504.1300  323.6921    3.8024    0.6940    0.7120   31.7890    4.4440    4.1370    4.1460    4.1030    4.1510 
 282.1000  272.5140    0.7430    3.0700    4.3680  267.8440    0.2660    2.1830    9.6900    0.9970    0.7180    0.4484    4.4760  235.6420  222.5490  238.4582  215.9000 1437.1000 1504.1300  315.3912    4.5823    0.6860    0.6560   31.7920    4.0510    3.9930    4.1030    4.1710    4.2430 
 282.2000  271.1670    0.7610    3.2160    4.2840  267.8680    0.2670    2.1900    9.4150    1.0440    0.7310    0.4190    4.5910  245.9890  234.8260  242.3265  215.9000 1440.8020 1504.0260  336.0266    4.6244    0.6850    0.5300   31.7960    3.8320    3.8390    3.9890    4.1740    4.2930 
 282.3000  273.6160    0.7850    3.3900    4.1940  267.8920    0.2660    2.2040    9.3200    1.0750    0.7530    0.4012    4.8840  245.8300  235.2880  248.7063  215.9000 1444.9280 1502.1541  370.5313    4.8816    0.6850    0.5390   31.8010    4.1350    3.9570    4.0890    4.2590    4.3660 
 282.4000  279.0150    0.7620    3.5780    4.0960  267.9260    0.2680    2.2360    9.4270    1.1120    0.7830    0.3813    5.0820  240.4630  233.7300  247.9355  215.9000 1447.5520 1505.3040  382.5567    4.4950    0.6850    0.5380   31.8050    4.3900    4.2080    4.2940    4.3220    4.3690 
 282.5000  275.3800    0.7450    3.7450    3.9950  267.9650    0.2680    2.2900    9.7170    1.1980    0.8020    0.3403    4.9840  234.3180  232.4190  236.4558  215.9000 1450.4821 1518.2340  388.2315    4.9914    0.6860    0.6140   31.8080    4.6670    4.3470    4.4850    4.4020    4.3330 
 282.6000  272.2190    0.7550    3.8560    3.9070  268.0200    0.2680    2.3400   10.1100    1.2710    0.8000    0.3102    4.7000  229.8490  228.7830  228.3031  215.9000 1459.5060 1521.9540  390.1157    3.6809    0.6930    0.6340   31.8120    4.4470    4.2320    4.3660    4.3680    4.2460 
 282.7000  272.5410    0.7530    3.8960    3.8460  268.0790    0.2690    2.3430   10.4880    1.2470    0.7860    0.3197    4.2470  227.7760  221.7320  224.9621  215.9000 1470.0000 1521.8560  388.7731    3.3134    0.7000    0.6590   31.8150    3.9570    3.9300    4.1050    4.1980    4.1540 
