~VERSION INFORMATION
 VERS.                 2.0:   CWLS LOG ASCII STANDARD - VERSION 2.0
 WRAP.                  NO:   SINGLE LINE PER DEPTH STEP
~WELL INFORMATION
#MNEM.UNIT       DATA           DESCRIPTION MNEMONIC
#---------    -------------   --------------------------
 STRT.M         0.0000                        : START DEPTH
 STOP.M         829.0000                      : STOP DEPTH
 STEP.M         0.1000                        : STEP VALUE
 NULL.          -999.0000                     : NULL VALUE
 SRVC.          SCH                           : Service Company/Logging company
 DATE.          24.09.2023                    : LAS file Creation Date
 WELL    .      Каратобе 335                  : Well Name
 STATE   .      1                             : State
 COUNT   .      KAZAKHSTAN                    : Country
~CURVE INFORMATION
#MNEM          UNIT     API CODE   Description
#---------- ---------- ----------  -----------
 DEPTH     .M                    : DEPTH
 AZIM      .deg                  : Azimuth
 DEVI      .deg                  : Deviatiom
 GZ3       .OHMM                 : APP.RESISTIVITY BY LATERAL A2.0M0.5N
 GZB       .OHMM                 : APP.RESISTIVITY BY LATERAL N0.5M2.0A
 SP        .mV                   : Spontaneous Potential
 RB        .OHMM                 : Mud Resistivity
 RHOB      .G/C3                 : BULK DENSITY BY DGGL
 GR        .uR/h                 : GAMMA RAYS
 RFTN      .CPM                  : NEUTRON-NEUTRON(T) FAR
 RNTN      .CPM                  : NEUTRON-NEUTRON(T) NEAR
 TNPH      .V/V                  : Neutron porosity
 LL3       .OHMM                 : APPAR.RESIST. LATEROLOG 3 ELECTRODES
 C1        .mm                   : CALIPER DIAMETER 1
 C2        .mm                   : CALIPER DIAMETER 2
 CALI      .mm                   : Caliper
 BSC       .mm                   : Nominal Caliper
 TP1       .MCS                  : Sonic Time 1
 TP2       .MCS                  : Sonic Time 2
 DTP       .uSec/m               : Sonic travel time
 MLL       .OHMM                 : MICROLATEROLOG
 MNOR      .OHMM                 : MICRONORMAL A0.05M
 MINV      .OHMM                 : MICROLATERAL A0.025M0.025N
 TEMP      .C                    : Formation Temperature
 IKD1F3    .OHMM                 : Induction zonde IKD1F3
 IKD2F3    .OHMM                 : Induction zonde IKD2F3
 IKD3F3    .OHMM                 : Induction zonde IKD3F3
 IKD4F3    .OHMM                 : Induction zonde IKD4F3
 IKD5F3    .OHMM                 : Induction zonde IKD5F3
~A Log data section
# ...
 686.0000  324.1410    0.6610    2.3360    3.0820  264.1190    0.2520    2.3350    7.9770    1.7630    0.9640    0.1765    2.2040  212.7990  214.6180  222.4601  215.9000 1213.8800 1254.3800  257.0370    3.4239    1.3910    1.1550   35.5770    2.1450    2.1640    2.2690    2.3140    2.3070 
 686.1000  323.1820    0.6690    2.3190    3.1700  264.1340    0.2520    2.2810    8.2040    1.7670    0.9590    0.1757    2.2320  212.7540  213.8580  222.2640  215.9000 1215.3800 1257.3800  282.6736    4.1844    1.3750    1.6200   35.5740    2.1670    2.1800    2.2730    2.3100    2.3260 
 686.2000  322.3950    0.6660    2.3170    3.2740  264.1820    0.2510    2.2900    8.3260    1.8290    0.9510    0.1644    2.2500  212.5190  213.6050  221.8910  215.9000 1215.4280 1257.3800  313.0417    3.5737    1.3670    1.1120   35.5750    2.2260    2.2200    2.2930    2.3210    2.3560 
 686.3000  322.8670    0.6620    2.3130    3.3670  264.2250    0.2500    2.3220    8.3210    1.8960    0.9640    0.1530    2.2790  212.4140  213.6410  221.4659  215.9000 1216.5000 1257.3800  313.1829    3.5073    1.3600    1.0860   35.5760    2.2190    2.2260    2.3070    2.3370    2.3860 
 686.4000  322.5220    0.6620    2.3170    3.4330  264.2420    0.2490    2.3370    8.2020    2.0060    0.9800    0.1360    2.3050  211.9750  213.2320  221.1017  215.9000 1217.4880 1257.1720  306.2188    3.5504    1.3490    1.0690   35.5770    2.1980    2.2270    2.3010    2.3620    2.4310 
 686.5000  321.1770    0.6720    2.3380    3.4700  264.2260    0.2500    2.3600    8.0310    2.1870    0.9850    0.1121    2.3780  210.8600  212.7000  220.9436  215.9000 1206.7841 1252.8160  301.4630    3.7584    1.3350    1.0610   35.5810    2.2590    2.2660    2.3310    2.4130    2.4980 
 686.6000  322.0360    0.6850    2.3760    3.4590  264.1900    0.2500    2.4080    7.8960    2.3150    0.9870    0.0975    2.5020  210.3690  212.4320  220.2946  215.9000 1192.8280 1245.6460  292.6331    5.5030    1.3240    1.0870   35.5850    2.3550    2.3340    2.4050    2.4770    2.5690 
 686.7000  322.4590    0.7010    2.4300    3.3850  264.1270    0.2510    2.4460    7.7970    2.3130    0.9980    0.0977    2.6570  210.7360  212.4260  219.6570  215.9000 1193.1460 1241.8900  279.6389    4.6070    1.3120    1.1010   35.5880    2.4650    2.4200    2.5040    2.5560    2.6590 
 686.8000  322.2550    0.7090    2.4970    3.2560  264.0990    0.2520    2.4710    7.6950    2.2440    1.0150    0.1053    2.7690  211.1190  212.5020  218.7795  215.9000 1189.0861 1236.2841  270.4618    4.2182    1.2870    1.0360   35.5880    2.5740    2.5130    2.5980    2.6460    2.7600 
 686.9000  321.9900    0.7130    2.5730    3.0950  264.1120    0.2520    2.5080    7.5550    2.2120    1.0310    0.1091    2.8570  211.2050  212.6770  218.7241  215.9000 1177.4360 1223.4561  269.7789    4.2246    1.2480    1.0260   35.5840    2.6380    2.5680    2.6710    2.7390    2.8670 
 687.0000  321.6960    0.7190    2.6450    2.9290  264.1620    0.2530    2.5570    7.3870    2.1920    1.0310    0.1115    2.9260  211.4930  212.8590  218.8000  215.9000 1164.3740 1206.6920  266.0023    4.5372    1.2090    1.0600   35.5810    2.6170    2.5840    2.7140    2.8270    2.9320 
 687.1000  321.8790    0.7200    2.6830    2.7590  264.2040    0.2540    2.5600    7.2460    2.1140    1.0100    0.1212    3.0240  212.2320  213.4650  218.7621  215.9000 1162.6720 1200.9160  267.8681    9.2622    1.1830    1.3020   35.5770    2.6690    2.6390    2.7920    2.9050    2.9740 
 687.2000  322.0050    0.6560    2.6750    2.6650  264.2320    0.2540    2.4950    7.2010    2.0430    0.9820    0.1308    3.0470  211.5620  212.6670  219.5724  215.9000 1158.2120 1195.0660  275.8079    4.8669    1.1710    0.9960   35.5730    2.8210    2.7440    2.8820    2.9570    2.9940 
 687.3000  320.5210    0.6750    2.6290    2.6240  264.2320    0.2550    2.4190    7.2360    2.0350    0.9610    0.1319    2.9720  211.1890  212.3800  220.1625  215.9000 1148.9940 1188.0000  270.2789    3.8190    1.1680    0.9370   35.5680    2.8840    2.7810    2.9150    2.9640    2.9770 
 687.4000  321.0580    0.6890    2.5530    2.6230  264.2080    0.2550    2.3670    7.2770    1.9900    0.9490    0.1384    2.8130  211.2280  212.4150  219.3333  215.9000 1144.4880 1186.6040  256.7095    3.6215    1.1670    0.9260   35.5650    2.7170    2.6900    2.8330    2.9100    2.9110 
 687.5000  321.5400    0.6820    2.4620    2.6640  264.1800    0.2550    2.3420    7.2590    1.8880    0.9420    0.1543    2.6470  211.5670  212.3100  219.2350  215.9000 1144.1460 1188.8600  264.8252    3.5106    1.1670    0.8950   35.5650    2.5580    2.5660    2.7260    2.8370    2.8320 
 687.6000  321.6570    0.6620    2.3800    2.7340  264.1700    0.2540    2.3360    7.1810    1.8310    0.9270    0.1640    2.5440  211.6280  212.1290  219.2350  215.9000 1142.0800 1194.0580  273.0891    3.4986    1.1680    1.0480   35.5650    2.4790    2.4880    2.6570    2.7750    2.7610 
 687.7000  321.2060    0.6280    2.3260    2.7700  264.2130    0.2540    2.3420    7.1110    1.7870    0.9070    0.1720    2.4530  211.0800  212.1260  219.0892  215.9000 1139.9460 1198.1780  274.3889    3.4576    1.1750    1.0160   35.5640    2.4240    2.4680    2.6350    2.7190    2.7100 
 687.8000  320.1010    0.6140    2.3000    2.8480  264.2750    0.2530    2.3400    7.1350    1.7100    0.9050    0.1870    2.4140  211.1460  212.0970  219.0343  215.9000 1144.8760 1200.9020  271.2292    3.4530    1.1950    1.0240   35.5610    2.4190    2.4830    2.6490    2.6980    2.6660 
 687.9000  319.9570    0.6140    2.2890    2.9600  264.3240    0.2520    2.3490    7.3350    1.7030    0.9310    0.1884    2.3860  211.1690  212.3630  219.0444  215.9000 1152.1281 1205.6780  266.7465    3.4190    1.2290    1.0020   35.5580    2.4390    2.5190    2.7060    2.7110    2.6330 
 688.0000  320.3970    0.6480    2.2850    3.0680  264.3410    0.2520    2.3930    7.7010    1.7610    0.9520    0.1769    2.4200  211.2050  212.4190  218.9884  215.9000 1160.2220 1211.3540  283.9653    3.9035    1.2660    1.1050   35.5560    2.4760    2.5800    2.7650    2.7250    2.6290 
 688.1000  318.5560    0.6560    2.2960    3.1790  264.3230    0.2520    2.4420    8.0910    1.7470    0.9480    0.1796    2.4660  211.2840  212.6240  219.1512  215.9000 1171.4900 1215.0580  309.7269    5.3546    1.2850    1.1080   35.5600    2.5550    2.6520    2.8300    2.7560    2.6530 
 688.2000  319.0990    0.6550    2.3260    3.3140  264.2810    0.2520    2.4400    8.3560    1.6980    0.9360    0.1894    2.5280  211.3700  212.9270  218.7722  215.9000 1171.3140 1219.1300  304.5035    3.7267    1.2870    1.0340   35.5650    2.6190    2.6980    2.8860    2.7920    2.6990 
 688.3000  320.3940    0.6620    2.3750    3.4570  264.2210    0.2500    2.3870    8.3900    1.7530    0.9360    0.1784    2.6150  211.6640  213.3190  218.8279  215.9000 1167.6740 1220.4740  296.0914    3.7799    1.2870    0.9900   35.5700    2.6340    2.7240    2.9060    2.8140    2.7480 
 688.4000  320.3000    0.6710    2.4550    3.5290  264.1960    0.2490    2.3390    8.1760    1.8900    0.9560    0.1540    2.7480  211.9480  213.7020  218.8552  215.9000 1162.5540 1217.1920  291.1852    4.4784    1.2870    1.0220   35.5670    2.6890    2.7750    2.9180    2.8650    2.8410 
 688.5000  320.0160    0.6850    2.6090    3.5370  264.2180    0.2500    2.3350    7.7670    2.0260    0.9990    0.1332    2.9550  211.6870  213.8760  218.8444  215.9000 1161.3500 1211.4680  279.3426    4.2112    1.2870    1.0550   35.5630    2.8250    2.8750    2.9470    2.9410    2.9730 
 688.6000  319.2170    0.7010    2.7860    3.4570  264.2650    0.2500    2.3570    7.2400    2.1680    1.0640    0.1144    3.2380  211.4600  213.9960  218.8736  215.9000 1159.6820 1206.6920  263.9919    4.6170    1.2870    0.9820   35.5600    3.0330    2.9890    3.0650    3.0640    3.1330 
 688.7000  318.9260    0.7030    2.9770    3.3210  264.2820    0.2500    2.3840    6.7230    2.3830    1.1400    0.0904    3.5700  211.5860  213.8710  218.8194  215.9000 1159.8160 1201.1240  256.0231    3.9509    1.2910    1.2750   35.5610    3.2010    3.1100    3.2190    3.2380    3.3080 
