~VERSION INFORMATION
 VERS.                 2.0:   CWLS LOG ASCII STANDARD - VERSION 2.0
 WRAP.                  NO:   SINGLE LINE PER DEPTH STEP
~WELL INFORMATION
#MNEM.UNIT       DATA           DESCRIPTION MNEMONIC
#---------    -------------   --------------------------
 STRT.M         0.0000                        : START DEPTH
 STOP.M         829.0000                      : STOP DEPTH
 STEP.M         0.1000                        : STEP VALUE
 NULL.          -999.0000                     : NULL VALUE
 SRVC.          SCH                           : Service Company/Logging company
 DATE.          24.09.2023                    : LAS file Creation Date
 WELL    .      Каратобе 335                  : Well Name
 STATE   .      1                             : State
 COUNT   .      KAZAKHSTAN                    : Country
~CURVE INFORMATION
#MNEM          UNIT     API CODE   Description
#---------- ---------- ----------  -----------
 DEPTH     .M                    : DEPTH
 AZIM      .deg                  : Azimuth
 DEVI      .deg                  : Deviatiom
 GZ3       .OHMM                 : APP.RESISTIVITY BY LATERAL A2.0M0.5N
 GZB       .OHMM                 : APP.RESISTIVITY BY LATERAL N0.5M2.0A
 SP        .mV                   : Spontaneous Potential
 RB        .OHMM                 : Mud Resistivity
 RHOB      .G/C3                 : BULK DENSITY BY DGGL
 GR        .uR/h                 : GAMMA RAYS
 RFTN      .CPM                  : NEUTRON-NEUTRON(T) FAR
 RNTN      .CPM                  : NEUTRON-NEUTRON(T) NEAR
 TNPH      .V/V                  : Neutron porosity
 LL3       .OHMM                 : APPAR.RESIST. LATEROLOG 3 ELECTRODES
 C1        .mm                   : CALIPER DIAMETER 1
 C2        .mm                   : CALIPER DIAMETER 2
 CALI      .mm                   : Caliper
 BSC       .mm                   : Nominal Caliper
 TP1       .MCS                  : Sonic Time 1
 TP2       .MCS                  : Sonic Time 2
 DTP       .uSec/m               : Sonic travel time
 MLL       .OHMM                 : MICROLATEROLOG
 MNOR      .OHMM                 : MICRONORMAL A0.05M
 MINV      .OHMM                 : MICROLATERAL A0.025M0.025N
 TEMP      .C                    : Formation Temperature
 IKD1F3    .OHMM                 : Induction zonde IKD1F3
 IKD2F3    .OHMM                 : Induction zonde IKD2F3
 IKD3F3    .OHMM                 : Induction zonde IKD3F3
 IKD4F3    .OHMM                 : Induction zonde IKD4F3
 IKD5F3    .OHMM                 : Induction zonde IKD5F3
~A Log data section
# ...
 369.6000  282.7480    1.5250    1.5530    2.7590  271.3950    0.2660    2.2660   10.8360    1.1940    0.7210    0.3421    2.2360  217.6130  213.1910  222.3628  215.9000 1427.8240 1489.8040  338.4375    2.0082    0.6210    0.5520   32.5660    2.2370    2.1470    2.1320    2.0700    2.0180 
 369.7000  282.3520    1.5120    1.5230    2.7350  271.5160    0.2660    2.2470   10.6490    1.1980    0.7350    0.3403    2.3080  213.0370  212.0900  220.4401  215.9000 1431.7040 1497.8080  331.4421    1.6293    0.6260    0.5310   32.5670    2.1790    2.1360    2.1360    2.1410    2.1230 
 369.8000  282.4520    1.5080    1.5000    2.7250  271.6960    0.2660    2.2210   10.3830    1.2520    0.7560    0.3177    2.3060  211.8660  211.7770  218.1374  215.9000 1437.2180 1507.8800  329.6863    1.6368    0.6320    0.5230   32.5690    2.1730    2.1190    2.1310    2.1850    2.2020 
 369.9000  282.2280    1.5200    1.4870    2.7290  271.9010    0.2660    2.2010   10.1240    1.3080    0.7710    0.2964    2.3730  212.5080  211.9160  217.4118  215.9000 1439.5081 1509.1720  320.6470    1.5553    0.6090    0.5700   32.5700    2.2770    2.1660    2.1650    2.2240    2.2630 
 370.0000  281.0010    1.4980    1.4780    2.7970  272.1560    0.2660    2.1930    9.9250    1.3400    0.7820    0.2850    2.4520  212.2610  212.1840  217.2499  215.9000 1442.1160 1504.7120  313.3021    1.5005    0.5410    0.4930   32.5710    2.3630    2.2670    2.2500    2.2590    2.3150 
 370.1000  280.9800    1.4810    1.4780    2.8400  272.3830    0.2670    2.1920    9.8410    1.3680    0.8010    0.2756    2.5390  212.2290  212.5550  217.2389  215.9000 1429.7440 1495.3940  311.8275    1.6033    0.4520    0.5590   32.5710    2.5000    2.3770    2.2630    2.3040    2.3710 
 370.2000  281.1780    1.4680    1.5000    2.8530  272.5630    0.2680    2.2000    9.9040    1.3670    0.8200    0.2759    2.6410  211.9840  212.7310  217.1778  215.9000 1412.4440 1488.5980  311.1944    1.5613    0.3780    0.5110   32.5710    2.5520    2.4340    2.3710    2.3680    2.4340 
 370.3000  281.5110    1.4660    1.5460    2.8630  272.6810    0.2690    2.2180   10.0950    1.3150    0.8200    0.2938    2.6850  212.5610  213.1590  217.1674  215.9000 1411.2679 1482.3740  310.3426    1.8244    0.3400    0.5530   32.5710    2.4740    2.4400    2.4390    2.4290    2.5080 
 370.4000  280.8490    1.4540    1.5920    2.8610  272.7370    0.2700    2.2590   10.2700    1.2650    0.8040    0.3125    2.9520  213.9040  213.7000  217.0950  215.9000 1409.6300 1477.9280  314.8438    3.3297    0.3290    0.4090   32.5720    2.5260    2.5410    2.5480    2.5160    2.6130 
 370.5000  280.3500    1.4230    1.6390    2.7900  272.7910    0.2700    2.3210   10.3520    1.2670    0.7840    0.3118    3.1190  220.9080  214.2670  216.3841  215.9000 1409.6300 1479.0520  323.4282    3.5876    0.3260    0.2440   32.5730    2.7370    2.7400    2.7260    2.6350    2.7490 
 370.6000  280.4750    1.4280    1.7010    2.6780  272.8520    0.2690    2.3560   10.3010    1.2380    0.7590    0.3233    3.6120  239.8400  215.4080  221.8176  215.9000 1409.6300 1481.6300  335.6887    3.1999    0.3180    0.2670   32.5740    3.1780    2.8900    2.9000    2.8040    2.7720 
 370.7000  280.3910    1.4220    1.7300    2.6060  272.9700    0.2680    2.3410   10.1130    1.1270    0.7300    0.3737    3.8200  255.9270  216.0950  233.6890  215.9000 1409.6780 1483.0780  363.7222    2.7715    0.3050    0.3710   32.5750    3.1890    2.9690    3.0820    2.9360    2.7450 
 370.8000  280.2280    1.4110    1.7180    2.5970  273.1040    0.2680    2.3070    9.9130    1.0190    0.7100    0.4343    3.9380  244.1610  214.2780  239.2078  215.9000 1410.9020 1481.9480  373.9063    3.2620    0.2950    0.5740   32.5750    3.2570    3.1540    3.1370    2.8800    2.7080 
 370.9000  280.0240    1.4280    1.7000    2.6030  273.2580    0.2660    2.2870    9.8690    0.9840    0.7120    0.4571    3.6540  251.1660  215.3160  242.8518  215.9000 1415.7300 1479.6300  356.0475    3.0951    0.2920    0.3080   32.5760    3.5620    3.1070    2.9480    2.7630    2.6950 
 371.0000  279.6750    1.4370    1.7130    2.6060  273.3670    0.2620    2.2790    9.9700    0.9910    0.7330    0.4524    3.3390  258.9640  227.8980  246.8607  215.9000 1422.4280 1483.5120  351.7662    3.1254    0.2920    0.1760   32.5770    2.6810    2.5050    2.5930    2.5780    2.6010 
 371.1000  279.5140    1.4280    1.7490    2.6710  273.3870    0.2650    2.2680   10.1470    1.0010    0.7660    0.4458    3.2910  273.5900  227.3700  253.5103  215.9000 1426.5520 1491.0000  351.8310    3.1304    0.2920    0.2790   32.5790    2.0100    2.0980    2.2520    2.4390    2.4540 
 371.2000  279.7900    1.4670    1.7830    2.7430  273.2920    0.2690    2.2580   10.3450    1.0410    0.7870    0.4208    3.4380  260.6740  223.8910  250.8596  215.9000 1429.1300 1491.1000  363.5648    3.0157    0.2930    0.2950   32.5810    2.4100    2.2570    2.4070    2.5520    2.5260 
 371.3000  279.1720    1.4620    1.9010    2.7810  273.0930    0.2700    2.2670   10.5270    1.0750    0.7860    0.4012    3.8150  236.9280  216.6270  237.6738  215.9000 1430.6300 1493.2500  380.7002    3.3599    0.3010    0.4440   32.5830    3.2830    2.8390    2.7920    2.7130    2.6480 
 371.4000  279.2080    1.4140    2.0630    2.8130  272.8050    0.2670    2.2830   10.7570    1.0230    0.7650    0.4318    3.8570  232.3500  221.4290  229.9338  215.9000 1430.6780 1496.0460  382.2025    2.6176    0.3220    0.3610   32.5840    3.4870    3.1120    3.0690    2.8550    2.7300 
 371.5000  279.9190    1.4190    2.1850    2.8630  272.4620    0.2680    2.2940   11.0800    0.9610    0.7480    0.4731    3.9340  234.8020  226.4610  229.0907  215.9000 1431.8020 1491.7960  360.8067    2.2182    0.3550    0.2740   32.5860    3.0480    2.8240    2.9550    2.9900    2.7500 
 371.6000  279.2940    1.4250    2.2710    2.9210  272.0950    0.2700    2.3040   11.4240    0.9660    0.7490    0.4695    3.6700  227.1080  218.6250  231.0829  215.9000 1434.3800 1486.9800  362.8345    2.5264    0.3860    0.3870   32.5870    2.7950    2.6520    2.7890    2.9440    2.8340 
 371.7000  279.1140    1.4340    2.3530    2.9540  271.7160    0.2710    2.3110   11.6870    0.9740    0.7630    0.4639    3.7900  223.4760  214.5310  227.6916  215.9000 1435.9280 1490.6780  396.1632    2.3663    0.4050    0.4100   32.5860    2.9110    2.7260    2.7730    2.8920    2.9510 
 371.8000  279.8690    1.4210    2.4440    2.9750  271.3460    0.2730    2.3040   11.7920    0.9620    0.7710    0.4724    3.8030  212.7020  215.6470  221.3644  215.9000 1437.2040 1494.9020  391.6910    2.5877    0.4230    0.5420   32.5860    2.9520    2.7940    2.8110    2.8620    2.9380 
 371.9000  278.8850    1.4050    2.5130    2.9690  270.9510    0.2770    2.2900   11.6920    0.9500    0.7730    0.4810    3.8250  219.3600  215.2460  220.5818  215.9000 1443.0060 1499.8860  378.7118    2.6776    0.4540    0.4620   32.5850    2.8640    2.7580    2.8430    2.8610    2.8900 
 372.0000  278.2570    1.3970    2.5480    2.9570  270.5310    0.2760    2.2870   11.5670    0.9660    0.7840    0.4695    3.8670  222.4840  213.7640  220.5086  215.9000 1449.1520 1509.7620  379.2685    2.4314    0.4760    0.4830   32.5860    3.0050    2.7670    2.8690    2.9060    2.8930 
 372.1000  278.5400    1.4020    2.5760    2.9520  270.1120    0.2740    2.2990   11.5190    1.0290    0.8030    0.4281    3.7280  221.5430  217.1550  220.3229  215.9000 1452.4280 1517.2500  387.8032    2.5530    0.4720    0.5250   32.5870    2.9880    2.7670    2.8010    2.8870    2.9280 
 372.2000  278.5080    1.4060    2.5770    2.9320  269.7210    0.2760    2.3140   11.5390    1.1040    0.8120    0.3855    3.7490  217.1150  219.1620  219.8773  215.9000 1458.0000 1517.2500  394.3264    2.8048    0.4650    0.4130   32.5880    2.8750    2.7280    2.7910    2.8610    2.9220 
 372.3000  277.9190    1.4090    2.5740    2.9000  269.3850    0.2760    2.3250   11.5350    1.1300    0.7840    0.3722    3.7300  220.4870  218.2460  220.3367  215.9000 1459.5000 1517.3020  388.8600    3.0226    0.4630    0.3880   32.5900    2.9190    2.7260    2.8040    2.8790    2.9050 
