~VERSION INFORMATION
 VERS.                 2.0:   CWLS LOG ASCII STANDARD - VERSION 2.0
 WRAP.                  NO:   SINGLE LINE PER DEPTH STEP
~WELL INFORMATION
#MNEM.UNIT       DATA           DESCRIPTION MNEMONIC
#---------    -------------   --------------------------
 STRT.M         0.0000                        : START DEPTH
 STOP.M         829.0000                      : STOP DEPTH
 STEP.M         0.1000                        : STEP VALUE
 NULL.          -999.0000                     : NULL VALUE
 SRVC.          SCH                           : Service Company/Logging company
 DATE.          24.09.2023                    : LAS file Creation Date
 WELL    .      Каратобе 335                  : Well Name
 STATE   .      1                             : State
 COUNT   .      KAZAKHSTAN                    : Country
~CURVE INFORMATION
#MNEM          UNIT     API CODE   Description
#---------- ---------- ----------  -----------
 DEPTH     .M                    : DEPTH
 AZIM      .deg                  : Azimuth
 DEVI      .deg                  : Deviatiom
 GZ3       .OHMM                 : APP.RESISTIVITY BY LATERAL A2.0M0.5N
 GZB       .OHMM                 : APP.RESISTIVITY BY LATERAL N0.5M2.0A
 SP        .mV                   : Spontaneous Potential
 RB        .OHMM                 : Mud Resistivity
 RHOB      .G/C3                 : BULK DENSITY BY DGGL
 GR        .uR/h                 : GAMMA RAYS
 RFTN      .CPM                  : NEUTRON-NEUTRON(T) FAR
 RNTN      .CPM                  : NEUTRON-NEUTRON(T) NEAR
 TNPH      .V/V                  : Neutron porosity
 LL3       .OHMM                 : APPAR.RESIST. LATEROLOG 3 ELECTRODES
 C1        .mm                   : CALIPER DIAMETER 1
 C2        .mm                   : CALIPER DIAMETER 2
 CALI      .mm                   : Caliper
 BSC       .mm                   : Nominal Caliper
 TP1       .MCS                  : Sonic Time 1
 TP2       .MCS                  : Sonic Time 2
 DTP       .uSec/m               : Sonic travel time
 MLL       .OHMM                 : MICROLATEROLOG
 MNOR      .OHMM                 : MICRONORMAL A0.05M
 MINV      .OHMM                 : MICROLATERAL A0.025M0.025N
 TEMP      .C                    : Formation Temperature
 IKD1F3    .OHMM                 : Induction zonde IKD1F3
 IKD2F3    .OHMM                 : Induction zonde IKD2F3
 IKD3F3    .OHMM                 : Induction zonde IKD3F3
 IKD4F3    .OHMM                 : Induction zonde IKD4F3
 IKD5F3    .OHMM                 : Induction zonde IKD5F3
~A Log data section
# ...
 641.2000  342.7550    0.6790    5.2200    4.8730  264.3980    0.2930    2.2340    6.7310    1.3790    0.9080    0.2720    5.9320  211.7050  213.8040  218.7358  215.9000 1348.3521 1409.5780  319.8877    7.5120    1.0200    1.1490   35.2740    5.2260    5.0900    5.2570    4.9270    4.7210 
 641.3000  343.4410    0.6910    5.4800    4.5890  264.3740    0.2890    2.2180    6.6920    1.4080    0.9120    0.2628    6.2060  211.9320  213.9220  218.7280  215.9000 1351.5420 1408.4480  328.1123    5.0866    0.9610    0.9070   35.2760    6.1390    5.6400    5.7110    5.2180    4.8540 
 641.4000  344.1550    0.7250    5.6840    4.3240  264.3370    0.2890    2.1940    6.7610    1.4170    0.9100    0.2601    6.0800  212.1010  214.1880  218.8612  215.9000 1348.9139 1405.8220  336.4259    4.7310    0.9290    0.8710   35.2780    6.0020    5.7490    5.8450    5.2570    4.8630 
 641.5000  344.9440    0.7110    5.8010    4.0620  264.2990    0.2900    2.1920    6.9920    1.4460    0.9020    0.2514    5.6830  212.4600  214.5230  219.2315  215.9000 1345.1440 1403.0980  343.3461    4.6745    0.9200    0.9030   35.2790    5.5390    5.4780    5.6410    5.0850    4.7860 
 641.6000  345.7580    0.6930    5.8210    3.8110  264.2750    0.2860    2.2060    7.4030    1.4350    0.8870    0.2547    5.2650  212.8870  214.6240  219.3097  215.9000 1342.7260 1398.3740  346.4907    4.0824    0.9180    0.6890   35.2790    5.2890    5.1020    5.2740    4.8210    4.6380 
 641.7000  347.2540    0.6690    5.6820    3.5840  264.2720    0.2890    2.2060    7.9720    1.3020    0.8620    0.2985    4.6800  213.3780  214.9510  219.6209  215.9000 1339.1400 1393.8280  349.4109    3.6255    0.9180    0.7440   35.2790    4.7110    4.6540    4.8220    4.4890    4.4460 
 641.8000  349.7280    0.6570    5.4440    3.3740  264.2800    0.2880    2.2000    8.5770    1.0950    0.8390    0.3902    4.3180  213.3640  214.6760  219.7063  215.9000 1334.5820 1392.4940  351.1389    3.8034    0.9200    1.0120   35.2780    4.2570    4.2680    4.4160    4.2520    4.2390 
 641.9000  350.5340    0.6550    5.2170    3.2010  264.2710    0.2860    2.2180    9.1250    0.9510    0.8330    0.4803    3.9350  213.6990  214.6680  219.8920  215.9000 1327.8719 1385.4620  352.6481    3.8280    0.9360    0.9060   35.2790    4.0490    4.0290    4.1780    4.1000    4.0440 
 642.0000  349.9890    0.6810    5.0230    3.0600  264.2530    0.2860    2.2400    9.5230    0.9900    0.8380    0.4530    3.7530  213.9160  215.0230  220.0722  215.9000 1320.1400 1374.5920  350.8090    5.1073    0.9840    1.1020   35.2800    3.8530    3.8890    4.0340    3.9610    3.8620 
 642.1000  348.0300    0.7070    4.8580    2.9440  264.2170    0.2840    2.2390    9.7110    1.1810    0.8440    0.3479    3.5170  213.7920  215.1160  220.8397  215.9000 1308.9700 1366.8220  346.9444    4.3264    1.0640    1.0290   35.2820    3.7360    3.7700    3.9220    3.8320    3.7130 
 642.2000  347.8700    0.7300    4.7160    2.8410  264.1660    0.2860    2.2330    9.7200    1.3480    0.8470    0.2823    3.3490  213.7990  214.8350  220.9185  215.9000 1300.5940 1361.0980  346.1042    3.7666    1.1380    0.8970   35.2810    3.4980    3.5620    3.7240    3.6810    3.5710 
 642.3000  348.6780    0.6870    4.5830    2.7350  264.1110    0.2890    2.2420    9.6570    1.3780    0.8470    0.2723    3.0950  214.1310  214.6750  220.8208  215.9000 1288.7620 1356.1660  350.3831    3.4977    1.1690    0.9520   35.2800    3.1600    3.2700    3.5120    3.5100    3.4480 
 642.4000  348.2860    0.6430    4.4500    2.6390  264.0610    0.2900    2.2760    9.6300    1.3200    0.8450    0.2920    2.9450  213.6280  214.3780  220.8316  215.9000 1285.2700 1347.3680  357.6377    3.3263    1.1540    0.9650   35.2790    2.9240    3.0240    3.3010    3.3790    3.3220 
 642.5000  347.8550    0.6580    4.3480    2.5550  264.0220    0.2900    2.3290    9.6890    1.2700    0.8410    0.3106    2.8210  212.6180  213.7660  220.5577  215.9000 1280.4100 1341.0200  359.2569    3.3798    1.1130    0.9080   35.2800    2.7870    2.8860    3.1640    3.2630    3.2170 
 642.6000  348.0760    0.6930    4.2720    2.4900  263.9720    0.2880    2.3800    9.8040    1.2770    0.8340    0.3079    2.7460  212.2720  213.9980  219.5073  215.9000 1280.3300 1333.3840  358.3542    3.3752    1.0690    0.9420   35.2810    2.7460    2.8290    3.0660    3.1510    3.1310 
 642.7000  347.3250    0.7860    4.1970    2.4600  263.9140    0.2860    2.3800    9.9140    1.3000    0.8180    0.2993    2.6660  212.1640  214.1170  219.2509  215.9000 1278.0660 1320.6400  351.0532    3.0780    1.0390    0.9820   35.2830    2.7330    2.7620    2.9520    3.0540    3.0360 
 642.8000  343.9220    0.7850    4.0960    2.4550  263.8400    0.2860    2.3340    9.9510    1.2930    0.8010    0.3019    2.5490  212.5270  214.2350  219.2350  215.9000 1262.6700 1315.3900  336.2118    2.8614    1.0270    0.9120   35.2840    2.5780    2.6210    2.7920    2.9360    2.9330 
 642.9000  344.4790    0.7330    3.9750    2.4640  263.7570    0.2880    2.2920    9.8990    1.3020    0.7980    0.2985    2.4670  213.1490  214.3410  219.5860  215.9000 1244.4000 1310.2440  332.0417    2.8030    1.0250    0.8360   35.2830    2.4040    2.4920    2.6620    2.8130    2.8270 
 643.0000  347.0650    0.7210    3.8680    2.4830  263.6640    0.2860    2.2960    9.8500    1.3720    0.8080    0.2743    2.3860  213.5480  214.2230  220.1857  215.9000 1244.0280 1306.8380  335.0567    2.6928    1.0250    0.7830   35.2830    2.3850    2.4370    2.5870    2.7250    2.7550 
 643.1000  347.7000    0.7220    3.8130    2.5230  263.5650    0.2850    2.3330    9.9670    1.4320    0.8150    0.2555    2.3510  213.6180  214.0730  220.2777  215.9000 1236.2100 1298.1281  329.3970    2.6987    1.0250    0.8160   35.2840    2.3600    2.4010    2.5340    2.6420    2.6850 
 643.2000  347.5480    0.7310    3.7980    2.5670  263.4880    0.2830    2.3650   10.2800    1.4370    0.8250    0.2541    2.3200  212.1670  214.3520  220.2648  215.9000 1225.1680 1283.9420  324.4039    3.0056    1.0250    0.8720   35.2850    2.2870    2.3400    2.4790    2.5800    2.6300 
 643.3000  346.8410    0.7140    3.7590    2.6050  263.4300    0.2830    2.4010   10.6800    1.4500    0.8420    0.2502    2.2880  211.6670  214.3360  220.1532  215.9000 1221.9880 1280.0260  332.8009    2.9910    1.0280    0.8300   35.2860    2.2510    2.2910    2.4240    2.5380    2.5920 
 643.4000  348.1410    0.6880    3.7520    2.6390  263.3770    0.2840    2.4480   11.0710    1.4900    0.8520    0.2390    2.2760  211.6240  214.2560  220.0852  215.9000 1217.5880 1281.5400  334.9896    2.9726    1.0370    0.8720   35.2880    2.2420    2.2640    2.3750    2.5070    2.5710 
 643.5000  350.1110    0.7190    3.7130    2.6800  263.3200    0.2840    2.4700   11.3490    1.4850    0.8500    0.2403    2.2660  211.3210  213.9260  220.0898  215.9000 1218.1780 1281.5100  325.6030    2.8232    1.0520    0.8390   35.2870    2.2170    2.2460    2.3530    2.4910    2.5620 
 643.6000  347.4780    0.7160    3.6530    2.7160  263.2610    0.2840    2.4390   11.4270    1.4450    0.8540    0.2517    2.3100  211.1810  213.7130  220.0829  215.9000 1219.0560 1275.3140  332.4005    3.2976    1.0680    0.9550   35.2870    2.2340    2.2560    2.3480    2.4850    2.5540 
 643.7000  347.4910    0.7110    3.5890    2.7440  263.1930    0.2830    2.3890   11.2740    1.4510    0.8800    0.2500    2.3340  211.7050  213.7270  218.9354  215.9000 1220.1840 1277.4700  343.3519    2.8074    1.0830    0.9000   35.2870    2.3030    2.2850    2.3780    2.4870    2.5720 
 643.8000  347.6520    0.7100    3.5240    2.7670  263.1250    0.2810    2.3790   10.9100    1.5170    0.9040    0.2317    2.3930  212.7260  213.7660  218.8116  215.9000 1221.6300 1280.3900  365.8762    2.9545    1.1000    0.9100   35.2880    2.3330    2.3110    2.4040    2.4840    2.5990 
 643.9000  347.4180    0.7110    3.4520    2.7720  263.0640    0.2800    2.4110   10.4920    1.5920    0.9010    0.2129    2.4170  213.4710  213.7990  219.4222  215.9000 1219.1021 1278.7100  357.1944    3.1895    1.1220    0.9130   35.2880    2.3480    2.3340    2.4160    2.4990    2.6120 
