~VERSION INFORMATION
 VERS.                 2.0:   CWLS LOG ASCII STANDARD - VERSION 2.0
 WRAP.                  NO:   SINGLE LINE PER DEPTH STEP
~WELL INFORMATION
#MNEM.UNIT       DATA           DESCRIPTION MNEMONIC
#---------    -------------   --------------------------
 STRT.M         0.0000                        : START DEPTH
 STOP.M         829.0000                      : STOP DEPTH
 STEP.M         0.1000                        : STEP VALUE
 NULL.          -999.0000                     : NULL VALUE
 SRVC.          SCH                           : Service Company/Logging company
 DATE.          24.09.2023                    : LAS file Creation Date
 WELL    .      Каратобе 335                  : Well Name
 STATE   .      1                             : State
 COUNT   .      KAZAKHSTAN                    : Country
~CURVE INFORMATION
#MNEM          UNIT     API CODE   Description
#---------- ---------- ----------  -----------
 DEPTH     .M                    : DEPTH
 AZIM      .deg                  : Azimuth
 DEVI      .deg                  : Deviatiom
 GZ3       .OHMM                 : APP.RESISTIVITY BY LATERAL A2.0M0.5N
 GZB       .OHMM                 : APP.RESISTIVITY BY LATERAL N0.5M2.0A
 SP        .mV                   : Spontaneous Potential
 RB        .OHMM                 : Mud Resistivity
 RHOB      .G/C3                 : BULK DENSITY BY DGGL
 GR        .uR/h                 : GAMMA RAYS
 RFTN      .CPM                  : NEUTRON-NEUTRON(T) FAR
 RNTN      .CPM                  : NEUTRON-NEUTRON(T) NEAR
 TNPH      .V/V                  : Neutron porosity
 LL3       .OHMM                 : APPAR.RESIST. LATEROLOG 3 ELECTRODES
 C1        .mm                   : CALIPER DIAMETER 1
 C2        .mm                   : CALIPER DIAMETER 2
 CALI      .mm                   : Caliper
 BSC       .mm                   : Nominal Caliper
 TP1       .MCS                  : Sonic Time 1
 TP2       .MCS                  : Sonic Time 2
 DTP       .uSec/m               : Sonic travel time
 MLL       .OHMM                 : MICROLATEROLOG
 MNOR      .OHMM                 : MICRONORMAL A0.05M
 MINV      .OHMM                 : MICROLATERAL A0.025M0.025N
 TEMP      .C                    : Formation Temperature
 IKD1F3    .OHMM                 : Induction zonde IKD1F3
 IKD2F3    .OHMM                 : Induction zonde IKD2F3
 IKD3F3    .OHMM                 : Induction zonde IKD3F3
 IKD4F3    .OHMM                 : Induction zonde IKD4F3
 IKD5F3    .OHMM                 : Induction zonde IKD5F3
~A Log data section
# ...
 596.4000  350.2000    0.7410    1.9760    1.4660  263.6660    0.3050    2.3650   11.7640    1.4500    0.8090    0.2502    2.1230  211.9230  214.7860  219.9283  215.9000 1293.6746 1350.4200  339.7865    2.8309    0.9830    0.7640   35.0640    2.0910    2.0530    2.0270    2.0050    1.9970 
 596.5000  351.8020    0.6860    1.9790    1.4210  263.6710    0.3030    2.3660   11.4890    1.3320    0.8000    0.2878    2.0680  212.1070  214.6900  218.8465  215.9000 1293.4528 1350.1316  339.5286    2.8167    0.9740    0.7740   35.0640    2.0740    2.0490    2.0160    1.9970    1.9810 
 596.6000  353.1520    0.7020    1.9830    1.3710  263.6770    0.3010    2.3680   11.1090    1.2620    0.8000    0.3137    2.0580  212.0500  214.7020  218.6524  215.9000 1292.2596 1349.4772  341.1086    2.6624    0.9550    0.7870   35.0640    2.0730    2.0360    2.0090    1.9910    1.9590 
 596.7000  352.2870    0.7130    1.9800    1.3300  263.6900    0.3040    2.3760   10.8150    1.3150    0.8140    0.2938    2.0310  211.9110  214.4870  218.7196  215.9000 1292.0948 1349.3925  341.4081    2.5773    0.9370    0.8300   35.0640    2.0600    2.0320    1.9990    1.9780    1.9350 
 596.8000  351.2860    0.7160    1.9730    1.3010  263.7100    0.3040    2.3920   10.7230    1.3730    0.8250    0.2740    2.0200  211.8090  214.5880  218.6929  215.9000 1289.7957 1348.3148  335.7345    2.7343    0.9270    0.8170   35.0640    2.0710    2.0360    1.9890    1.9670    1.9190 
 596.9000  350.0520    0.6980    1.9640    1.2800  263.7320    0.3060    2.4110   10.7530    1.3000    0.8260    0.2993    1.9880  211.7910  214.3910  219.1804  215.9000 1289.5157 1348.0374  333.9040    2.8014    0.9250    0.7900   35.0640    2.0440    2.0060    1.9670    1.9510    1.9060 
 597.0000  353.0960    0.6820    1.9500    1.2590  263.7560    0.3140    2.4080   10.7160    1.1900    0.8230    0.3438    1.9650  211.8490  214.2790  219.2350  215.9000 1285.8046 1343.4517  339.5742    2.5051    0.9250    0.6630   35.0640    1.9620    1.9450    1.9330    1.9360    1.8910 
 597.1000  355.2850    0.6790    1.9350    1.2410  263.7690    0.3200    2.3690   10.5530    1.2010    0.8260    0.3390    1.9700  212.0870  214.2060  219.2350  215.9000 1285.5736 1343.1936  341.6260    2.3892    0.9250    0.7800   35.0640    1.9180    1.9240    1.9200    1.9330    1.8840 
 597.2000  353.5150    0.6870    1.9230    1.2210  263.8000    0.3220    2.3090   10.3910    1.3130    0.8390    0.2945    2.0030  212.4390  214.0250  219.2350  215.9000 1283.1696 1340.8188  341.5933    2.5504    0.9270    0.8720   35.0630    1.9720    1.9670    1.9610    1.9540    1.8980 
 597.3000  352.3130    0.7000    1.9270    1.2080  263.8420    0.3200    2.2670   10.2900    1.3770    0.8530    0.2727    2.0520  212.6310  213.8210  219.1639  215.9000 1283.2375 1340.9268  339.8277    2.7758    0.9400    0.8560   35.0640    2.0500    2.0310    2.0190    1.9820    1.9080 
 597.4000  351.4340    0.7010    1.9290    1.2020  263.9000    0.3180    2.2520   10.2490    1.3450    0.8580    0.2833    2.0840  212.6840  213.8760  219.2271  215.9000 1285.5724 1343.9386  339.2019    2.6884    0.9720    0.8860   35.0660    2.0800    2.0680    2.0550    1.9970    1.9020 
 597.5000  352.7250    0.7000    1.9240    1.2020  263.9750    0.3170    2.2660   10.2170    1.3420    0.8540    0.2844    2.0990  212.2960  213.7890  219.2350  215.9000 1285.6200 1344.0000  338.9686    2.5420    1.0070    0.8820   35.0680    2.0950    2.0810    2.0590    1.9920    1.8910 
 597.6000  353.7980    0.7060    1.9200    1.2080  264.0570    0.3140    2.3070   10.1430    1.4250    0.8500    0.2576    2.0950  211.8860  213.9530  219.2854  215.9000 1285.6696 1344.1089  338.8896    2.4786    1.0140    0.8610   35.0700    2.0930    2.0700    2.0310    1.9550    1.8740 
 597.7000  349.5560    0.7100    1.9170    1.2110  264.1320    0.3130    2.3410   10.0710    1.4830    0.8460    0.2409    2.0910  211.8650  214.0950  219.1875  215.9000 1286.6996 1346.1296  338.8431    2.2287    1.0040    0.7650   35.0700    2.0540    2.0280    1.9780    1.9040    1.8460 
 597.8000  350.2560    0.7150    1.9120    1.2000  264.2030    0.3070    2.3520   10.1270    1.4250    0.8350    0.2576    2.1040  211.7750  213.9950  219.5882  215.9000 1286.8783 1346.2589  338.5447    2.6045    0.9970    0.8800   35.0700    2.0090    1.9860    1.9270    1.8520    1.8260 
 597.9000  351.0800    0.7170    1.9110    1.1860  264.3150    0.3050    2.3540   10.3060    1.3520    0.8220    0.2809    2.1130  211.4970  213.7910  219.9589  215.9000 1290.2000 1348.4600  332.9051    2.5834    0.9950    0.8130   35.0700    2.0150    1.9660    1.9030    1.8280    1.8170 
 598.0000  351.8060    0.7150    1.9340    1.1590  264.4540    0.3020    2.3770   10.5180    1.3850    0.8160    0.2701    2.1460  211.3150  213.8300  219.4631  215.9000 1290.4200 1348.6801  331.1400    2.1294    0.9950    0.8140   35.0700    2.0210    1.9620    1.8860    1.8290    1.8240 
 598.1000  352.5200    0.7030    1.9580    1.1240  264.6030    0.3000    2.4090   10.6150    1.4150    0.8180    0.2607    2.1990  211.6260  214.2780  218.7956  215.9000 1294.5300 1352.8500  332.7894    2.9005    0.9950    0.7390   35.0700    2.0400    1.9790    1.9020    1.8450    1.8350 
 598.2000  353.2060    0.6900    1.9880    1.0840  264.7580    0.3020    2.4290   10.4440    1.3510    0.8240    0.2813    2.2870  211.5640  214.0540  218.7280  215.9000 1294.8400 1353.1000  333.5185    3.2857    0.9960    0.9540   35.0690    2.1150    2.0320    1.9450    1.8830    1.8550 
 598.3000  353.3650    0.6760    2.0140    1.0430  264.9160    0.3010    2.4300   10.0210    1.2890    0.8250    0.3034    2.3610  211.4980  214.0380  218.7280  215.9000 1301.0121 1357.9213  337.2505    3.0052    1.0010    0.9490   35.0670    2.2380    2.1020    1.9830    1.9180    1.8800 
 598.4000  353.0100    0.6740    2.0320    1.0030  265.0780    0.3040    2.4110    9.6020    1.2560    0.8250    0.3161    2.3880  211.2480  213.9810  218.7325  215.9000 1301.2611 1358.0770  338.3010    2.7331    0.9860    0.9160   35.0650    2.2630    2.1270    2.0020    1.9300    1.8910 
 598.5000  354.9800    0.6670    2.0390    0.9510  265.2110    0.3040    2.3760    9.4200    1.2480    0.8230    0.3193    2.3110  211.2200  213.9970  218.7906  215.9000 1305.3337 1360.7545  335.6625    2.4355    0.9410    0.8420   35.0630    2.2140    2.0830    1.9700    1.9200    1.8720 
 598.6000  357.3540    0.6520    2.0320    0.9220  265.3630    0.3020    2.3400    9.4560    1.3210    0.8220    0.2917    2.2250  211.3350  214.0210  218.7349  215.9000 1305.8575 1361.3781  334.8051    2.5156    0.8800    0.7590   35.0650    2.1280    1.9880    1.9130    1.8790    1.8290 
 598.7000  359.0630    0.5850    2.0030    0.8870  265.5150    0.3010    2.3200    9.6510    1.4410    0.8220    0.2529    2.0690  211.4290  214.0170  218.7280  215.9000 1313.0977 1370.1068  334.8985    3.0636    0.8120    0.8120   35.0670    1.9820    1.9010    1.8300    1.7990    1.7700 
 598.8000  217.1710    0.4990    1.9800    0.8440  265.6600    0.2990    2.2990    9.9450    1.4990    0.8200    0.2365    1.9240  211.4800  213.9810  219.0178  215.9000 1313.6185 1370.5741  335.0702    2.8952    0.7460    0.8520   35.0690    1.9100    1.8330    1.7460    1.7150    1.6850 
 598.9000   23.3330    0.5560    1.9550    0.8050  265.8080    0.2960    2.2560   10.3000    1.4680    0.8230    0.2451    1.7360  211.4920  213.6080  219.2165  215.9000 1320.8362 1377.0956  337.0919    2.3744    0.6910    0.7130   35.0700    1.8140    1.7310    1.6510    1.6270    1.5860 
 599.0000  208.5390    0.6050    1.8870    0.7740  265.9500    0.3000    2.2020   10.7120    1.3880    0.8370    0.2691    1.5860  211.5130  213.5140  219.2350  215.9000 1321.6759 1377.8990  337.7476    1.7229    0.6540    0.6160   35.0700    1.6170    1.6080    1.5480    1.5150    1.4750 
 599.1000  358.4330    0.6200    1.7840    0.7490  266.0920    0.2900    2.1860   11.1500    1.3070    0.8480    0.2967    1.4330  211.3000  213.4350  219.2350  215.9000 1331.9080 1387.5889  337.9817    1.9662    0.6300    0.6940   35.0710    1.5360    1.5280    1.4640    1.4220    1.3860 
