~VERSION INFORMATION
 VERS.                 2.0:   CWLS LOG ASCII STANDARD - VERSION 2.0
 WRAP.                  NO:   SINGLE LINE PER DEPTH STEP
~WELL INFORMATION
#MNEM.UNIT       DATA           DESCRIPTION MNEMONIC
#---------    -------------   --------------------------
 STRT.M         0.0000                        : START DEPTH
 STOP.M         829.0000                      : STOP DEPTH
 STEP.M         0.1000                        : STEP VALUE
 NULL.          -999.0000                     : NULL VALUE
 SRVC.          SCH                           : Service Company/Logging company
 DATE.          24.09.2023                    : LAS file Creation Date
 WELL    .      Каратобе 335                  : Well Name
 STATE   .      1                             : State
 COUNT   .      KAZAKHSTAN                    : Country
~CURVE INFORMATION
#MNEM          UNIT     API CODE   Description
#---------- ---------- ----------  -----------
 DEPTH     .M                    : DEPTH
 AZIM      .deg                  : Azimuth
 DEVI      .deg                  : Deviatiom
 GZ3       .OHMM                 : APP.RESISTIVITY BY LATERAL A2.0M0.5N
 GZB       .OHMM                 : APP.RESISTIVITY BY LATERAL N0.5M2.0A
 SP        .mV                   : Spontaneous Potential
 RB        .OHMM                 : Mud Resistivity
 RHOB      .G/C3                 : BULK DENSITY BY DGGL
 GR        .uR/h                 : GAMMA RAYS
 RFTN      .CPM                  : NEUTRON-NEUTRON(T) FAR
 RNTN      .CPM                  : NEUTRON-NEUTRON(T) NEAR
 TNPH      .V/V                  : Neutron porosity
 LL3       .OHMM                 : APPAR.RESIST. LATEROLOG 3 ELECTRODES
 C1        .mm                   : CALIPER DIAMETER 1
 C2        .mm                   : CALIPER DIAMETER 2
 CALI      .mm                   : Caliper
 BSC       .mm                   : Nominal Caliper
 TP1       .MCS                  : Sonic Time 1
 TP2       .MCS                  : Sonic Time 2
 DTP       .uSec/m               : Sonic travel time
 MLL       .OHMM                 : MICROLATEROLOG
 MNOR      .OHMM                 : MICRONORMAL A0.05M
 MINV      .OHMM                 : MICROLATERAL A0.025M0.025N
 TEMP      .C                    : Formation Temperature
 IKD1F3    .OHMM                 : Induction zonde IKD1F3
 IKD2F3    .OHMM                 : Induction zonde IKD2F3
 IKD3F3    .OHMM                 : Induction zonde IKD3F3
 IKD4F3    .OHMM                 : Induction zonde IKD4F3
 IKD5F3    .OHMM                 : Induction zonde IKD5F3
~A Log data section
# ...
 190.4000  333.0560    0.5710    1.6580    2.4210  266.4740    0.2740    2.1570    8.5050    1.2090    0.7970    0.3355    1.7560  212.9510  213.8030  220.7030  215.9000 1404.0000 1473.7260  402.9757    1.3102    0.4870    0.3750   30.6690    2.3360    2.6980    2.8690    2.9630    2.9720 
 190.5000  332.2480    0.5570    1.5940    2.4780  266.7870    0.2740    2.1290    8.6850    1.1250    0.8060    0.3747    1.6800  212.9750  213.7710  220.6661  215.9000 1407.0520 1474.8101  419.7512    1.3196    0.4870    0.3870   30.6710    2.2780    2.6420    2.8030    2.9090    2.8780 
 190.6000  332.3620    0.5610    1.5780    2.6890  267.0990    0.2740    2.1500    8.6440    1.0950    0.8040    0.3902    1.6440  213.0190  213.7810  220.6989  215.9000 1408.1780 1476.7440  426.9190    1.3258    0.4880    0.3950   30.6730    2.2960    2.6100    2.7760    2.8560    2.8130 
 190.7000  332.9980    0.5720    1.6090    3.0400  267.4130    0.2730    2.1570    8.4090    1.1330    0.8130    0.3707    1.5860  213.1290  213.8520  220.7030  215.9000 1410.8500 1480.5520  415.6076    1.3256    0.4900    0.4030   30.6740    2.2670    2.5870    2.7590    2.7940    2.8130 
 190.8000  333.4490    0.5640    1.7110    3.3090  267.7100    0.2730    2.1320    8.1160    1.1840    0.8390    0.3465    1.5360  213.3540  213.9990  220.8479  215.9000 1414.6000 1481.4260  400.4294    1.3280    0.4940    0.4060   30.6760    2.1890    2.5110    2.6380    2.7650    2.8460 
 190.9000  332.1140    0.5550    1.9040    3.4180  267.9940    0.2730    2.1150    7.8830    1.2370    0.8690    0.3237    1.4860  213.5610  214.2520  220.8703  215.9000 1419.8020 1478.6240  375.2975    1.3243    0.5020    0.4140   30.6790    2.0690    2.4040    2.6430    2.8300    2.9000 
 191.0000  330.8550    0.5510    2.1420    3.4290  268.2410    0.2740    2.1360    7.6960    1.3320    0.8830    0.2878    1.5130  213.5750  214.7380  220.8710  215.9000 1423.9280 1472.7300  344.5185    2.7978    0.5120    0.5940   30.6820    2.0290    2.4720    2.7540    2.9360    2.9500 
 191.1000  331.1310    0.5600    2.3440    3.3610  268.4490    0.2740    2.2150    7.5060    1.4170    0.8670    0.2601    1.6080  213.5930  215.3660  220.8368  215.9000 1426.5000 1474.9800  326.3333    1.8066    0.5230    0.5870   30.6850    2.3300    2.8220    3.0780    3.1240    3.0760 
 191.2000  330.7970    0.5820    2.4880    3.2290  268.5840    0.2740    2.3020    7.3040    1.4490    0.8280    0.2505    1.7020  213.1800  213.8120  220.4946  215.9000 1428.0000 1480.1300  319.3252    1.5445    0.5280    0.4640   30.6870    2.7030    3.2020    3.4120    3.3070    3.2340 
 191.3000  329.7950    0.5700    2.5670    3.1320  268.6400    0.2740    2.2890    7.0820    1.4340    0.7920    0.2549    1.7450  212.9950  213.2920  220.3742  215.9000 1428.0000 1483.1300  319.6690    1.4103    0.5290    0.4130   30.6890    2.6380    3.1860    3.3890    3.3420    3.2670 
 191.4000  331.2500    0.5760    2.5350    3.1020  268.6130    0.2730    2.2140    6.8470    1.3760    0.7750    0.2730    1.7220  213.0130  213.1590  220.3812  215.9000 1428.0000 1483.0780  337.2581    1.3923    0.5290    0.4120   30.6910    2.4240    2.9120    3.1690    3.2860    3.2640 
 191.5000  331.6420    0.5860    2.4540    3.1370  268.5190    0.2730    2.1600    6.6250    1.2940    0.7690    0.3015    1.7630  213.0520  213.3920  220.3668  215.9000 1428.0000 1482.0520  366.3704    1.4652    0.5290    0.4400   30.6920    2.3000    2.7820    3.0630    3.1720    3.2780 
 191.6000  332.0560    0.5880    2.4450    3.1970  268.3470    0.2740    2.1650    6.4720    1.2210    0.7640    0.3304    1.8350  213.0600  213.9570  220.5117  215.9000 1428.0000 1481.6300  379.5926    1.7396    0.5310    0.5610   30.6930    2.4460    2.8500    3.0950    3.1810    3.3720 
 191.7000  334.1890    0.5960    2.5320    3.2340  268.1210    0.2740    2.2220    6.4170    1.1790    0.7540    0.3488    1.9690  213.0620  214.2110  221.0689  215.9000 1427.9480 1482.9740  374.2442    1.7181    0.5360    0.4200   30.6940    2.6740    2.9950    3.2180    3.3030    3.4400 
 191.8000  334.3030    0.6100    2.6770    3.2400  267.8470    0.2740    2.3180    6.3990    1.1730    0.7440    0.3515    2.0810  213.0820  215.2560  221.1254  215.9000 1426.8220 1479.6440  373.5995    2.1801    0.5500    0.5900   30.6960    2.7110    3.1300    3.3060    3.4150    3.4630 
 191.9000  331.7140    0.6050    2.8090    3.2080  267.5590    0.2740    2.4310    6.2830    1.1710    0.7410    0.3525    2.1960  213.0170  216.1170  221.8090  215.9000 1424.1500 1473.0000  379.6644    2.2448    0.5660    0.5610   30.6980    2.9890    3.3460    3.5130    3.6200    3.5270 
 192.0000  333.2230    0.6320    2.9100    3.1350  267.2200    0.2740    2.5120    6.0360    1.1390    0.7510    0.3677    2.3960  213.0090  216.6520  221.9345  215.9000 1420.4000 1470.0000  375.8056    2.0425    0.5640    0.6210   30.7000    3.2830    3.5290    3.6380    3.7490    3.5970 
 192.1000  331.7330    0.6730    2.9960    3.0660  266.8790    0.2740    2.5520    5.7150    1.1420    0.7680    0.3662    2.4290  213.1070  217.8060  222.0084  215.9000 1415.1980 1469.9480  376.2569    2.2149    0.5570    0.4950   30.7020    3.1220    3.4780    3.6380    3.6480    3.6990 
 192.2000  329.0990    0.7390    3.0650    3.0150  266.5160    0.2740    2.5570    5.4670    1.2530    0.8000    0.3173    2.5460  213.2330  219.4790  222.8341  215.9000 1411.1720 1468.8740  380.3056    2.0890    0.5560    0.4890   30.7050    2.9950    3.2530    3.4390    3.6060    3.7780 
 192.3000  326.5660    0.7750    3.1090    2.9710  266.1450    0.2740    2.5320    5.4600    1.4290    0.8520    0.2564    2.4550  213.1950  220.6990  224.3218  215.9000 1410.8020 1467.3800  373.0602    1.8451    0.5560    0.3780   30.7070    2.7570    2.9410    3.2840    3.6110    3.7960 
 192.4000  325.6120    0.7670    3.1300    2.9560  265.7690    0.2740    2.4840    5.7800    1.5400    0.8820    0.2257    2.6840  213.4560  222.4170  225.4112  215.9000 1413.3800 1467.5800  347.1296    1.6700    0.5630    1.2600   30.7090    2.5740    2.9000    3.2730    3.6200    3.7720 
 192.5000  326.9580    0.7900    3.1160    2.9640  265.3890    0.2740    2.4550    6.3890    1.5190    0.8640    0.2312    2.8910  214.4440  223.1150  225.4826  215.9000 1414.8800 1471.8280  310.4306    1.6064    0.5940    2.7380   30.7110    3.1870    3.4150    3.7370    3.8370    3.9190 
 192.6000  327.2440    0.8190    3.0590    2.9470  265.0290    0.2750    2.4700    7.1860    1.4210    0.8130    0.2589    3.0960  214.9100  218.8560  224.4062  215.9000 1414.8280 1476.5980  299.8403    1.7726    0.6310    0.8830   30.7120    4.0740    4.0390    4.1440    4.0410    3.9850 
 192.7000  327.2710    0.7680    3.0080    2.9260  264.6810    0.2750    2.4630    7.9700    1.3680    0.7480    0.2756    2.9110  213.2110  216.7910  223.3951  215.9000 1413.7500 1471.8740  310.0891    1.7493    0.6400    0.5210   30.7140    3.6320    3.8220    4.0200    4.0190    3.8550 
 192.8000  329.1210    0.7700    2.9420    2.9380  264.3480    0.2750    2.4040    8.5400    1.3070    0.7050    0.2967    2.7020  212.8200  214.3380  221.6454  215.9000 1412.2500 1467.3800  322.2813    1.7822    0.6350    0.4920   30.7150    2.9360    3.2420    3.5060    3.7460    3.6490 
 192.9000  327.6250    0.7680    2.8410    2.9740  264.0110    0.2760    2.3290    8.7390    1.1650    0.7060    0.3552    2.4780  212.8440  214.1770  220.1741  215.9000 1412.3500 1467.3800  325.0255    2.0020    0.6310    0.5810   30.7150    2.7170    2.9930    3.1980    3.4380    3.5340 
 193.0000  326.6100    0.7590    2.7300    3.0150  263.7220    0.2750    2.2660    8.5660    1.1240    0.7240    0.3752    2.4180  212.8610  214.1760  219.9518  215.9000 1414.5000 1467.3280  322.0116    1.8936    0.6300    0.5300   30.7160    2.7100    2.9060    3.1080    3.2760    3.4630 
 193.1000  326.3410    0.7540    2.6660    3.0740  263.4210    0.2750    2.2190    8.1760    1.2230    0.7370    0.3296    2.3570  212.7900  214.0290  219.9430  215.9000 1417.6000 1466.6060  319.8009    1.7175    0.6290    0.4650   30.7180    2.6220    2.8020    3.0500    3.1870    3.3310 
