~VERSION INFORMATION
 VERS.                 2.0:   CWLS LOG ASCII STANDARD - VERSION 2.0
 WRAP.                  NO:   SINGLE LINE PER DEPTH STEP
~WELL INFORMATION
#MNEM.UNIT       DATA           DESCRIPTION MNEMONIC
#---------    -------------   --------------------------
 STRT.M         0.0000                        : START DEPTH
 STOP.M         829.0000                      : STOP DEPTH
 STEP.M         0.1000                        : STEP VALUE
 NULL.          -999.0000                     : NULL VALUE
 SRVC.          SCH                           : Service Company/Logging company
 DATE.          24.09.2023                    : LAS file Creation Date
 WELL    .      Каратобе 335                  : Well Name
 STATE   .      1                             : State
 COUNT   .      KAZAKHSTAN                    : Country
~CURVE INFORMATION
#MNEM          UNIT     API CODE   Description
#---------- ---------- ----------  -----------
 DEPTH     .M                    : DEPTH
 AZIM      .deg                  : Azimuth
 DEVI      .deg                  : Deviatiom
 GZ3       .OHMM                 : APP.RESISTIVITY BY LATERAL A2.0M0.5N
 GZB       .OHMM                 : APP.RESISTIVITY BY LATERAL N0.5M2.0A
 SP        .mV                   : Spontaneous Potential
 RB        .OHMM                 : Mud Resistivity
 RHOB      .G/C3                 : BULK DENSITY BY DGGL
 GR        .uR/h                 : GAMMA RAYS
 RFTN      .CPM                  : NEUTRON-NEUTRON(T) FAR
 RNTN      .CPM                  : NEUTRON-NEUTRON(T) NEAR
 TNPH      .V/V                  : Neutron porosity
 LL3       .OHMM                 : APPAR.RESIST. LATEROLOG 3 ELECTRODES
 C1        .mm                   : CALIPER DIAMETER 1
 C2        .mm                   : CALIPER DIAMETER 2
 CALI      .mm                   : Caliper
 BSC       .mm                   : Nominal Caliper
 TP1       .MCS                  : Sonic Time 1
 TP2       .MCS                  : Sonic Time 2
 DTP       .uSec/m               : Sonic travel time
 MLL       .OHMM                 : MICROLATEROLOG
 MNOR      .OHMM                 : MICRONORMAL A0.05M
 MINV      .OHMM                 : MICROLATERAL A0.025M0.025N
 TEMP      .C                    : Formation Temperature
 IKD1F3    .OHMM                 : Induction zonde IKD1F3
 IKD2F3    .OHMM                 : Induction zonde IKD2F3
 IKD3F3    .OHMM                 : Induction zonde IKD3F3
 IKD4F3    .OHMM                 : Induction zonde IKD4F3
 IKD5F3    .OHMM                 : Induction zonde IKD5F3
~A Log data section
# ...
 775.6000   28.9370    0.5090    7.6340    6.4230  257.6110    0.2820    2.5640    4.5760    3.6000    1.1740    0.0105    5.4700  214.6120  213.7730  224.2508  215.9000  861.0000  892.5000  254.3032   10.7656    1.7640    1.7060   36.3730    4.8770    4.8790    5.6030    5.8830    5.8660 
 775.7000   27.7210    0.5070    7.5080    6.4310  257.6290    0.2820    2.5270    4.4990    3.3420    1.1730    0.0224    5.3290  214.9000  214.4200  224.0293  215.9000  860.9480  892.5000  254.3079    7.7465    1.7640    1.0940   36.3720    4.8400    4.7830    5.6230    5.8200    5.7210 
 775.8000   28.0000    0.4980    7.3690    6.4040  257.6710    0.2790    2.4990    4.4360    3.1970    1.1980    0.0299    5.1920  214.8870  214.1250  224.8837  215.9000  859.8220  892.5000  250.4537    8.2548    1.7650    1.7110   36.3710    4.4950    4.7070    5.4250    5.6340    5.6080 
 775.9000   28.8120    0.4960    7.2330    6.3890  257.7790    0.2750    2.4680    4.3650    3.1550    1.2130    0.0323    5.1740  214.6370  212.8930  225.0513  215.9000  857.1980  892.5000  243.7604    8.3705    1.7780    1.8710   36.3710    4.6930    4.7170    5.4340    5.6650    5.6370 
 776.0000   28.8010    0.4970    7.1010    6.4120  257.8650    0.2740    2.4270    4.2420    3.1560    1.2200    0.0322    5.1480  214.1220  212.9120  225.0464  215.9000  854.6240  892.3480  240.8461   10.4012    1.8390    2.4360   36.3720    4.7230    4.6650    5.3930    5.6180    5.5860 
 776.1000   28.3990    0.5030    6.9490    6.4040  257.9100    0.2740    2.4250    4.0490    3.2800    1.2370    0.0255    5.2440  214.3390  213.3920  224.8947  215.9000  853.1300  889.0720  238.9988    8.0209    1.9490    2.0570   36.3730    4.5510    4.6130    5.3290    5.5430    5.5360 
 776.2000   26.6870    0.5020    6.8140    6.2950  257.8870    0.2770    2.4870    3.8350    3.5940    1.2730    0.0107    5.3080  215.4090  213.6450  223.9645  215.9000  853.0260  883.5000  239.8738    9.1771    2.0120    2.0530   36.3740    4.5600    4.6340    5.3700    5.5920    5.6230 
 776.3000   25.2120    0.4910    6.7350    6.1030  257.8100    0.2740    2.5570    3.6950    4.0040    1.3200   -0.0050    5.5040  216.4980  214.8660  223.9638  215.9000  850.8220  882.2200  242.3576    8.8371    2.0100    1.7950   36.3750    4.7280    4.6650    5.3440    5.6280    5.7250 
 776.4000   24.0180    0.5070    6.7340    5.8820  257.7650    0.2780    2.5740    3.6800    4.3690    1.3670   -0.0165    5.8210  216.1130  214.6320  224.6023  215.9000  846.9540  886.8420  245.0313    7.2584    2.0090    1.4790   36.3760    4.7360    4.7400    5.4110    5.7600    5.8360 
 776.5000   24.4220    0.5090    6.7940    5.6810  257.7280    0.2770    2.5740    3.7430    4.6610    1.4090   -0.0243    6.5390  214.6290  213.8870  225.6989  215.9000  849.9080  893.2160  236.7315   12.8582    2.0090    1.6540   36.3760    4.9200    4.9690    5.6460    5.9750    5.8680 
 776.6000   25.6560    0.4880    6.9000    5.5130  257.7710    0.2770    2.6260    3.8450    4.8570    1.4300   -0.0290    7.2090  213.8250  213.4970  225.9318  215.9000  859.1300  892.9760  217.4109   13.7216    2.0100    1.9350   36.3740    5.7190    5.4820    6.2810    6.2610    5.9630 
 776.7000   26.8950    0.5000    7.0160    5.3630  257.8290    0.2770    2.6950    3.9610    4.9560    1.4260   -0.0312    8.0670  213.6060  213.5530  225.1386  215.9000  863.5780  889.9800  219.6586   14.8719    2.0220    1.6290   36.3710    6.6300    6.0200    6.7860    6.4920    6.0900 
 776.8000   23.8270    0.5120    7.1140    5.1780  257.9520    0.2760    2.7060    4.0730    5.0060    1.4140   -0.0323    7.9950  213.2640  213.8140  224.9743  215.9000  862.5000  885.9300  231.2211   12.2311    2.0610    2.0870   36.3690    6.3280    5.9290    6.6030    6.4050    6.0970 
 776.9000   20.6580    0.4930    7.2120    4.9210  258.0410    0.2780    2.6530    4.1660    5.1180    1.4170   -0.0347    8.0380  214.7960  214.4770  224.6816  215.9000  861.0000  888.4460  237.1875   10.4857    2.1190    2.1700   36.3700    5.5230    5.3630    6.1470    6.2110    5.9590 
 777.0000   21.5430    0.5010    7.2900    4.7470  258.0870    0.2840    2.5830    4.2230    5.2830    1.4240   -0.0380    7.7450  219.2600  215.9570  224.1334  215.9000  861.0520  892.0940  239.3993   16.0157    2.1600    1.9680   36.3710    5.2160    5.0310    5.8740    6.0730    5.8730 
 777.1000   22.5230    0.5390    7.3490    4.6310  258.0670    0.2860    2.5480    4.2320    5.3240    1.4220   -0.0388    8.0900  212.4640  218.6210  224.9301  215.9000  862.2820  895.1220  235.4757   14.4864    2.1500    1.4270   36.3720    5.3160    5.1740    5.8330    5.9770    5.8040 
 777.2000   23.4960    0.5140    7.4110    4.5340  257.9990    0.2810    2.5420    4.2240    5.0960    1.4070   -0.0342    8.2440  212.4200  214.0840  224.8504  215.9000  867.0060  899.2600  234.1759   14.6987    2.0620    2.0780   36.3730    5.8780    5.5690    6.2270    6.0140    5.7420 
 777.3000   23.9140    0.5150    7.4080    4.4730  257.9680    0.2770    2.5450    4.2450    4.7460    1.3740   -0.0264    8.2210  212.7850  214.1110  223.8887  215.9000  871.5000  897.5680  237.4838   17.8537    1.9080    1.9490   36.3740    6.2630    5.7530    6.2940    5.9720    5.5830 
 777.4000   22.7980    0.5460    7.3390    4.4450  257.9550    0.2750    2.5470    4.3010    4.4100    1.3240   -0.0176    7.8120  213.2900  213.2130  223.7066  215.9000  871.5000  895.4580  246.1655   10.7725    1.7780    2.1110   36.3760    6.0420    5.5350    6.0390    5.7950    5.3940 
 777.5000   20.0390    0.5170    7.2380    4.4320  258.0150    0.2750    2.5420    4.3630    4.1000    1.2690   -0.0082    7.3540  215.9590  213.6180  224.1984  215.9000  871.7040  900.6500  255.7014   14.2272    1.7260    2.6490   36.3760    5.5720    5.1910    5.6590    5.5280    5.1800 
 777.6000   22.1840    0.4700    7.1290    4.4290  258.0960    0.2760    2.5580    4.4110    3.8980    1.2450   -0.0013    6.9050  217.4130  214.9460  224.6626  215.9000  876.2100  908.1440  252.8854   15.9871    1.7170    1.3700   36.3760    5.2790    4.9270    5.3880    5.2130    5.0110 
 777.7000   25.8250    0.5080    7.0100    4.4270  258.2230    0.2770    2.5930    4.4620    3.8870    1.2940   -0.0009    6.5420  216.9700  215.4030  225.0464  215.9000  886.5580  913.6760  235.3530   14.1905    1.7170    1.3090   36.3760    4.9480    4.6720    5.1730    4.9630    4.8870 
 777.8000   22.9830    0.5370    6.8980    4.3980  258.3180    0.2810    2.5920    4.5460    4.0770    1.3680   -0.0075    6.4580  216.5780  215.3240  226.0029  215.9000  893.6300  921.4280  232.7512    9.3048    1.7190    1.5720   36.3750    4.6320    4.4610    4.9870    4.8440    4.8140 
 777.9000   20.2720    0.5300    6.8600    4.3520  258.3450    0.2880    2.5580    4.6770    4.3580    1.4100   -0.0161    6.5660  216.2650  216.2640  227.1814  215.9000  895.0780  922.5520  258.1944   11.1000    1.7280    1.5090   36.3740    4.5480    4.4570    4.8850    4.8360    4.8390 
 778.0000   18.3130    0.5360    6.9340    4.2980  258.2920    0.2950    2.5450    4.8200    4.6220    1.4180   -0.0233    6.9840  214.8290  214.0290  226.1652  215.9000  894.2040  925.1780  276.2639   16.3832    1.7560    2.2680   36.3720    4.9490    4.6710    5.0180    4.9870    4.9490 
 778.1000   17.7810    0.5580    7.0350    4.2420  258.1890    0.3040    2.5610    4.9300    4.7870    1.4110   -0.0274    7.6210  214.4980  216.1040  224.6116  215.9000  897.1100  927.9020  252.1991   16.7181    1.8090    1.3910   36.3720    5.3350    4.9500    5.2270    5.2100    5.0910 
 778.2000   16.7660    0.5990    7.1560    4.1870  258.1210    0.3100    2.5690    5.0120    4.8170    1.4130   -0.0281    8.0180  213.9170  213.8840  223.9166  215.9000  905.3600  932.6300  221.5509   16.8951    1.8900    2.0950   36.3720    5.6070    5.1730    5.4910    5.3270    5.2350 
 778.3000   15.1430    0.5780    7.2830    4.1320  258.0620    0.3050    2.5700    5.0870    4.7900    1.4260   -0.0274    8.0810  213.5790  212.9930  223.7949  215.9000  910.5060  937.2300  205.7616   16.0672    2.0000    2.3030   36.3710    5.9930    5.1410    5.5120    5.3250    5.3010 
