~VERSION INFORMATION
 VERS.                 2.0:   CWLS LOG ASCII STANDARD - VERSION 2.0
 WRAP.                  NO:   SINGLE LINE PER DEPTH STEP
~WELL INFORMATION
#MNEM.UNIT       DATA           DESCRIPTION MNEMONIC
#---------    -------------   --------------------------
 STRT.M         0.0000                        : START DEPTH
 STOP.M         829.0000                      : STOP DEPTH
 STEP.M         0.1000                        : STEP VALUE
 NULL.          -999.0000                     : NULL VALUE
 SRVC.          SCH                           : Service Company/Logging company
 DATE.          24.09.2023                    : LAS file Creation Date
 WELL    .      Каратобе 335                  : Well Name
 STATE   .      1                             : State
 COUNT   .      KAZAKHSTAN                    : Country
~CURVE INFORMATION
#MNEM          UNIT     API CODE   Description
#---------- ---------- ----------  -----------
 DEPTH     .M                    : DEPTH
 AZIM      .deg                  : Azimuth
 DEVI      .deg                  : Deviatiom
 GZ3       .OHMM                 : APP.RESISTIVITY BY LATERAL A2.0M0.5N
 GZB       .OHMM                 : APP.RESISTIVITY BY LATERAL N0.5M2.0A
 SP        .mV                   : Spontaneous Potential
 RB        .OHMM                 : Mud Resistivity
 RHOB      .G/C3                 : BULK DENSITY BY DGGL
 GR        .uR/h                 : GAMMA RAYS
 RFTN      .CPM                  : NEUTRON-NEUTRON(T) FAR
 RNTN      .CPM                  : NEUTRON-NEUTRON(T) NEAR
 TNPH      .V/V                  : Neutron porosity
 LL3       .OHMM                 : APPAR.RESIST. LATEROLOG 3 ELECTRODES
 C1        .mm                   : CALIPER DIAMETER 1
 C2        .mm                   : CALIPER DIAMETER 2
 CALI      .mm                   : Caliper
 BSC       .mm                   : Nominal Caliper
 TP1       .MCS                  : Sonic Time 1
 TP2       .MCS                  : Sonic Time 2
 DTP       .uSec/m               : Sonic travel time
 MLL       .OHMM                 : MICROLATEROLOG
 MNOR      .OHMM                 : MICRONORMAL A0.05M
 MINV      .OHMM                 : MICROLATERAL A0.025M0.025N
 TEMP      .C                    : Formation Temperature
 IKD1F3    .OHMM                 : Induction zonde IKD1F3
 IKD2F3    .OHMM                 : Induction zonde IKD2F3
 IKD3F3    .OHMM                 : Induction zonde IKD3F3
 IKD4F3    .OHMM                 : Induction zonde IKD4F3
 IKD5F3    .OHMM                 : Induction zonde IKD5F3
~A Log data section
# ...
 730.8000  283.2300    0.4520    1.7100    7.2700  262.1560    0.2780    2.5170    7.4560    2.3910    1.0150    0.0896    3.0750  214.1450  217.3880  223.1468  215.9000 1049.7260 1079.0400  279.9954    3.2890    1.0800    0.8730   35.9150    2.6890    2.5860    2.6250    2.5800    2.5790 
 730.9000  283.2900    0.4450    1.6990    7.6230  262.1250    0.2770    2.4710    7.2770    2.4150    1.0340    0.0872    3.1190  214.2810  219.5290  222.7938  215.9000 1045.4440 1071.5920  301.7951    3.8219    1.1290    0.9120   35.9080    2.6240    2.5230    2.6220    2.6740    2.6500 
 731.0000  283.4210    0.4310    1.7170    7.9000  262.1420    0.2760    2.4570    7.1130    2.4090    1.0750    0.0878    3.1750  214.3290  216.2420  222.4202  215.9000 1038.9800 1062.1140  339.7280    3.8000    1.1460    1.1660   35.9000    2.6640    2.5640    2.6260    2.7210    2.7510 
 731.1000  284.4640    0.4130    1.7560    8.1070  262.1550    0.2770    2.4940    6.9890    2.4860    1.1170    0.0804    3.3520  214.6460  216.0420  222.3830  215.9000 1028.5100 1052.1340  335.4097    4.3118    1.1690    1.2710   35.8950    2.7800    2.6880    2.7240    2.7810    2.8960 
 731.2000  285.9190    0.4400    1.8110    8.2140  262.1740    0.2760    2.5410    6.9700    2.7420    1.1540    0.0591    3.5550  214.6210  216.3170  221.9276  215.9000 1013.3660 1042.1340  310.2269    4.5220    1.2380    1.7040   35.8970    2.9420    2.8250    2.8630    2.8880    2.9950 
 731.3000  281.8410    0.4730    1.8800    8.2540  262.1570    0.2760    2.5720    7.0880    3.0430    1.1930    0.0388    3.7330  214.3840  215.1170  222.5493  215.9000 1001.5680 1031.3521  299.5475    5.5560    1.3740    1.5110   35.8990    3.1200    2.9380    3.0230    3.0550    3.1280 
 731.4000  284.3460    0.4990    1.9720    8.2170  262.0900    0.2780    2.5800    7.2880    3.1980    1.2210    0.0299    3.9480  215.0240  218.6450  222.6402  215.9000  984.7960 1015.5920  292.6539    6.5620    1.5600    1.5740   35.9020    3.2120    3.0480    3.1850    3.2390    3.3180 
 731.5000  288.3750    0.4460    2.0770    8.1330  262.0260    0.2790    2.5540    7.4020    3.3070    1.2340    0.0241    4.1500  215.0520  215.2070  222.6420  215.9000  977.6240 1009.5880  287.1933    6.5632    1.7480    1.7110   35.9110    3.3280    3.1830    3.3500    3.4500    3.5610 
 731.6000  284.3030    0.4080    2.2030    8.0200  261.9340    0.2810    2.5340    7.2890    3.4170    1.2520    0.0187    4.4550  215.1960  213.8580  222.8688  215.9000  967.3600  998.4440  280.8426    6.3874    1.8320    2.0610   35.9200    3.5460    3.3540    3.5680    3.7190    3.8250 
 731.7000  282.2010    0.4020    2.3370    7.9070  261.8890    0.2860    2.5430    6.9280    3.4680    1.2690    0.0163    4.8640  213.2090  213.3460  223.1946  215.9000  961.4800  975.8960  275.9676    8.9222    1.7830    2.5240   35.9280    3.7190    3.5690    3.8550    4.0400    4.0970 
 731.8000  284.5680    0.4070    2.4580    7.8350  261.8460    0.2880    2.5380    6.4400    3.5150    1.2650    0.0142    5.3090  210.9480  212.8330  223.1713  215.9000  953.0660  974.5260  271.1516    9.3509    1.7080    1.7120   35.9290    4.0350    3.8930    4.2460    4.3960    4.3720 
 731.9000  287.0010    0.4390    2.5660    7.8150  261.8600    0.2880    2.5080    6.0000    3.5900    1.2520    0.0109    5.8270  210.5130  213.0270  221.8195  215.9000  948.3260  976.8740  281.0660    8.3916    1.6620    1.4670   35.9310    4.6940    4.3290    4.7030    4.7680    4.6390 
 732.0000  289.9910    0.4930    2.6710    7.7970  261.8680    0.2860    2.4770    5.6360    3.6210    1.2480    0.0096    6.1940  210.2200  213.5300  220.0374  215.9000  941.6480  974.0840  261.0451    6.6451    1.6370    1.3500   35.9320    4.9000    4.6440    5.0550    5.0450    4.9080 
 732.1000  294.2090    0.4960    2.7590    7.7790  261.8980    0.2830    2.4680    5.3110    3.6050    1.2560    0.0102    6.3230  209.7590  213.5740  219.1747  215.9000  940.2040  978.3860  223.8542    8.0614    1.6290    1.4060   35.9330    4.8650    4.7300    5.2620    5.2380    5.1120 
 732.2000  293.8900    0.4590    2.8330    7.7760  261.8960    0.2830    2.4880    4.9730    3.6560    1.2690    0.0081    6.5610  209.8620  213.7640  219.1566  215.9000  938.6440  984.3800  246.2801    6.0222    1.6280    1.3130   35.9330    5.0130    4.7170    5.3300    5.4650    5.2760 
 732.3000  289.9420    0.4570    2.8930    7.8050  261.8410    0.2850    2.5250    4.6320    3.7050    1.2890    0.0061    6.5520  210.1140  213.7440  219.1027  215.9000  948.0180  984.4280  233.4641    6.9593    1.6270    1.2260   35.9340    4.7570    4.7860    5.5110    5.5620    5.4040 
 732.4000  287.6920    0.4650    2.9710    7.8300  261.7620    0.2830    2.5610    4.3520    3.6330    1.3190    0.0091    6.9030  210.6910  214.2410  219.1671  215.9000  961.2680  985.5520  216.4340    8.4927    1.6230    1.5270   35.9340    5.0020    5.0900    5.7950    5.6880    5.5340 
 732.5000  285.8970    0.4920    3.1080    7.8380  261.6670    0.2830    2.5780    4.1810    3.6180    1.3520    0.0097    7.0810  212.0740  214.9660  219.1750  215.9000  965.1940  988.3340  204.6655    7.6593    1.6130    1.3850   35.9350    5.6800    5.3620    6.1910    5.9230    5.6250 
 732.6000  284.5880    0.4870    3.2560    7.7740  261.6070    0.2840    2.5760    4.0680    3.9190    1.3830   -0.0020    7.4980  212.4910  215.2410  219.1102  215.9000  970.6600  994.3400  203.1863    7.5399    1.6050    1.2730   35.9360    5.2910    5.2890    6.2360    6.0070    5.6880 
 732.7000  284.7440    0.4790    3.4250    7.6380  261.5480    0.2850    2.5580    3.8870    4.5060    1.4110   -0.0203    7.8090  212.1330  215.1060  219.9868  215.9000  970.6760 1004.6840  218.5324    8.6410    1.6020    1.3540   35.9360    5.3130    5.3480    6.4120    6.1980    5.8440 
 732.8000  285.0980    0.4860    3.6470    7.4610  261.5400    0.2840    2.5450    3.6030    5.1950    1.4330   -0.0363    8.3690  212.5280  215.1610  220.8806  215.9000  970.7040 1011.8020  226.4306    8.8933    1.6020    1.2560   35.9350    6.2240    5.7390    6.7420    6.5670    6.0930 
 732.9000  285.3000    0.4870    3.9410    7.2160  261.5270    0.2870    2.5620    3.2800    5.7950    1.4440   -0.0470    8.9870  213.1410  215.3500  220.1905  215.9000  970.7580 1014.3800  230.3322   10.3165    1.6020    1.2430   35.9340    6.3220    6.0040    7.1010    6.7830    6.3390 
 733.0000  285.5780    0.4830    4.2790    6.8530  261.5190    0.2900    2.5900    2.9850    6.1510    1.4570   -0.0524   10.1400  212.5810  215.1190  220.2237  215.9000  970.8380 1015.8800  234.6782   24.3105    1.6050    1.7990   35.9320    6.2820    6.1150    7.2800    7.0880    6.6300 
 733.1000  285.9650    0.4790    4.6560    6.5490  261.4620    0.2910    2.6070    2.7440    6.2010    1.4780   -0.0531   11.6020  212.7150  214.9630  221.2612  215.9000  970.9820 1015.9280  233.2755   21.0596    1.6240    1.5380   35.9300    7.1390    6.3950    7.6140    7.6330    7.0630 
 733.2000  288.3670    0.4770    5.1480    6.1810  261.3330    0.2930    2.6080    2.5740    6.0530    1.5010   -0.0510   12.9410  212.2170  214.0170  221.2274  215.9000  971.3600 1017.0520  184.2141   23.2171    1.6810    1.4870   35.9280    7.4770    6.7680    7.9540    8.0310    7.5330 
 733.3000  291.9990    0.4630    5.6780    5.8290  261.1670    0.2950    2.6080    2.5160    5.9080    1.5210   -0.0488   14.8300  211.8130  213.8300  220.5225  215.9000  975.1180 1019.6300  188.5012   25.8101    1.7720    1.5990   35.9270    7.8950    7.1640    8.4790    8.5570    7.9890 
 733.4000  288.9550    0.4650    6.2040    5.5720  260.9650    0.2960    2.6070    2.6590    5.7650    1.5250   -0.0466   15.5980  211.4640  213.6370  219.5253  215.9000  980.5540 1021.3540  215.8021   25.8734    1.7530    1.7160   35.9270    8.4900    7.5520    9.0860    9.1780    8.3430 
 733.5000  287.4410    0.4720    6.7500    5.3710  260.7970    0.2950    2.6120    2.9720    5.4420    1.4860   -0.0410   16.9830  211.4000  214.1070  219.1287  215.9000  984.8880 1026.0900  233.8796   22.0659    1.6230    1.6230   35.9270    9.1080    7.9110    9.6660    9.4800    8.6170 
