~VERSION INFORMATION
 VERS.                 2.0:   CWLS LOG ASCII STANDARD - VERSION 2.0
 WRAP.                  NO:   SINGLE LINE PER DEPTH STEP
~WELL INFORMATION
#MNEM.UNIT       DATA           DESCRIPTION MNEMONIC
#---------    -------------   --------------------------
 STRT.M         0.0000                        : START DEPTH
 STOP.M         829.0000                      : STOP DEPTH
 STEP.M         0.1000                        : STEP VALUE
 NULL.          -999.0000                     : NULL VALUE
 SRVC.          SCH                           : Service Company/Logging company
 DATE.          24.09.2023                    : LAS file Creation Date
 WELL    .      Каратобе 335                  : Well Name
 STATE   .      1                             : State
 COUNT   .      KAZAKHSTAN                    : Country
~CURVE INFORMATION
#MNEM          UNIT     API CODE   Description
#---------- ---------- ----------  -----------
 DEPTH     .M                    : DEPTH
 AZIM      .deg                  : Azimuth
 DEVI      .deg                  : Deviatiom
 GZ3       .OHMM                 : APP.RESISTIVITY BY LATERAL A2.0M0.5N
 GZB       .OHMM                 : APP.RESISTIVITY BY LATERAL N0.5M2.0A
 SP        .mV                   : Spontaneous Potential
 RB        .OHMM                 : Mud Resistivity
 RHOB      .G/C3                 : BULK DENSITY BY DGGL
 GR        .uR/h                 : GAMMA RAYS
 RFTN      .CPM                  : NEUTRON-NEUTRON(T) FAR
 RNTN      .CPM                  : NEUTRON-NEUTRON(T) NEAR
 TNPH      .V/V                  : Neutron porosity
 LL3       .OHMM                 : APPAR.RESIST. LATEROLOG 3 ELECTRODES
 C1        .mm                   : CALIPER DIAMETER 1
 C2        .mm                   : CALIPER DIAMETER 2
 CALI      .mm                   : Caliper
 BSC       .mm                   : Nominal Caliper
 TP1       .MCS                  : Sonic Time 1
 TP2       .MCS                  : Sonic Time 2
 DTP       .uSec/m               : Sonic travel time
 MLL       .OHMM                 : MICROLATEROLOG
 MNOR      .OHMM                 : MICRONORMAL A0.05M
 MINV      .OHMM                 : MICROLATERAL A0.025M0.025N
 TEMP      .C                    : Formation Temperature
 IKD1F3    .OHMM                 : Induction zonde IKD1F3
 IKD2F3    .OHMM                 : Induction zonde IKD2F3
 IKD3F3    .OHMM                 : Induction zonde IKD3F3
 IKD4F3    .OHMM                 : Induction zonde IKD4F3
 IKD5F3    .OHMM                 : Induction zonde IKD5F3
~A Log data section
# ...
 145.6000 -999.0000    0.3480 -999.0000 -999.0000 -999.0000    0.2540 -999.0000    6.8150    0.5800    0.5430    0.9560 -999.0000  228.9070  228.5330  236.3562  228.7000 -999.0000 -999.0000 -999.0000    1.5140    0.0920    0.0720   30.1520 -999.0000 -999.0000 -999.0000 -999.0000 -999.0000 
 145.7000 -999.0000    0.3460 -999.0000 -999.0000 -999.0000    0.2550 -999.0000    6.9560    0.5820    0.5600    0.9515 -999.0000  228.6810  228.5880  237.6561  228.7000 -999.0000 -999.0000 -999.0000    1.0452    0.0820    0.0780   30.1520 -999.0000 -999.0000 -999.0000 -999.0000 -999.0000 
 145.8000 -999.0000    0.3400 -999.0000 -999.0000 -999.0000    0.2540 -999.0000    6.9920    0.6010    0.5570    0.9108 -999.0000  228.5300  228.6550  238.1816  228.7000 -999.0000 -999.0000 -999.0000    0.8503    0.0680    0.0780   30.1530 -999.0000 -999.0000 -999.0000 -999.0000 -999.0000 
 145.9000 -999.0000    0.3320 -999.0000 -999.0000 -999.0000    0.2530 -999.0000    6.9080    0.5500    0.5470    1.0275 -999.0000  228.2210  228.8460  238.3626  228.7000 -999.0000 -999.0000 -999.0000    0.6804    0.0580    0.0780   30.1530 -999.0000 -999.0000 -999.0000 -999.0000 -999.0000 
 146.0000 -999.0000    0.3270 -999.0000 -999.0000 -999.0000    0.2530 -999.0000    6.7730    0.4520    0.5460    1.3405 -999.0000  227.9760  229.0460  238.3438  228.7000 -999.0000 -999.0000 -999.0000    0.7594    0.0530    0.0780   30.1540 -999.0000 -999.0000 -999.0000 -999.0000 -999.0000 
 146.1000 -999.0000    0.3190 -999.0000 -999.0000 -999.0000    0.2520 -999.0000    6.6460    0.4100    0.5530    1.5302 -999.0000  227.5950  229.1140  238.3877  228.7000 -999.0000 -999.0000 -999.0000    0.7574    0.0520    0.0780   30.1580 -999.0000 -999.0000 -999.0000 -999.0000 -999.0000 
 146.2000 -999.0000    0.2910 -999.0000 -999.0000 -999.0000    0.2510 -999.0000    6.5600    0.4690    0.5680    1.2751 -999.0000  226.0460  229.0030  238.3039  228.7000 -999.0000 -999.0000 -999.0000    0.6981    0.0520    0.0030   30.1610 -999.0000 -999.0000 -999.0000 -999.0000 -999.0000 
 146.3000 -999.0000    0.2950 -999.0000 -999.0000 -999.0000    0.2510 -999.0000    6.5110    0.5670    0.5890    0.9859 -999.0000  224.1750  228.6660  238.3102  228.7000 -999.0000 -999.0000 -999.0000    0.4031    0.0520    0.4130   30.1650 -999.0000 -999.0000 -999.0000 -999.0000 -999.0000 
 146.4000 -999.0000    0.3390 -999.0000 -999.0000 -999.0000    0.2510 -999.0000    6.4770    0.6210    0.5970    0.8711 -999.0000  225.3810  228.3300  238.2958  228.7000 -999.0000 -999.0000 -999.0000    0.5117    0.0530    0.0820   30.1660 -999.0000 -999.0000 -999.0000 -999.0000 -999.0000 
 146.5000 -999.0000    0.3440 -999.0000 -999.0000 -999.0000    0.2500 -999.0000    6.4510    0.6450    0.5870    0.8271 -999.0000  229.3930  228.4140  238.3696  228.7000 -999.0000 -999.0000 -999.0000    0.6496    0.0580    0.0880   30.1670 -999.0000 -999.0000 -999.0000 -999.0000 -999.0000 
 146.6000 -999.0000    0.3350 -999.0000 -999.0000 -999.0000    0.2490 -999.0000    6.4760    0.7110    0.5770    0.7235 -999.0000  229.3290  228.3840  238.3987  228.7000 -999.0000 -999.0000 -999.0000    0.6389    0.0700    0.0800   30.1680 -999.0000 -999.0000 -999.0000 -999.0000 -999.0000 
 146.7000 -999.0000    0.3180 -999.0000 -999.0000 -999.0000    0.2480 -999.0000    6.5610    0.7940    0.5690    0.6207 -999.0000  228.7450  228.4380  238.3992  228.7000 -999.0000 -999.0000 -999.0000    0.6135    0.0860    0.0810   30.1700 -999.0000 -999.0000 -999.0000 -999.0000 -999.0000 
 146.8000 -999.0000    0.2930 -999.0000 -999.0000 -999.0000    0.2500 -999.0000    6.6710    0.7840    0.5530    0.6318 -999.0000  228.6580  228.4440  238.3864  228.7000 -999.0000 -999.0000 -999.0000    0.7542    0.0980    0.0940   30.1720 -999.0000 -999.0000 -999.0000 -999.0000 -999.0000 
 146.9000 -999.0000    0.2770 -999.0000 -999.0000 -999.0000    0.2500 -999.0000    6.7370    0.6970    0.5390    0.7436 -999.0000  228.5950  228.4350  238.3346  228.7000 -999.0000 -999.0000 -999.0000    0.8402    0.1030    0.0930   30.1740 -999.0000 -999.0000 -999.0000 -999.0000 -999.0000 
 147.0000 -999.0000    0.3150 -999.0000 -999.0000 -999.0000    0.2490 -999.0000    6.7100    0.6590    0.5430    0.8032 -999.0000  228.4980  228.4500  238.3731  228.7000 -999.0000 -999.0000 -999.0000    0.8444    0.1070    0.1240   30.1750 -999.0000 -999.0000 -999.0000 -999.0000 -999.0000 
 147.1000 -999.0000    0.3020 -999.0000    0.0320 -999.0000    0.2490 -999.0000    6.6020    0.6530    0.5530    0.8133 -999.0000  228.5170  228.4940  238.4365  228.7000 -999.0000 -999.0000 -999.0000    0.6375    0.1090    0.0940   30.1750 -999.0000 -999.0000 -999.0000 -999.0000 -999.0000 
 147.2000 -999.0000    0.2990 -999.0000    0.0320 -999.0000    0.2500 -999.0000    6.4680    0.6010    0.5550    0.9108 -999.0000  226.6500  228.4990  238.9884  228.7000 -999.0000 -999.0000 -999.0000    0.5484    0.1060    0.1090   30.1740 -999.0000 -999.0000 -999.0000 -999.0000 -999.0000 
 147.3000 -999.0000    0.3120    0.0210    0.0290  263.5110    0.2520 -999.0000    6.3780    0.5570    0.5570    1.0100    0.1680  223.9330  228.4820  239.0490  228.7000 -999.0000 -999.0000 -999.0000    0.5888    0.1030    0.2820   30.1750 -999.0000 -999.0000 -999.0000 -999.0000 -999.0000 
 147.4000 -999.0000    0.3240    0.0210    0.0260  263.5110    0.2510 -999.0000    6.3170    0.5720    0.5600    0.9742    0.1680  223.7610  228.4950  239.0490  228.7000 -999.0000 -999.0000 -999.0000    0.7254    0.1010    0.0830   30.1770 -999.0000 -999.0000 -999.0000 -999.0000 -999.0000 
 147.5000 -999.0000    0.3360    0.0210    0.0230  262.7970    0.2500 -999.0000    6.2190    0.5870    0.5530    0.9405    0.1400  224.4110  228.4500  239.1246  228.7000 -999.0000 -999.0000 -999.0000    0.5703    0.1010    0.0860   30.1790 -999.0000 -999.0000 -999.0000 -999.0000 -999.0000 
 147.6000 -999.0000    0.3400    0.0190    0.0220  262.3640    0.2460 -999.0000    6.0600    0.5660    0.5430    0.9883    0.1400  225.3270  228.3990  239.0655  228.7000 -999.0000 -999.0000 -999.0000    0.5909    0.1010    0.0810   30.1810 -999.0000 -999.0000 -999.0000 -999.0000 -999.0000 
 147.7000 -999.0000    0.3420    0.0210    0.0210  261.9240    0.2440 -999.0000    5.8780    0.5390    0.5480    1.0560    0.1400  228.9760  228.3210  239.0499  228.7000 -999.0000 -999.0000 -999.0000    0.5464    0.1000    0.0780   30.1830 -999.0000 -999.0000 -999.0000 -999.0000 -999.0000 
 147.8000 -999.0000    0.3360    0.0220    0.0190  261.6090    0.2430 -999.0000    5.7270    0.5160    0.5630    1.1204    0.1490  228.9260  228.3440  238.9725  228.7000 -999.0000 -999.0000 -999.0000    0.5410    0.0960    0.0780   30.1840 -999.0000 -999.0000 -999.0000 -999.0000 -999.0000 
 147.9000 -999.0000    0.3290    0.0210    0.0170  261.4200    0.2430 -999.0000    5.6340    0.5070    0.5680    1.1474    0.1490  228.9200  228.3400  238.9640  228.7000 -999.0000 -999.0000 -999.0000    0.6864    0.0850    0.0780   30.1860 -999.0000 -999.0000 -999.0000 -999.0000 -999.0000 
 148.0000 -999.0000    0.3250    0.0210    0.0160  261.4480    0.2470 -999.0000    5.5800    0.5370    0.5690    1.0614    0.1560  228.8940  228.2780  238.9640  228.7000 -999.0000 -999.0000 -999.0000    0.5572    0.0710    0.0830   30.1880 -999.0000 -999.0000 -999.0000 -999.0000 -999.0000 
 148.1000 -999.0000    0.3210    0.0210    0.0170  261.4600    0.2500 -999.0000    5.5080    0.5830    0.5780    0.9493    0.1490  228.8920  228.1880  238.9640  228.7000 -999.0000 -999.0000 -999.0000    0.5623    0.0600    0.0840   30.1890 -999.0000 -999.0000 -999.0000 -999.0000 -999.0000 
 148.2000 -999.0000    0.3230    0.0210    0.0180  261.6690    0.2500 -999.0000    5.4090    0.6180    0.5890    0.8769    0.1400  228.9510  228.1630  238.9640  228.7000 -999.0000 -999.0000 -999.0000    0.5434    0.0550    0.0860   30.1900 -999.0000 -999.0000 -999.0000 -999.0000 -999.0000 
 148.3000 -999.0000    0.3260    0.0180    0.0160  261.9010    0.2480 -999.0000    5.3050    0.6820    0.5870    0.7662    0.1490  228.9450  228.1710  238.9640  228.7000 -999.0000 -999.0000 -999.0000    0.5410    0.0550    0.0760   30.1900 -999.0000 -999.0000 -999.0000 -999.0000 -999.0000 
