~VERSION INFORMATION
 VERS.                 2.0:   CWLS LOG ASCII STANDARD - VERSION 2.0
 WRAP.                  NO:   SINGLE LINE PER DEPTH STEP
~WELL INFORMATION
#MNEM.UNIT       DATA           DESCRIPTION MNEMONIC
#---------    -------------   --------------------------
 STRT.M         0.0000                        : START DEPTH
 STOP.M         829.0000                      : STOP DEPTH
 STEP.M         0.1000                        : STEP VALUE
 NULL.          -999.0000                     : NULL VALUE
 SRVC.          SCH                           : Service Company/Logging company
 DATE.          24.09.2023                    : LAS file Creation Date
 WELL    .      Каратобе 335                  : Well Name
 STATE   .      1                             : State
 COUNT   .      KAZAKHSTAN                    : Country
~CURVE INFORMATION
#MNEM          UNIT     API CODE   Description
#---------- ---------- ----------  -----------
 DEPTH     .M                    : DEPTH
 AZIM      .deg                  : Azimuth
 DEVI      .deg                  : Deviatiom
 GZ3       .OHMM                 : APP.RESISTIVITY BY LATERAL A2.0M0.5N
 GZB       .OHMM                 : APP.RESISTIVITY BY LATERAL N0.5M2.0A
 SP        .mV                   : Spontaneous Potential
 RB        .OHMM                 : Mud Resistivity
 RHOB      .G/C3                 : BULK DENSITY BY DGGL
 GR        .uR/h                 : GAMMA RAYS
 RFTN      .CPM                  : NEUTRON-NEUTRON(T) FAR
 RNTN      .CPM                  : NEUTRON-NEUTRON(T) NEAR
 TNPH      .V/V                  : Neutron porosity
 LL3       .OHMM                 : APPAR.RESIST. LATEROLOG 3 ELECTRODES
 C1        .mm                   : CALIPER DIAMETER 1
 C2        .mm                   : CALIPER DIAMETER 2
 CALI      .mm                   : Caliper
 BSC       .mm                   : Nominal Caliper
 TP1       .MCS                  : Sonic Time 1
 TP2       .MCS                  : Sonic Time 2
 DTP       .uSec/m               : Sonic travel time
 MLL       .OHMM                 : MICROLATEROLOG
 MNOR      .OHMM                 : MICRONORMAL A0.05M
 MINV      .OHMM                 : MICROLATERAL A0.025M0.025N
 TEMP      .C                    : Formation Temperature
 IKD1F3    .OHMM                 : Induction zonde IKD1F3
 IKD2F3    .OHMM                 : Induction zonde IKD2F3
 IKD3F3    .OHMM                 : Induction zonde IKD3F3
 IKD4F3    .OHMM                 : Induction zonde IKD4F3
 IKD5F3    .OHMM                 : Induction zonde IKD5F3
~A Log data section
# ...
 506.8000  332.8880    0.7180    1.5430    1.6900  268.4930    0.3250    2.1950   10.2470    1.2020    0.7680    0.3385    1.5600  212.3040  213.9510  218.6314  215.9000 1425.5880 1498.2900  362.3438    1.4541    0.5930    0.4590   34.0680    1.6840    1.7050    1.6850    1.6930    1.7230 
 506.9000  333.5430    0.7160    1.5960    1.6990  268.7200    0.3260    2.1750   10.3810    1.2530    0.7880    0.3173    1.5330  212.2790  213.9740  218.6463  215.9000 1423.1840 1493.6920  363.3067    1.4573    0.5930    0.4660   34.0710    1.6460    1.6730    1.6820    1.7270    1.7230 
 507.0000  334.6150    0.7250    1.6300    1.7040  268.9590    0.3320    2.1840   10.4700    1.2540    0.8060    0.3169    1.5530  212.2860  213.9780  218.7199  215.9000 1419.6021 1487.0540  364.9005    1.5285    0.5930    0.5050   34.0730    1.6200    1.6880    1.7200    1.7610    1.7310 
 507.1000  334.9240    0.7240    1.6510    1.7050  269.1840    0.3400    2.2330   10.4770    1.2530    0.8040    0.3173    1.6090  212.3270  213.9360  218.7307  215.9000 1414.7400 1482.0680  365.8866    2.0157    0.5910    0.6890   34.0740    1.7600    1.8050    1.7980    1.8100    1.7630 
 507.2000  335.5900    0.7170    1.6680    1.6900  269.4210    0.3290    2.2710   10.3880    1.2950    0.7890    0.3011    1.6260  212.3510  213.9600  218.7283  215.9000 1407.9840 1473.9720  366.8588    1.6888    0.5890    0.5190   34.0750    1.9160    1.8960    1.8640    1.8340    1.7980 
 507.3000  336.4530    0.7100    1.6590    1.7170  269.6590    0.3250    2.2690   10.1670    1.2620    0.7810    0.3137    1.6050  212.3630  213.9410  218.7478  215.9000 1408.4320 1469.1980  367.3148    1.4762    0.5880    0.4630   34.0770    1.7800    1.7990    1.7730    1.7950    1.7810 
 507.4000  335.1180    0.7050    1.6250    1.7810  269.8560    0.3250    2.2570    9.8000    1.1330    0.7890    0.3707    1.5700  212.3320  213.9970  218.7302  215.9000 1409.0380 1463.6240  366.9722    1.4280    0.5880    0.4550   34.0770    1.6240    1.6590    1.6800    1.7510    1.7630 
 507.5000  333.6330    0.7180    1.6050    1.8460  270.0390    0.3310    2.2680    9.3500    1.0710    0.7970    0.4034    1.5770  212.3030  214.0130  218.7595  215.9000 1408.7679 1462.3621  353.3380    1.4685    0.5880    0.4890   34.0780    1.6120    1.6450    1.6410    1.7200    1.7720 
 507.6000  335.0170    0.7260    1.6450    1.8940  270.1660    0.3320    2.3150    8.9540    1.0980    0.7920    0.3886    1.6360  212.3040  213.9810  218.8035  215.9000 1408.3700 1466.9940  345.3958    1.6188    0.5910    0.5350   34.0790    1.7200    1.7260    1.6850    1.7280    1.8030 
 507.7000  336.0110    0.7170    1.7320    1.9200  270.2660    0.3320    2.3820    8.7600    1.1480    0.7810    0.3633    1.6950  212.3320  213.9950  218.7360  215.9000 1407.9640 1467.8000  364.8831    1.6049    0.6000    0.5540   34.0790    1.7940    1.7930    1.7560    1.7810    1.8250 
 507.8000  335.8720    0.7110    1.8140    1.9350  270.3020    0.3360    2.4430    8.8360    1.2600    0.7780    0.3145    1.7580  212.3370  214.0180  218.7280  215.9000 1407.3719 1458.3220  368.2384    1.7491    0.6220    0.5880   34.0790    1.8330    1.8440    1.8130    1.8310    1.8380 
 507.9000  335.8520    0.7080    1.8890    1.9410  270.3160    0.3390    2.4530    9.1710    1.4030    0.7810    0.2644    1.7920  212.3300  214.0260  218.7280  215.9000 1406.8260 1455.9020  364.6667    1.8751    0.6500    0.6150   34.0790    1.9260    1.9110    1.8760    1.8920    1.8900 
 508.0000  335.7840    0.6980    1.9340    1.9350  270.2740    0.3370    2.4040    9.5630    1.4910    0.7860    0.2387    1.8490  212.3380  214.0160  218.7280  215.9000 1406.0699 1457.5780  359.2095    1.7358    0.6570    0.5750   34.0800    1.9640    1.9540    1.9070    1.9140    1.9390 
 508.1000  334.8820    0.6910    1.9410    1.9330  270.2180    0.3410    2.3390    9.8160    1.5060    0.7950    0.2346    1.8670  212.3310  213.9760  218.7307  215.9000 1406.0861 1460.9480  331.7130    2.0426    0.6490    0.7140   34.0810    1.9230    1.9370    1.8990    1.9130    1.9570 
 508.2000  334.8070    0.6880    1.9240    1.9320  270.1440    0.3360    2.2970    9.8890    1.4970    0.8050    0.2371    1.9150  212.3180  214.0470  218.7283  215.9000 1406.4420 1458.3740  322.5938    1.7332    0.6480    0.5550   34.0820    1.9350    1.9190    1.9200    1.9340    1.9780 
 508.3000  335.8360    0.6950    1.8960    1.9320  270.0660    0.3410    2.3000    9.8400    1.4430    0.8090    0.2523    1.9330  212.3110  214.0230  218.7991  215.9000 1406.9080 1456.8280  375.3600    2.0337    0.6480    0.4560   34.0830    1.9330    1.9430    1.9100    1.9290    1.9810 
 508.4000  335.7440    0.7070    1.8700    1.9250  269.9980    0.3410    2.3260    9.7860    1.3300    0.8070    0.2885    1.9690  212.3160  214.0150  218.7359  215.9000 1406.2400 1456.0780  386.6493    2.0070    0.6490    0.6570   34.0820    2.0020    1.9880    1.9540    1.9550    2.0040 
 508.5000  334.8240    0.7090    1.8470    1.9230  269.9130    0.3420    2.3390    9.8380    1.2250    0.8100    0.3287    1.9920  212.3630  214.0040  218.7280  215.9000 1405.2540 1461.4180  375.6817    1.9423    0.6550    0.6280   34.0820    2.0360    2.0170    1.9800    1.9760    1.9920 
 508.6000  334.5680    0.7080    1.8170    1.9240  269.8420    0.3430    2.3190   10.1060    1.1770    0.8220    0.3497    1.9950  212.3460  214.0050  218.7847  215.9000 1404.1180 1469.5520  372.3843    2.0683    0.6760    0.6540   34.0810    2.0310    2.0300    1.9970    1.9810    1.9860 
 508.7000  334.1560    0.7090    1.7800    1.9150  269.7280    0.3440    2.2800   10.5140    1.1780    0.8320    0.3492    2.0020  212.3100  213.9690  218.7343  215.9000 1402.6121 1468.4821  368.3785    2.0038    0.7150    0.6300   34.0780    2.0630    2.0410    2.0050    1.9930    1.9960 
 508.8000  333.3050    0.7190    1.7520    1.9030  269.6380    0.3420    2.2440   10.9430    1.2480    0.8330    0.3193    1.9780  212.3150  213.9890  218.6992  215.9000 1404.1281 1470.0000  351.9769    1.9299    0.7500    0.6270   34.0750    2.0390    2.0220    1.9840    1.9770    1.9860 
 508.9000  332.6980    0.7330    1.7170    1.8970  269.5070    0.3400    2.2210   11.2430    1.3170    0.8260    0.2931    1.9720  212.3290  214.0520  218.7680  215.9000 1406.3199 1470.0520  329.0602    1.8474    0.7610    0.6210   34.0740    1.9800    1.9830    1.9700    1.9690    1.9770 
 509.0000  332.1850    0.7410    1.6820    1.8970  269.3800    0.3400    2.2240   11.3130    1.2940    0.8150    0.3015    1.9700  212.3030  214.0480  218.7328  215.9000 1407.9600 1471.1300  320.2153    1.9371    0.7600    0.5900   34.0750    1.9800    1.9850    1.9630    1.9740    1.9690 
 509.1000  331.7050    0.7490    1.6530    1.9000  269.2270    0.3410    2.2570   11.1770    1.2590    0.7990    0.3149    1.9990  212.2870  214.0200  218.7280  215.9000 1410.2960 1472.7300  333.8090    2.0550    0.7600    0.6420   34.0760    2.0300    2.0160    1.9860    1.9840    1.9750 
 509.2000  331.2290    0.7460    1.6410    1.9010  269.0770    0.3390    2.2930   10.9350    1.3100    0.7840    0.2956    2.0200  212.2700  213.9630  218.7631  215.9000 1411.4561 1474.8800  342.1806    1.9968    0.7600    0.5870   34.0780    2.0600    2.0300    2.0170    1.9970    1.9920 
 509.3000  331.7110    0.7440    1.6530    1.9150  268.9320    0.3390    2.2900   10.6980    1.3750    0.7780    0.2733    2.0270  212.2690  213.9510  218.7319  215.9000 1413.1060 1477.8800  317.6412    1.9575    0.7600    0.6070   34.0830    2.0350    2.0250    2.0060    2.0110    2.0020 
 509.4000  331.7540    0.7530    1.6760    1.9140  268.7710    0.3420    2.2600   10.5150    1.3620    0.7790    0.2776    2.0220  212.2760  213.9650  218.7811  215.9000 1413.8760 1477.8280  303.6389    2.0868    0.7610    0.6690   34.0880    2.0200    2.0280    2.0210    2.0330    2.0200 
 509.5000  328.8390    0.7560    1.6900    1.9040  268.6080    0.3440    2.2520   10.4370    1.3290    0.7810    0.2889    2.0270  212.2880  213.9850  218.8059  215.9000 1414.9500 1476.8180  308.8692    2.0769    0.7600    0.6610   34.0930    2.0560    2.0560    2.0580    2.0630    2.0290 
