~VERSION INFORMATION
 VERS.                 2.0:   CWLS LOG ASCII STANDARD - VERSION 2.0
 WRAP.                  NO:   SINGLE LINE PER DEPTH STEP
~WELL INFORMATION
#MNEM.UNIT       DATA           DESCRIPTION MNEMONIC
#---------    -------------   --------------------------
 STRT.M         0.0000                        : START DEPTH
 STOP.M         829.0000                      : STOP DEPTH
 STEP.M         0.1000                        : STEP VALUE
 NULL.          -999.0000                     : NULL VALUE
 SRVC.          SCH                           : Service Company/Logging company
 DATE.          24.09.2023                    : LAS file Creation Date
 WELL    .      Каратобе 335                  : Well Name
 STATE   .      1                             : State
 COUNT   .      KAZAKHSTAN                    : Country
~CURVE INFORMATION
#MNEM          UNIT     API CODE   Description
#---------- ---------- ----------  -----------
 DEPTH     .M                    : DEPTH
 AZIM      .deg                  : Azimuth
 DEVI      .deg                  : Deviatiom
 GZ3       .OHMM                 : APP.RESISTIVITY BY LATERAL A2.0M0.5N
 GZB       .OHMM                 : APP.RESISTIVITY BY LATERAL N0.5M2.0A
 SP        .mV                   : Spontaneous Potential
 RB        .OHMM                 : Mud Resistivity
 RHOB      .G/C3                 : BULK DENSITY BY DGGL
 GR        .uR/h                 : GAMMA RAYS
 RFTN      .CPM                  : NEUTRON-NEUTRON(T) FAR
 RNTN      .CPM                  : NEUTRON-NEUTRON(T) NEAR
 TNPH      .V/V                  : Neutron porosity
 LL3       .OHMM                 : APPAR.RESIST. LATEROLOG 3 ELECTRODES
 C1        .mm                   : CALIPER DIAMETER 1
 C2        .mm                   : CALIPER DIAMETER 2
 CALI      .mm                   : Caliper
 BSC       .mm                   : Nominal Caliper
 TP1       .MCS                  : Sonic Time 1
 TP2       .MCS                  : Sonic Time 2
 DTP       .uSec/m               : Sonic travel time
 MLL       .OHMM                 : MICROLATEROLOG
 MNOR      .OHMM                 : MICRONORMAL A0.05M
 MINV      .OHMM                 : MICROLATERAL A0.025M0.025N
 TEMP      .C                    : Formation Temperature
 IKD1F3    .OHMM                 : Induction zonde IKD1F3
 IKD2F3    .OHMM                 : Induction zonde IKD2F3
 IKD3F3    .OHMM                 : Induction zonde IKD3F3
 IKD4F3    .OHMM                 : Induction zonde IKD4F3
 IKD5F3    .OHMM                 : Induction zonde IKD5F3
~A Log data section
# ...
 235.2000  297.7800    0.9650    4.0110    3.5550  266.1440    0.2850    2.2270    9.1200    0.9810    0.6980    0.4591    2.8770  215.8290  217.6640  218.5011  215.9000 1438.5520 1474.8800  364.3958    2.1680    0.6450    0.5530   31.3370    3.2620    3.4770    3.7690    3.9010    3.9710 
 235.3000  297.5300    0.9780    3.9230    3.4980  266.0150    0.2850    2.2590    9.3080    0.9350    0.6930    0.4922    2.7040  215.2230  217.2950  218.4785  215.9000 1439.6780 1477.8800  369.9074    2.0382    0.6290    0.5530   31.3390    3.1780    3.4930    3.7680    3.8050    3.8210 
 235.4000  297.0640    0.9530    3.8090    3.4730  265.8770    0.2860    2.2680    9.4760    0.9650    0.6790    0.4702    2.6150  214.9510  216.2440  218.3320  215.9000 1442.0980 1477.9800  388.7951    1.9146    0.6200    0.5580   31.3410    3.1460    3.4340    3.7480    3.7390    3.7040 
 235.5000  297.0660    0.9370    3.6620    3.4630  265.7320    0.2850    2.2570    9.5330    0.9980    0.6660    0.4477    2.4550  214.6860  215.8090  218.2602  215.9000 1440.3220 1480.2300  399.8472    1.8226    0.6180    0.5240   31.3420    3.0090    3.3260    3.6190    3.6130    3.6200 
 235.6000  297.2280    0.9540    3.5110    3.4630  265.5750    0.2840    2.2610    9.4950    0.9980    0.6740    0.4477    2.3920  213.4000  215.4190  218.2540  215.9000 1434.7500 1485.3800  393.9086    1.7241    0.6180    0.4580   31.3440    2.8560    3.1990    3.5260    3.5210    3.5710 
 235.7000  297.6680    0.9860    3.3720    3.4790  265.4000    0.2840    2.2580    9.4620    1.0120    0.6920    0.4387    2.3480  212.6830  215.0260  218.2882  215.9000 1433.2500 1488.3280  380.6192    1.7832    0.6180    0.5060   31.3450    2.8110    3.1300    3.4320    3.4760    3.5060 
 235.8000  297.5310    0.9720    3.2690    3.5130  265.2030    0.2830    2.2080    9.4950    1.0300    0.6970    0.4275    2.3620  212.7560  214.7470  218.2785  215.9000 1433.0980 1487.2500  365.2650    1.8144    0.6190    0.5270   31.3460    2.8370    3.1410    3.4040    3.4670    3.4880 
 235.9000  297.4160    0.9080    3.2190    3.5450  264.9780    0.2830    2.1450    9.5720    1.0340    0.7000    0.4250    2.4000  212.8100  214.6310  218.2563  215.9000 1429.8740 1485.8020  356.8542    1.8170    0.6210    0.5010   31.3470    2.9090    3.1930    3.4010    3.4820    3.4910 
 236.0000  297.3240    0.9610    3.2190    3.5630  264.7600    0.2830    2.1260    9.5790    1.0590    0.7170    0.4102    2.5020  212.8920  214.7030  218.3170  215.9000 1425.4280 1486.9280  351.8067    1.7584    0.6290    0.5210   31.3490    3.0210    3.2240    3.4090    3.5260    3.4710 
 236.1000  298.9950    1.0060    3.2290    3.6300  264.5390    0.2840    2.1720    9.3400    1.1610    0.7360    0.3571    2.6630  213.2640  215.0440  218.3537  215.9000 1426.5000 1489.5520  336.7998    1.7642    0.6400    0.5280   31.3500    3.0520    3.2140    3.4420    3.5600    3.4820 
 236.2000  300.2300    0.9540    3.2470    3.7370  264.2800    0.2850    2.2640    8.8600    1.3580    0.7410    0.2789    2.8680  215.0620  215.4360  218.5640  215.9000 1428.0000 1492.1780  316.0729    1.9370    0.6500    0.5520   31.3520    3.0730    3.2270    3.4360    3.5350    3.5870 
 236.3000  298.7600    1.0290    3.2900    3.8380  264.0340    0.2870    2.3460    8.3980    1.5290    0.7630    0.2286    3.0220  219.4360  215.7910  218.6851  215.9000 1428.0000 1494.8020  306.6574    1.9614    0.6560    0.5510   31.3540    3.1510    3.2590    3.4260    3.5890    3.8040 
 236.4000  299.7850    1.0800    3.4170    3.8870  263.7870    0.2890    2.3670    8.1320    1.6980    0.8520    0.1894    3.3210  222.6500  215.7580  218.7545  215.9000 1428.0000 1497.3800  310.3600    1.8322    0.6580    0.4810   31.3560    3.1050    3.2160    3.4660    3.7520    3.9900 
 236.5000  299.5410    1.1020    3.6130    3.8630  263.5550    0.2920    2.3360    8.0780    1.9550    0.9930    0.1437    3.8400  223.4510  216.2780  218.1049  215.9000 1428.0520 1498.8800  295.8218    1.8590    0.6580    0.5450   31.3580    3.0870    3.3300    3.7270    4.0650    4.1490 
 236.6000  297.6790    1.1000    3.8210    3.7860  263.3880    0.3010    2.3090    8.1870    2.1420    1.0730    0.1176    4.7250  221.5930  216.9150  217.9231  215.9000 1429.2820 1498.8800  256.0116    2.1132    0.6650    1.2140   31.3580    4.0260    4.0960    4.4660    4.5530    4.4360 
 236.7000  297.7840    1.0930    4.0150    3.6900  263.2380    0.3020    2.3220    8.4060    2.0990    1.0210    0.1232    5.2550  217.8810  216.4430  217.7787  215.9000 1434.0580 1499.0800  250.6238    2.1684    0.6760    1.3800   31.3590    6.4160    5.4600    5.3590    4.9730    4.7140 
 236.8000  298.1540    1.0880    4.1280    3.5600  263.1070    0.2990    2.3430    8.6740    1.8980    0.9060    0.1527    5.0010  215.5570  216.0920  217.8000  215.9000 1439.6300 1503.4280  258.0625    2.0000    0.6720    0.6960   31.3590    5.8000    5.2980    5.3160    4.9080    4.6590 
 236.9000  297.7460    1.0940    4.1480    3.4620  262.9810    0.2970    2.3410    8.9090    1.6760    0.8070    0.1941    4.1260  215.0900  215.7360  217.6501  215.9000 1441.1300 1510.5000  253.1528    2.0280    0.6620    0.5360   31.3590    3.7300    3.9120    4.2970    4.3930    4.2860 
 237.0000  296.8640    1.1020    4.0320    3.4060  262.8560    0.2990    2.3170    9.0430    1.4740    0.7500    0.2434    3.6130  215.0120  215.9920  217.0525  215.9000 1441.1300 1512.0000  262.5833    2.0278    0.6570    0.5340   31.3590    3.1250    3.2400    3.6050    3.9110    4.0370 
 237.1000  296.2080    1.1010    3.8540    3.3800  262.7250    0.3030    2.2790    9.0710    1.2830    0.7210    0.3056    3.4100  215.0550  216.1050  216.9880  215.9000 1441.1300 1512.0000  297.4907    1.8973    0.6550    0.5360   31.3590    3.1030    3.1650    3.3520    3.5640    3.8720 
 237.2000  296.2540    1.1130    3.7050    3.3590  262.5940    0.3020    2.2490    9.0550    1.1020    0.7020    0.3865    3.2990  215.0750  216.1620  217.0024  215.9000 1441.1300 1512.1000  320.6887    1.9559    0.6540    0.5130   31.3610    3.1710    3.2180    3.3380    3.3930    3.6830 
 237.3000  295.8330    1.1330    3.6170    3.3440  262.4480    0.3020    2.2520    9.0290    1.0020    0.6940    0.4451    3.1600  215.0190  216.0640  216.9896  215.9000 1441.1780 1514.4020  322.3056    1.9879    0.6520    0.5090   31.3640    3.1510    3.2160    3.3740    3.3930    3.5010 
 237.4000  295.5910    1.1700    3.5650    3.3300  262.3080    0.3030    2.2800    8.9460    1.0190    0.6920    0.4343    3.0240  214.9160  215.8340  216.9997  215.9000 1442.3500 1520.6300  326.5637    2.0973    0.6460    0.5270   31.3670    3.1890    3.2320    3.4110    3.4540    3.4310 
 237.5000  296.1880    1.1340    3.5280    3.3290  262.1590    0.3030    2.2940    8.7570    0.9900    0.6950    0.4530    3.0240  214.8990  215.9250  216.9515  215.9000 1446.1000 1525.1300  344.4016    2.0523    0.6340    0.5360   31.3690    3.2370    3.3080    3.4590    3.5010    3.4640 
 237.6000  296.5250    1.1180    3.5050    3.3560  261.9880    0.3020    2.2920    8.4980    0.8640    0.6970    0.5510    3.0690  214.8920  215.5120  217.0549  215.9000 1451.3500 1525.1780  354.2569    1.9672    0.6180    0.5410   31.3710    3.2550    3.3680    3.5140    3.5060    3.4970 
 237.7000  296.8620    1.1490    3.4780    3.3780  261.8250    0.3020    2.2770    8.3070    0.8420    0.6940    0.5715    3.0960  215.3970  216.1300  216.9959  215.9000 1456.5000 1526.4020  359.0081    2.0405    0.5990    0.5050   31.3720    3.2450    3.3320    3.5180    3.4960    3.5280 
 237.8000  297.3150    1.1840    3.4690    3.3920  261.6600    0.3020    2.2770    8.3060    0.9520    0.6900    0.4796    3.1020  214.8330  215.3760  216.9880  215.9000 1459.5000 1531.1300  367.6910    1.9581    0.5850    0.5000   31.3740    3.1170    3.2230    3.4500    3.4950    3.5430 
 237.9000  298.0730    1.2150    3.4740    3.4070  261.5030    0.3040    2.3020    8.5240    1.0300    0.6860    0.4275    3.1630  214.2730  214.8000  216.9880  215.9000 1459.5000 1535.6300  377.6725    2.1310    0.5770    0.4900   31.3750    3.0210    3.1600    3.3880    3.5180    3.5590 
