~VERSION INFORMATION
 VERS.                 2.0:   CWLS LOG ASCII STANDARD - VERSION 2.0
 WRAP.                  NO:   SINGLE LINE PER DEPTH STEP
~WELL INFORMATION
#MNEM.UNIT       DATA           DESCRIPTION MNEMONIC
#---------    -------------   --------------------------
 STRT.M         0.0000                        : START DEPTH
 STOP.M         829.0000                      : STOP DEPTH
 STEP.M         0.1000                        : STEP VALUE
 NULL.          -999.0000                     : NULL VALUE
 SRVC.          SCH                           : Service Company/Logging company
 DATE.          24.09.2023                    : LAS file Creation Date
 WELL    .      Каратобе 335                  : Well Name
 STATE   .      1                             : State
 COUNT   .      KAZAKHSTAN                    : Country
~CURVE INFORMATION
#MNEM          UNIT     API CODE   Description
#---------- ---------- ----------  -----------
 DEPTH     .M                    : DEPTH
 AZIM      .deg                  : Azimuth
 DEVI      .deg                  : Deviatiom
 GZ3       .OHMM                 : APP.RESISTIVITY BY LATERAL A2.0M0.5N
 GZB       .OHMM                 : APP.RESISTIVITY BY LATERAL N0.5M2.0A
 SP        .mV                   : Spontaneous Potential
 RB        .OHMM                 : Mud Resistivity
 RHOB      .G/C3                 : BULK DENSITY BY DGGL
 GR        .uR/h                 : GAMMA RAYS
 RFTN      .CPM                  : NEUTRON-NEUTRON(T) FAR
 RNTN      .CPM                  : NEUTRON-NEUTRON(T) NEAR
 TNPH      .V/V                  : Neutron porosity
 LL3       .OHMM                 : APPAR.RESIST. LATEROLOG 3 ELECTRODES
 C1        .mm                   : CALIPER DIAMETER 1
 C2        .mm                   : CALIPER DIAMETER 2
 CALI      .mm                   : Caliper
 BSC       .mm                   : Nominal Caliper
 TP1       .MCS                  : Sonic Time 1
 TP2       .MCS                  : Sonic Time 2
 DTP       .uSec/m               : Sonic travel time
 MLL       .OHMM                 : MICROLATEROLOG
 MNOR      .OHMM                 : MICRONORMAL A0.05M
 MINV      .OHMM                 : MICROLATERAL A0.025M0.025N
 TEMP      .C                    : Formation Temperature
 IKD1F3    .OHMM                 : Induction zonde IKD1F3
 IKD2F3    .OHMM                 : Induction zonde IKD2F3
 IKD3F3    .OHMM                 : Induction zonde IKD3F3
 IKD4F3    .OHMM                 : Induction zonde IKD4F3
 IKD5F3    .OHMM                 : Induction zonde IKD5F3
~A Log data section
# ...
 324.8000  306.2750    1.2990    3.0210    2.6810  257.8070    0.2690    2.2960   10.6320    0.8940    0.6630    0.5249    2.0840  238.2250  237.1210  222.5067  215.9000 1395.4220 1452.6980  354.5289    2.8451    0.2700    0.2060   32.2920    2.3580    2.6190    2.7720    2.9030    2.9980 
 324.9000  305.4170    1.4200    2.8480    2.7550  257.8730    0.2700    2.2440   10.9750    0.8450    0.6340    0.5686    2.0550  268.3850  264.6780  238.0965  215.9000 1395.0520 1452.9680  364.2384    2.7403    0.2700    0.2840   32.2900    2.2170    2.4140    2.5920    2.8180    2.9660 
 325.0000  307.0920    1.4260    2.7940    2.8130  257.9720    0.2720    2.2130   11.3390    0.8540    0.6370    0.5602    2.2170  276.5950  269.3950  253.9243  215.9000 1397.6780 1448.2440  365.8287    2.6743    0.2730    0.2540   32.2880    2.3420    2.5300    2.6670    2.8630    2.9800 
 325.1000  308.2500    1.4090    2.8490    2.8770  258.0460    0.2770    2.2210   11.5920    0.8730    0.6540    0.5430    2.4300  263.8380  245.4740  249.3064  215.9000 1400.0460 1443.7500  368.8414    2.6301    0.2840    0.3410   32.2890    2.7100    2.8880    2.9760    3.0260    3.0500 
 325.2000  308.9430    1.4110    2.9110    2.9040  258.0620    0.2840    2.2620   11.7310    0.8660    0.6610    0.5492    2.6680  241.9960  232.6670  236.1945  215.9000 1397.1920 1443.9020  371.0556    2.2646    0.3080    0.4060   32.2890    3.3230    3.3330    3.3930    3.3070    3.1640 
 325.3000  308.6710    1.3950    2.9860    2.9200  258.0040    0.2850    2.2960   11.7950    0.8850    0.6500    0.5325    2.7360  226.1880  238.6410  227.2693  215.9000 1390.4280 1447.2300  366.9792    1.9351    0.3460    0.3620   32.2890    3.3740    3.4280    3.4790    3.4360    3.2600 
 325.4000  306.8470    1.3720    3.0330    2.9480  257.9000    0.2830    2.2910   11.7910    0.9420    0.6430    0.4869    2.7620  230.3110  250.2420  223.8966  215.9000 1395.4340 1453.9280  362.5208    2.0024    0.3920    0.5160   32.2890    2.9300    3.1200    3.2590    3.3500    3.3180 
 325.5000  304.2870    1.3570    3.0250    2.9810  257.8170    0.2820    2.2520   11.7040    0.9750    0.6550    0.4632    2.8210  235.2930  250.6630  223.4422  215.9000 1405.5520 1458.3560  360.1644    2.1343    0.4410    0.4770   32.2880    2.7560    2.8930    3.0550    3.2520    3.3490 
 325.6000  304.8080    1.3430    3.0230    3.0010  257.7740    0.2820    2.2120   11.5010    0.9940    0.6750    0.4504    2.9310  230.6360  242.5740  223.3105  215.9000 1408.2820 1467.4340  360.7859    2.5069    0.4840    0.3640   32.2880    2.7450    2.8300    2.9650    3.1490    3.3640 
 325.7000  305.4490    1.3370    3.0590    3.0020  257.8040    0.2810    2.2020   11.2410    1.0200    0.6880    0.4336    3.0720  235.8310  237.4100  223.3493  215.9000 1413.1580 1478.9480  353.8391    2.9389    0.5140    0.4660   32.2890    2.8160    2.9040    3.0470    3.1500    3.3670 
 325.8000  305.8560    1.3460    3.1030    2.9900  257.8790    0.2800    2.2450   11.0510    1.0480    0.7030    0.4166    3.2590  232.5540  226.4990  223.4045  215.9000 1420.8800 1479.5740  350.3252    2.9350    0.5290    0.5240   32.2900    3.0820    3.0710    3.1650    3.2510    3.3550 
 325.9000  305.7930    1.3580    3.1270    2.9590  257.9950    0.2800    2.3150   10.9740    1.0740    0.7190    0.4017    3.3120  218.8870  222.8580  223.4316  215.9000 1425.3800 1482.4280  356.9734    2.7688    0.5430    0.5790   32.2910    3.2190    3.1830    3.2720    3.3110    3.3320 
 326.0000  306.4130    1.3700    3.1260    2.9410  258.0840    0.2790    2.3630   11.0290    1.0730    0.7350    0.4023    3.4150  221.9820  218.9980  223.4565  215.9000 1425.3800 1489.5520  354.1620    2.7918    0.5660    0.5050   32.2930    3.2420    3.2200    3.2800    3.3340    3.3340 
 326.1000  307.3090    1.3760    3.1010    2.9380  258.1490    0.2790    2.3750   11.1800    1.0640    0.7460    0.4074    3.3280  223.1410  221.6660  223.7209  215.9000 1425.6840 1492.1780  336.3275    2.6679    0.5920    0.5310   32.2950    3.2400    3.1790    3.2060    3.2900    3.3260 
 326.2000  308.2830    1.3680    3.0530    2.9540  258.1900    0.2790    2.3640   11.2970    1.1260    0.7500    0.3742    3.3020  223.1180  222.6460  223.8238  215.9000 1432.1840 1494.8020  326.9120    2.6135    0.6060    0.4550   32.2960    3.0560    3.0490    3.1170    3.1880    3.2880 
 326.3000  308.1680    1.3690    3.0140    2.9850  258.2140    0.2780    2.3410   11.3500    1.2120    0.7420    0.3342    3.2080  219.8870  223.7600  224.6042  215.9000 1442.1980 1497.5800  331.4942    2.7577    0.6080    0.5410   32.2970    2.9530    2.9480    3.0360    3.1160    3.2220 
 326.4000  308.1120    1.4000    2.9880    3.0210  258.2800    0.2780    2.3120   11.3600    1.2190    0.7310    0.3312    3.1840  216.6680  227.9290  225.0338  215.9000 1442.6240 1503.4280  335.3264    2.6726    0.6090    0.4750   32.2970    3.0020    2.9480    3.0090    3.0750    3.1830 
 326.5000  309.6270    1.3530    2.9830    3.0580  258.3920    0.2780    2.2870   11.3430    1.1620    0.7320    0.3567    3.1320  216.8340  229.6340  224.5950  215.9000 1441.0780 1510.5000  314.6759    2.7091    0.6100    0.5020   32.2960    3.0290    2.9940    3.0350    3.0630    3.1560 
 326.6000  308.4440    1.3130    2.9960    3.0870  258.5670    0.2780    2.2870   11.3070    1.1120    0.7500    0.3813    3.0720  218.2860  222.6320  223.8490  215.9000 1440.0520 1511.9480  287.7257    2.9368    0.6130    0.5200   32.2960    3.0310    2.9910    3.0350    3.0650    3.1180 
 326.7000  308.3270    1.3460    3.0200    3.1050  258.7660    0.2780    2.3100   11.2200    1.1310    0.7720    0.3717    3.0470  216.4310  223.2490  223.7117  215.9000 1439.7300 1510.8740  289.8044    2.9749    0.6220    0.5270   32.2970    2.9730    2.9570    3.0070    3.0490    3.0770 
 326.8000  313.2140    1.3850    3.0460    3.1210  258.9460    0.2780    2.3370   11.0920    1.2150    0.7890    0.3329    2.9740  217.5220  225.1550  223.7653  215.9000 1443.3280 1509.3800  321.9063    2.8509    0.6350    0.5490   32.2980    2.9420    2.9390    2.9690    3.0240    3.0520 
 326.9000  311.0970    1.3730    3.0590    3.1590  259.0550    0.2780    2.3480   10.9520    1.2760    0.8010    0.3083    2.9810  216.4060  229.8280  223.7720  215.9000 1445.1980 1509.3280  336.5370    3.0554    0.6510    0.5370   32.2980    2.9420    2.9360    2.9520    3.0030    3.0440 
 327.0000  308.8860    1.3270    3.0310    3.2010  259.0660    0.2780    2.3340   10.8240    1.3110    0.8090    0.2953    2.9120  214.2370  224.9530  224.3930  215.9000 1442.5200 1508.1500  321.7037    2.7972    0.6690    0.7580   32.2970    2.8900    2.9110    2.9360    2.9840    3.0340 
 327.1000  308.9420    1.3460    2.9700    3.2520  259.0060    0.2770    2.3090   10.7290    1.3730    0.8110    0.2740    2.9260  216.3060  221.4960  225.4151  215.9000 1438.8220 1504.4480  334.5949    2.8949    0.6740    0.7760   32.2960    2.8650    2.8690    2.9250    2.9880    3.0270 
 327.2000  309.9020    1.3600    2.9150    3.3090  258.9110    0.2790    2.2830   10.6950    1.4270    0.8060    0.2570    2.9320  216.9600  220.3800  226.3022  215.9000 1434.6980 1500.3220  359.9340    2.7906    0.6680    0.6670   32.2950    2.8490    2.8590    2.9230    3.0060    3.0360 
 327.3000  309.9750    1.3520    2.8720    3.3490  258.8490    0.2770    2.2630   10.7640    1.4110    0.7960    0.2619    2.9780  215.9840  222.0900  227.6463  215.9000 1431.7640 1497.6500  345.8067    3.0296    0.6670    0.4630   32.2980    2.8960    2.8980    2.9710    3.0330    3.0620 
 327.4000  307.7910    1.3490    2.8680    3.3560  258.8100    0.2770    2.2570   10.8890    1.3350    0.7830    0.2868    3.0190  216.5040  223.7960  226.6394  215.9000 1422.5341 1493.5920  334.2106    2.8539    0.6670    0.5780   32.3010    2.9800    2.9540    3.0200    3.0710    3.0860 
 327.5000  305.5920    1.3440    2.8820    3.3400  258.8380    0.2760    2.2580   11.0390    1.2460    0.7720    0.3201    3.0230  218.4510  220.9450  224.5464  215.9000 1407.7200 1481.9880  353.2303    2.7423    0.6680    0.5900   32.3040    2.9530    2.9570    3.0350    3.0930    3.0900 
