~VERSION INFORMATION
 VERS.                 2.0:   CWLS LOG ASCII STANDARD - VERSION 2.0
 WRAP.                  NO:   SINGLE LINE PER DEPTH STEP
~WELL INFORMATION
#MNEM.UNIT       DATA           DESCRIPTION MNEMONIC
#---------    -------------   --------------------------
 STRT.M         0.0000                        : START DEPTH
 STOP.M         829.0000                      : STOP DEPTH
 STEP.M         0.1000                        : STEP VALUE
 NULL.          -999.0000                     : NULL VALUE
 SRVC.          SCH                           : Service Company/Logging company
 DATE.          24.09.2023                    : LAS file Creation Date
 WELL    .      Каратобе 335                  : Well Name
 STATE   .      1                             : State
 COUNT   .      KAZAKHSTAN                    : Country
~CURVE INFORMATION
#MNEM          UNIT     API CODE   Description
#---------- ---------- ----------  -----------
 DEPTH     .M                    : DEPTH
 AZIM      .deg                  : Azimuth
 DEVI      .deg                  : Deviatiom
 GZ3       .OHMM                 : APP.RESISTIVITY BY LATERAL A2.0M0.5N
 GZB       .OHMM                 : APP.RESISTIVITY BY LATERAL N0.5M2.0A
 SP        .mV                   : Spontaneous Potential
 RB        .OHMM                 : Mud Resistivity
 RHOB      .G/C3                 : BULK DENSITY BY DGGL
 GR        .uR/h                 : GAMMA RAYS
 RFTN      .CPM                  : NEUTRON-NEUTRON(T) FAR
 RNTN      .CPM                  : NEUTRON-NEUTRON(T) NEAR
 TNPH      .V/V                  : Neutron porosity
 LL3       .OHMM                 : APPAR.RESIST. LATEROLOG 3 ELECTRODES
 C1        .mm                   : CALIPER DIAMETER 1
 C2        .mm                   : CALIPER DIAMETER 2
 CALI      .mm                   : Caliper
 BSC       .mm                   : Nominal Caliper
 TP1       .MCS                  : Sonic Time 1
 TP2       .MCS                  : Sonic Time 2
 DTP       .uSec/m               : Sonic travel time
 MLL       .OHMM                 : MICROLATEROLOG
 MNOR      .OHMM                 : MICRONORMAL A0.05M
 MINV      .OHMM                 : MICROLATERAL A0.025M0.025N
 TEMP      .C                    : Formation Temperature
 IKD1F3    .OHMM                 : Induction zonde IKD1F3
 IKD2F3    .OHMM                 : Induction zonde IKD2F3
 IKD3F3    .OHMM                 : Induction zonde IKD3F3
 IKD4F3    .OHMM                 : Induction zonde IKD4F3
 IKD5F3    .OHMM                 : Induction zonde IKD5F3
~A Log data section
# ...
 459.2000  270.6980    1.0490    3.6450    2.8760  266.6830    0.3400    2.2600    9.0260    0.9780    0.7500    0.4612    3.6610  218.7110  220.9530  222.6996  215.9000 1379.2460 1442.0280  370.5081    3.2639    0.6440    0.9930   33.6980    3.0820    2.8600    2.8690    2.8740    3.0000 
 459.3000  271.6050    1.0580    3.5920    2.8650  266.5630    0.3380    2.2950    9.3350    1.0160    0.7560    0.4362    3.7270  221.0610  216.7010  222.6413  215.9000 1383.0380 1449.9540  361.0359    3.1969    0.6480    0.5670   33.7010    3.0920    2.8920    2.9260    2.9260    2.9910 
 459.4000  272.5200    1.0640    3.5400    2.8710  266.4280    0.3350    2.3060    9.8910    1.0690    0.7540    0.4045    3.6410  222.8060  218.2750  222.7061  215.9000 1388.3300 1458.7560  363.0567    3.1461    0.6210    0.4930   33.7040    3.0680    2.8800    2.9210    2.9500    2.9700 
 459.5000  273.4550    1.0670    3.4800    2.8880  266.3150    0.3300    2.2950   10.5880    1.0900    0.7480    0.3929    3.5330  221.1960  221.0590  222.6906  215.9000 1388.1820 1464.3940  365.8252    3.0019    0.5950    0.6590   33.7060    3.0180    2.8620    2.8960    2.9020    2.9550 
 459.6000  273.6370    1.0660    3.4100    2.9180  266.1580    0.3270    2.2770   11.1530    1.0730    0.7410    0.4023    3.4410  222.6630  220.3630  222.6763  215.9000 1385.0640 1457.0680  363.8345    2.7832    0.5800    0.5420   33.7070    2.9230    2.7870    2.8260    2.8260    2.8990 
 459.7000  273.1840    1.0650    3.3020    2.9590  266.0250    0.3270    2.2750   11.4560    1.0530    0.7430    0.4137    3.2760  222.7550  219.9790  222.7101  215.9000 1380.8840 1450.5240  366.0231    2.5888    0.5750    0.5310   33.7080    2.7670    2.6520    2.7160    2.7410    2.8160 
 459.8000  273.3640    1.0620    3.2000    3.0050  265.8590    0.3310    2.2890   11.4890    1.0430    0.7440    0.4196    3.1810  222.5770  219.8770  222.5754  215.9000 1384.3459 1448.9940  370.1829    2.4934    0.5750    0.4370   33.7100    2.6610    2.5600    2.6250    2.6680    2.7510 
 459.9000  272.8670    1.0590    3.0970    3.0530  265.7510    0.3330    2.2980   11.2880    1.0470    0.7360    0.4172    3.0520  221.5840  219.9260  222.6500  215.9000 1389.0820 1438.5520  360.7211    2.3811    0.5750    0.4600   33.7110    2.6520    2.5330    2.5820    2.6360    2.7080 
 460.0000  271.5060    1.0390    3.0120    3.0940  265.7040    0.3350    2.2950   10.9630    1.0460    0.7260    0.4178    3.0050  219.3530  220.3450  222.6753  215.9000 1387.2860 1439.6300  352.6470    2.4495    0.5750    0.4900   33.7130    2.6380    2.5330    2.5830    2.6280    2.6760 
 460.1000  271.3710    1.0080    2.9440    3.1310  265.7040    0.3350    2.2920   10.7770    1.0260    0.7220    0.4299    2.9810  217.8250  220.5870  222.6896  215.9000 1384.6700 1441.1541  350.5532    2.5318    0.5760    0.4510   33.7140    2.6370    2.5510    2.6110    2.6330    2.6520 
 460.2000  271.9490    1.0150    2.8890    3.1670  265.7620    0.3410    2.2960   10.8970    1.0290    0.7270    0.4281    2.9930  217.2590  220.3140  222.7153  215.9000 1382.0740 1441.7140  344.9155    2.6492    0.5800    0.5120   33.7130    2.6740    2.5850    2.6130    2.6420    2.6450 
 460.3000  269.7710    1.0330    2.8550    3.2000  265.8940    0.3400    2.3000   11.2980    1.1070    0.7400    0.3839    2.9920  217.4910  219.6380  222.6433  215.9000 1378.5300 1443.0000  335.9711    2.6512    0.5900    0.5470   33.7130    2.7000    2.6060    2.6360    2.6460    2.6460 
 460.4000  266.7850    1.0020    2.8450    3.2640  266.0820    0.3380    2.2970   11.8470    1.2570    0.7530    0.3157    3.0120  217.8270  218.2590  222.6350  215.9000 1380.2300 1443.7740  343.0775    2.7249    0.6050    0.5010   33.7130    2.6770    2.5910    2.6250    2.6420    2.6420 
 460.5000  270.8860    0.9910    2.8390    3.3260  266.2620    0.3430    2.2980   12.3970    1.3470    0.7640    0.2826    3.0300  217.5190  216.8960  222.6638  215.9000 1382.6240 1444.3380  353.5938    2.6790    0.6250    0.6360   33.7140    2.6480    2.5900    2.6470    2.6440    2.6550 
 460.6000  272.0480    0.9930    2.8330    3.3870  266.4550    0.3500    2.3090   12.7760    1.2750    0.7690    0.3087    3.0680  215.0280  217.6340  222.7669  215.9000 1383.0840 1445.6780  346.9734    2.6462    0.6530    0.9200   33.7150    2.7110    2.6100    2.6570    2.6600    2.6860 
 460.7000  271.4180    0.9900    2.8400    3.4560  266.5910    0.3510    2.3230   12.7370    1.0410    0.7600    0.4208    3.1070  213.8390  216.8970  222.8725  215.9000 1383.9160 1447.6520  352.0347    2.3474    0.6940    0.7280   33.7160    2.7280    2.6050    2.6600    2.6850    2.7100 
 460.8000  272.1600    0.9870    2.8520    3.5030  266.7360    0.3470    2.3190   12.3200    0.8260    0.7400    0.5872    3.1460  213.4270  216.6420  222.8866  215.9000 1388.0980 1452.3800  366.6782    2.6176    0.7410    0.7880   33.7160    2.6330    2.5840    2.6590    2.7110    2.7450 
 460.9000  273.0190    0.9890    2.8450    3.5040  266.8360    0.3480    2.2790   11.6450    0.7670    0.7220    0.6514    3.2870  213.9140  217.0730  222.8546  215.9000 1393.9301 1456.9280  380.8102    3.1417    0.7710    0.6120   33.7160    2.7350    2.6220    2.6910    2.7450    2.7830 
 461.0000  272.7880    0.9820    2.8590    3.4690  266.9470    0.3500    2.2420   10.9140    0.7810    0.7050    0.6351    3.4220  213.6990  217.3010  222.8483  215.9000 1394.0620 1457.9480  400.9329    3.2903    0.7790    0.6260   33.7160    2.8590    2.7060    2.7630    2.8110    2.8340 
 461.1000  272.2570    0.9380    2.8530    3.4210  267.0810    0.3420    2.2240   10.2980    0.8180    0.6940    0.5953    3.6360  214.4550  218.4300  222.8795  215.9000 1396.9160 1458.3220  394.3438    3.2880    0.7790    0.5960   33.7180    2.9310    2.7650    2.8240    2.8570    2.8650 
 461.2000  270.2550    0.9740    2.8300    3.4030  267.2530    0.3510    2.1780    9.9200    0.9110    0.7170    0.5109    3.6830  215.4780  218.9610  222.8830  215.9000 1400.8280 1455.7500  383.4676    3.7225    0.7820    0.9450   33.7210    2.9450    2.8070    2.8550    2.8830    2.8800 
 461.3000  270.9870    0.9990    2.8040    3.3750  267.4930    0.3530    2.1290    9.8760    1.0360    0.7700    0.4238    3.8400  213.0180  216.4770  222.9190  215.9000 1399.3361 1454.3020  366.7407    3.4642    0.8050    0.9690   33.7240    3.0430    2.8450    2.9200    2.9280    2.9330 
 461.4000  271.4840    0.9930    2.7690    3.3820  267.7630    0.3470    2.1410   10.0920    1.1480    0.8160    0.3633    3.8970  213.4940  220.3940  222.9140  215.9000 1397.0920 1455.3280  317.9931    3.5024    0.8700    0.9760   33.7260    3.0210    2.8430    2.8990    2.9190    2.9410 
 461.5000  271.2450    0.9860    2.7190    3.4150  268.0530    0.3450    2.2320   10.3950    1.2270    0.8140    0.3279    4.0940  213.5300  225.8560  222.8968  215.9000 1393.5040 1455.6980  311.6574    3.3484    0.9580    0.8830   33.7260    3.0210    2.8230    2.9050    2.9250    2.9620 
 461.6000  270.5690    0.9790    2.6770    3.4740  268.2850    0.3450    2.3130   10.6680    1.2480    0.7860    0.3193    4.1120  214.5630  221.6490  222.8149  215.9000 1387.5000 1453.0720  326.4097    3.2628    0.9690    0.8770   33.7270    3.0460    2.8450    2.9160    2.9400    2.9660 
 461.7000  269.3090    0.9780    2.6480    3.5590  268.5260    0.3430    2.3200   10.8530    1.1820    0.7710    0.3474    4.1330  214.5060  219.5250  222.8042  215.9000 1386.0000 1450.4000  339.5486    3.3255    0.8990    0.8410   33.7280    3.1630    2.9080    2.9690    2.9620    2.9830 
 461.8000  268.5900    0.9830    2.6410    3.6710  268.6920    0.3400    2.3130   10.9330    1.1030    0.7790    0.3860    4.1410  214.1270  230.8110  222.8751  215.9000 1386.0520 1446.5460  356.5637    3.1495    0.8240    0.7830   33.7280    3.1550    2.9520    2.9990    2.9780    2.9950 
 461.9000  268.3610    0.9810    2.6340    3.8140  268.8580    0.3370    2.3280   10.9080    1.0800    0.7920    0.3984    4.0750  214.1930  228.7410  222.8074  215.9000 1387.1300 1439.6040  358.5382    3.1356    0.7590    0.8180   33.7290    3.1460    2.9570    3.0070    2.9870    2.9870 
