~Version
 VERS              .         2.0                           : CWLS LOG ASCII STANDARD - VERSION 2.0
 WRAP              .         YES                            : ONE LINE PER DEPTH STEP
 DLM               .         SPACE                         : DELIMITING CHARACTER(SPACE TAB OR COMMA)
~Well Information
#_______________________________________________________________________________
#
#PARAMETER_NAME    .UNIT     VALUE                         : DESCRIPTION
#_______________________________________________________________________________
STRT               .M        0                             : First reference value
STOP               .M        740                           : Last reference value
STEP               .M        0.1                           : Step increment
NULL               .         -999.25                       : Missing value
COMP               .         COMPANY                       : Company
WELL               .         348                           : Well name
FLD                .         Karatube                      : Field
LOC                .         Atyrau                        : Location
CNTY               .                                       : County
STAT               .                                       : State
CTRY               .                                       : Country
SRVC               .         SCH                           : Service Company
DATE               .         09.09.2024                    : Date
API                .                                       : API number
APDAT              .         136.988                       : Elevation Above Permanent Datum
BHS                .         OPEN                          : Completion Status
COUNT              .         Kazakhstan                    : Country
DF                 .         136.988                       : DF Elevation
DRMEA              .         DF                            : Drill Measured From
EPDAT              .         0                             : Elevation of Permanent Datum
GL                 .         131.788                       : GL Elevation
KB                 .         0                             : KB Elevation
LGMEA              .         DF                            : Log Measured from
LATI               .         47.93162                      : Latitude/Northing
LONG               .         56.55725                      : Longitude/Easting
ORIGINALWELLNAME   .         348                           : 
PDAT               .         MSL                           : Permanent Datum
RWS                .         -999                          : Def_Rw
STATE              .         1_500 / 1_200                 : State
WST                .         -999                          : Def_Rwt
~Parameter Information Block
#_______________________________________________________________________________
#
#PARAMETER_NAME    .UNIT     VALUE                         : DESCRIPTION
#_______________________________________________________________________________
SET                .         model                         : 
TLFamily_AT10      .         Resistivity - Medium          : 
TLFamily_AT20      .         Resistivity (Array)           : 
TLFamily_AT30      .         Resistivity (Array)           : 
TLFamily_AT60      .         Resistivity (Array)           : 
TLFamily_AT90      .         Resistivity - Deep            : 
TLFamily_BSC       .         Bit Size                      : 
TLFamily_C1        .         Caliper 1                     : 
TLFamily_C2        .         Caliper 2                     : 
TLFamily_CALI      .         Caliper                       : 
TLFamily_CFTC      .         Neutron Far                   : 
TLFamily_CNTC      .         Neutron Near                  : 
TLFamily_DEPTH     .         Measured Depth                : 
TLFamily_DT        .         Compressional Slowness        : 
TLFamily_GR        .         Gamma Ray                     : 
TLFamily_HAZIM     .         Hole Azimuth                  : 
TLFamily_HCGR      .         Gamma Ray                     : 
TLFamily_HSGR      .         Gamma Ray                     : 
TLFamily_HTPR      .                                       : 
TLFamily_HTUR      .                                       : 
TLFamily_HUPR      .                                       : 
TLFamily_MTEM_FILT .         Temperature                   : 
TLFamily_PEFZ      .         Photoelectric Factor          : 
TLFamily_PHIE      .         Effective Porosity            : 
TLFamily_PHIT      .         Total Porosity                : 
TLFamily_POTA      .         Potassium Concentration       : 
TLFamily_PURA      .         Uranium Concentration         : 
TLFamily_Perm      .         Permeability                  : 
TLFamily_RHOZ      .         Bulk Density                  : 
TLFamily_RLA1      .         Resistivity (Array)           : 
TLFamily_RLA2      .         Resistivity (Array)           : 
TLFamily_RLA3      .         Resistivity (Array)           : 
TLFamily_RLA4      .         Resistivity (Array)           : 
TLFamily_RLA5      .         Resistivity (Array)           : 
TLFamily_RT        .         Resistivity - True Formation  : 
TLFamily_RXO       .         Resistivity - Flushed Zone    : 
TLFamily_RXOZ      .         Resistivity - Flushed Zone    : 
TLFamily_SDEVM     .         Sonde Deviation               : 
TLFamily_SP        .         Spontaneous Potential         : 
TLFamily_SW        .         Water Saturation              : 
TLFamily_THOR      .         Thorium Concentration         : 
TLFamily_TNPH      .                                       : 
TLFamily_URAN      .         Uranium Concentration         : 
TLFamily_VCLAV     .         Clay Volume Fraction          : 
~Curve Information
#_______________________________________________________________________________
#
#LOGNAME           .UNIT     LOG_ID                        : DESCRIPTION
#_______________________________________________________________________________
DEPTH              .M                                      : Depth 
AT10               .ohm.m                                  : MedRes     21 Array Induction Two Foot Resistivity A10 
AT20               .ohm.m                                  : MedRes     22 Array Induction Two Foot Resistivity A20 
AT30               .ohm.m                                  : MedRes     23 Array Induction Two Foot Resistivity A30 
AT60               .ohm.m                                  : DeepRes    24 Array Induction Two Foot Resistivity A60 
AT90               .ohm.m                                  : XDeepRes   25 Array Induction Two Foot Resistivity A90 
BSC                .mm                                     : 11 Nominal Caliper 
C1                 .mm                                     : 8 CALIPER DIAMETER 1 
C2                 .mm                                     : 9 CALIPER DIAMETER 2 
CALI               .mm                                     : Caliper    10 
CFTC               .1/s                                    : 28 Corrected Far Thermal Count Rate 
CNTC               .1/s                                    : Neutron    29 Corrected Near Thermal Count Rate 
DT                 .uSec/m                                 : Sonic      19 Sonic travel time 
GR                 .gAPI                                   : 30 Gamma Ray 
HAZIM              .deg                                    : Azimuth    2 Hole Azimuth 
HCGR               .gAPI                                   : HNGS Computed Gamma Ray 
HSGR               .gAPI                                   : HNGS Standard Gamma-Ray 
HTPR               .                                       : HNGS Thorium/Potassium Ratio 
HTUR               .                                       : HNGS Thorium/Uranium Ratio 
HUPR               .                                       : HNGS Uranium/Potassium Ratio 
MTEM_FILT          .degC                                   : 20 Filtered Mud Temperature 
PEFZ               .B/E                                    : PEF        4 Formation Photoelectric Factor 
Perm               .md                                     : Permeability 
PHIE               .Dec                                    : Effective porosity 
PHIT               .Dec                                    : Total porosity 
POTA               .%                                      : HNGS Formation Potassium Concentration 
PURA               .ppm                                    : Upper Limit of Formation Uranium Concentration 
RHOZ               .g/cm3                                  : Density    5 Bulk Density 
RLA1               .ohm.m                                  : ShalRes    12 HRLT Borehole Corrected Resistivity 1 
RLA2               .ohm.m                                  : MedRes     13 HRLT Borehole Corrected Resistivity 2 
RLA3               .ohm.m                                  : DeepRes    14 HRLT Borehole Corrected Resistivity 3 
RLA4               .ohm.m                                  : XDeepRes   15 HRLT Borehole Corrected Resisitivity 4 
RLA5               .ohm.m                                  : UltraDeepR 16 HRLT Borehole Corrected Resistivity 5 
RT                 .ohm.m                                  : 17 HRLT True Formation Resistivity 
RXO                .ohm.m                                  : MicroRes   18 HRLT Invaded Zone Resistivity 
RXOZ               .ohm.m                                  : MicroRes   6 Invaded Formation Resistivity filtered at 18 inches 
SDEVM              .deg                                    : 3 Sonde Deviation 
SP                 .mV                                     : SP         27 Spontaneous Potential 
SW                 .Dec                                    : Water saturation 
THOR               .ppm                                    : HNGS Formation Thorium Concentration 
TNPH               .v/v                                    : Neutron porosity 
URAN               .ppm                                    : HNGS Formation Uranium Concentration 
VCLAV              .Dec                                    : Clay volume
~Ascii
# ...
608.3      
  1.5857     1.501799941062927 1.45       1.468000054359436 1.424299955368042 
  215.9      214.633    214.25     214.442    544.1857   1706.085   
  360.1351   125.9636   290.1285   82.1877    107.2458   6.664      
  4.3275     1.5404     31.8305    2.3306     0.9878     0.1273     
  0.1995     2.1021     3.6953     2.2888     2.1409     2.085200071334839 
  2.153199911117554 2.271500110626221 2.085299968719482 2.141999959945679 
  2.257200002670288 1.585299968719482 0.182      13.6176    1          
  13.9829    0.3677     3.2314     0.4814    
608.4      
  1.7715     1.714499950408936 1.6779     1.695799946784973 1.670199990272522 
  215.9      214.121    213.79     213.955    536.0653   1694.4851  
  365.3524   130.1983   290.3473   80.9204    106.1265   6.968      
  4.3005     1.6203     31.8312    2.255      8.458399999999999 0.1823     
  0.2373     2.0187     3.7225     2.242      2.8162     2.752399921417236 
  2.873199939727783 3.000999927520752 2.773900032043457 2.843800067901611 
  2.921299934387207 1.812000036239624 0.1814     13.6176    0.7529     
  14.066     0.3736     3.2708     0.3669    
608.5      
  2.0471     1.97409999370575 1.9826     2.019099950790405 2.009900093078613 
  215.9      212.231    212.288    212.26     520.3497   1688.8438  
  369.8016   128.0355   290.4232   78.676     105.2872   7.5854     
  4.0973     1.8513     31.8312    2.2223     28.3042    0.2146     
  0.2622     1.8725     3.8958     2.215      3.3224     3.265000104904175 
  3.440799951553345 3.534199953079224 3.281199932098389 3.379499912261963 
  3.210500001907349 2.208199977874756 0.1811     13.6176    0.5892     
  14.2037    0.3908     3.4666     0.3178    
608.6      
  2.2278     2.134799957275391 2.1862     2.221499919891357 2.311100006103516 
  215.9      211.734    212.224    211.979    520.9061   1699.8705  
  370.6986   126.1523   290.4422   78.9043    106.0364   8.0072     
  4.118      1.9439     31.8312    2.2254     16.3658    0.2017     
  0.2557     1.8223     3.9609     2.2097     2.8671     2.847599983215332 
  3.008899927139282 3.028800010681152 2.833199977874756 2.92549991607666 
  2.788899898529053 2.52839994430542 0.1809     13.6199    0.6763     
  14.5705    0.394      3.5378     0.3601    
608.7      
  2.1351     2.0903000831604 2.1186     2.104899883270264 2.269799947738647 
  215.9      212.161    212.807    212.483    529.6644   1717.402   
  369.8634   123.8239   290.4413   79.1325    106.7856   8.4289     
  4.1388     2.0365     31.8312    2.2405     8.0191     0.184      
  0.2445     1.7722     4.026      2.2106     2.5093     2.522700071334839 
  2.663599967956543 2.65149998664856 2.499799966812134 2.566299915313721 
  2.543999910354614 2.744999885559082 0.1808     13.6449    0.7894     
  14.9373    0.3895     3.609      0.4032    
608.8      
  2.0116     1.974699974060059 1.9709     1.946599960327148 2.038399934768677 
  215.9      214.048    213.013    213.53     539.5725   1724.4594  
  369.1345   117.9154   290.4917   80.1737    111.3733   9.6119     
  3.8498     2.4967     31.8312    2.2714     6.5951     0.1786     
  0.2395     1.6581     4.5618     2.2126     2.4978     2.537400007247925 
  2.648099899291992 2.609299898147583 2.482100009918213 2.550299882888794 
  2.58459997177124 2.86050009727478 0.1807     13.8019    0.8151     
  15.9379    0.3801     4.1399     0.4059    
608.9      
  1.975      1.876799941062927 1.8532     1.82449996471405 1.846799969673157 
  215.9      213.83     213.89     213.86     561.3854   1735.4812  
  365.5279   114.7481   290.2336   82.8785    116.8695   10.4267    
  3.786      2.7584     31.8312    2.3203     4.891      0.1698     
  0.2296     1.6297     4.9267     2.2229     2.5877     2.630199909210205 
  2.696099996566772 2.641999959945679 2.528300046920776 2.595900058746338 
  2.820600032806396 2.61139988899231 0.1805     14.1864    0.8466     
  16.9694    0.3601     4.4881     0.399     
609        
  1.8849     1.787700057029724 1.8217     1.830999970436096 1.826900005340576 
  215.9      212.377    214.858    213.614    586.494    1750.0698  
  359.715    113.3558   289.8104   85.5834    122.3657   11.2414    
  3.7221     3.0202     31.8313    2.371      2.1994     0.15       
  0.211      1.6013     5.2915     2.24       2.6359     2.64680004119873 
  2.638700008392334 2.573800086975098 2.47760009765625 2.449700117111206 
  3.332200050354004 2.447499990463257 0.1803     14.6871    0.9621     
  18.0009    0.3383     4.8362     0.4066    
609.1      
  1.8364     1.706500053405762 1.7609     1.741199970245361 1.757200002670288 
  215.9      211.436    212.946    212.19     575.5940000000001 1774.8881  
  349.9198   112.8187   289.6021   101.4795   146.3894   11.4227    
  3.5811     3.1897     31.8326    2.4344     5.5706     0.1708     
  0.2263     1.8788     6.5432     2.2548     2.9905     2.952399969100952 
  2.896600008010864 2.828900098800659 2.747999906539917 2.600199937820435 
  3.992599964141846 2.513400077819824 0.1803     14.9765    0.8045     
  21.4613    0.3575     5.9928     0.37      
609.2      
  1.7459     1.765100002288818 1.7226     1.709499955177307 1.702999949455261 
  215.9      211.463    212.49     211.976    559.8328   1777.3516  
  344.8959   122.8238   289.3785   109.3748   158.8112   11.8261    
  3.5248     3.3578     31.8332    2.4996     8.2804     0.1803     
  0.2333     1.9766     7.257      2.2738     3.2125     3.112299919128418 
  3.025199890136719 2.95930004119873 2.89490008354187 2.6596999168396 
  4.282199859619141 2.761600017547607 0.1808     15.2102    0.7432     
  23.4145    0.3756     6.6533     0.3534    
609.3      
  1.5905     1.642899990081787 1.634      1.591500043869019 1.594200015068054 
  215.9      212.257    213.111    212.684    539.0625   1761.767   
  343.679    140.9044   289.149    117.2701   171.2329   12.2295    
  3.4685     3.5259     31.8332    2.5367     1.2419     0.1341     
  0.2055     2.0743     7.9708     2.2943     2.4513     2.292200088500977 
  2.192300081253052 2.143500089645386 2.107599973678589 1.773800015449524 
  3.23799991607666 2.517299890518188 0.1816     15.4097    1          
  25.3677    0.3944     7.3138     0.4762    
609.4      
  1.4588     1.521199941635132 1.4779     1.465100049972534 1.471099972724915 
  215.9      213.759    213.327    213.543    492.7962   1723.6873  
  346.407    161.3157   289.0241   124.178    187.4815   12.5878    
  3.2148     3.9156     31.8344    2.5714     0.0038     0.0361     
  0.1247     2.1538     9.1652     2.2994     2.0164     1.851099967956543 
  1.762799978256226 1.731400012969971 1.713799953460693 1.399600028991699 
  2.642800092697144 2.148200035095215 0.1824     15.76      1          
  27.112     0.4438     8.4336     0.591     
609.5      
  1.3588     1.400400042533875 1.3481     1.364599943161011 1.351300001144409 
  215.9      214.578    213.652    214.114    467.8663   1688.2179  
  348.8632   182.0077   288.8999   123.8582   183.3798   12.7172    
  3.4356     3.7145     31.835     2.5816     0.0023     0.032      
  0.1218     2.1335     8.6486     2.2961     1.9673     1.790199995040894 
  1.708400011062622 1.689800024032593 1.69350004196167 1.40120005607605 
  2.581300020217896 1.862100005149841 0.1834     15.9242    1          
  27.1291    0.4644     7.9289     0.5984    
609.6      
  1.2816     1.35290002822876 1.3259     1.316100001335144 1.299700021743774 
  215.9      214.765    214.075    214.42     462.6314   1655.158   
  351.0683   202.9586   288.7763   123.5384   179.278    12.8467    
  3.6564     3.5135     31.835     2.5744     0.003      0.0341     
  0.1233     2.1131     8.1319     2.2985     1.9635     1.783300042152405 
  1.713500022888184 1.693400025367737 1.704100012779236 1.432100057601929 
  2.572299957275391 1.613700032234192 0.1846     15.9167    1          
  27.1461    0.4585     7.4242     0.5946    
609.7      
  1.3556     1.414800047874451 1.3944     1.400200009346008 1.36899995803833 
  215.9      215.145    214.934    215.039    474.4582   1735.9225  
  360.325    209.466    288.5282   110.8377   161.3262   13.0157    
  3.6325     3.5836     31.8362    2.6233     0          0.0114     
  0.1099     1.8809     7.3688     2.3096     1.8056     1.63100004196167 
  1.56659996509552 1.539299964904785 1.550099968910217 1.274099946022034 
  2.359499931335449 1.482900023460388 0.1854     15.9207    1          
  24.4425    0.4739     6.7242     0.6561    
