~Version
 VERS              .         2.0                           : CWLS LOG ASCII STANDARD - VERSION 2.0
 WRAP              .         YES                            : ONE LINE PER DEPTH STEP
 DLM               .         SPACE                         : DELIMITING CHARACTER(SPACE TAB OR COMMA)
~Well Information
#_______________________________________________________________________________
#
#PARAMETER_NAME    .UNIT     VALUE                         : DESCRIPTION
#_______________________________________________________________________________
STRT               .M        0                             : First reference value
STOP               .M        740                           : Last reference value
STEP               .M        0.1                           : Step increment
NULL               .         -999.25                       : Missing value
COMP               .         COMPANY                       : Company
WELL               .         348                           : Well name
FLD                .         Karatube                      : Field
LOC                .         Atyrau                        : Location
CNTY               .                                       : County
STAT               .                                       : State
CTRY               .                                       : Country
SRVC               .         SCH                           : Service Company
DATE               .         09.09.2024                    : Date
API                .                                       : API number
APDAT              .         136.988                       : Elevation Above Permanent Datum
BHS                .         OPEN                          : Completion Status
COUNT              .         Kazakhstan                    : Country
DF                 .         136.988                       : DF Elevation
DRMEA              .         DF                            : Drill Measured From
EPDAT              .         0                             : Elevation of Permanent Datum
GL                 .         131.788                       : GL Elevation
KB                 .         0                             : KB Elevation
LGMEA              .         DF                            : Log Measured from
LATI               .         47.93162                      : Latitude/Northing
LONG               .         56.55725                      : Longitude/Easting
ORIGINALWELLNAME   .         348                           : 
PDAT               .         MSL                           : Permanent Datum
RWS                .         -999                          : Def_Rw
STATE              .         1_500 / 1_200                 : State
WST                .         -999                          : Def_Rwt
~Parameter Information Block
#_______________________________________________________________________________
#
#PARAMETER_NAME    .UNIT     VALUE                         : DESCRIPTION
#_______________________________________________________________________________
SET                .         model                         : 
TLFamily_AT10      .         Resistivity - Medium          : 
TLFamily_AT20      .         Resistivity (Array)           : 
TLFamily_AT30      .         Resistivity (Array)           : 
TLFamily_AT60      .         Resistivity (Array)           : 
TLFamily_AT90      .         Resistivity - Deep            : 
TLFamily_BSC       .         Bit Size                      : 
TLFamily_C1        .         Caliper 1                     : 
TLFamily_C2        .         Caliper 2                     : 
TLFamily_CALI      .         Caliper                       : 
TLFamily_CFTC      .         Neutron Far                   : 
TLFamily_CNTC      .         Neutron Near                  : 
TLFamily_DEPTH     .         Measured Depth                : 
TLFamily_DT        .         Compressional Slowness        : 
TLFamily_GR        .         Gamma Ray                     : 
TLFamily_HAZIM     .         Hole Azimuth                  : 
TLFamily_HCGR      .         Gamma Ray                     : 
TLFamily_HSGR      .         Gamma Ray                     : 
TLFamily_HTPR      .                                       : 
TLFamily_HTUR      .                                       : 
TLFamily_HUPR      .                                       : 
TLFamily_MTEM_FILT .         Temperature                   : 
TLFamily_PEFZ      .         Photoelectric Factor          : 
TLFamily_PHIE      .         Effective Porosity            : 
TLFamily_PHIT      .         Total Porosity                : 
TLFamily_POTA      .         Potassium Concentration       : 
TLFamily_PURA      .         Uranium Concentration         : 
TLFamily_Perm      .         Permeability                  : 
TLFamily_RHOZ      .         Bulk Density                  : 
TLFamily_RLA1      .         Resistivity (Array)           : 
TLFamily_RLA2      .         Resistivity (Array)           : 
TLFamily_RLA3      .         Resistivity (Array)           : 
TLFamily_RLA4      .         Resistivity (Array)           : 
TLFamily_RLA5      .         Resistivity (Array)           : 
TLFamily_RT        .         Resistivity - True Formation  : 
TLFamily_RXO       .         Resistivity - Flushed Zone    : 
TLFamily_RXOZ      .         Resistivity - Flushed Zone    : 
TLFamily_SDEVM     .         Sonde Deviation               : 
TLFamily_SP        .         Spontaneous Potential         : 
TLFamily_SW        .         Water Saturation              : 
TLFamily_THOR      .         Thorium Concentration         : 
TLFamily_TNPH      .                                       : 
TLFamily_URAN      .         Uranium Concentration         : 
TLFamily_VCLAV     .         Clay Volume Fraction          : 
~Curve Information
#_______________________________________________________________________________
#
#LOGNAME           .UNIT     LOG_ID                        : DESCRIPTION
#_______________________________________________________________________________
DEPTH              .M                                      : Depth 
AT10               .ohm.m                                  : MedRes     21 Array Induction Two Foot Resistivity A10 
AT20               .ohm.m                                  : MedRes     22 Array Induction Two Foot Resistivity A20 
AT30               .ohm.m                                  : MedRes     23 Array Induction Two Foot Resistivity A30 
AT60               .ohm.m                                  : DeepRes    24 Array Induction Two Foot Resistivity A60 
AT90               .ohm.m                                  : XDeepRes   25 Array Induction Two Foot Resistivity A90 
BSC                .mm                                     : 11 Nominal Caliper 
C1                 .mm                                     : 8 CALIPER DIAMETER 1 
C2                 .mm                                     : 9 CALIPER DIAMETER 2 
CALI               .mm                                     : Caliper    10 
CFTC               .1/s                                    : 28 Corrected Far Thermal Count Rate 
CNTC               .1/s                                    : Neutron    29 Corrected Near Thermal Count Rate 
DT                 .uSec/m                                 : Sonic      19 Sonic travel time 
GR                 .gAPI                                   : 30 Gamma Ray 
HAZIM              .deg                                    : Azimuth    2 Hole Azimuth 
HCGR               .gAPI                                   : HNGS Computed Gamma Ray 
HSGR               .gAPI                                   : HNGS Standard Gamma-Ray 
HTPR               .                                       : HNGS Thorium/Potassium Ratio 
HTUR               .                                       : HNGS Thorium/Uranium Ratio 
HUPR               .                                       : HNGS Uranium/Potassium Ratio 
MTEM_FILT          .degC                                   : 20 Filtered Mud Temperature 
PEFZ               .B/E                                    : PEF        4 Formation Photoelectric Factor 
Perm               .md                                     : Permeability 
PHIE               .Dec                                    : Effective porosity 
PHIT               .Dec                                    : Total porosity 
POTA               .%                                      : HNGS Formation Potassium Concentration 
PURA               .ppm                                    : Upper Limit of Formation Uranium Concentration 
RHOZ               .g/cm3                                  : Density    5 Bulk Density 
RLA1               .ohm.m                                  : ShalRes    12 HRLT Borehole Corrected Resistivity 1 
RLA2               .ohm.m                                  : MedRes     13 HRLT Borehole Corrected Resistivity 2 
RLA3               .ohm.m                                  : DeepRes    14 HRLT Borehole Corrected Resistivity 3 
RLA4               .ohm.m                                  : XDeepRes   15 HRLT Borehole Corrected Resisitivity 4 
RLA5               .ohm.m                                  : UltraDeepR 16 HRLT Borehole Corrected Resistivity 5 
RT                 .ohm.m                                  : 17 HRLT True Formation Resistivity 
RXO                .ohm.m                                  : MicroRes   18 HRLT Invaded Zone Resistivity 
RXOZ               .ohm.m                                  : MicroRes   6 Invaded Formation Resistivity filtered at 18 inches 
SDEVM              .deg                                    : 3 Sonde Deviation 
SP                 .mV                                     : SP         27 Spontaneous Potential 
SW                 .Dec                                    : Water saturation 
THOR               .ppm                                    : HNGS Formation Thorium Concentration 
TNPH               .v/v                                    : Neutron porosity 
URAN               .ppm                                    : HNGS Formation Uranium Concentration 
VCLAV              .Dec                                    : Clay volume
~Ascii
# ...
648.7      
  0.9962     1.014799952507019 1.0203     1.086899995803833 1.129400014877319 
  215.9      215.496    219.49     217.484    520.2560999999999 1631.6239  
  352.568    94.7084    270.6328   61.9065    82.7436    10.8837    
  4.3668     2.4924     32.1184    2.0435     0          0.0001000  
  0.1417     1.1831     3.3851     2.2798     1.1434     1.103800058364868 
  1.112100005149841 1.109699964523315 1.079900026321411 1.065199971199036 
  1.363399982452393 1.437600016593933 0.3019     12.9944    1          
  12.876     0.3689     2.9487     0.9439    
648.8      
  0.9661999999999999 0.9724000096321106 0.9719     1.032699942588806 
  1.067199945449829 215.9      217.88     220.846    219.358    504.7472   
  1576.0988  348.6145   102.4483   270.2963   61.3507    82.3197    
  10.687     4.292      2.49       32.1181    2.0461     0          
  0.0001000  0.1501     1.1864     3.3888     2.3085     1.1697     
  1.120000004768372 1.123399972915649 1.118000030517578 1.089699983596802 
  1.053799986839294 1.451099991798401 1.331099987030029 0.3032     13.2455    
  1          12.6789    0.3663     2.954      1         
648.9      
  0.9651     0.9629999995231628 0.9560999999999999 1.015300035476685 
  1.041800022125244 215.9      218.631    220.63     219.628    508.3138   
  1543.6494  345.3287   108.4538   269.9598   60.2403    80.8751    
  10.1047    4.2463     2.3796     32.1181    2.0338     0          
  0.0001000  0.1501     1.2074     3.2966     2.3157     1.1951     
  1.146100044250488 1.14330005645752 1.140300035476685 1.112200021743774 
  1.072499990463257 1.490200042724609 1.287899971008301 0.3037     13.4762    
  1          12.2004    0.3497     2.8732     1         
649        
  0.9705     0.9678999781608582 0.9579     1.014899969100952 
  1.039399981498718 215.9      218.322    219.046    218.684    505.2468   
  1517.4214  343.237    106.6579   269.93     60.7609    81.6833    
  10.0617    4.1808     2.4071     32.1181    2.0112     0          
  0.0001000  0.1501     1.2212     3.3632     2.3096     1.2139     
  1.166100025177002 1.153800010681152 1.149799942970276 1.122900009155273 
  1.072999954223633 1.538599967956543 1.28629994392395 0.3045     13.5717    
  1          12.2864    0.344      2.9398     1         
649.1      
  0.9777     0.9800000190734863 0.97       1.024199962615967 
  1.050899982452393 215.9      217.814    217.494    217.654    500.2947   
  1503.7709  341.8151   102.3442   269.8366   61.2815    82.4915    
  10.0187    4.1153     2.4345     32.1181    1.994      0          
  0.0001000  0.1501     1.2349     3.4298     2.3022     1.2138     
  1.172299981117249 1.154899954795837 1.150400042533875 1.126799941062927 
  1.079499959945679 1.536900043487549 1.308599948883057 0.3056     13.6176    
  1          12.3724    0.3453     3.0064     1         
649.2      
  0.9895     0.9979000091552734 0.9853     1.037099957466125 1.06470000743866 
  215.9      217.435    216.848    217.141    494.4964   1518.7097  
  341.3953   96.2615    269.3943   61.605     81.4839    10.2324    
  4.3396     2.3579     32.1181    1.9896     0          0.0001000  
  0.1442     1.2249     3.2999     2.2932     1.2277     1.196699976921082 
  1.179200053215027 1.17330002784729 1.152199983596802 1.120800018310547 
  1.516000032424927 1.367200016975403 0.3076     13.6176    1          
  12.5342    0.3578     2.8883     0.9603    
649.3      
  1.0023     1.013399958610535 0.998      1.050400018692017 1.077499985694885 
  215.9      217.202    216.854    217.028    497.0342   1532.413   
  342.1286   97.2231    269.1884   62.5062    82.4292    10.1816    
  4.3982     2.3155     32.1181    1.9946     0          0.0001000  
  0.1457     1.2469     3.3038     2.2886     1.2134     1.185500025749207 
  1.173699975013733 1.164600014686584 1.145699977874756 1.124400019645691 
  1.467599987983704 1.44379997253418 0.3089     13.6176    1          
  12.6941    0.3598     2.8862     0.9705    
649.4      
  1.0149     1.022699952125549 1.007      1.059299945831299 1.085000038146973 
  215.9      217.149    217.167    217.158    499.8947   1553.637   
  343.1291   99.9023    269.0413   63.4074    83.3744    10.1308    
  4.4569     2.2731     32.1181    2.0003     0          0.0001000  
  0.1499     1.2688     3.3077     2.2888     1.1838     1.151299953460693 
  1.146600008010864 1.134099960327148 1.116899967193604 1.092499971389771 
  1.444800019264221 1.451799988746643 0.31       13.6176    1          
  12.854     0.3646     2.8841     0.999     
649.5      
  1.025      1.032899975776672 1.0167     1.067399978637695 1.087399959564209 
  215.9      217.524    217.802    217.663    495.4414   1599.9122  
  343.8227   100.9765   268.8438   64.7792    82.8211    10.0461    
  5.1352     1.9563     32.1181    2.0098     0          0.0001000  
  0.1501     1.3032     2.9686     2.2889     1.2264     1.18369996547699 
  1.185400009155273 1.167700052261353 1.15090000629425 1.117200016975403 
  1.517199993133545 1.44130003452301 0.3115     13.6176    1          
  13.0916    0.3882     2.5494     1         
649.6      
  1.0406     1.035699963569641 1.0272     1.074399948120117 1.089499950408936 
  215.9      217.366    217.103    217.234    490.8372   1606.6226  
  344.3079   104.5511   268.6426   65.4076    83.842     9.9814     
  5.0985     1.9577     32.1181    2.0182     0          0.0001000  
  0.1501     1.3212     3.0111     2.2874     1.2874     1.238399982452393 
  1.241400003433228 1.222499966621399 1.205700039863586 1.167500019073486 
  1.593500018119812 1.439800024032593 0.3131     13.6176    1          
  13.1867    0.397      2.5867     1         
649.7      
  1.0555     1.053799986839294 1.0279     1.070299983024597 1.084200024604797 
  215.9      216.92     216.208    216.564    487.054    1602.906   
  344.6777   107.5266   268.4588   66.0361    84.8629    9.9168     
  5.0618     1.9591     32.1181    2.0272     0          0.0001000  
  0.1501     1.3393     3.0535     2.2862     1.3043     1.255300045013428 
  1.256199955940247 1.23800003528595 1.223600029945374 1.187100052833557 
  1.601300001144409 1.374099969863892 0.3145     13.6176    1          
  13.2818    0.4007     2.624      1         
649.8      
  1.0563     1.05649995803833 1.0301     1.068099975585938 1.076300024986267 
  215.9      216.168    216.81     216.489    487.0332   1623.6321  
  344.9181   103.5938   268.3555   68.2132    82.4827    9.6119     
  6.7951     1.4145     32.1181    2.0445     0          0.0001000  
  0.1501     1.4108     2.4087     2.2854     1.2872     1.238100051879883 
  1.238100051879883 1.223000049591064 1.210299968719482 1.17550003528595 
  1.573699951171875 1.374199986457825 0.3148     13.6176    1          
  13.5604    0.4091     1.9956     1         
649.9      
  1.0602     1.061400055885315 1.0279     1.064599990844727 1.074900031089783 
  215.9      216.163    216.736    216.449    488.0699   1640.153   
  344.9311   102.6136   268.2414   66.285     80.6422    9.6476     
  6.4704     1.4951     32.1181    2.0505     0          0.0001000  
  0.1501     1.3679     2.4459     2.2886     1.277      1.226799964904785 
  1.223399996757507 1.21340000629425 1.199399948120117 1.161200046539307 
  1.571599960327148 1.447399973869324 0.3149     13.6176    1          
  13.195     0.4144     2.0416     1         
650        
  1.0592     1.050899982452393 1.0226     1.058300018310547 1.064800024032593 
  215.9      216.621    216.311    216.466    492.0363   1655.9939  
  344.987    102.5867   268.1401   64.3567    78.8017    9.6832     
  6.1456     1.5756     32.1181    2.0484     0          0.0001000  
  0.1501     1.3249     2.4831     2.2931     1.3075     1.25220000743866 
  1.245000004768372 1.236799955368042 1.222000002861023 1.173200011253357 
  1.635400056838989 1.508499979972839 0.3149     13.6176    1          
  12.8296    0.4154     2.0876     1         
650.1      
  1.069      1.062000036239624 1.0385     1.063799977302551 1.065099954605103 
  215.9      217.563    215.876    216.718    510.6523   1680.9642  
  346.0259   99.0721    268.1518   63.1119    77.2076    9.6386     
  6.1057     1.5786     32.1181    2.0359     0          0.0001000  
  0.1486     1.303      2.4453     2.2939     1.3819     1.32260000705719 
  1.311699986457825 1.303200006484985 1.286999940872192 1.229599952697754 
  1.742499947547913 1.613999962806702 0.3156     13.6176    1          
  12.5594    0.4002     2.057      0.9902    
