~Version
 VERS              .         2.0                           : CWLS LOG ASCII STANDARD - VERSION 2.0
 WRAP              .         YES                            : ONE LINE PER DEPTH STEP
 DLM               .         SPACE                         : DELIMITING CHARACTER(SPACE TAB OR COMMA)
~Well Information
#_______________________________________________________________________________
#
#PARAMETER_NAME    .UNIT     VALUE                         : DESCRIPTION
#_______________________________________________________________________________
STRT               .M        0                             : First reference value
STOP               .M        740                           : Last reference value
STEP               .M        0.1                           : Step increment
NULL               .         -999.25                       : Missing value
COMP               .         COMPANY                       : Company
WELL               .         348                           : Well name
FLD                .         Karatube                      : Field
LOC                .         Atyrau                        : Location
CNTY               .                                       : County
STAT               .                                       : State
CTRY               .                                       : Country
SRVC               .         SCH                           : Service Company
DATE               .         09.09.2024                    : Date
API                .                                       : API number
APDAT              .         136.988                       : Elevation Above Permanent Datum
BHS                .         OPEN                          : Completion Status
COUNT              .         Kazakhstan                    : Country
DF                 .         136.988                       : DF Elevation
DRMEA              .         DF                            : Drill Measured From
EPDAT              .         0                             : Elevation of Permanent Datum
GL                 .         131.788                       : GL Elevation
KB                 .         0                             : KB Elevation
LGMEA              .         DF                            : Log Measured from
LATI               .         47.93162                      : Latitude/Northing
LONG               .         56.55725                      : Longitude/Easting
ORIGINALWELLNAME   .         348                           : 
PDAT               .         MSL                           : Permanent Datum
RWS                .         -999                          : Def_Rw
STATE              .         1_500 / 1_200                 : State
WST                .         -999                          : Def_Rwt
~Parameter Information Block
#_______________________________________________________________________________
#
#PARAMETER_NAME    .UNIT     VALUE                         : DESCRIPTION
#_______________________________________________________________________________
SET                .         model                         : 
TLFamily_AT10      .         Resistivity - Medium          : 
TLFamily_AT20      .         Resistivity (Array)           : 
TLFamily_AT30      .         Resistivity (Array)           : 
TLFamily_AT60      .         Resistivity (Array)           : 
TLFamily_AT90      .         Resistivity - Deep            : 
TLFamily_BSC       .         Bit Size                      : 
TLFamily_C1        .         Caliper 1                     : 
TLFamily_C2        .         Caliper 2                     : 
TLFamily_CALI      .         Caliper                       : 
TLFamily_CFTC      .         Neutron Far                   : 
TLFamily_CNTC      .         Neutron Near                  : 
TLFamily_DEPTH     .         Measured Depth                : 
TLFamily_DT        .         Compressional Slowness        : 
TLFamily_GR        .         Gamma Ray                     : 
TLFamily_HAZIM     .         Hole Azimuth                  : 
TLFamily_HCGR      .         Gamma Ray                     : 
TLFamily_HSGR      .         Gamma Ray                     : 
TLFamily_HTPR      .                                       : 
TLFamily_HTUR      .                                       : 
TLFamily_HUPR      .                                       : 
TLFamily_MTEM_FILT .         Temperature                   : 
TLFamily_PEFZ      .         Photoelectric Factor          : 
TLFamily_PHIE      .         Effective Porosity            : 
TLFamily_PHIT      .         Total Porosity                : 
TLFamily_POTA      .         Potassium Concentration       : 
TLFamily_PURA      .         Uranium Concentration         : 
TLFamily_Perm      .         Permeability                  : 
TLFamily_RHOZ      .         Bulk Density                  : 
TLFamily_RLA1      .         Resistivity (Array)           : 
TLFamily_RLA2      .         Resistivity (Array)           : 
TLFamily_RLA3      .         Resistivity (Array)           : 
TLFamily_RLA4      .         Resistivity (Array)           : 
TLFamily_RLA5      .         Resistivity (Array)           : 
TLFamily_RT        .         Resistivity - True Formation  : 
TLFamily_RXO       .         Resistivity - Flushed Zone    : 
TLFamily_RXOZ      .         Resistivity - Flushed Zone    : 
TLFamily_SDEVM     .         Sonde Deviation               : 
TLFamily_SP        .         Spontaneous Potential         : 
TLFamily_SW        .         Water Saturation              : 
TLFamily_THOR      .         Thorium Concentration         : 
TLFamily_TNPH      .                                       : 
TLFamily_URAN      .         Uranium Concentration         : 
TLFamily_VCLAV     .         Clay Volume Fraction          : 
~Curve Information
#_______________________________________________________________________________
#
#LOGNAME           .UNIT     LOG_ID                        : DESCRIPTION
#_______________________________________________________________________________
DEPTH              .M                                      : Depth 
AT10               .ohm.m                                  : MedRes     21 Array Induction Two Foot Resistivity A10 
AT20               .ohm.m                                  : MedRes     22 Array Induction Two Foot Resistivity A20 
AT30               .ohm.m                                  : MedRes     23 Array Induction Two Foot Resistivity A30 
AT60               .ohm.m                                  : DeepRes    24 Array Induction Two Foot Resistivity A60 
AT90               .ohm.m                                  : XDeepRes   25 Array Induction Two Foot Resistivity A90 
BSC                .mm                                     : 11 Nominal Caliper 
C1                 .mm                                     : 8 CALIPER DIAMETER 1 
C2                 .mm                                     : 9 CALIPER DIAMETER 2 
CALI               .mm                                     : Caliper    10 
CFTC               .1/s                                    : 28 Corrected Far Thermal Count Rate 
CNTC               .1/s                                    : Neutron    29 Corrected Near Thermal Count Rate 
DT                 .uSec/m                                 : Sonic      19 Sonic travel time 
GR                 .gAPI                                   : 30 Gamma Ray 
HAZIM              .deg                                    : Azimuth    2 Hole Azimuth 
HCGR               .gAPI                                   : HNGS Computed Gamma Ray 
HSGR               .gAPI                                   : HNGS Standard Gamma-Ray 
HTPR               .                                       : HNGS Thorium/Potassium Ratio 
HTUR               .                                       : HNGS Thorium/Uranium Ratio 
HUPR               .                                       : HNGS Uranium/Potassium Ratio 
MTEM_FILT          .degC                                   : 20 Filtered Mud Temperature 
PEFZ               .B/E                                    : PEF        4 Formation Photoelectric Factor 
Perm               .md                                     : Permeability 
PHIE               .Dec                                    : Effective porosity 
PHIT               .Dec                                    : Total porosity 
POTA               .%                                      : HNGS Formation Potassium Concentration 
PURA               .ppm                                    : Upper Limit of Formation Uranium Concentration 
RHOZ               .g/cm3                                  : Density    5 Bulk Density 
RLA1               .ohm.m                                  : ShalRes    12 HRLT Borehole Corrected Resistivity 1 
RLA2               .ohm.m                                  : MedRes     13 HRLT Borehole Corrected Resistivity 2 
RLA3               .ohm.m                                  : DeepRes    14 HRLT Borehole Corrected Resistivity 3 
RLA4               .ohm.m                                  : XDeepRes   15 HRLT Borehole Corrected Resisitivity 4 
RLA5               .ohm.m                                  : UltraDeepR 16 HRLT Borehole Corrected Resistivity 5 
RT                 .ohm.m                                  : 17 HRLT True Formation Resistivity 
RXO                .ohm.m                                  : MicroRes   18 HRLT Invaded Zone Resistivity 
RXOZ               .ohm.m                                  : MicroRes   6 Invaded Formation Resistivity filtered at 18 inches 
SDEVM              .deg                                    : 3 Sonde Deviation 
SP                 .mV                                     : SP         27 Spontaneous Potential 
SW                 .Dec                                    : Water saturation 
THOR               .ppm                                    : HNGS Formation Thorium Concentration 
TNPH               .v/v                                    : Neutron porosity 
URAN               .ppm                                    : HNGS Formation Uranium Concentration 
VCLAV              .Dec                                    : Clay volume
~Ascii
# ...
530.9      
  1.858      1.970000028610229 2.0433     2.222300052642822 2.427000045776367 
  215.9      211.039    211.85     211.444    516.2803   1707.9764  
  393.0949   113.386    324.174    79.4906    86.9125    5.1298     
  11.2671    0.4555     31.0854    2.3761     0          0.0001000  
  0.1501     2.3152     1.4805     2.1815     2.0921     2.123199939727783 
  2.158200025558472 2.146300077438354 2.097399950027466 2.122100114822388 
  2.137700080871582 1.488700032234192 0.4666     16.8036    1          
  11.8735    0.4035     1.0547     1         
531        
  1.8728     1.990100026130676 2.0646     2.234499931335449 2.444400072097778 
  215.9      211.039    211.755    211.396    531.0249   1721.0795  
  393.9686   111.693    324.2868   79.0562    86.5351    5.2238     
  11.6229    0.4494     31.0854    2.3025     0          0.0001000  
  0.1501     2.2827     1.4509     2.1834     2.1544     2.186199903488159 
  2.221800088882446 2.207499980926514 2.156599998474121 2.183900117874146 
  2.193399906158447 1.557000041007996 0.4682     16.9597    1          
  11.9244    0.389      1.0259     1         
531.1      
  1.8855     2.010400056838989 2.0855     2.289900064468384 2.512900114059448 
  215.9      211.032    211.505    211.269    531.0189   1710.8044  
  395.2064   108.3332   324.3147   80.2933    89.9254    5.0899     
  8.8902     0.5725     31.0854    2.2355     0          0.0001000  
  0.1463     2.3468     1.7879     2.1791     2.1969     2.223299980163574 
  2.255500078201294 2.244100093841553 2.194099903106689 2.221800088882446 
  2.226000070571899 1.610999941825867 0.4695     17.1688    1          
  11.9451    0.3852     1.3436     0.9747    
531.2      
  1.9079     2.037300109863281 2.0941     2.293499946594238 2.513799905776978 
  215.9      211.032    211.471    211.251    524.004    1714.767   
  396.008    102.0508   324.4164   80.897     89.9974    5.1502     
  9.6853     0.5348     31.0854    2.1741     0          0.0001000  
  0.1373     2.3515     1.6988     2.1752     2.2137     2.239000082015991 
  2.273200035095215 2.261699914932251 2.210799932479858 2.238699913024902 
  2.242599964141846 1.669000029563904 0.4718     17.4254    1          
  12.1108    0.3955     1.2575     0.915     
531.3      
  1.9269     2.061899900436401 2.0973     2.27180004119873 2.488699913024902 
  215.9      211.287    211.616    211.452    513.7047   1710.2556  
  395.2128   96.6576    324.5047   81.5006    90.0695    5.2104     
  10.4804    0.4972     31.0854    2.0995     0          0.0001000  
  0.1297     2.3562     1.6097     2.1711     2.2396     2.263000011444092 
  2.293699979782104 2.284899950027466 2.234999895095825 2.262500047683716 
  2.265799999237061 1.73169994354248 0.4742     17.686     1          
  12.2766    0.407      1.1714     0.8637    
531.4      
  1.9537     2.086199998855591 2.1066     2.284499883651733 2.475399971008301 
  215.9      212.039    212.043    212.041    499.2451   1684.7954  
  391.4562   93.9143    324.5434   80.5039    90.5744    5.2752     
  9.0196     0.5849     31.0854    2.0563     0          0.0002     
  0.1258     2.3138     1.7968     2.163      2.2583     2.280400037765503 
  2.312000036239624 2.303499937057495 2.253299951553345 2.280800104141235 
  2.28220009803772 1.784000039100647 0.4765     17.9396    1          
  12.2057    0.4166     1.3532     0.8377    
531.5      
  1.9703     2.104099988937378 2.1355     2.316999912261963 2.525399923324585 
  215.9      212.643    213.721    213.181    516.533    1685.2822  
  392.6383   92.6266    324.5086   78.0882    88.7455    5.2176     
  8.6254     0.6059     31.0854    2.0426     0          0.0002     
  0.124      2.2557     1.8046     2.1547     2.2754     2.290299892425537 
  2.321500062942505 2.313400030136108 2.258800029754639 2.291100025177002 
  2.294899940490723 1.77649998664856 0.4795     18.2003    1          
  11.7728    0.3947     1.3655     0.8254    
531.6      
  2.0013     2.129300117492676 2.1647     2.342000007629395 2.571799993515015 
  215.9      213.263    214.86     214.06     532.5857999999999 1682.4355  
  392.1853   92.4998    324.4766   75.6725    86.9166    5.16       
  8.2312     0.6269     31.0854    2.0533     0          0.0002     
  0.1239     2.1977     1.8124     2.1504     2.2873     2.295900106430054 
  2.326499938964844 2.315900087356567 2.257800102233887 2.295099973678589 
  2.315900087356567 1.733299970626831 0.4826     18.4373    1          
  11.3399    0.3729     1.3777     0.8242    
531.7      
  2.0217     2.147900104522705 2.1753     2.359600067138672 2.553100109100342 
  215.9      214.012    213.96     213.986    527.3827   1656.527   
  384.893    94.3797    324.4935   74.4065    86.9324    5.2318     
  7.4457     0.7027     31.0854    2.1004     0          0.0001000  
  0.1265     2.1469     1.9438     2.1492     2.3042     2.303999900817871 
  2.333400011062622 2.323299884796143 2.266700029373169 2.304699897766113 
  2.335900068283081 1.676599979400635 0.4856     18.6127    1          
  11.2321    0.3697     1.5085     0.8421    
531.8      
  2.0129     2.142600059509277 2.1669     2.364099979400635 2.501499891281128 
  215.9      215.052    213.1      214.074    523.4778   1664.7675  
  383.6165   96.8268    324.4583   73.2378    86.3266    5.1607     
  6.9867     0.7412     31.0854    2.1887     0          0.0001000  
  0.1299     2.1267     2.0088     2.1542     2.3147     2.30839991569519 
  2.336899995803833 2.329699993133545 2.273900032043457 2.31060004234314 
  2.356600046157837 1.586699962615967 0.4893     18.6914    1          
  10.9765    0.3774     1.5755     0.8653    
531.9      
  2.0144     2.126600027084351 2.159      2.381900072097778 2.503999948501587 
  215.9      216.094    212.568    214.324    511.9518   1676.004   
  384.1513   99.4114    324.4091   72.0692    85.7208    5.0895     
  6.5277     0.7797     31.0854    2.2982     0          0.0001000  
  0.1336     2.1065     2.0738     2.1642     2.3517     2.346400022506714 
  2.373699903488159 2.367399930953979 2.308700084686279 2.34660005569458 
  2.407500028610229 1.516899943351746 0.4928     18.676     1          
  10.7209    0.3972     1.6424     0.8899    
532        
  2.0077     2.111599922180176 2.1307     2.372900009155273 2.438100099563599 
  215.9      216.851    213.034    214.934    474.9941   1662.579   
  384.4058   101.8641   324.3677   68.7904    83.8849    5.2523     
  5.6354     0.932      31.0854    2.4567     0          0.0001000  
  0.1371     1.9812     2.2601     2.1816     2.4179     2.41129994392395 
  2.430700063705444 2.425299882888794 2.3649001121521 2.404500007629395 
  2.488300085067749 1.505800008773804 0.495      18.4593    1          
  10.4056    0.4441     1.8465     0.9132    
532.1      
  2.0527     2.111000061035156 2.1505     2.35890007019043 2.41759991645813 
  215.9      216.927    212.983    214.946    486.3747   1668.3838  
  379.6495   101.8736   324.2703   66.5781    81.9776    5.1385     
  5.3087     0.9703     31.0854    2.672      0          0.0001000  
  0.1371     1.9368     2.2836     2.2168     2.4392     2.426199913024902 
  2.444799900054932 2.440799951553345 2.378299951553345 2.418499946594238 
  2.515000104904175 1.490200042724609 0.4972     18.3359    1          
  9.9575     0.4297     1.8776     0.9133    
532.2      
  2.0867     2.184400081634521 2.2094     2.40529990196228 2.454099893569946 
  215.9      216.703    212.696    214.691    512.6983   1681.8049  
  375.6282   100.29     324.16     64.3657    80.0703    5.0247     
  4.9819     1.0086     31.0854    2.9589     0          0.0001000  
  0.1348     1.8925     2.3071     2.271      2.4181     2.399699926376343 
  2.419899940490723 2.416100025177002 2.355799913406372 2.392899990081787 
  2.510699987411499 1.535500049591064 0.4994     18.1859    1          
  9.5094     0.3973     1.9088     0.8982    
532.3      
  2.1158     2.237400054931641 2.2671     2.460500001907349 2.447099924087524 
  215.9      216.329    212.266    214.288    522.586    1695.8147  
  383.0474   95.9648    324.0881   62.8736    78.8417    5.0738     
  4.3691     1.1613     31.0854    3.3072     0          0.0001000  
  0.1287     1.8404     2.5373     2.3406     2.4401     2.414400100708008 
  2.437099933624268 2.432800054550171 2.370800018310547 2.406199932098389 
  2.559700012207031 1.530900001525879 0.5015     17.7681    1          
  9.3376     0.3899     2.1372     0.8571    
