~Version
 VERS              .         2.0                           : CWLS LOG ASCII STANDARD - VERSION 2.0
 WRAP              .         YES                            : ONE LINE PER DEPTH STEP
 DLM               .         SPACE                         : DELIMITING CHARACTER(SPACE TAB OR COMMA)
~Well Information
#_______________________________________________________________________________
#
#PARAMETER_NAME    .UNIT     VALUE                         : DESCRIPTION
#_______________________________________________________________________________
STRT               .M        0                             : First reference value
STOP               .M        740                           : Last reference value
STEP               .M        0.1                           : Step increment
NULL               .         -999.25                       : Missing value
COMP               .         COMPANY                       : Company
WELL               .         348                           : Well name
FLD                .         Karatube                      : Field
LOC                .         Atyrau                        : Location
CNTY               .                                       : County
STAT               .                                       : State
CTRY               .                                       : Country
SRVC               .         SCH                           : Service Company
DATE               .         09.09.2024                    : Date
API                .                                       : API number
APDAT              .         136.988                       : Elevation Above Permanent Datum
BHS                .         OPEN                          : Completion Status
COUNT              .         Kazakhstan                    : Country
DF                 .         136.988                       : DF Elevation
DRMEA              .         DF                            : Drill Measured From
EPDAT              .         0                             : Elevation of Permanent Datum
GL                 .         131.788                       : GL Elevation
KB                 .         0                             : KB Elevation
LGMEA              .         DF                            : Log Measured from
LATI               .         47.93162                      : Latitude/Northing
LONG               .         56.55725                      : Longitude/Easting
ORIGINALWELLNAME   .         348                           : 
PDAT               .         MSL                           : Permanent Datum
RWS                .         -999                          : Def_Rw
STATE              .         1_500 / 1_200                 : State
WST                .         -999                          : Def_Rwt
~Parameter Information Block
#_______________________________________________________________________________
#
#PARAMETER_NAME    .UNIT     VALUE                         : DESCRIPTION
#_______________________________________________________________________________
SET                .         model                         : 
TLFamily_AT10      .         Resistivity - Medium          : 
TLFamily_AT20      .         Resistivity (Array)           : 
TLFamily_AT30      .         Resistivity (Array)           : 
TLFamily_AT60      .         Resistivity (Array)           : 
TLFamily_AT90      .         Resistivity - Deep            : 
TLFamily_BSC       .         Bit Size                      : 
TLFamily_C1        .         Caliper 1                     : 
TLFamily_C2        .         Caliper 2                     : 
TLFamily_CALI      .         Caliper                       : 
TLFamily_CFTC      .         Neutron Far                   : 
TLFamily_CNTC      .         Neutron Near                  : 
TLFamily_DEPTH     .         Measured Depth                : 
TLFamily_DT        .         Compressional Slowness        : 
TLFamily_GR        .         Gamma Ray                     : 
TLFamily_HAZIM     .         Hole Azimuth                  : 
TLFamily_HCGR      .         Gamma Ray                     : 
TLFamily_HSGR      .         Gamma Ray                     : 
TLFamily_HTPR      .                                       : 
TLFamily_HTUR      .                                       : 
TLFamily_HUPR      .                                       : 
TLFamily_MTEM_FILT .         Temperature                   : 
TLFamily_PEFZ      .         Photoelectric Factor          : 
TLFamily_PHIE      .         Effective Porosity            : 
TLFamily_PHIT      .         Total Porosity                : 
TLFamily_POTA      .         Potassium Concentration       : 
TLFamily_PURA      .         Uranium Concentration         : 
TLFamily_Perm      .         Permeability                  : 
TLFamily_RHOZ      .         Bulk Density                  : 
TLFamily_RLA1      .         Resistivity (Array)           : 
TLFamily_RLA2      .         Resistivity (Array)           : 
TLFamily_RLA3      .         Resistivity (Array)           : 
TLFamily_RLA4      .         Resistivity (Array)           : 
TLFamily_RLA5      .         Resistivity (Array)           : 
TLFamily_RT        .         Resistivity - True Formation  : 
TLFamily_RXO       .         Resistivity - Flushed Zone    : 
TLFamily_RXOZ      .         Resistivity - Flushed Zone    : 
TLFamily_SDEVM     .         Sonde Deviation               : 
TLFamily_SP        .         Spontaneous Potential         : 
TLFamily_SW        .         Water Saturation              : 
TLFamily_THOR      .         Thorium Concentration         : 
TLFamily_TNPH      .                                       : 
TLFamily_URAN      .         Uranium Concentration         : 
TLFamily_VCLAV     .         Clay Volume Fraction          : 
~Curve Information
#_______________________________________________________________________________
#
#LOGNAME           .UNIT     LOG_ID                        : DESCRIPTION
#_______________________________________________________________________________
DEPTH              .M                                      : Depth 
AT10               .ohm.m                                  : MedRes     21 Array Induction Two Foot Resistivity A10 
AT20               .ohm.m                                  : MedRes     22 Array Induction Two Foot Resistivity A20 
AT30               .ohm.m                                  : MedRes     23 Array Induction Two Foot Resistivity A30 
AT60               .ohm.m                                  : DeepRes    24 Array Induction Two Foot Resistivity A60 
AT90               .ohm.m                                  : XDeepRes   25 Array Induction Two Foot Resistivity A90 
BSC                .mm                                     : 11 Nominal Caliper 
C1                 .mm                                     : 8 CALIPER DIAMETER 1 
C2                 .mm                                     : 9 CALIPER DIAMETER 2 
CALI               .mm                                     : Caliper    10 
CFTC               .1/s                                    : 28 Corrected Far Thermal Count Rate 
CNTC               .1/s                                    : Neutron    29 Corrected Near Thermal Count Rate 
DT                 .uSec/m                                 : Sonic      19 Sonic travel time 
GR                 .gAPI                                   : 30 Gamma Ray 
HAZIM              .deg                                    : Azimuth    2 Hole Azimuth 
HCGR               .gAPI                                   : HNGS Computed Gamma Ray 
HSGR               .gAPI                                   : HNGS Standard Gamma-Ray 
HTPR               .                                       : HNGS Thorium/Potassium Ratio 
HTUR               .                                       : HNGS Thorium/Uranium Ratio 
HUPR               .                                       : HNGS Uranium/Potassium Ratio 
MTEM_FILT          .degC                                   : 20 Filtered Mud Temperature 
PEFZ               .B/E                                    : PEF        4 Formation Photoelectric Factor 
Perm               .md                                     : Permeability 
PHIE               .Dec                                    : Effective porosity 
PHIT               .Dec                                    : Total porosity 
POTA               .%                                      : HNGS Formation Potassium Concentration 
PURA               .ppm                                    : Upper Limit of Formation Uranium Concentration 
RHOZ               .g/cm3                                  : Density    5 Bulk Density 
RLA1               .ohm.m                                  : ShalRes    12 HRLT Borehole Corrected Resistivity 1 
RLA2               .ohm.m                                  : MedRes     13 HRLT Borehole Corrected Resistivity 2 
RLA3               .ohm.m                                  : DeepRes    14 HRLT Borehole Corrected Resistivity 3 
RLA4               .ohm.m                                  : XDeepRes   15 HRLT Borehole Corrected Resisitivity 4 
RLA5               .ohm.m                                  : UltraDeepR 16 HRLT Borehole Corrected Resistivity 5 
RT                 .ohm.m                                  : 17 HRLT True Formation Resistivity 
RXO                .ohm.m                                  : MicroRes   18 HRLT Invaded Zone Resistivity 
RXOZ               .ohm.m                                  : MicroRes   6 Invaded Formation Resistivity filtered at 18 inches 
SDEVM              .deg                                    : 3 Sonde Deviation 
SP                 .mV                                     : SP         27 Spontaneous Potential 
SW                 .Dec                                    : Water saturation 
THOR               .ppm                                    : HNGS Formation Thorium Concentration 
TNPH               .v/v                                    : Neutron porosity 
URAN               .ppm                                    : HNGS Formation Uranium Concentration 
VCLAV              .Dec                                    : Clay volume
~Ascii
# ...
297.6      
  3.3293     3.467200040817261 3.9262     4.535799980163574 4.685100078582764 
  215.9      214.705    214.41     214.557    579.3558   1815.1008  
  415.5415   70.8051    299.7989   59.3889    60.5168    4.9941     
  17.4927    0.2483     27.1057    2.7725     0.001700000022538006 0.03       
  0.1204     1.7514     0.8102     2.2629     4.3217     4.232200145721436 
  4.183700084686279 4.067299842834473 3.943000078201294 3.732399940490723 
  5.662199974060059 2.186300039291382 0.6938     18.3133    1          
  8.7463     0.3633     0.4349     0.6023    
297.7      
  3.3514     3.450500011444092 3.8842     4.386000156402588 4.678100109100342 
  215.9      214.822    214.886    214.854    562.484    1797.2977  
  413.4377   72.8407    299.7061   58.1615    59.6902    5.1661     
  16.3012    0.3008     27.1057    2.7384     0.000099999997474 0.0137     
  0.1107     1.6894     0.8749     2.2391     4.0096     3.978800058364868 
  3.923399925231934 3.804899930953979 3.688699960708618 3.527899980545044 
  5.26800012588501 2.023299932479858 0.6922     18.3987    1          
  8.7167     0.376      0.5049     0.6467    
297.8      
  3.4668     3.488699913024902 3.8619     4.291800022125244 4.712299823760986 
  215.9      214.452    215.09     214.771    547.1651000000001 1796.4791  
  409.2442   74.0901    299.5609   56.9341    58.8636    5.3381     
  15.1097    0.3533     27.1057    2.7144     0          0.0081     
  0.1092     1.6274     0.9396     2.2129     4.1443     4.185299873352051 
  4.125100135803223 4.002699851989746 3.867399930953979 3.786200046539307 
  5.346700191497803 1.910300016403198 0.6902     18.5102    1          
  8.687      0.393      0.5749     0.674     
297.9      
  3.6806     3.666699886322021 3.9495     4.354000091552734 4.902900218963623 
  215.9      214.072    214.873    214.472    548.6356   1793.8403  
  405.609    75.3644    299.411    56.158     59.2004    5.414      
  11.5643    0.4682     27.1057    2.6853     0          0.0045     
  0.1098     1.5944     1.1079     2.1953     4.208      4.279799938201904 
  4.228000164031982 4.089799880981445 3.942100048065186 3.889300107955933 
  5.413099765777588 1.717499971389771 0.689      18.4053    1          
  8.6319     0.3905     0.7464     0.7017    
298        
  3.8609     4.013400077819824 4.2524     4.650499820709229 5.241799831390381 
  215.9      213.689    215.013    214.35     559.409    1785.1481  
  404.3329   76.1349    299.3982   56.0533    59.0781    5.3363     
  11.5113    0.4636     27.1057    2.6323     0          0.0032     
  0.1109     1.6025     1.1046     2.1955     4.477      4.575300216674805 
  4.554999828338623 4.402900218963623 4.223899841308594 4.222300052642822 
  5.661600112915039 1.641000032424927 0.6864     18.0396    1          
  8.5507     0.3757     0.7428     0.7186    
298.1      
  4.1253     4.417300224304199 4.6018     4.966899871826172 5.788199901580811 
  215.9      213.373    215.39     214.379    578.0225   1773.531   
  402.4818   76.3068    299.4905   55.9485    58.9559    5.2585     
  11.4582    0.4589     27.1057    2.5762     0          0.0029     
  0.1112     1.6106     1.1012     2.2156     5.0058     5.099899768829346 
  5.121099948883057 4.954599857330322 4.739299774169922 4.775100231170654 
  6.126900196075439 1.956300020217896 0.683      17.5061    1          
  8.4696     0.3517     0.7392     0.7223    
298.2      
  4.4768     4.874800205230713 5.1015     5.483699798583984 6.52810001373291 
  215.9      214.124    215.402    214.762    613.9233   1784.7643  
  364.8559   72.8157    299.6771   56.9226    58.9275    5.8696     
  14.5723    0.4028     27.1057    2.5488     0.000099999997474 0.0138     
  0.1107     1.5532     0.9868     2.2455     5.6823     5.740300178527832 
  5.799300193786621 5.64300012588501 5.368500232696533 5.424300193786621 
  6.822299957275391 2.235699892044067 0.6818     17.3043    1          
  9.1169     0.3217     0.6256     0.6462    
298.3      
  4.555      4.924300193786621 5.1904     5.739099979400635 6.589700222015381 
  215.9      214.479    217.342    215.906    639.9752   1785.3762  
  350.2933   70.0696    299.8431   56.9415    60.014     5.902      
  12.7358    0.4736     27.1059    2.569      0.005400000140070915 0.0389     
  0.1269     1.5495     1.102      2.266      5.8713     5.92609977722168 
  5.975399971008301 5.863200187683105 5.56220006942749 5.658199787139893 
  6.834099769592285 2.803600072860718 0.6815     17.0976    1          
  9.1448     0.2988     0.7336     0.5863    
298.4      
  4.3008     4.753099918365479 4.9076     5.510200023651123 5.873600006103516 
  215.9      214.481    220.964    217.698    656.9924999999999 1776.6631  
  356.1934   67.9624    299.9912   56.9605    61.1004    5.9343     
  10.8992    0.5445     27.1063    2.6275     0.05139999836683273 0.065      
  0.1461     1.5457     1.2171     2.2705     5.3553     5.371900081634521 
  5.392600059509277 5.333099842071533 5.048500061035156 5.118400096893311 
  6.214900016784668 3.221400022506714 0.6819     16.8875    1          
  9.1728     0.2826     0.8416     0.5403    
298.5      
  4.0522     4.60319995880127 4.5655     5.041699886322021 5.226900100708008 
  215.9      214.288    221.782    218.003    644.241    1777.2769  
  363.138    63.7038    300.1821   55.9261    61.2333    5.8086     
  9.2067     0.6504     27.1063    2.69       0.4374000132083893 0.1058     
  0.1729     1.5339     1.3728     2.2616     4.5287     4.483799934387207 
  4.506700038909912 4.494900226593018 4.242599964141846 4.255799770355225 
  5.381700038909912 2.912800073623657 0.6828     16.7784    1          
  8.9112     0.2914     0.9964     0.4474    
298.6      
  3.9871     4.378499984741211 4.4077     4.741499900817871 4.875500202178955 
  215.9      212.917    220.976    216.909    628.0852   1781.5756  
  364.8575   61.9434    300.4821   54.8916    61.3661    5.6829     
  7.5141     0.7563     27.1065    2.7439     1.129999995231628 0.1312     
  0.1926     1.522      1.5284     2.2443     4.3687     4.294000148773193 
  4.335999965667725 4.336299896240234 4.094600200653076 4.087600231170654 
  5.242499828338623 2.779400110244751 0.6838     16.6834    1          
  8.6496     0.3055     1.1511     0.409     
298.7      
  4.0655     4.445400238037109 4.482      4.751100063323975 4.67549991607666 
  215.9      210.269    218.41     214.301    608.2412   1789.8665  
  360.9166   62.8896    300.9001   53.5364    61.1575    6.0891     
  7.3581     0.8275     27.1069    2.7781     1.350000023841858 0.1367     
  0.2011     1.434      1.5689     2.2306     4.8647     4.690400123596191 
  4.771599769592285 4.769899845123291 4.496200084686279 4.412099838256836 
  5.987800121307373 2.756999969482422 0.6849     16.6036    1          
  8.7316     0.3252     1.1867     0.4296    
298.8      
  4.1599     4.499800205230713 4.6976     5.009200096130371 4.988800048828125 
  215.9      208.707    219.546    214.058    601.6892   1805.7885  
  379.4882   60.4621    301.0521   52.0291    59.9371    5.9925     
  6.9472     0.8648     27.107     2.8245     2.849800109863281 0.1619     
  0.2185     1.4047     1.5866     2.2319     5.5334     5.313199996948242 
  5.436299800872803 5.433499813079834 5.12939977645874 5.066199779510498 
  6.670000076293945 2.789700031280518 0.6873     16.1589    1          
  8.4206     0.3364     1.2137     0.3767    
298.9      
  4.2879     4.615099906921387 4.7875     5.151500225067139 5.125400066375732 
  215.9      210.009    220.552    215.216    594.141    1829.1925  
  390.5526   59.9692    301.2498   50.5219    58.7167    5.8959     
  6.5364     0.902      27.1073    2.8758     3.450999975204468 0.1692     
  0.224      1.3755     1.6043     2.2504     5.5667     5.354199886322021 
  5.487299919128418 5.474599838256836 5.173500061035156 5.152699947357178 
  6.551300048828125 3.116699934005737 0.6895     15.7199    1          
  8.1096     0.3513     1.2407     0.3659    
