~Version
 VERS              .         2.0                           : CWLS LOG ASCII STANDARD - VERSION 2.0
 WRAP              .         YES                            : ONE LINE PER DEPTH STEP
 DLM               .         SPACE                         : DELIMITING CHARACTER(SPACE TAB OR COMMA)
~Well Information
#_______________________________________________________________________________
#
#PARAMETER_NAME    .UNIT     VALUE                         : DESCRIPTION
#_______________________________________________________________________________
STRT               .M        0                             : First reference value
STOP               .M        740                           : Last reference value
STEP               .M        0.1                           : Step increment
NULL               .         -999.25                       : Missing value
COMP               .         COMPANY                       : Company
WELL               .         348                           : Well name
FLD                .         Karatube                      : Field
LOC                .         Atyrau                        : Location
CNTY               .                                       : County
STAT               .                                       : State
CTRY               .                                       : Country
SRVC               .         SCH                           : Service Company
DATE               .         09.09.2024                    : Date
API                .                                       : API number
APDAT              .         136.988                       : Elevation Above Permanent Datum
BHS                .         OPEN                          : Completion Status
COUNT              .         Kazakhstan                    : Country
DF                 .         136.988                       : DF Elevation
DRMEA              .         DF                            : Drill Measured From
EPDAT              .         0                             : Elevation of Permanent Datum
GL                 .         131.788                       : GL Elevation
KB                 .         0                             : KB Elevation
LGMEA              .         DF                            : Log Measured from
LATI               .         47.93162                      : Latitude/Northing
LONG               .         56.55725                      : Longitude/Easting
ORIGINALWELLNAME   .         348                           : 
PDAT               .         MSL                           : Permanent Datum
RWS                .         -999                          : Def_Rw
STATE              .         1_500 / 1_200                 : State
WST                .         -999                          : Def_Rwt
~Parameter Information Block
#_______________________________________________________________________________
#
#PARAMETER_NAME    .UNIT     VALUE                         : DESCRIPTION
#_______________________________________________________________________________
SET                .         model                         : 
TLFamily_AT10      .         Resistivity - Medium          : 
TLFamily_AT20      .         Resistivity (Array)           : 
TLFamily_AT30      .         Resistivity (Array)           : 
TLFamily_AT60      .         Resistivity (Array)           : 
TLFamily_AT90      .         Resistivity - Deep            : 
TLFamily_BSC       .         Bit Size                      : 
TLFamily_C1        .         Caliper 1                     : 
TLFamily_C2        .         Caliper 2                     : 
TLFamily_CALI      .         Caliper                       : 
TLFamily_CFTC      .         Neutron Far                   : 
TLFamily_CNTC      .         Neutron Near                  : 
TLFamily_DEPTH     .         Measured Depth                : 
TLFamily_DT        .         Compressional Slowness        : 
TLFamily_GR        .         Gamma Ray                     : 
TLFamily_HAZIM     .         Hole Azimuth                  : 
TLFamily_HCGR      .         Gamma Ray                     : 
TLFamily_HSGR      .         Gamma Ray                     : 
TLFamily_HTPR      .                                       : 
TLFamily_HTUR      .                                       : 
TLFamily_HUPR      .                                       : 
TLFamily_MTEM_FILT .         Temperature                   : 
TLFamily_PEFZ      .         Photoelectric Factor          : 
TLFamily_PHIE      .         Effective Porosity            : 
TLFamily_PHIT      .         Total Porosity                : 
TLFamily_POTA      .         Potassium Concentration       : 
TLFamily_PURA      .         Uranium Concentration         : 
TLFamily_Perm      .         Permeability                  : 
TLFamily_RHOZ      .         Bulk Density                  : 
TLFamily_RLA1      .         Resistivity (Array)           : 
TLFamily_RLA2      .         Resistivity (Array)           : 
TLFamily_RLA3      .         Resistivity (Array)           : 
TLFamily_RLA4      .         Resistivity (Array)           : 
TLFamily_RLA5      .         Resistivity (Array)           : 
TLFamily_RT        .         Resistivity - True Formation  : 
TLFamily_RXO       .         Resistivity - Flushed Zone    : 
TLFamily_RXOZ      .         Resistivity - Flushed Zone    : 
TLFamily_SDEVM     .         Sonde Deviation               : 
TLFamily_SP        .         Spontaneous Potential         : 
TLFamily_SW        .         Water Saturation              : 
TLFamily_THOR      .         Thorium Concentration         : 
TLFamily_TNPH      .                                       : 
TLFamily_URAN      .         Uranium Concentration         : 
TLFamily_VCLAV     .         Clay Volume Fraction          : 
~Curve Information
#_______________________________________________________________________________
#
#LOGNAME           .UNIT     LOG_ID                        : DESCRIPTION
#_______________________________________________________________________________
DEPTH              .M                                      : Depth 
AT10               .ohm.m                                  : MedRes     21 Array Induction Two Foot Resistivity A10 
AT20               .ohm.m                                  : MedRes     22 Array Induction Two Foot Resistivity A20 
AT30               .ohm.m                                  : MedRes     23 Array Induction Two Foot Resistivity A30 
AT60               .ohm.m                                  : DeepRes    24 Array Induction Two Foot Resistivity A60 
AT90               .ohm.m                                  : XDeepRes   25 Array Induction Two Foot Resistivity A90 
BSC                .mm                                     : 11 Nominal Caliper 
C1                 .mm                                     : 8 CALIPER DIAMETER 1 
C2                 .mm                                     : 9 CALIPER DIAMETER 2 
CALI               .mm                                     : Caliper    10 
CFTC               .1/s                                    : 28 Corrected Far Thermal Count Rate 
CNTC               .1/s                                    : Neutron    29 Corrected Near Thermal Count Rate 
DT                 .uSec/m                                 : Sonic      19 Sonic travel time 
GR                 .gAPI                                   : 30 Gamma Ray 
HAZIM              .deg                                    : Azimuth    2 Hole Azimuth 
HCGR               .gAPI                                   : HNGS Computed Gamma Ray 
HSGR               .gAPI                                   : HNGS Standard Gamma-Ray 
HTPR               .                                       : HNGS Thorium/Potassium Ratio 
HTUR               .                                       : HNGS Thorium/Uranium Ratio 
HUPR               .                                       : HNGS Uranium/Potassium Ratio 
MTEM_FILT          .degC                                   : 20 Filtered Mud Temperature 
PEFZ               .B/E                                    : PEF        4 Formation Photoelectric Factor 
Perm               .md                                     : Permeability 
PHIE               .Dec                                    : Effective porosity 
PHIT               .Dec                                    : Total porosity 
POTA               .%                                      : HNGS Formation Potassium Concentration 
PURA               .ppm                                    : Upper Limit of Formation Uranium Concentration 
RHOZ               .g/cm3                                  : Density    5 Bulk Density 
RLA1               .ohm.m                                  : ShalRes    12 HRLT Borehole Corrected Resistivity 1 
RLA2               .ohm.m                                  : MedRes     13 HRLT Borehole Corrected Resistivity 2 
RLA3               .ohm.m                                  : DeepRes    14 HRLT Borehole Corrected Resistivity 3 
RLA4               .ohm.m                                  : XDeepRes   15 HRLT Borehole Corrected Resisitivity 4 
RLA5               .ohm.m                                  : UltraDeepR 16 HRLT Borehole Corrected Resistivity 5 
RT                 .ohm.m                                  : 17 HRLT True Formation Resistivity 
RXO                .ohm.m                                  : MicroRes   18 HRLT Invaded Zone Resistivity 
RXOZ               .ohm.m                                  : MicroRes   6 Invaded Formation Resistivity filtered at 18 inches 
SDEVM              .deg                                    : 3 Sonde Deviation 
SP                 .mV                                     : SP         27 Spontaneous Potential 
SW                 .Dec                                    : Water saturation 
THOR               .ppm                                    : HNGS Formation Thorium Concentration 
TNPH               .v/v                                    : Neutron porosity 
URAN               .ppm                                    : HNGS Formation Uranium Concentration 
VCLAV              .Dec                                    : Clay volume
~Ascii
# ...
728.9      
  -999.25    -999.25    -999.25    -999.25    -999.25    215.9      
  229.742    226.275    228.002    12308.7598 7777.6479  143.1469   
  22.0976    243.1069   36.747     52.5519    1.1914     0.9142     
  1.3033     31.6761    4.4504     0          -999.25    -999.25    
  1.669      2.7782     2.5315     -999.25    -999.25    -999.25    
  -999.25    -999.25    -999.25    -999.25    11.1993    1.2383     
  1.9623     -999.25    1.9885     -0.0179    2.1752     0.056     
729        
  -999.25    -999.25    -999.25    -999.25    -999.25    215.9      
  227.082    222.736    224.899    12308.7598 7777.6479  143.1469   
  22.0976    243.1069   36.747     52.5519    1.1914     0.9142     
  1.3033     31.6761    4.431      0          -999.25    -999.25    
  1.669      2.7782     2.5234     -999.25    -999.25    -999.25    
  -999.25    -999.25    -999.25    -999.25    12.1891    1.2383     
  1.8132     -999.25    1.9885     -0.0179    2.1752     0.056     
729.1      
  -999.25    -999.25    -999.25    -999.25    -999.25    215.9      
  219.08     215.674    217.371    12308.7598 7777.6479  143.1469   
  22.0976    243.1069   36.747     52.5519    1.1914     0.9142     
  1.3033     31.6761    4.4135     0          -999.25    -999.25    
  1.669      2.7782     2.509      -999.25    -999.25    -999.25    
  -999.25    -999.25    -999.25    -999.25    14.7293    1.2383     
  1.5441     -999.25    1.9885     -0.0179    2.1752     0.056     
729.2      
  -999.25    -999.25    -999.25    -999.25    -999.25    215.9      
  212.514    210.996    211.754    12308.7598 7777.6479  143.1469   
  22.0976    243.1069   36.747     52.5519    1.1914     0.9142     
  1.3033     31.6761    4.3861     0          -999.25    -999.25    
  1.669      2.7782     2.4991     -999.25    -999.25    -999.25    
  -999.25    -999.25    -999.25    -999.25    14.0895    1.2383     
  -999.25    -999.25    1.9885     -0.0179    2.1752     0.056     
729.3      
  -999.25    -999.25    -999.25    -999.25    -999.25    215.9      
  198.004    206.283    202.101    12308.7598 7777.6479  143.1469   
  22.0976    243.1069   36.747     52.5519    1.1914     0.9142     
  1.3033     31.6761    4.3486     0          -999.25    -999.25    
  1.669      2.7782     2.4885     -999.25    -999.25    -999.25    
  -999.25    -999.25    -999.25    -999.25    9.117699999999999 1.2383     
  -999.25    -999.25    1.9885     -0.0179    2.1752     0.056     
729.4      
  -999.25    -999.25    -999.25    -999.25    -999.25    215.9      
  184.3      201.533    192.724    12308.7598 7777.6479  143.1469   
  22.0976    243.1069   36.747     52.5519    1.1914     0.9142     
  1.3033     31.6761    4.2973     0          -999.25    -999.25    
  1.669      2.7782     2.4734     -999.25    -999.25    -999.25    
  -999.25    -999.25    -999.25    -999.25    6.1767     1.2383     
  -999.25    -999.25    1.9885     -0.0179    2.1752     0.056     
729.5      
  -999.25    -999.25    -999.25    -999.25    -999.25    215.9      
  200.682    196.659    198.661    12308.7598 7777.6479  143.1469   
  22.0976    243.1069   36.747     52.5519    1.1914     0.9142     
  1.3033     31.6761    -999.25    0          -999.25    -999.25    
  1.669      2.7782     -999.25    -999.25    -999.25    -999.25    
  -999.25    -999.25    -999.25    -999.25    4.6225     1.2383     
  -999.25    -999.25    1.9885     -0.0179    2.1752     0.056     
729.6      
  -999.25    -999.25    -999.25    -999.25    -999.25    215.9      
  191.999    165.437    178.224    12308.7598 7777.6479  143.1469   
  22.0976    243.1069   36.747     52.5519    1.1914     0.9142     
  1.3033     31.6761    -999.25    0          -999.25    -999.25    
  1.669      2.7782     -999.25    -999.25    -999.25    -999.25    
  -999.25    -999.25    -999.25    -999.25    3.1608     1.2383     
  -999.25    -999.25    1.9885     -0.0179    2.1752     0.056     
729.7      
  -999.25    -999.25    -999.25    -999.25    -999.25    215.9      
  167.267    121.184    142.373    12308.7598 7777.6479  143.1469   
  22.0976    243.1069   36.747     52.5519    1.1914     0.9142     
  1.3033     31.6761    -999.25    0          -999.25    -999.25    
  1.669      2.7782     -999.25    -999.25    -999.25    -999.25    
  -999.25    -999.25    -999.25    -999.25    2.1831     1.2383     
  -999.25    -999.25    1.9885     -0.0179    2.1752     0.056     
729.8      
  -999.25    -999.25    -999.25    -999.25    -999.25    215.9      
  142.288    115.506    128.199    12308.7598 7777.6479  143.1469   
  22.0976    243.1069   36.747     52.5519    1.1914     0.9142     
  1.3033     31.6761    -999.25    0          -999.25    -999.25    
  1.669      2.7782     -999.25    -999.25    -999.25    -999.25    
  -999.25    -999.25    -999.25    -999.25    1.7666     1.2383     
  -999.25    -999.25    1.9885     -0.0179    2.1752     0.056     
729.9      
  -999.25    -999.25    -999.25    -999.25    -999.25    215.9      
  105.404    94.623     99.868     12308.7598 7777.6479  143.1469   
  22.0976    243.1069   36.747     52.5519    1.1914     0.9142     
  1.3033     31.6761    -999.25    0          -999.25    -999.25    
  1.669      2.7782     -999.25    -999.25    -999.25    -999.25    
  -999.25    -999.25    -999.25    -999.25    1.5663     1.2383     
  -999.25    -999.25    1.9885     -0.0179    2.1752     0.056     
730        
  -999.25    -999.25    -999.25    -999.25    -999.25    215.9      
  61.015     63.106     62.051     12308.7598 7777.6479  143.1469   
  22.0976    243.1069   36.747     52.5519    1.1914     0.9142     
  1.3033     31.6761    -999.25    0          -999.25    -999.25    
  1.669      2.7782     -999.25    -999.25    -999.25    -999.25    
  -999.25    -999.25    -999.25    -999.25    1.5571     1.2383     
  -999.25    -999.25    1.9885     -0.0179    2.1752     0.056     
730.1      
  -999.25    -999.25    -999.25    -999.25    -999.25    215.9      
  61.015     63.106     62.051     12308.7598 7777.6479  143.1469   
  22.0976    243.1069   36.747     52.5519    1.1914     0.9142     
  1.3033     31.6761    -999.25    0          -999.25    -999.25    
  1.669      2.7782     -999.25    -999.25    -999.25    -999.25    
  -999.25    -999.25    -999.25    -999.25    1.8046     1.2383     
  -999.25    -999.25    1.9885     -0.0179    2.1752     0.056     
730.2      
  -999.25    -999.25    -999.25    -999.25    -999.25    215.9      
  61.015     63.106     62.051     12308.7598 7777.6479  143.1469   
  22.0976    243.1069   36.747     52.5519    1.1914     0.9142     
  1.3033     31.6761    -999.25    0          -999.25    -999.25    
  1.669      2.7782     -999.25    -999.25    -999.25    -999.25    
  -999.25    -999.25    -999.25    -999.25    2.449      1.2383     
  -999.25    -999.25    1.9885     -0.0179    2.1752     0.056     
730.3      
  -999.25    -999.25    -999.25    -999.25    -999.25    215.9      
  61.015     63.106     62.051     12308.7598 7777.6479  143.1469   
  22.0976    243.1069   36.747     52.5519    1.1914     0.9142     
  1.3033     31.6761    -999.25    0          -999.25    -999.25    
  1.669      2.7782     -999.25    -999.25    -999.25    -999.25    
  -999.25    -999.25    -999.25    -999.25    3.3393     1.2383     
  -999.25    -999.25    1.9885     -0.0179    2.1752     0.056     
730.4      
  -999.25    -999.25    -999.25    -999.25    -999.25    215.9      
  61.015     63.106     62.051     12308.7598 7777.6479  143.1469   
  22.0976    243.1069   36.747     52.5519    1.1914     0.9142     
  1.3033     31.6761    -999.25    0          -999.25    -999.25    
  1.669      2.7782     -999.25    -999.25    -999.25    -999.25    
  -999.25    -999.25    -999.25    -999.25    4.4495     1.2383     
  -999.25    -999.25    1.9885     -0.0179    2.1752     0.056     
730.5      
  -999.25    -999.25    -999.25    -999.25    -999.25    215.9      
  61.015     63.106     62.051     12308.7598 7777.6479  143.1469   
  22.0976    243.1069   36.747     52.5519    1.1914     0.9142     
  1.3033     31.6761    -999.25    0          -999.25    -999.25    
  1.669      2.7782     -999.25    -999.25    -999.25    -999.25    
  -999.25    -999.25    -999.25    -999.25    5.8837     1.2383     
  -999.25    -999.25    1.9885     -0.0179    2.1752     0.056     
