~Version
 VERS              .         2.0                           : CWLS LOG ASCII STANDARD - VERSION 2.0
 WRAP              .         YES                            : ONE LINE PER DEPTH STEP
 DLM               .         SPACE                         : DELIMITING CHARACTER(SPACE TAB OR COMMA)
~Well Information
#_______________________________________________________________________________
#
#PARAMETER_NAME    .UNIT     VALUE                         : DESCRIPTION
#_______________________________________________________________________________
STRT               .M        0                             : First reference value
STOP               .M        740                           : Last reference value
STEP               .M        0.1                           : Step increment
NULL               .         -999.25                       : Missing value
COMP               .         COMPANY                       : Company
WELL               .         348                           : Well name
FLD                .         Karatube                      : Field
LOC                .         Atyrau                        : Location
CNTY               .                                       : County
STAT               .                                       : State
CTRY               .                                       : Country
SRVC               .         SCH                           : Service Company
DATE               .         09.09.2024                    : Date
API                .                                       : API number
APDAT              .         136.988                       : Elevation Above Permanent Datum
BHS                .         OPEN                          : Completion Status
COUNT              .         Kazakhstan                    : Country
DF                 .         136.988                       : DF Elevation
DRMEA              .         DF                            : Drill Measured From
EPDAT              .         0                             : Elevation of Permanent Datum
GL                 .         131.788                       : GL Elevation
KB                 .         0                             : KB Elevation
LGMEA              .         DF                            : Log Measured from
LATI               .         47.93162                      : Latitude/Northing
LONG               .         56.55725                      : Longitude/Easting
ORIGINALWELLNAME   .         348                           : 
PDAT               .         MSL                           : Permanent Datum
RWS                .         -999                          : Def_Rw
STATE              .         1_500 / 1_200                 : State
WST                .         -999                          : Def_Rwt
~Parameter Information Block
#_______________________________________________________________________________
#
#PARAMETER_NAME    .UNIT     VALUE                         : DESCRIPTION
#_______________________________________________________________________________
SET                .         model                         : 
TLFamily_AT10      .         Resistivity - Medium          : 
TLFamily_AT20      .         Resistivity (Array)           : 
TLFamily_AT30      .         Resistivity (Array)           : 
TLFamily_AT60      .         Resistivity (Array)           : 
TLFamily_AT90      .         Resistivity - Deep            : 
TLFamily_BSC       .         Bit Size                      : 
TLFamily_C1        .         Caliper 1                     : 
TLFamily_C2        .         Caliper 2                     : 
TLFamily_CALI      .         Caliper                       : 
TLFamily_CFTC      .         Neutron Far                   : 
TLFamily_CNTC      .         Neutron Near                  : 
TLFamily_DEPTH     .         Measured Depth                : 
TLFamily_DT        .         Compressional Slowness        : 
TLFamily_GR        .         Gamma Ray                     : 
TLFamily_HAZIM     .         Hole Azimuth                  : 
TLFamily_HCGR      .         Gamma Ray                     : 
TLFamily_HSGR      .         Gamma Ray                     : 
TLFamily_HTPR      .                                       : 
TLFamily_HTUR      .                                       : 
TLFamily_HUPR      .                                       : 
TLFamily_MTEM_FILT .         Temperature                   : 
TLFamily_PEFZ      .         Photoelectric Factor          : 
TLFamily_PHIE      .         Effective Porosity            : 
TLFamily_PHIT      .         Total Porosity                : 
TLFamily_POTA      .         Potassium Concentration       : 
TLFamily_PURA      .         Uranium Concentration         : 
TLFamily_Perm      .         Permeability                  : 
TLFamily_RHOZ      .         Bulk Density                  : 
TLFamily_RLA1      .         Resistivity (Array)           : 
TLFamily_RLA2      .         Resistivity (Array)           : 
TLFamily_RLA3      .         Resistivity (Array)           : 
TLFamily_RLA4      .         Resistivity (Array)           : 
TLFamily_RLA5      .         Resistivity (Array)           : 
TLFamily_RT        .         Resistivity - True Formation  : 
TLFamily_RXO       .         Resistivity - Flushed Zone    : 
TLFamily_RXOZ      .         Resistivity - Flushed Zone    : 
TLFamily_SDEVM     .         Sonde Deviation               : 
TLFamily_SP        .         Spontaneous Potential         : 
TLFamily_SW        .         Water Saturation              : 
TLFamily_THOR      .         Thorium Concentration         : 
TLFamily_TNPH      .                                       : 
TLFamily_URAN      .         Uranium Concentration         : 
TLFamily_VCLAV     .         Clay Volume Fraction          : 
~Curve Information
#_______________________________________________________________________________
#
#LOGNAME           .UNIT     LOG_ID                        : DESCRIPTION
#_______________________________________________________________________________
DEPTH              .M                                      : Depth 
AT10               .ohm.m                                  : MedRes     21 Array Induction Two Foot Resistivity A10 
AT20               .ohm.m                                  : MedRes     22 Array Induction Two Foot Resistivity A20 
AT30               .ohm.m                                  : MedRes     23 Array Induction Two Foot Resistivity A30 
AT60               .ohm.m                                  : DeepRes    24 Array Induction Two Foot Resistivity A60 
AT90               .ohm.m                                  : XDeepRes   25 Array Induction Two Foot Resistivity A90 
BSC                .mm                                     : 11 Nominal Caliper 
C1                 .mm                                     : 8 CALIPER DIAMETER 1 
C2                 .mm                                     : 9 CALIPER DIAMETER 2 
CALI               .mm                                     : Caliper    10 
CFTC               .1/s                                    : 28 Corrected Far Thermal Count Rate 
CNTC               .1/s                                    : Neutron    29 Corrected Near Thermal Count Rate 
DT                 .uSec/m                                 : Sonic      19 Sonic travel time 
GR                 .gAPI                                   : 30 Gamma Ray 
HAZIM              .deg                                    : Azimuth    2 Hole Azimuth 
HCGR               .gAPI                                   : HNGS Computed Gamma Ray 
HSGR               .gAPI                                   : HNGS Standard Gamma-Ray 
HTPR               .                                       : HNGS Thorium/Potassium Ratio 
HTUR               .                                       : HNGS Thorium/Uranium Ratio 
HUPR               .                                       : HNGS Uranium/Potassium Ratio 
MTEM_FILT          .degC                                   : 20 Filtered Mud Temperature 
PEFZ               .B/E                                    : PEF        4 Formation Photoelectric Factor 
Perm               .md                                     : Permeability 
PHIE               .Dec                                    : Effective porosity 
PHIT               .Dec                                    : Total porosity 
POTA               .%                                      : HNGS Formation Potassium Concentration 
PURA               .ppm                                    : Upper Limit of Formation Uranium Concentration 
RHOZ               .g/cm3                                  : Density    5 Bulk Density 
RLA1               .ohm.m                                  : ShalRes    12 HRLT Borehole Corrected Resistivity 1 
RLA2               .ohm.m                                  : MedRes     13 HRLT Borehole Corrected Resistivity 2 
RLA3               .ohm.m                                  : DeepRes    14 HRLT Borehole Corrected Resistivity 3 
RLA4               .ohm.m                                  : XDeepRes   15 HRLT Borehole Corrected Resisitivity 4 
RLA5               .ohm.m                                  : UltraDeepR 16 HRLT Borehole Corrected Resistivity 5 
RT                 .ohm.m                                  : 17 HRLT True Formation Resistivity 
RXO                .ohm.m                                  : MicroRes   18 HRLT Invaded Zone Resistivity 
RXOZ               .ohm.m                                  : MicroRes   6 Invaded Formation Resistivity filtered at 18 inches 
SDEVM              .deg                                    : 3 Sonde Deviation 
SP                 .mV                                     : SP         27 Spontaneous Potential 
SW                 .Dec                                    : Water saturation 
THOR               .ppm                                    : HNGS Formation Thorium Concentration 
TNPH               .v/v                                    : Neutron porosity 
URAN               .ppm                                    : HNGS Formation Uranium Concentration 
VCLAV              .Dec                                    : Clay volume
~Ascii
# ...
336.7      
  1.2477     1.281599998474121 1.2848     1.36269998550415 1.357100009918213 
  215.9      221.388    214.725    218.031    356.3711   1343.8563  
  536.3928   117.0234   294.8117   78.5377    93.2708    13.8831    
  8.5166     1.6301     27.9942    2.3262     136.5245971679688 0.3902     
  0.4101     1.2724     2.4936     1.9518     1.5852     1.58490002155304 
  1.605200052261353 1.585600018501282 1.536700010299683 1.568899989128113 
  1.688300013542175 1.080000042915344 0.7373     2.3166     1          
  17.6651    0.5022     2.0742     0.1329    
336.8      
  1.263      1.291399955749512 1.3145     1.398499965667725 1.399500012397766 
  215.9      229.228    219.471    224.296    369.1319   1329.559   
  502.0856   116.9074   294.3466   81.0087    95.9674    13.3701    
  8.9523     1.4935     27.9942    2.3088     112.9138031005859 0.3737     
  0.3991     1.3475     2.4492     1.9612     1.5978     1.596300005912781 
  1.612499952316284 1.589400053024292 1.54069995880127 1.571099996566772 
  1.72599995136261 1.063599944114685 0.7362     1.6796     1          
  18.0161    0.4646     2.0125     0.1695    
336.9      
  1.2747     1.310899972915649 1.342      1.437700033187866 1.440099954605103 
  215.9      226.345    217.572    221.915    366.3019   1316.8196  
  494.1528   112.2315   293.6958   81.5189    95.9306    13.6795    
  9.195      1.4879     27.998     2.2687     116.6942977905273 0.3765     
  0.401      1.3347     2.4263     1.9725     1.5756     1.581400036811829 
  1.588600039482117 1.568099975585938 1.521900057792664 1.549100041389465 
  1.722000002861023 1.077399969100952 0.7344     1.3003     1          
  18.2541    0.4632     1.9859     0.1633    
337        
  1.2917     1.339599967002869 1.3724     1.480000019073486 1.494899988174438 
  215.9      224.811    216.918    220.829    367.2527   1312.6018  
  488.8615   106.7294   293.198    82.0292    95.8938    13.989     
  9.4377     1.4822     28.0003    2.228      120.5718002319336 0.3793     
  0.4029     1.3219     2.4035     1.9807     1.5859     1.58840000629425 
  1.589200019836426 1.568099975585938 1.520400047302246 1.536399960517883 
  1.815299987792969 1.114699959754944 0.7328     0.9108     1          
  18.4922    0.4581     1.9594     0.157     
337.1      
  1.3172     1.358999967575073 1.3862     1.517500042915344 1.525500059127808 
  215.9      225.561    218.201    221.85     373.8422   1319.1469  
  485.5335   100.4178   292.9048   80.6331    93.6469    12.0656    
  10.0121    1.2051     28.0003    2.2003     88.56159973144531 0.3536     
  0.3858     1.4389     2.1689     1.9809     1.6236     1.615399956703186 
  1.613600015640259 1.59469997882843 1.546700000762939 1.553400039672852 
  1.892500042915344 1.155200004577637 0.7314     0.4948     1          
  17.3617    0.446      1.7341     0.2141    
337.2      
  1.3392     1.392300009727478 1.4225     1.550899982452393 1.587299942970276 
  215.9      229.03     218.317    223.609    377.0772   1345.3657  
  480.0316   96.2828    292.5809   81.7637    92.8051    11.1895    
  12.784     0.934      28.005     2.1708     66.73670196533203 0.3316     
  0.3711     1.5393     1.8396     1.9875     1.682      1.661399960517883 
  1.660799980163574 1.645599961280823 1.596300005912781 1.592100024223328 
  1.992900013923645 1.158300042152405 0.7297     0.4008     1          
  17.1359    0.4553     1.4106     0.2631    
337.3      
  1.4071     1.438599944114685 1.4663     1.601199984550476 1.646399974822998 
  215.9      229.572    218.153    223.79     381.3138   1366.4091  
  473.3687   93.1063    292.3081   82.8944    91.9633    10.3134    
  15.556     0.663      28.0082    2.1523     49.32149887084961 0.3096     
  0.3564     1.6396     1.5104     2.0007     1.7901     1.756600022315979 
  1.759299993515015 1.743000030517578 1.690400004386902 1.677600026130676 
  2.135400056838989 1.163400053977966 0.7277     0.3854     1          
  16.9101    0.4593     1.087      0.312     
337.4      
  1.4758     1.51230001449585 1.5329     1.669600009918213 1.73199999332428 
  215.9      225.113    217.734    221.392    387.6358   1376.3143  
  465.2265   91.0922    292.1199   78.2952    87.4331    9.1673     
  14.3122    0.6405     28.0082    2.1474     44.93209838867188 0.3031     
  0.3519     1.6668     1.48       2.0077     1.8841     1.844200015068054 
  1.849799990653992 1.838299989700317 1.785799980163574 1.779700040817261 
  2.197499990463257 1.181599974632263 0.7254     0.4432     1          
  15.28      0.4519     1.0676     0.3253    
337.5      
  1.576      1.650099992752075 1.6738     1.839200019836426 1.91129994392395 
  215.9      224.484    215.831    220.115    400.0895   1393.2133  
  451.5504   93.7327    291.8676   78.3933    85.7116    8.7588     
  21.7777    0.463      28.0137    2.1584     35.69789886474609 0.2877     
  0.3401     1.717      1.1915     2.015      1.9359     1.898100018501282 
  1.908400058746338 1.898800015449524 1.847000002861023 1.853399991989136 
  2.193700075149536 1.33080005645752 0.7221     0.6669     1          
  15.0179    0.437      0.7861     0.3497    
337.6      
  1.7469     1.843600034713745 1.8912     2.088500022888184 2.205199956893921 
  215.9      224.098    214.279    219.134    413.3211   1414.3011  
  439.0545   94.8266    291.6805   78.4913    83.9902    8.3502     
  29.2432    0.2855     28.018     2.1965     26.49449920654297 0.2688     
  0.3249     1.7671     0.903      2.0302     2.0217     1.986400008201599 
  2.001499891281128 1.993600010871887 1.940500020980835 1.955700039863586 
  2.243900060653687 1.262199997901917 0.7189     1.1782     1          
  14.7559    0.4237     0.5046     0.3742    
337.7      
  1.9315     2.04830002784729 2.1063     2.341500043869019 2.516499996185303 
  215.9      222.974    213.88     218.38     426.1247   1441.3103  
  430.5984   91.4475    291.6403   74.4378    80.2165    7.3249     
  20.5216    0.3569     28.018     2.2525     18.68040084838867 0.2483     
  0.3073     1.8063     1.0328     2.0556     2.1992     2.166599988937378 
  2.190599918365479 2.183900117874146 2.127799987792969 2.151299953460693 
  2.390899896621704 1.359699964523315 0.7163     2.1953     1          
  13.2307    0.4159     0.6447     0.3933    
337.8      
  2.1796     2.311000108718872 2.3847     2.688100099563599 2.86929988861084 
  215.9      225.663    213.808    219.656    460.165    1494.5247  
  416.6849   93.0415    291.591    75.5815    80.9578    6.8682     
  23.0273    0.304      28.0232    2.3137     8.695400238037109 0.2087     
  0.2748     1.9034     0.967      2.091      2.4629     2.420399904251099 
  2.448999881744385 2.440299987792969 2.379699945449829 2.399199962615967 
  2.723200082778931 1.419700026512146 0.7154     3.4344     1          
  13.0283    0.3896     0.5735     0.4407    
337.9      
  2.5102     2.589799880981445 2.6482     3.005599975585938 3.201299905776978 
  215.9      228.44     213.982    221.092    495.5154   1550.3923  
  401.9858   94.2373    291.571    76.7252    81.6991    6.4115     
  25.5331    0.2511     28.0278    2.3644     1.686400055885315 0.1437     
  0.217      2.0005     0.9012     2.1279     3.0952     3.049299955368042 
  3.096400022506714 3.088799953460693 3.0139000415802 3.050100088119507 
  3.289999961853027 1.540799975395203 0.7144     4.4995     1          
  12.826     0.3633     0.5023     0.488     
338        
  2.8044     2.944600105285645 2.997      3.443300008773804 3.657799959182739 
  215.9      229.38     214.58     221.857    522.6607   1598.6725  
  388.296    91.7854    291.6274   77.9905    82.0276    5.8093     
  24.8461    0.2288     28.0278    2.3851     0.04190000146627426 0.0621     
  0.1454     2.1385     0.8951     2.1568     3.5297     3.464600086212158 
  3.52180004119873 3.514400005340576 3.431999921798706 3.481899976730347 
  3.608500003814697 1.864500045776367 0.7123     5.0191     1          
  12.423     0.3467     0.4893     0.5554    
