~Version
 VERS              .         2.0                           : CWLS LOG ASCII STANDARD - VERSION 2.0
 WRAP              .         YES                            : ONE LINE PER DEPTH STEP
 DLM               .         SPACE                         : DELIMITING CHARACTER(SPACE TAB OR COMMA)
~Well Information
#_______________________________________________________________________________
#
#PARAMETER_NAME    .UNIT     VALUE                         : DESCRIPTION
#_______________________________________________________________________________
STRT               .M        0                             : First reference value
STOP               .M        740                           : Last reference value
STEP               .M        0.1                           : Step increment
NULL               .         -999.25                       : Missing value
COMP               .         COMPANY                       : Company
WELL               .         348                           : Well name
FLD                .         Karatube                      : Field
LOC                .         Atyrau                        : Location
CNTY               .                                       : County
STAT               .                                       : State
CTRY               .                                       : Country
SRVC               .         SCH                           : Service Company
DATE               .         09.09.2024                    : Date
API                .                                       : API number
APDAT              .         136.988                       : Elevation Above Permanent Datum
BHS                .         OPEN                          : Completion Status
COUNT              .         Kazakhstan                    : Country
DF                 .         136.988                       : DF Elevation
DRMEA              .         DF                            : Drill Measured From
EPDAT              .         0                             : Elevation of Permanent Datum
GL                 .         131.788                       : GL Elevation
KB                 .         0                             : KB Elevation
LGMEA              .         DF                            : Log Measured from
LATI               .         47.93162                      : Latitude/Northing
LONG               .         56.55725                      : Longitude/Easting
ORIGINALWELLNAME   .         348                           : 
PDAT               .         MSL                           : Permanent Datum
RWS                .         -999                          : Def_Rw
STATE              .         1_500 / 1_200                 : State
WST                .         -999                          : Def_Rwt
~Parameter Information Block
#_______________________________________________________________________________
#
#PARAMETER_NAME    .UNIT     VALUE                         : DESCRIPTION
#_______________________________________________________________________________
SET                .         model                         : 
TLFamily_AT10      .         Resistivity - Medium          : 
TLFamily_AT20      .         Resistivity (Array)           : 
TLFamily_AT30      .         Resistivity (Array)           : 
TLFamily_AT60      .         Resistivity (Array)           : 
TLFamily_AT90      .         Resistivity - Deep            : 
TLFamily_BSC       .         Bit Size                      : 
TLFamily_C1        .         Caliper 1                     : 
TLFamily_C2        .         Caliper 2                     : 
TLFamily_CALI      .         Caliper                       : 
TLFamily_CFTC      .         Neutron Far                   : 
TLFamily_CNTC      .         Neutron Near                  : 
TLFamily_DEPTH     .         Measured Depth                : 
TLFamily_DT        .         Compressional Slowness        : 
TLFamily_GR        .         Gamma Ray                     : 
TLFamily_HAZIM     .         Hole Azimuth                  : 
TLFamily_HCGR      .         Gamma Ray                     : 
TLFamily_HSGR      .         Gamma Ray                     : 
TLFamily_HTPR      .                                       : 
TLFamily_HTUR      .                                       : 
TLFamily_HUPR      .                                       : 
TLFamily_MTEM_FILT .         Temperature                   : 
TLFamily_PEFZ      .         Photoelectric Factor          : 
TLFamily_PHIE      .         Effective Porosity            : 
TLFamily_PHIT      .         Total Porosity                : 
TLFamily_POTA      .         Potassium Concentration       : 
TLFamily_PURA      .         Uranium Concentration         : 
TLFamily_Perm      .         Permeability                  : 
TLFamily_RHOZ      .         Bulk Density                  : 
TLFamily_RLA1      .         Resistivity (Array)           : 
TLFamily_RLA2      .         Resistivity (Array)           : 
TLFamily_RLA3      .         Resistivity (Array)           : 
TLFamily_RLA4      .         Resistivity (Array)           : 
TLFamily_RLA5      .         Resistivity (Array)           : 
TLFamily_RT        .         Resistivity - True Formation  : 
TLFamily_RXO       .         Resistivity - Flushed Zone    : 
TLFamily_RXOZ      .         Resistivity - Flushed Zone    : 
TLFamily_SDEVM     .         Sonde Deviation               : 
TLFamily_SP        .         Spontaneous Potential         : 
TLFamily_SW        .         Water Saturation              : 
TLFamily_THOR      .         Thorium Concentration         : 
TLFamily_TNPH      .                                       : 
TLFamily_URAN      .         Uranium Concentration         : 
TLFamily_VCLAV     .         Clay Volume Fraction          : 
~Curve Information
#_______________________________________________________________________________
#
#LOGNAME           .UNIT     LOG_ID                        : DESCRIPTION
#_______________________________________________________________________________
DEPTH              .M                                      : Depth 
AT10               .ohm.m                                  : MedRes     21 Array Induction Two Foot Resistivity A10 
AT20               .ohm.m                                  : MedRes     22 Array Induction Two Foot Resistivity A20 
AT30               .ohm.m                                  : MedRes     23 Array Induction Two Foot Resistivity A30 
AT60               .ohm.m                                  : DeepRes    24 Array Induction Two Foot Resistivity A60 
AT90               .ohm.m                                  : XDeepRes   25 Array Induction Two Foot Resistivity A90 
BSC                .mm                                     : 11 Nominal Caliper 
C1                 .mm                                     : 8 CALIPER DIAMETER 1 
C2                 .mm                                     : 9 CALIPER DIAMETER 2 
CALI               .mm                                     : Caliper    10 
CFTC               .1/s                                    : 28 Corrected Far Thermal Count Rate 
CNTC               .1/s                                    : Neutron    29 Corrected Near Thermal Count Rate 
DT                 .uSec/m                                 : Sonic      19 Sonic travel time 
GR                 .gAPI                                   : 30 Gamma Ray 
HAZIM              .deg                                    : Azimuth    2 Hole Azimuth 
HCGR               .gAPI                                   : HNGS Computed Gamma Ray 
HSGR               .gAPI                                   : HNGS Standard Gamma-Ray 
HTPR               .                                       : HNGS Thorium/Potassium Ratio 
HTUR               .                                       : HNGS Thorium/Uranium Ratio 
HUPR               .                                       : HNGS Uranium/Potassium Ratio 
MTEM_FILT          .degC                                   : 20 Filtered Mud Temperature 
PEFZ               .B/E                                    : PEF        4 Formation Photoelectric Factor 
Perm               .md                                     : Permeability 
PHIE               .Dec                                    : Effective porosity 
PHIT               .Dec                                    : Total porosity 
POTA               .%                                      : HNGS Formation Potassium Concentration 
PURA               .ppm                                    : Upper Limit of Formation Uranium Concentration 
RHOZ               .g/cm3                                  : Density    5 Bulk Density 
RLA1               .ohm.m                                  : ShalRes    12 HRLT Borehole Corrected Resistivity 1 
RLA2               .ohm.m                                  : MedRes     13 HRLT Borehole Corrected Resistivity 2 
RLA3               .ohm.m                                  : DeepRes    14 HRLT Borehole Corrected Resistivity 3 
RLA4               .ohm.m                                  : XDeepRes   15 HRLT Borehole Corrected Resisitivity 4 
RLA5               .ohm.m                                  : UltraDeepR 16 HRLT Borehole Corrected Resistivity 5 
RT                 .ohm.m                                  : 17 HRLT True Formation Resistivity 
RXO                .ohm.m                                  : MicroRes   18 HRLT Invaded Zone Resistivity 
RXOZ               .ohm.m                                  : MicroRes   6 Invaded Formation Resistivity filtered at 18 inches 
SDEVM              .deg                                    : 3 Sonde Deviation 
SP                 .mV                                     : SP         27 Spontaneous Potential 
SW                 .Dec                                    : Water saturation 
THOR               .ppm                                    : HNGS Formation Thorium Concentration 
TNPH               .v/v                                    : Neutron porosity 
URAN               .ppm                                    : HNGS Formation Uranium Concentration 
VCLAV              .Dec                                    : Clay volume
~Ascii
# ...
376        
  1.9361     2.394099950790405 2.6197     2.984200000762939 3.093499898910522 
  215.9      212.878    211.4      212.138    563.1677   1820.9298  
  417.2611   87.3503    311.9408   61.6798    70.8833    2.7408     
  7.024      0.3902     28.5309    2.3905     17.62750053405762 0.245      
  0.297      2.2951     1.2855     2.0839     2.8172     2.980999946594238 
  3.067300081253052 3.095799922943115 2.990200042724609 3.122900009155273 
  2.268500089645386 1.067399978637695 0.7107     21.5067    1          
  6.2904     0.3845     0.8956     0.3461    
376.1      
  2.0092     2.500400066375732 2.7517     3.113699913024902 3.227299928665161 
  215.9      212.312    211.188    211.749    555.0093000000001 1831.5461  
  416.3926   86.6556    311.3859   59.5563    68.6784    2.7717     
  6.4359     0.4307     28.5345    2.3941     22.21579933166504 0.2583     
  0.3052     2.2081     1.3308     2.0887     2.7796     2.902299880981445 
  2.99780011177063 3.026700019836426 2.917700052261353 3.013000011444092 
  2.33299994468689 1.09089994430542 0.7086     21.4049    1          
  6.1204     0.3977     0.951      0.3127    
376.2      
  2.0648     2.535900115966797 2.7615     3.161700010299683 3.288800001144409 
  215.9      212.182    210.977    211.578    550.8432   1853.7191  
  414.6429   85.7573    310.7845   60.6301    69.1527    2.7771     
  6.8505     0.4068     28.5354    2.3932     21.71549987792969 0.2569     
  0.3053     2.2466     1.298      2.0937     2.7186     2.822700023651123 
  2.924799919128418 2.944600105285645 2.843699932098389 2.921999931335449 
  2.33080005645752 1.139099955558777 0.7066     21.4978    1          
  6.2391     0.4106     0.913      0.3227    
376.3      
  2.0324     2.504499912261963 2.723      3.093100070953369 3.200400114059448 
  215.9      212.273    210.816    211.543    545.3680000000001 1871.094   
  412.7486   84.9959    310.1754   61.7038    69.627     2.7824     
  7.2652     0.383      28.5362    2.3925     22.01980018615723 0.2578     
  0.3077     2.285      1.2652     2.0961     2.7522     2.875799894332886 
  2.976300001144409 2.983999967575073 2.885499954223633 2.975399971008301 
  2.333199977874756 1.161200046539307 0.7052     21.6257    1          
  6.3577     0.4238     0.8751     0.3333    
376.4      
  2.003      2.471800088882446 2.6893     3.039200067520142 3.142400026321411 
  215.9      212.651    210.816    211.732    531.9711   1862.344   
  411.23     84.8608    309.5862   64.6062    69.6479    3.0506     
  13.105     0.2328     28.5394    2.3987     22.89979934692383 0.2601     
  0.3118     2.3204     0.932      2.0935     2.7406     2.884700059890747 
  2.978100061416626 2.971800088882446 2.879600048065186 2.975600004196167 
  2.325400114059448 1.149899959564209 0.7052     21.6809    1          
  7.0787     0.4383     0.5401     0.3452    
376.5      
  1.9749     2.43779993057251 2.6637     3.019599914550781 3.092299938201904 
  215.9      212.892    211.436    212.163    530.3187   1856.5256  
  410.38     83.6548    309.18     64.2833    68.9902    3.0298     
  12.8455    0.2359     28.5428    2.3992     24.27029991149902 0.2635     
  0.3143     2.3142     0.9351     2.0904     2.7213     2.873399972915649 
  2.961699962615967 2.93120002746582 2.845900058746338 2.927799940109253 
  2.400399923324585 1.133399963378906 0.7067     21.8415    1          
  7.0117     0.4381     0.546      0.3384    
376.6      
  1.9664     2.423399925231934 2.6484     2.999900102615356 3.060699939727783 
  215.9      213.156    212.3      212.728    535.1008   1849.3059  
  408.7655   82.2803    308.8919   63.9604    68.3324    3.0089     
  12.5861    0.2391     28.5455    2.3942     24.34569931030273 0.2637     
  0.3134     2.308      0.9382     2.0867     2.7531     2.895800113677979 
  2.994999885559082 2.944200038909912 2.854599952697754 2.923399925231934 
  2.531500101089478 1.105499982833862 0.7089     22.0569    1          
  6.9448     0.4289     0.5518     0.331     
376.7      
  2.0008     2.430000066757202 2.6425     2.970200061798096 3.047600030899048 
  215.9      213.725    213.178    213.451    547.3524   1831.9203  
  403.0534   81.8966    308.7911   63.6829    66.7845    2.9908     
  13.7739    0.2145     28.5455    2.3925     21.99810028076172 0.2577     
  0.3069     2.3027     0.874      2.0828     2.7758     2.929399967193604 
  3.024899959564209 2.964600086212158 2.875      2.94320011138916 
  2.595200061798096 1.077100038528442 0.7123     22.3274    1          
  6.887      0.407      0.4939     0.3277    
376.8      
  2.017      2.448699951171875 2.6396     2.969899892807007 3.035500049591064 
  215.9      213.914    213.885    213.899    549.4974999999999 1810.2471  
  399.4672   81.7959    308.75     62.3236    65.1549    3.0318     
  13.5983    0.2122     28.5482    2.3861     24.31459999084473 0.2636     
  0.3096     2.2434     0.8484     2.081      2.9023     3.078900098800659 
  3.15310001373291 3.087500095367432 2.995399951934814 3.065500020980835 
  2.757699966430664 1.077600002288818 0.7164     22.6482    1          
  6.7992     0.3963     0.4762     0.3065    
376.9      
  2.0355     2.466200113296509 2.662      3.00600004196167 3.045200109481812 
  215.9      213.745    214.478    214.111    546.5678   1784.5125  
  397.5826   81.8086    308.7509   60.9643    63.5253    3.0727     
  13.4227    0.21       28.5517    2.3857     27.59180068969727 0.2713     
  0.3142     2.1842     0.8227     2.0776     2.8938     3.109400033950806 
  3.125400066375732 3.070499897003174 2.976900100708008 3.052099943161011 
  2.846299886703491 1.065000057220459 0.7208     23.0442    1          
  6.7113     0.3906     0.4586     0.2857    
377        
  1.9572     2.418800115585327 2.6434     2.996700048446655 3.019700050354004 
  215.9      212.613    214.899    213.753    543.0882   1747.728   
  399.407    81.6743    308.8231   60.9609    64.2895    3.0044     
  12.8355    0.2341     28.5517    2.3934     26.82259941101074 0.2696     
  0.3132     2.2008     0.8887     2.0723     2.7006     2.894200086593628 
  2.8610999584198 2.816299915313721 2.73169994354248 2.812000036239624 
  2.788199901580811 1.054200053215027 0.725      23.7263    1          
  6.6123     0.3817     0.5152     0.291     
377.1      
  1.877      2.365400075912476 2.5719     2.894399881362915 2.900399923324585 
  215.9      214.287    216.012    215.148    527.3231   1720.577   
  402.2929   82.5451    308.9775   59.3811    63.9378    2.9383     
  9.5317     0.3476     28.5527    2.4088     31.60860061645508 0.2798     
  0.3218     2.1596     1.1196     2.0642     2.5758     2.723400115966797 
  2.680799961090088 2.646600008010864 2.569999933242798 2.645299911499023 
  2.717900037765503 1.048699975013733 0.729      24.2489    1          
  6.3484     0.3918     0.7461     0.2798    
377.2      
  1.8694     2.240799903869629 2.4832     2.767499923706055 2.777299880981445 
  215.9      217.757    217.392    217.575    504.7189   1699.0208  
  405.8712   83.7579    309.1883   57.8013    63.5861    2.8722     
  6.228      0.4612     28.5543    2.4232     38.3838005065918 0.2924     
  0.3329     2.1184     1.3505     2.0553     2.7239     2.808500051498413 
  2.773999929428101 2.740299940109253 2.662899971008301 2.726300001144409 
  2.989099979400635 1.030200004577637 0.7328     24.6975    1          
  6.0845     0.4126     0.977      0.2699    
377.3      
  1.9531     2.291100025177002 2.534      2.780499935150146 2.769599914550781 
  215.9      221.894    217.359    219.615    488.331    1674.6772  
  409.8254   82.5029    309.452    60.873     67.0671    2.5411     
  5.5876     0.4548     28.5543    2.4334     28.63719940185547 0.2736     
  0.324      2.319      1.4526     2.0503     2.8823     2.877500057220459 
  2.870500087738037 2.832099914550781 2.752700090408325 2.768800020217896 
  3.338500022888184 1.009500026702881 0.7358     25.361     1          
  5.8929     0.4249     1.0546     0.3357    
