~Version
 VERS              .         2.0                           : CWLS LOG ASCII STANDARD - VERSION 2.0
 WRAP              .         YES                            : ONE LINE PER DEPTH STEP
 DLM               .         SPACE                         : DELIMITING CHARACTER(SPACE TAB OR COMMA)
~Well Information
#_______________________________________________________________________________
#
#PARAMETER_NAME    .UNIT     VALUE                         : DESCRIPTION
#_______________________________________________________________________________
STRT               .M        0                             : First reference value
STOP               .M        740                           : Last reference value
STEP               .M        0.1                           : Step increment
NULL               .         -999.25                       : Missing value
COMP               .         COMPANY                       : Company
WELL               .         348                           : Well name
FLD                .         Karatube                      : Field
LOC                .         Atyrau                        : Location
CNTY               .                                       : County
STAT               .                                       : State
CTRY               .                                       : Country
SRVC               .         SCH                           : Service Company
DATE               .         09.09.2024                    : Date
API                .                                       : API number
APDAT              .         136.988                       : Elevation Above Permanent Datum
BHS                .         OPEN                          : Completion Status
COUNT              .         Kazakhstan                    : Country
DF                 .         136.988                       : DF Elevation
DRMEA              .         DF                            : Drill Measured From
EPDAT              .         0                             : Elevation of Permanent Datum
GL                 .         131.788                       : GL Elevation
KB                 .         0                             : KB Elevation
LGMEA              .         DF                            : Log Measured from
LATI               .         47.93162                      : Latitude/Northing
LONG               .         56.55725                      : Longitude/Easting
ORIGINALWELLNAME   .         348                           : 
PDAT               .         MSL                           : Permanent Datum
RWS                .         -999                          : Def_Rw
STATE              .         1_500 / 1_200                 : State
WST                .         -999                          : Def_Rwt
~Parameter Information Block
#_______________________________________________________________________________
#
#PARAMETER_NAME    .UNIT     VALUE                         : DESCRIPTION
#_______________________________________________________________________________
SET                .         model                         : 
TLFamily_AT10      .         Resistivity - Medium          : 
TLFamily_AT20      .         Resistivity (Array)           : 
TLFamily_AT30      .         Resistivity (Array)           : 
TLFamily_AT60      .         Resistivity (Array)           : 
TLFamily_AT90      .         Resistivity - Deep            : 
TLFamily_BSC       .         Bit Size                      : 
TLFamily_C1        .         Caliper 1                     : 
TLFamily_C2        .         Caliper 2                     : 
TLFamily_CALI      .         Caliper                       : 
TLFamily_CFTC      .         Neutron Far                   : 
TLFamily_CNTC      .         Neutron Near                  : 
TLFamily_DEPTH     .         Measured Depth                : 
TLFamily_DT        .         Compressional Slowness        : 
TLFamily_GR        .         Gamma Ray                     : 
TLFamily_HAZIM     .         Hole Azimuth                  : 
TLFamily_HCGR      .         Gamma Ray                     : 
TLFamily_HSGR      .         Gamma Ray                     : 
TLFamily_HTPR      .                                       : 
TLFamily_HTUR      .                                       : 
TLFamily_HUPR      .                                       : 
TLFamily_MTEM_FILT .         Temperature                   : 
TLFamily_PEFZ      .         Photoelectric Factor          : 
TLFamily_PHIE      .         Effective Porosity            : 
TLFamily_PHIT      .         Total Porosity                : 
TLFamily_POTA      .         Potassium Concentration       : 
TLFamily_PURA      .         Uranium Concentration         : 
TLFamily_Perm      .         Permeability                  : 
TLFamily_RHOZ      .         Bulk Density                  : 
TLFamily_RLA1      .         Resistivity (Array)           : 
TLFamily_RLA2      .         Resistivity (Array)           : 
TLFamily_RLA3      .         Resistivity (Array)           : 
TLFamily_RLA4      .         Resistivity (Array)           : 
TLFamily_RLA5      .         Resistivity (Array)           : 
TLFamily_RT        .         Resistivity - True Formation  : 
TLFamily_RXO       .         Resistivity - Flushed Zone    : 
TLFamily_RXOZ      .         Resistivity - Flushed Zone    : 
TLFamily_SDEVM     .         Sonde Deviation               : 
TLFamily_SP        .         Spontaneous Potential         : 
TLFamily_SW        .         Water Saturation              : 
TLFamily_THOR      .         Thorium Concentration         : 
TLFamily_TNPH      .                                       : 
TLFamily_URAN      .         Uranium Concentration         : 
TLFamily_VCLAV     .         Clay Volume Fraction          : 
~Curve Information
#_______________________________________________________________________________
#
#LOGNAME           .UNIT     LOG_ID                        : DESCRIPTION
#_______________________________________________________________________________
DEPTH              .M                                      : Depth 
AT10               .ohm.m                                  : MedRes     21 Array Induction Two Foot Resistivity A10 
AT20               .ohm.m                                  : MedRes     22 Array Induction Two Foot Resistivity A20 
AT30               .ohm.m                                  : MedRes     23 Array Induction Two Foot Resistivity A30 
AT60               .ohm.m                                  : DeepRes    24 Array Induction Two Foot Resistivity A60 
AT90               .ohm.m                                  : XDeepRes   25 Array Induction Two Foot Resistivity A90 
BSC                .mm                                     : 11 Nominal Caliper 
C1                 .mm                                     : 8 CALIPER DIAMETER 1 
C2                 .mm                                     : 9 CALIPER DIAMETER 2 
CALI               .mm                                     : Caliper    10 
CFTC               .1/s                                    : 28 Corrected Far Thermal Count Rate 
CNTC               .1/s                                    : Neutron    29 Corrected Near Thermal Count Rate 
DT                 .uSec/m                                 : Sonic      19 Sonic travel time 
GR                 .gAPI                                   : 30 Gamma Ray 
HAZIM              .deg                                    : Azimuth    2 Hole Azimuth 
HCGR               .gAPI                                   : HNGS Computed Gamma Ray 
HSGR               .gAPI                                   : HNGS Standard Gamma-Ray 
HTPR               .                                       : HNGS Thorium/Potassium Ratio 
HTUR               .                                       : HNGS Thorium/Uranium Ratio 
HUPR               .                                       : HNGS Uranium/Potassium Ratio 
MTEM_FILT          .degC                                   : 20 Filtered Mud Temperature 
PEFZ               .B/E                                    : PEF        4 Formation Photoelectric Factor 
Perm               .md                                     : Permeability 
PHIE               .Dec                                    : Effective porosity 
PHIT               .Dec                                    : Total porosity 
POTA               .%                                      : HNGS Formation Potassium Concentration 
PURA               .ppm                                    : Upper Limit of Formation Uranium Concentration 
RHOZ               .g/cm3                                  : Density    5 Bulk Density 
RLA1               .ohm.m                                  : ShalRes    12 HRLT Borehole Corrected Resistivity 1 
RLA2               .ohm.m                                  : MedRes     13 HRLT Borehole Corrected Resistivity 2 
RLA3               .ohm.m                                  : DeepRes    14 HRLT Borehole Corrected Resistivity 3 
RLA4               .ohm.m                                  : XDeepRes   15 HRLT Borehole Corrected Resisitivity 4 
RLA5               .ohm.m                                  : UltraDeepR 16 HRLT Borehole Corrected Resistivity 5 
RT                 .ohm.m                                  : 17 HRLT True Formation Resistivity 
RXO                .ohm.m                                  : MicroRes   18 HRLT Invaded Zone Resistivity 
RXOZ               .ohm.m                                  : MicroRes   6 Invaded Formation Resistivity filtered at 18 inches 
SDEVM              .deg                                    : 3 Sonde Deviation 
SP                 .mV                                     : SP         27 Spontaneous Potential 
SW                 .Dec                                    : Water saturation 
THOR               .ppm                                    : HNGS Formation Thorium Concentration 
TNPH               .v/v                                    : Neutron porosity 
URAN               .ppm                                    : HNGS Formation Uranium Concentration 
VCLAV              .Dec                                    : Clay volume
~Ascii
# ...
144.5      
  -999.25    -999.25    -999.25    -999.25    -999.25    228.7      
  228.465    229.368    228.916    -999.25    -999.25    -999.25    
  53.0062    -999.25    38.0589    53.8821    6.518      3.7143     
  1.7548     -999.25    -999.25    0          -999.25    -999.25    
  0.985      2.1268     -999.25    -999.25    -999.25    -999.25    
  -999.25    -999.25    -999.25    -999.25    -999.25    0.8204     
  -999.25    -999.25    6.4199     -999.25    1.7284     0.2867    
144.6      
  -999.25    -999.25    -999.25    -999.25    -999.25    228.7      
  228.465    229.368    228.916    -999.25    -999.25    -999.25    
  51.8941    -999.25    37.1783    52.2806    6.5002     3.7205     
  1.7471     -999.25    -999.25    0          -999.25    -999.25    
  0.9635     2.0686     -999.25    -999.25    -999.25    -999.25    
  -999.25    -999.25    -999.25    -999.25    -999.25    0.8221     
  -999.25    -999.25    6.2633     -999.25    1.6834     0.2761    
144.7      
  -999.25    -999.25    -999.25    -999.25    -999.25    228.7      
  228.599    229.368    228.983    -999.25    -999.25    -999.25    
  53.645     -999.25    37.8877    53.339     6.4938     3.6905     
  1.7597     -999.25    -999.25    0          -999.25    -999.25    
  0.9825     2.124      -999.25    -999.25    -999.25    -999.25    
  -999.25    -999.25    -999.25    -999.25    -999.25    0.8236     
  -999.25    -999.25    6.3797     -999.25    1.7291     0.2929    
144.8      
  -999.25    -999.25    -999.25    -999.25    -999.25    228.7      
  228.71     229.368    229.039    -999.25    -999.25    -999.25    
  55.9633    -999.25    38.5971    54.3974    6.4873     3.6604     
  1.7723     -999.25    -999.25    0          -999.25    -999.25    
  1.0014     2.1793     -999.25    -999.25    -999.25    -999.25    
  -999.25    -999.25    -999.25    -999.25    -999.25    0.8246     
  -999.25    -999.25    6.4961     -999.25    1.7747     0.3157    
144.9      
  -999.25    -999.25    -999.25    -999.25    -999.25    228.7      
  228.524    229.368    228.946    -999.25    -999.25    -999.25    
  56.0976    -999.25    37.8674    53.0161    6.2384     3.6478     
  1.7102     -999.25    -999.25    0          -999.25    -999.25    
  1.0027     2.1021     -999.25    -999.25    -999.25    -999.25    
  -999.25    -999.25    -999.25    -999.25    -999.25    0.824      
  -999.25    -999.25    6.2549     -999.25    1.7147     0.317     
145        
  -999.25    -999.25    -999.25    -999.25    -999.25    228.7      
  228.465    229.227    228.846    -999.25    -999.25    -999.25    
  54.5699    -999.25    38.8113    54.2291    5.9527     3.6097     
  1.6485     -999.25    -999.25    0          -999.25    -999.25    
  1.0537     2.1243     -999.25    -999.25    -999.25    -999.25    
  -999.25    -999.25    -999.25    -999.25    -999.25    0.823      
  -999.25    -999.25    6.258      -999.25    1.7339     0.3019    
145.1      
  1950       1.386700034141541 1950       27.86059951782227 60.06959915161133 
  228.7      228.465    229.019    228.742    -999.25    -999.25    
  -999.25    52.6508    -999.25    39.7553    55.4421    5.6671     
  3.5715     1.5867     24.3475    -999.25    0          -999.25    
  -999.25    1.1048     2.1466     -999.25    0.0257     0.022299999371171 
  0.02060000039637089 0.01879999972879887 0.01470000017434359 
  0.01470000017434359 0.01470000017434359 -999.25    0.8216     98.4842    
  -999.25    6.2612     -999.25    1.7531     0.2833    
145.2      
  1950       1.478399991989136 1950       28.05279922485352 48.42380142211914 
  228.7      228.465    228.81     228.637    -999.25    -999.25    
  -999.25    52.9455    -999.25    39.8796    55.4846    6.0938     
  3.6049     1.6904     24.3501    -999.25    0          -999.25    
  -999.25    1.0687     2.1963     -999.25    0.0248     0.0215000007301569 
  0.0198999997228384 0.01820000074803829 0.0142000000923872 
  0.0142000000923872 0.0142000000923872 -999.25    0.8194     98.0009    
  -999.25    6.5125     -999.25    1.8066     0.2861    
145.3      
  1950       1.580299973487854 1950       32.05950164794922 48.31349945068359 
  228.7      228.465    228.994    228.729    -999.25    -999.25    
  -999.25    55.9396    -999.25    40.5799    56.4876    6.046      
  3.5748     1.6913     24.3523    -999.25    0          -999.25    
  -999.25    1.0919     2.2425     -999.25    0.024      0.02080000005662441 
  0.01930000074207783 0.01759999990463257 0.01389999967068434 
  0.01389999967068434 0.01389999967068434 -999.25    0.8171     97.429     
  -999.25    6.6007     -999.25    1.8468     0.3154    
145.4      
  1950       1.685700058937073 1950       48.07509994506836 60.03379821777344 
  228.7      228.465    229.347    228.905    -999.25    -999.25    
  -999.25    60.4396    -999.25    41.2802    57.4906    5.9981     
  3.5447     1.6921     24.3544    -999.25    0          -999.25    
  -999.25    1.1152     2.2887     -999.25    0.0248     0.02170000039041042 
  0.02009999938309193 0.01840000040829182 0.01470000017434359 
  0.01470000017434359 0.01470000017434359 -999.25    0.8144     96.8185    
  -999.25    6.689      -999.25    1.887      0.3762    
145.5      
  1950       1.785300016403198 1950       54.57089996337891 56.67919921875 
  228.7      228.465    229.131    228.798    -999.25    -999.25    
  -999.25    64.2238    -999.25    40.7265    58.0263    6.6185     
  3.3915     1.9515     24.3567    -999.25    0          -999.25    
  -999.25    1.0455     2.4435     -999.25    0.0241     0.0210999995470047 
  0.01960000023245811 0.01810000091791153 0.01460000034421682 
  0.01460000034421682 0.01460000034421682 -999.25    0.809      96.3273    
  -999.25    6.9196     -999.25    2.0403     0.4588    
145.6      
  1950       1.866600036621094 1950       52.58769989013672 42.81850051879883 
  228.7      228.465    228.795    228.63     -999.25    -999.25    
  -999.25    65.1798    -999.25    41.2042    57.9649    6.6204     
  3.691      1.8055     24.3577    -999.25    0          -999.25    
  -999.25    1.0576     2.3096     -999.25    0.0242     0.02119999937713146 
  0.01970000006258488 0.01810000091791153 0.01460000034421682 
  0.01460000034421682 0.01460000034421682 -999.25    0.8054     96.0473    
  -999.25    7.0017     -999.25    1.9077     0.4796    
145.7      
  1950       1.917199969291687 1950       44.32089996337891 38.05509948730469 
  228.7      228.465    228.395    228.43     -999.25    -999.25    
  -999.25    64.2369    -999.25    41.682     57.9036    6.6224     
  3.9905     1.6595     24.3578    -999.25    0          -999.25    
  -999.25    1.0697     2.1757     -999.25    0.0241     0.02099999971687794 
  0.01950000040233135 0.01789999939501286 0.01449999958276749 
  0.01449999958276749 0.01449999958276749 -999.25    0.8033     95.9155    
  -999.25    7.0838     -999.25    1.7752     0.459     
145.8      
  1950       1.927299976348877 1950       51.54579925537109 48.31079864501953 
  228.7      228.465    228.395    228.43     -999.25    -999.25    
  -999.25    65.6334    -999.25    42.7797    60.7388    7.0779     
  3.8222     1.8518     24.3601    -999.25    0          -999.25    
  -999.25    1.0592     2.3815     -999.25    0.0245     0.02140000090003014 
  0.0198999997228384 0.01830000057816505 0.01489999983459711 
  0.01489999983459711 0.01489999983459711 -999.25    0.8012     95.7109    
  -999.25    7.4968     -999.25    1.9614     0.4895    
145.9      
  1950       1.902899980545044 1950       62.67620086669922 48.72269821166992 
  228.7      228.465    228.395    228.43     -999.25    -999.25    
  -999.25    66.8818    -999.25    42.4185    60.8705    6.9443     
  3.5606     1.9581     24.3622    -999.25    0          -999.25    
  -999.25    1.0612     2.498      -999.25    0.0241     0.02119999937713146 
  0.01979999989271164 0.01820000074803829 0.01489999983459711 
  0.01489999983459711 0.01489999983459711 -999.25    0.8002     95.456     
  -999.25    7.3692     -999.25    2.0782     0.5167    
