~Version
 VERS              .         2.0                           : CWLS LOG ASCII STANDARD - VERSION 2.0
 WRAP              .         YES                            : ONE LINE PER DEPTH STEP
 DLM               .         SPACE                         : DELIMITING CHARACTER(SPACE TAB OR COMMA)
~Well Information
#_______________________________________________________________________________
#
#PARAMETER_NAME    .UNIT     VALUE                         : DESCRIPTION
#_______________________________________________________________________________
STRT               .M        0                             : First reference value
STOP               .M        740                           : Last reference value
STEP               .M        0.1                           : Step increment
NULL               .         -999.25                       : Missing value
COMP               .         COMPANY                       : Company
WELL               .         348                           : Well name
FLD                .         Karatube                      : Field
LOC                .         Atyrau                        : Location
CNTY               .                                       : County
STAT               .                                       : State
CTRY               .                                       : Country
SRVC               .         SCH                           : Service Company
DATE               .         09.09.2024                    : Date
API                .                                       : API number
APDAT              .         136.988                       : Elevation Above Permanent Datum
BHS                .         OPEN                          : Completion Status
COUNT              .         Kazakhstan                    : Country
DF                 .         136.988                       : DF Elevation
DRMEA              .         DF                            : Drill Measured From
EPDAT              .         0                             : Elevation of Permanent Datum
GL                 .         131.788                       : GL Elevation
KB                 .         0                             : KB Elevation
LGMEA              .         DF                            : Log Measured from
LATI               .         47.93162                      : Latitude/Northing
LONG               .         56.55725                      : Longitude/Easting
ORIGINALWELLNAME   .         348                           : 
PDAT               .         MSL                           : Permanent Datum
RWS                .         -999                          : Def_Rw
STATE              .         1_500 / 1_200                 : State
WST                .         -999                          : Def_Rwt
~Parameter Information Block
#_______________________________________________________________________________
#
#PARAMETER_NAME    .UNIT     VALUE                         : DESCRIPTION
#_______________________________________________________________________________
SET                .         model                         : 
TLFamily_AT10      .         Resistivity - Medium          : 
TLFamily_AT20      .         Resistivity (Array)           : 
TLFamily_AT30      .         Resistivity (Array)           : 
TLFamily_AT60      .         Resistivity (Array)           : 
TLFamily_AT90      .         Resistivity - Deep            : 
TLFamily_BSC       .         Bit Size                      : 
TLFamily_C1        .         Caliper 1                     : 
TLFamily_C2        .         Caliper 2                     : 
TLFamily_CALI      .         Caliper                       : 
TLFamily_CFTC      .         Neutron Far                   : 
TLFamily_CNTC      .         Neutron Near                  : 
TLFamily_DEPTH     .         Measured Depth                : 
TLFamily_DT        .         Compressional Slowness        : 
TLFamily_GR        .         Gamma Ray                     : 
TLFamily_HAZIM     .         Hole Azimuth                  : 
TLFamily_HCGR      .         Gamma Ray                     : 
TLFamily_HSGR      .         Gamma Ray                     : 
TLFamily_HTPR      .                                       : 
TLFamily_HTUR      .                                       : 
TLFamily_HUPR      .                                       : 
TLFamily_MTEM_FILT .         Temperature                   : 
TLFamily_PEFZ      .         Photoelectric Factor          : 
TLFamily_PHIE      .         Effective Porosity            : 
TLFamily_PHIT      .         Total Porosity                : 
TLFamily_POTA      .         Potassium Concentration       : 
TLFamily_PURA      .         Uranium Concentration         : 
TLFamily_Perm      .         Permeability                  : 
TLFamily_RHOZ      .         Bulk Density                  : 
TLFamily_RLA1      .         Resistivity (Array)           : 
TLFamily_RLA2      .         Resistivity (Array)           : 
TLFamily_RLA3      .         Resistivity (Array)           : 
TLFamily_RLA4      .         Resistivity (Array)           : 
TLFamily_RLA5      .         Resistivity (Array)           : 
TLFamily_RT        .         Resistivity - True Formation  : 
TLFamily_RXO       .         Resistivity - Flushed Zone    : 
TLFamily_RXOZ      .         Resistivity - Flushed Zone    : 
TLFamily_SDEVM     .         Sonde Deviation               : 
TLFamily_SP        .         Spontaneous Potential         : 
TLFamily_SW        .         Water Saturation              : 
TLFamily_THOR      .         Thorium Concentration         : 
TLFamily_TNPH      .                                       : 
TLFamily_URAN      .         Uranium Concentration         : 
TLFamily_VCLAV     .         Clay Volume Fraction          : 
~Curve Information
#_______________________________________________________________________________
#
#LOGNAME           .UNIT     LOG_ID                        : DESCRIPTION
#_______________________________________________________________________________
DEPTH              .M                                      : Depth 
AT10               .ohm.m                                  : MedRes     21 Array Induction Two Foot Resistivity A10 
AT20               .ohm.m                                  : MedRes     22 Array Induction Two Foot Resistivity A20 
AT30               .ohm.m                                  : MedRes     23 Array Induction Two Foot Resistivity A30 
AT60               .ohm.m                                  : DeepRes    24 Array Induction Two Foot Resistivity A60 
AT90               .ohm.m                                  : XDeepRes   25 Array Induction Two Foot Resistivity A90 
BSC                .mm                                     : 11 Nominal Caliper 
C1                 .mm                                     : 8 CALIPER DIAMETER 1 
C2                 .mm                                     : 9 CALIPER DIAMETER 2 
CALI               .mm                                     : Caliper    10 
CFTC               .1/s                                    : 28 Corrected Far Thermal Count Rate 
CNTC               .1/s                                    : Neutron    29 Corrected Near Thermal Count Rate 
DT                 .uSec/m                                 : Sonic      19 Sonic travel time 
GR                 .gAPI                                   : 30 Gamma Ray 
HAZIM              .deg                                    : Azimuth    2 Hole Azimuth 
HCGR               .gAPI                                   : HNGS Computed Gamma Ray 
HSGR               .gAPI                                   : HNGS Standard Gamma-Ray 
HTPR               .                                       : HNGS Thorium/Potassium Ratio 
HTUR               .                                       : HNGS Thorium/Uranium Ratio 
HUPR               .                                       : HNGS Uranium/Potassium Ratio 
MTEM_FILT          .degC                                   : 20 Filtered Mud Temperature 
PEFZ               .B/E                                    : PEF        4 Formation Photoelectric Factor 
Perm               .md                                     : Permeability 
PHIE               .Dec                                    : Effective porosity 
PHIT               .Dec                                    : Total porosity 
POTA               .%                                      : HNGS Formation Potassium Concentration 
PURA               .ppm                                    : Upper Limit of Formation Uranium Concentration 
RHOZ               .g/cm3                                  : Density    5 Bulk Density 
RLA1               .ohm.m                                  : ShalRes    12 HRLT Borehole Corrected Resistivity 1 
RLA2               .ohm.m                                  : MedRes     13 HRLT Borehole Corrected Resistivity 2 
RLA3               .ohm.m                                  : DeepRes    14 HRLT Borehole Corrected Resistivity 3 
RLA4               .ohm.m                                  : XDeepRes   15 HRLT Borehole Corrected Resisitivity 4 
RLA5               .ohm.m                                  : UltraDeepR 16 HRLT Borehole Corrected Resistivity 5 
RT                 .ohm.m                                  : 17 HRLT True Formation Resistivity 
RXO                .ohm.m                                  : MicroRes   18 HRLT Invaded Zone Resistivity 
RXOZ               .ohm.m                                  : MicroRes   6 Invaded Formation Resistivity filtered at 18 inches 
SDEVM              .deg                                    : 3 Sonde Deviation 
SP                 .mV                                     : SP         27 Spontaneous Potential 
SW                 .Dec                                    : Water saturation 
THOR               .ppm                                    : HNGS Formation Thorium Concentration 
TNPH               .v/v                                    : Neutron porosity 
URAN               .ppm                                    : HNGS Formation Uranium Concentration 
VCLAV              .Dec                                    : Clay volume
~Ascii
# ...
570.9      
  2.8984     3.438800096511841 3.4177     3.506500005722046 3.456599950790405 
  215.9      214.537    214.406    214.471    565.1892   1723.8452  
  334.2183   93.6084    312.6844   65.0856    80.5857    5.6633     
  4.9487     1.1444     31.5338    3.5349     0          0          
  0          1.8075     2.4907     2.5719     3.8126     3.740499973297119 
  3.764300107955933 3.756700038909912 3.660599946975708 3.713399887084961 
  3.983599901199341 3.466900110244751 0.3674     13.6176    1          
  10.2365    0.3509     2.0685     0.8348    
571        
  2.4417     3.139600038528442 3.1626     3.228800058364868 3.231800079345703 
  215.9      215.1      214.406    214.753    552.4666999999999 1703.387   
  337.3716   91.6517    312.4276   66.7394    80.6412    5.4419     
  5.6905     0.9563     31.5368    3.5017     0          0          
  0          1.8898     2.2322     2.5506     2.9362     2.852299928665161 
  2.863699913024902 2.862600088119507 2.782999992370605 2.767600059509277 
  3.394700050354004 3.415999889373779 0.3705     13.6176    1          
  10.2841    0.3576     1.8072     0.8162    
571.1      
  2.3729     2.667700052261353 2.72       2.751399993896484 2.810400009155273 
  215.9      220.475    214.403    217.418    529.7311999999999 1674.3528  
  345.4723   90.8105    312.3512   65.0435    79.9996    5.347      
  5.2279     1.0292     31.5381    3.2886     0          0          
  0          1.8571     2.3341     2.4826     2.7539     2.654500007629395 
  2.660399913787842 2.660300016403198 2.580399990081787 2.527499914169312 
  3.31850004196167 2.850800037384033 0.3732     13.6176    1          
  9.933      0.3726     1.909      0.8082    
571.2      
  2.1929     2.373399972915649 2.4636     2.493299961090088 2.524699926376343 
  215.9      228.647    214.654    221.54     500.3205   1639.4772  
  357.4366   90.8857    312.4102   63.3476    79.3579    5.252      
  4.7653     1.1021     31.5381    2.9957     0          0          
  0          1.8244     2.436      2.4036     2.5947     2.470400094985962 
  2.476700067520142 2.474299907684326 2.395100116729736 2.294800043106079 
  3.258300065994263 2.240099906921387 0.3754     13.6176    1          
  9.5819     0.3934     2.0108     0.8089    
571.3      
  2.1058     2.12089991569519 2.1742     2.212599992752075 2.229899883270264 
  215.9      221.01     219.803    220.405    487.6003   1616.5406  
  371.8974   92.3818    312.4587   62.0438    77.7475    5.4378     
  4.8384     1.1239     31.5389    2.7147     0          0.0001000  
  0.1236     1.7575     2.3961     2.3331     2.7205     2.57069993019104 
  2.570199966430664 2.561399936676025 2.473999977111816 2.321799993515015 
  3.505800008773804 1.981199979782104 0.377      13.6176    1          
  9.5567     0.4029     1.9752     0.8231    
571.4      
  2.2124     2.143599987030029 2.168      2.18179988861084 2.204799890518188 
  215.9      218.619    222.022    220.314    470.8193   1598.0396  
  379.595    93.4512    312.6857   62.7087    78.3704    5.2312     
  4.8556     1.0775     31.5395    2.501      0          0.0001000  
  0.1251     1.8104     2.3726     2.2872     2.9388     2.774300098419189 
  2.771300077438354 2.758300065994263 2.662300109863281 2.493099927902222 
  3.778599977493286 2.032900094985962 0.3772     13.6304    1          
  9.4596     0.4195     1.9483     0.8333    
571.5      
  2.2268     2.162899971008301 2.2468     2.258300065994263 2.295700073242188 
  215.9      221.072    221.538    221.305    450.2899   1583.6331  
  381.0495   94.1269    313.0774   63.3737    78.9932    5.0245     
  4.8728     1.0311     31.54      2.3583     0          0.0001000  
  0.1261     1.8633     2.349      2.2675     2.7885     2.663000106811523 
  2.652100086212158 2.627399921417236 2.525399923324585 2.375400066375732 
  3.604399919509888 1.95389997959137 0.3759     13.6549    1          
  9.3624     0.4427     1.9213     0.8397    
571.6      
  2.2364     2.236299991607666 2.319      2.300600051879883 2.351000070571899 
  215.9      217.49     215.987    216.737    463.0938   1588.1685  
  381.615    92.64      313.2956   62.1652    78.3717    5.0531     
  4.6896     1.0794     31.54      2.2793     0          0.0002     
  0.1241     1.8231     2.3907     2.2531     2.6268     2.533200025558472 
  2.506099939346313 2.477099895477295 2.376699924468994 2.229000091552734 
  3.446199893951416 1.962299942970276 0.3757     14.0917    1          
  9.2113     0.4279     1.9659     0.8256    
571.7      
  2.1413     2.14490008354187 2.2362     2.250200033187866 2.315200090408325 
  215.9      214.727    212.794    213.758    478.6251   1588.6123  
  383.617    92.9535    313.6557   60.9568    77.7502    5.0817     
  4.5064     1.1277     31.5402    2.2254     0          0.0002     
  0.1245     1.7829     2.4323     2.2314     2.5569     2.466799974441528 
  2.432199954986572 2.398099899291992 2.295799970626831 2.137200117111206 
  3.368599891662598 2.035599946975708 0.3743     14.6463    1          
  9.0603     0.4073     2.0105     0.8285    
571.8      
  2.0403     2.055500030517578 2.1418     2.168499946594238 2.229599952697754 
  215.9      212.851    212.156    212.503    497.1111   1584.6234  
  387.1752   95.2173    314.1695   57.1986    74.4892    5.0171     
  4.1662     1.2043     31.5406    2.2031     0          0.0001000  
  0.1276     1.6829     2.4334     2.2218     2.5582     2.527600049972534 
  2.501499891281128 2.466000080108643 2.352799892425537 2.276599884033203 
  3.293200016021729 1.949300050735474 0.3717     15.3284    1          
  8.4434     0.3802     2.0267     0.85      
571.9      
  2.028      2.072400093078613 2.1502     2.18939995765686 2.273099899291992 
  215.9      211.679    210.898    211.288    510.3241   1617.0021  
  386.345    94.0464    314.5008   56.3771    72.8319    5.0098     
  4.4311     1.1348     31.5406    2.2106     0          0.0002     
  0.126      1.6599     2.2845     2.2274     2.6841     2.677900075912476 
  2.655800104141235 2.611900091171265 2.483999967575073 2.424400091171265 
  3.461499929428101 1.94130003452301 0.3692     15.8689    1          
  8.3157     0.3761     1.8851     0.8389    
572        
  2.1195     2.180799961090088 2.2655     2.31060004234314 2.421299934387207 
  215.9      210.95     209.884    210.417    510.736    1640.1349  
  386.3534   93.3668    314.6748   55.5557    71.1745    5.0024     
  4.696      1.0653     31.5414    2.2642     0          0.0002     
  0.1251     1.6368     2.1355     2.2419     2.9514     2.942399978637695 
  2.931900024414063 2.876699924468994 2.728100061416626 2.669300079345703 
  3.78600001335144 2.025799989700317 0.3664     16.359     1          
  8.1879     0.3849     1.7436     0.8325    
572.1      
  2.1923     2.285000085830688 2.3863     2.443700075149536 2.590199947357178 
  215.9      210.761    209.239    209.999    494.5469   1648.4741  
  387.7795   93.5779    314.653    54.6283    68.8867    4.8251     
  4.9432     0.9761     31.5435    2.339      0          0.0001000  
  0.1253     1.6362     1.9822     2.2589     3.003      2.974400043487549 
  2.977999925613403 2.913100004196167 2.753400087356567 2.684099912643433 
  3.843300104141235 2.083800077438354 0.3629     16.7919    1          
  7.8948     0.4094     1.5971     0.8345    
572.2      
  2.2271     2.345499992370605 2.4374     2.508899927139282 2.626300096511841 
  215.9      210.919    209.21     210.063    482.2957   1660.8872  
  390.5359   88.1245    314.2686   54.835     68.8074    4.9861     
  4.9591     1.0054     31.5437    2.4181     0          0.0007     
  0.1181     1.6183     2.013      2.2701     2.8077     2.777899980545044 
  2.792799949645996 2.736200094223022 2.581799983978271 2.528800010681152 
  3.56879997253418 2.08240008354187 0.3593     17.4974    1          
  8.0658     0.4323     1.6264     0.7827    
572.3      
  2.1892     2.307399988174438 2.3896     2.464999914169312 2.568300008773804 
  215.9      211.039    209.71     210.373    476.7468   1667.2092  
  392.8132   83.4799    313.7077   55.0416    68.7281    5.1471     
  4.9749     1.0346     31.5443    2.4692     0          0.002      
  0.1128     1.6003     2.0439     2.2624     2.7456     2.699399948120117 
  2.719899892807007 2.668699979782104 2.517299890518188 2.454999923706055 
  3.496599912643433 2.046099901199341 0.3564     17.9901    1          
  8.2369     0.4429     1.6557     0.7385    
