~Version
 VERS              .         2.0                           : CWLS LOG ASCII STANDARD - VERSION 2.0
 WRAP              .         YES                            : ONE LINE PER DEPTH STEP
 DLM               .         SPACE                         : DELIMITING CHARACTER(SPACE TAB OR COMMA)
~Well Information
#_______________________________________________________________________________
#
#PARAMETER_NAME    .UNIT     VALUE                         : DESCRIPTION
#_______________________________________________________________________________
STRT               .M        0                             : First reference value
STOP               .M        740                           : Last reference value
STEP               .M        0.1                           : Step increment
NULL               .         -999.25                       : Missing value
COMP               .         COMPANY                       : Company
WELL               .         348                           : Well name
FLD                .         Karatube                      : Field
LOC                .         Atyrau                        : Location
CNTY               .                                       : County
STAT               .                                       : State
CTRY               .                                       : Country
SRVC               .         SCH                           : Service Company
DATE               .         09.09.2024                    : Date
API                .                                       : API number
APDAT              .         136.988                       : Elevation Above Permanent Datum
BHS                .         OPEN                          : Completion Status
COUNT              .         Kazakhstan                    : Country
DF                 .         136.988                       : DF Elevation
DRMEA              .         DF                            : Drill Measured From
EPDAT              .         0                             : Elevation of Permanent Datum
GL                 .         131.788                       : GL Elevation
KB                 .         0                             : KB Elevation
LGMEA              .         DF                            : Log Measured from
LATI               .         47.93162                      : Latitude/Northing
LONG               .         56.55725                      : Longitude/Easting
ORIGINALWELLNAME   .         348                           : 
PDAT               .         MSL                           : Permanent Datum
RWS                .         -999                          : Def_Rw
STATE              .         1_500 / 1_200                 : State
WST                .         -999                          : Def_Rwt
~Parameter Information Block
#_______________________________________________________________________________
#
#PARAMETER_NAME    .UNIT     VALUE                         : DESCRIPTION
#_______________________________________________________________________________
SET                .         model                         : 
TLFamily_AT10      .         Resistivity - Medium          : 
TLFamily_AT20      .         Resistivity (Array)           : 
TLFamily_AT30      .         Resistivity (Array)           : 
TLFamily_AT60      .         Resistivity (Array)           : 
TLFamily_AT90      .         Resistivity - Deep            : 
TLFamily_BSC       .         Bit Size                      : 
TLFamily_C1        .         Caliper 1                     : 
TLFamily_C2        .         Caliper 2                     : 
TLFamily_CALI      .         Caliper                       : 
TLFamily_CFTC      .         Neutron Far                   : 
TLFamily_CNTC      .         Neutron Near                  : 
TLFamily_DEPTH     .         Measured Depth                : 
TLFamily_DT        .         Compressional Slowness        : 
TLFamily_GR        .         Gamma Ray                     : 
TLFamily_HAZIM     .         Hole Azimuth                  : 
TLFamily_HCGR      .         Gamma Ray                     : 
TLFamily_HSGR      .         Gamma Ray                     : 
TLFamily_HTPR      .                                       : 
TLFamily_HTUR      .                                       : 
TLFamily_HUPR      .                                       : 
TLFamily_MTEM_FILT .         Temperature                   : 
TLFamily_PEFZ      .         Photoelectric Factor          : 
TLFamily_PHIE      .         Effective Porosity            : 
TLFamily_PHIT      .         Total Porosity                : 
TLFamily_POTA      .         Potassium Concentration       : 
TLFamily_PURA      .         Uranium Concentration         : 
TLFamily_Perm      .         Permeability                  : 
TLFamily_RHOZ      .         Bulk Density                  : 
TLFamily_RLA1      .         Resistivity (Array)           : 
TLFamily_RLA2      .         Resistivity (Array)           : 
TLFamily_RLA3      .         Resistivity (Array)           : 
TLFamily_RLA4      .         Resistivity (Array)           : 
TLFamily_RLA5      .         Resistivity (Array)           : 
TLFamily_RT        .         Resistivity - True Formation  : 
TLFamily_RXO       .         Resistivity - Flushed Zone    : 
TLFamily_RXOZ      .         Resistivity - Flushed Zone    : 
TLFamily_SDEVM     .         Sonde Deviation               : 
TLFamily_SP        .         Spontaneous Potential         : 
TLFamily_SW        .         Water Saturation              : 
TLFamily_THOR      .         Thorium Concentration         : 
TLFamily_TNPH      .                                       : 
TLFamily_URAN      .         Uranium Concentration         : 
TLFamily_VCLAV     .         Clay Volume Fraction          : 
~Curve Information
#_______________________________________________________________________________
#
#LOGNAME           .UNIT     LOG_ID                        : DESCRIPTION
#_______________________________________________________________________________
DEPTH              .M                                      : Depth 
AT10               .ohm.m                                  : MedRes     21 Array Induction Two Foot Resistivity A10 
AT20               .ohm.m                                  : MedRes     22 Array Induction Two Foot Resistivity A20 
AT30               .ohm.m                                  : MedRes     23 Array Induction Two Foot Resistivity A30 
AT60               .ohm.m                                  : DeepRes    24 Array Induction Two Foot Resistivity A60 
AT90               .ohm.m                                  : XDeepRes   25 Array Induction Two Foot Resistivity A90 
BSC                .mm                                     : 11 Nominal Caliper 
C1                 .mm                                     : 8 CALIPER DIAMETER 1 
C2                 .mm                                     : 9 CALIPER DIAMETER 2 
CALI               .mm                                     : Caliper    10 
CFTC               .1/s                                    : 28 Corrected Far Thermal Count Rate 
CNTC               .1/s                                    : Neutron    29 Corrected Near Thermal Count Rate 
DT                 .uSec/m                                 : Sonic      19 Sonic travel time 
GR                 .gAPI                                   : 30 Gamma Ray 
HAZIM              .deg                                    : Azimuth    2 Hole Azimuth 
HCGR               .gAPI                                   : HNGS Computed Gamma Ray 
HSGR               .gAPI                                   : HNGS Standard Gamma-Ray 
HTPR               .                                       : HNGS Thorium/Potassium Ratio 
HTUR               .                                       : HNGS Thorium/Uranium Ratio 
HUPR               .                                       : HNGS Uranium/Potassium Ratio 
MTEM_FILT          .degC                                   : 20 Filtered Mud Temperature 
PEFZ               .B/E                                    : PEF        4 Formation Photoelectric Factor 
Perm               .md                                     : Permeability 
PHIE               .Dec                                    : Effective porosity 
PHIT               .Dec                                    : Total porosity 
POTA               .%                                      : HNGS Formation Potassium Concentration 
PURA               .ppm                                    : Upper Limit of Formation Uranium Concentration 
RHOZ               .g/cm3                                  : Density    5 Bulk Density 
RLA1               .ohm.m                                  : ShalRes    12 HRLT Borehole Corrected Resistivity 1 
RLA2               .ohm.m                                  : MedRes     13 HRLT Borehole Corrected Resistivity 2 
RLA3               .ohm.m                                  : DeepRes    14 HRLT Borehole Corrected Resistivity 3 
RLA4               .ohm.m                                  : XDeepRes   15 HRLT Borehole Corrected Resisitivity 4 
RLA5               .ohm.m                                  : UltraDeepR 16 HRLT Borehole Corrected Resistivity 5 
RT                 .ohm.m                                  : 17 HRLT True Formation Resistivity 
RXO                .ohm.m                                  : MicroRes   18 HRLT Invaded Zone Resistivity 
RXOZ               .ohm.m                                  : MicroRes   6 Invaded Formation Resistivity filtered at 18 inches 
SDEVM              .deg                                    : 3 Sonde Deviation 
SP                 .mV                                     : SP         27 Spontaneous Potential 
SW                 .Dec                                    : Water saturation 
THOR               .ppm                                    : HNGS Formation Thorium Concentration 
TNPH               .v/v                                    : Neutron porosity 
URAN               .ppm                                    : HNGS Formation Uranium Concentration 
VCLAV              .Dec                                    : Clay volume
~Ascii
# ...
454        
  2.2495     2.361500024795532 2.3975     2.496799945831299 2.420799970626831 
  215.9      221.358    247.019    233.837    488.6534   1616.056   
  409.1751   108.0098   307.6473   73.2773    90.9836    4.6522     
  4.5271     1.0276     29.6144    2.7992     0          0.0001000  
  0.1392     2.2304     2.7312     2.204      2.8144     2.667500019073486 
  2.679500102996826 2.668600082397461 2.505199909210205 2.343699932098389 
  3.629199981689453 1.290899991989136 0.3702     13.8249    1          
  10.3761    0.3951     2.292      0.9275    
454.1      
  2.2547     2.353300094604492 2.4154     2.512500047683716 2.445899963378906 
  215.9      214.378    238.552    226.143    477.1706   1593.9594  
  416.5841   108.6278   306.8662   74.5378    92.6524    4.6668     
  4.4153     1.0577     29.6144    2.8154     0          0.0001000  
  0.1401     2.2656     2.845      2.2157     2.7458     2.592400074005127 
  2.579900026321411 2.57039999961853 2.422499895095825 2.220200061798096 
  3.575799942016602 1.261899948120117 0.3695     13.6885    1          
  10.5735    0.4052     2.3974     0.9331    
454.2      
  2.2555     2.35290002822876 2.4046     2.510299921035767 2.470099925994873 
  215.9      217.154    230.17     223.568    467.5321   1580.9355  
  420.1095   109.4032   306.1366   75.7982    94.3213    4.6815     
  4.3036     1.0878     29.6144    2.8385     0          0.0001000  
  0.1411     2.3007     2.9588     2.2234     2.7816     2.604000091552734 
  2.568900108337402 2.562900066375732 2.427299976348877 2.170399904251099 
  3.626800060272217 1.391899943351746 0.3693     13.6176    1          
  10.7709    0.415      2.5028     0.9402    
454.3      
  2.2562     2.354899883270264 2.4044     2.507699966430664 2.494199991226196 
  215.9      230.499    221.88     226.148    459.8918   1577.7408  
  419.4277   110.3492   305.4627   76.7511    95.6425    4.8767     
  4.3954     1.1095     29.6144    2.8634     0          0.0001000  
  0.1424     2.2872     2.9998     2.228      2.9308     2.760400056838989 
  2.722800016403198 2.713599920272827 2.586999893188477 2.343600034713745 
  3.842099905014038 1.358100056648254 0.3696     13.6176    1          
  11.154     0.4246     2.5377     0.9487    
454.4      
  2.2694     2.365499973297119 2.4224     2.526900053024292 2.518399953842163 
  215.9      221.188    220.767    220.977    455.4615   1571.7256  
  422.7061   111.4      304.7507   78.5936    96.6285    4.7208     
  4.7001     1.0108     29.6144    2.8811     0          0.0001000  
  0.1438     2.378      2.8604     2.2288     3.0011     2.852299928665161 
  2.816699981689453 2.797399997711182 2.676800012588501 2.462500095367432 
  3.934200048446655 1.597599983215332 0.3706     13.6176    1          
  11.212     0.4307     2.3948     0.9583    
454.5      
  2.2782     2.371200084686279 2.4382     2.539700031280518 2.563699960708618 
  215.9      214.61     220.293    217.433    453.9453   1567.714   
  425.9195   113.197    304.0937   80.4361    97.6145    4.565      
  5.0048     0.9121     29.6144    2.8846     0          0.0001000  
  0.1463     2.4688     2.721      2.2197     2.9632     2.848599910736084 
  2.819999933242798 2.789200067520142 2.68149995803833 2.517100095748901 
  3.85890007019043 1.77839994430542 0.3716     13.6176    1          
  11.27      0.4327     2.2518     0.9746    
454.6      
  2.2632     2.364300012588501 2.4162     2.514400005340576 2.564800024032593 
  215.9      212.907    220.27     216.557    456.1147   1566.514   
  428.828    115.9773   303.5117   80.6951    97.6964    4.3758     
  5.0683     0.8634     29.6144    2.8728     0          0.0001000  
  0.1501     2.5226     2.6439     2.2097     2.8481     2.752500057220459 
  2.729199886322021 2.692300081253052 2.600399971008301 2.466300010681152 
  3.681900024414063 1.839200019836426 0.3726     13.6176    1          
  11.0383    0.4296     2.1779     0.9998    
454.7      
  2.2468     2.34879994392395 2.3948     2.484499931335449 2.533699989318848 
  215.9      211.391    217.392    214.37     475.3394   1563.9454  
  423.2698   116.9083   303.0643   80.5415    96.4248    4.2915     
  5.3058     0.8112     29.6151    2.8524     0          0.0001000  
  0.1501     2.5388     2.5168     2.2023     2.7986     2.716799974441528 
  2.701800107955933 2.660300016403198 2.582799911499023 2.477200031280518 
  3.573800086975098 1.863800048828125 0.3745     13.6176    1          
  10.894     0.4014     2.0586     1         
454.8      
  2.2383     2.342700004577637 2.382      2.470400094985962 2.505000114440918 
  215.9      210.534    215.433    212.97     495.2645   1564.5732  
  419.5851   116.6529   302.6659   80.3879    95.1533    4.2071     
  5.5434     0.7589     29.6156    2.8425     0          0.0001000  
  0.1501     2.5551     2.3896     2.191      2.8343     2.755500078201294 
  2.750600099563599 2.707099914550781 2.637500047683716 2.555500030517578 
  3.55019998550415 1.847200036048889 0.3758     13.6176    1          
  10.7497    0.3745     1.9392     1         
454.9      
  2.2502     2.358700037002563 2.3972     2.484100103378296 2.505000114440918 
  215.9      210.725    215.433    213.066    513.5798   1570.6371  
  420.3232   114.7604   302.3255   81.0117    93.1746    4.3239     
  6.8831     0.6282     29.6156    2.8335     0          0.0001000  
  0.1484     2.5454     2.0393     2.1821     2.7842     2.700599908828735 
  2.697999954223633 2.655400037765503 2.59279990196228 2.511199951171875 
  3.478600025177002 1.807199954986572 0.376      13.6176    1          
  11.0061    0.3542     1.599      0.9888    
455        
  2.2559     2.363399982452393 2.3972     2.479599952697754 2.498600006103516 
  215.9      211.402    215.059    213.223    514.2819   1582.7678  
  419.3496   109.9953   302.0349   82.8571    94.015     4.3029     
  7.7918     0.5602     29.6153    2.8048     0          0.0001000  
  0.1419     2.6089     1.897      2.1796     2.7319     2.639300107955933 
  2.636199951171875 2.596800088882446 2.543600082397461 2.452399969100952 
  3.432199954986572 1.799299955368042 0.3769     13.6176    1          
  11.2246    0.3576     1.4571     0.9455    
455.1      
  2.2682     2.366699934005737 2.395      2.468600034713745 2.485899925231934 
  215.9      212.155    214.907    213.526    511.5802   1592.9084  
  418.8158   105.0287   301.7556   84.7024    94.8554    4.282      
  8.7006     0.4922     29.6151    2.7649     0          0.0001000  
  0.1352     2.6724     1.7546     2.175      2.8606     2.776400089263916 
  2.769500017166138 2.72979998588562 2.679500102996826 2.601500034332275 
  3.55049991607666 1.802000045776367 0.3777     13.6176    1          
  11.4431    0.3645     1.3152     0.9005    
455.2      
  2.2605     2.357599973678589 2.386      2.44950008392334 2.464499950408936 
  215.9      212.901    215.305    214.099    507.8371   1597.2686  
  419.6764   100.5785   301.4826   85.2783    95.7409    4.3367     
  8.1668     0.531      29.6151    2.735      0          0.0001000  
  0.1291     2.6761     1.8675     2.172      2.897      2.808300018310547 
  2.797899961471558 2.759500026702881 2.714499950408936 2.634900093078613 
  3.579699993133545 1.806800007820129 0.3783     13.6176    1          
  11.6055    0.3708     1.4211     0.8601    
455.3      
  2.2131     2.321799993515015 2.3527     2.413399934768677 2.422199964523315 
  215.9      212.582    215.904    214.237    493.2452   1621.2534  
  420.6681   100.4055   301.3808   83.5985    96.3704    4.2778     
  6.9413     0.6346     29.6151    2.6849     0          0.0001000  
  0.1289     2.6384     2.1229     2.1747     2.8041     2.713799953460693 
  2.700500011444092 2.668600082397461 2.630800008773804 2.552500009536743 
  3.456199884414673 1.761800050735474 0.3782     13.6176    1          
  11.2889    0.3997     1.6703     0.8586    
455.4      
  2.1643     2.269999980926514 2.2951     2.349200010299683 2.351300001144409 
  215.9      212.124    216.237    214.171    480.5564   1641.8271  
  421.1969   101.3846   301.3239   81.9188    97         4.2189     
  5.7158     0.7381     29.6151    2.6531     0          0.0001000  
  0.1302     2.6007     2.3784     2.1777     2.7877     2.710099935531616 
  2.691800117492676 2.660099983215332 2.624599933624268 2.558900117874146 
  3.406599998474121 1.736500024795532 0.3775     13.6176    1          
  10.9722    0.4248     1.9196     0.8674    
