~Version
 VERS              .         2.0                           : CWLS LOG ASCII STANDARD - VERSION 2.0
 WRAP              .         YES                            : ONE LINE PER DEPTH STEP
 DLM               .         SPACE                         : DELIMITING CHARACTER(SPACE TAB OR COMMA)
~Well Information
#_______________________________________________________________________________
#
#PARAMETER_NAME    .UNIT     VALUE                         : DESCRIPTION
#_______________________________________________________________________________
STRT               .M        0                             : First reference value
STOP               .M        740                           : Last reference value
STEP               .M        0.1                           : Step increment
NULL               .         -999.25                       : Missing value
COMP               .         COMPANY                       : Company
WELL               .         348                           : Well name
FLD                .         Karatube                      : Field
LOC                .         Atyrau                        : Location
CNTY               .                                       : County
STAT               .                                       : State
CTRY               .                                       : Country
SRVC               .         SCH                           : Service Company
DATE               .         09.09.2024                    : Date
API                .                                       : API number
APDAT              .         136.988                       : Elevation Above Permanent Datum
BHS                .         OPEN                          : Completion Status
COUNT              .         Kazakhstan                    : Country
DF                 .         136.988                       : DF Elevation
DRMEA              .         DF                            : Drill Measured From
EPDAT              .         0                             : Elevation of Permanent Datum
GL                 .         131.788                       : GL Elevation
KB                 .         0                             : KB Elevation
LGMEA              .         DF                            : Log Measured from
LATI               .         47.93162                      : Latitude/Northing
LONG               .         56.55725                      : Longitude/Easting
ORIGINALWELLNAME   .         348                           : 
PDAT               .         MSL                           : Permanent Datum
RWS                .         -999                          : Def_Rw
STATE              .         1_500 / 1_200                 : State
WST                .         -999                          : Def_Rwt
~Parameter Information Block
#_______________________________________________________________________________
#
#PARAMETER_NAME    .UNIT     VALUE                         : DESCRIPTION
#_______________________________________________________________________________
SET                .         model                         : 
TLFamily_AT10      .         Resistivity - Medium          : 
TLFamily_AT20      .         Resistivity (Array)           : 
TLFamily_AT30      .         Resistivity (Array)           : 
TLFamily_AT60      .         Resistivity (Array)           : 
TLFamily_AT90      .         Resistivity - Deep            : 
TLFamily_BSC       .         Bit Size                      : 
TLFamily_C1        .         Caliper 1                     : 
TLFamily_C2        .         Caliper 2                     : 
TLFamily_CALI      .         Caliper                       : 
TLFamily_CFTC      .         Neutron Far                   : 
TLFamily_CNTC      .         Neutron Near                  : 
TLFamily_DEPTH     .         Measured Depth                : 
TLFamily_DT        .         Compressional Slowness        : 
TLFamily_GR        .         Gamma Ray                     : 
TLFamily_HAZIM     .         Hole Azimuth                  : 
TLFamily_HCGR      .         Gamma Ray                     : 
TLFamily_HSGR      .         Gamma Ray                     : 
TLFamily_HTPR      .                                       : 
TLFamily_HTUR      .                                       : 
TLFamily_HUPR      .                                       : 
TLFamily_MTEM_FILT .         Temperature                   : 
TLFamily_PEFZ      .         Photoelectric Factor          : 
TLFamily_PHIE      .         Effective Porosity            : 
TLFamily_PHIT      .         Total Porosity                : 
TLFamily_POTA      .         Potassium Concentration       : 
TLFamily_PURA      .         Uranium Concentration         : 
TLFamily_Perm      .         Permeability                  : 
TLFamily_RHOZ      .         Bulk Density                  : 
TLFamily_RLA1      .         Resistivity (Array)           : 
TLFamily_RLA2      .         Resistivity (Array)           : 
TLFamily_RLA3      .         Resistivity (Array)           : 
TLFamily_RLA4      .         Resistivity (Array)           : 
TLFamily_RLA5      .         Resistivity (Array)           : 
TLFamily_RT        .         Resistivity - True Formation  : 
TLFamily_RXO       .         Resistivity - Flushed Zone    : 
TLFamily_RXOZ      .         Resistivity - Flushed Zone    : 
TLFamily_SDEVM     .         Sonde Deviation               : 
TLFamily_SP        .         Spontaneous Potential         : 
TLFamily_SW        .         Water Saturation              : 
TLFamily_THOR      .         Thorium Concentration         : 
TLFamily_TNPH      .                                       : 
TLFamily_URAN      .         Uranium Concentration         : 
TLFamily_VCLAV     .         Clay Volume Fraction          : 
~Curve Information
#_______________________________________________________________________________
#
#LOGNAME           .UNIT     LOG_ID                        : DESCRIPTION
#_______________________________________________________________________________
DEPTH              .M                                      : Depth 
AT10               .ohm.m                                  : MedRes     21 Array Induction Two Foot Resistivity A10 
AT20               .ohm.m                                  : MedRes     22 Array Induction Two Foot Resistivity A20 
AT30               .ohm.m                                  : MedRes     23 Array Induction Two Foot Resistivity A30 
AT60               .ohm.m                                  : DeepRes    24 Array Induction Two Foot Resistivity A60 
AT90               .ohm.m                                  : XDeepRes   25 Array Induction Two Foot Resistivity A90 
BSC                .mm                                     : 11 Nominal Caliper 
C1                 .mm                                     : 8 CALIPER DIAMETER 1 
C2                 .mm                                     : 9 CALIPER DIAMETER 2 
CALI               .mm                                     : Caliper    10 
CFTC               .1/s                                    : 28 Corrected Far Thermal Count Rate 
CNTC               .1/s                                    : Neutron    29 Corrected Near Thermal Count Rate 
DT                 .uSec/m                                 : Sonic      19 Sonic travel time 
GR                 .gAPI                                   : 30 Gamma Ray 
HAZIM              .deg                                    : Azimuth    2 Hole Azimuth 
HCGR               .gAPI                                   : HNGS Computed Gamma Ray 
HSGR               .gAPI                                   : HNGS Standard Gamma-Ray 
HTPR               .                                       : HNGS Thorium/Potassium Ratio 
HTUR               .                                       : HNGS Thorium/Uranium Ratio 
HUPR               .                                       : HNGS Uranium/Potassium Ratio 
MTEM_FILT          .degC                                   : 20 Filtered Mud Temperature 
PEFZ               .B/E                                    : PEF        4 Formation Photoelectric Factor 
Perm               .md                                     : Permeability 
PHIE               .Dec                                    : Effective porosity 
PHIT               .Dec                                    : Total porosity 
POTA               .%                                      : HNGS Formation Potassium Concentration 
PURA               .ppm                                    : Upper Limit of Formation Uranium Concentration 
RHOZ               .g/cm3                                  : Density    5 Bulk Density 
RLA1               .ohm.m                                  : ShalRes    12 HRLT Borehole Corrected Resistivity 1 
RLA2               .ohm.m                                  : MedRes     13 HRLT Borehole Corrected Resistivity 2 
RLA3               .ohm.m                                  : DeepRes    14 HRLT Borehole Corrected Resistivity 3 
RLA4               .ohm.m                                  : XDeepRes   15 HRLT Borehole Corrected Resisitivity 4 
RLA5               .ohm.m                                  : UltraDeepR 16 HRLT Borehole Corrected Resistivity 5 
RT                 .ohm.m                                  : 17 HRLT True Formation Resistivity 
RXO                .ohm.m                                  : MicroRes   18 HRLT Invaded Zone Resistivity 
RXOZ               .ohm.m                                  : MicroRes   6 Invaded Formation Resistivity filtered at 18 inches 
SDEVM              .deg                                    : 3 Sonde Deviation 
SP                 .mV                                     : SP         27 Spontaneous Potential 
SW                 .Dec                                    : Water saturation 
THOR               .ppm                                    : HNGS Formation Thorium Concentration 
TNPH               .v/v                                    : Neutron porosity 
URAN               .ppm                                    : HNGS Formation Uranium Concentration 
VCLAV              .Dec                                    : Clay volume
~Ascii
# ...
687.6      
  3.9193     3.879300117492676 4.0911     4.059000015258789 3.750999927520752 
  215.9      214.77     215.423    215.096    1669.7784  3308.6628  
  222.4498   42.883     230.5095   43.7407    50.8446    2.3471     
  3.6179     0.6487     31.9786    3.4782     0.0625     0.068      
  0.0988     1.7066     1.4382     2.4735     6.0526     5.607999801635742 
  5.537799835205078 5.422999858856201 5.095900058746338 4.321199893951416 
  7.787600040435791 6.675600051879883 0.4303     15.9561    1          
  4.0056     0.1568     1.1071     0.2056    
687.7      
  3.4569     3.67930006980896 3.9768     3.981600046157837 3.717600107192993 
  215.9      214.638    215.433    215.035    1577.6559  3205.8638  
  230.1924   46.7092    230.3027   47.8443    55.0031    2.4414     
  4.1815     0.5916     31.9768    3.4287     0.0381     0.0608     
  0.0968     1.8439     1.4335     2.4738     4.6758     4.416399955749512 
  4.29640007019043 4.22160005569458 3.985100030899048 3.431299924850464 
  6.090000152587891 5.628099918365479 0.4317     15.8031    1          
  4.5146     0.165      1.0829     0.2402    
687.8      
  2.9161     3.031800031661987 3.2629     3.286200046539307 3.124000072479248 
  215.9      214.485    215.427    214.955    1469.9888  3082.1858  
  242.5818   51.6601    230.1067   51.948     59.1616    2.5356     
  4.7451     0.5344     31.9749    3.3259     0.0165     0.0503     
  0.0934     1.9812     1.4287     2.4745     3.1136     2.947099924087524 
  2.843600034713745 2.79200005531311 2.646199941635132 2.252099990844727 
  4.082900047302246 4.825399875640869 0.4327     15.6333    1          
  5.0237     0.1754     1.0587     0.2878    
687.9      
  2.4915     2.61899995803833 2.7256     2.760499954223633 2.742700099945068 
  215.9      214.482    215.392    214.936    1329.7561  2926.8591  
  262.168    57.5495    229.8348   59.6452    66.5353    2.5193     
  5.4982     0.4582     31.9749    3.2331     0.0065     0.0407     
  0.0929     2.2792     1.4523     2.4702     2.5385     2.393599987030029 
  2.304199934005737 2.253799915313721 2.142199993133545 1.787799954414368 
  3.35509991645813 3.687599897384644 0.4336     15.4579    1          
  5.7421     0.1927     1.0443     0.3485    
688        
  2.1967     2.299700021743774 2.3858     2.422800064086914 2.460099935531616 
  215.9      214.729    215.524    215.126    1176.7301  2759.1272  
  274.3655   62.2283    229.6863   60.9013    67.3831    2.6895     
  6.67       0.4114     31.9743    3.1638     0.0004     0.0211     
  0.0893     2.2808     1.345      2.4546     2.6226     2.452199935913086 
  2.362200021743774 2.29010009765625 2.180900096893311 1.784299969673157 
  3.691400051116943 2.817800045013428 0.4344     14.9819    1          
  6.1346     0.2171     0.9383     0.4544    
688.1      
  2.1726     2.247200012207031 2.3255     2.353100061416626 2.47760009765625 
  215.9      214.975    215.651    215.312    1026.2013  2579.635   
  282.5172   66.5483    229.5972   62.1574    68.2309    2.8597     
  7.8417     0.3647     31.9736    3.1262     0          0.0074     
  0.0901     2.2824     1.2378     2.427      2.9107     2.715100049972534 
  2.62310004234314 2.525099992752075 2.408799886703491 1.950799942016602 
  4.026500225067139 2.423099994659424 0.435      14.3867    1          
  6.5271     0.2424     0.8324     0.5517    
688.2      
  2.1422     2.217700004577637 2.3362     2.384999990463257 2.537199974060059 
  215.9      214.407    215.222    214.814    931.4965   2367.1553  
  289.1978   72.4953    229.4829   63.45      70.3674    2.8953     
  6.5982     0.4388     31.9736    3.1409     0          0.0001000  
  0.1029     2.3204     1.428      2.4056     2.7213     2.555299997329712 
  2.470000028610229 2.367500066757202 2.261899948120117 1.834100008010864 
  3.615099906921387 2.12529993057251 0.4356     14.0105    1          
  6.7182     0.2509     1.0182     0.6855    
688.3      
  2.0668     2.140599966049194 2.2488     2.350699901580811 2.535099983215332 
  215.9      214.191    214.928    214.559    858.3206   2190.1157  
  292.4898   76.1823    229.4516   64.3465    70.5471    3.0269     
  7.1406     0.425      31.9739    3.1955     0          0.0001000  
  0.1122     2.3183     1.3931     2.3912     2.384      2.270400047302246 
  2.191800117492676 2.097399950027466 2.004899978637695 1.655900001525879 
  3.167200088500977 1.676100015640259 0.4366     13.7663    1          
  7.0171     0.2547     0.9852     0.7473    
688.4      
  2.0035     2.072299957275391 2.1208     2.200700044631958 2.361299991607666 
  215.9      214.056    214.912    214.483    799.934    2042.626   
  292.7632   78.204     229.4794   65.243     70.7269    3.1586     
  7.683      0.4111     31.9743    3.2615     0          0.0001000  
  0.1154     2.3163     1.3582     2.3677     2.2126     2.1389000415802 
  2.062700033187866 1.977300047874451 1.890100002288818 1.608000040054321 
  2.984499931335449 1.516199946403503 0.4379     13.6176    1          
  7.3161     0.2564     0.9523     0.7687    
688.5      
  1.9546     1.941900014877319 1.9957     2.055799961090088 2.170799970626831 
  215.9      212.548    216.85     214.688    757.6668   1974.2924  
  283.5159   77.3929    229.5916   65.1425    69.6697    3.1933     
  8.452      0.3778     31.9743    3.3428     0          0.0001000  
  0.1141     2.3038     1.2699     2.3591     2.1921     2.148299932479858 
  2.067100048065186 1.98389995098114 1.893800020217896 1.640499949455261 
  3.000200033187866 1.285099983215332 0.4376     13.6176    1          
  7.3569     0.2663     0.8704     0.7601    
688.6      
  2.109      1.996999979019165 2.0035     2.036400079727173 2.135400056838989 
  215.9      211.898    215.714    213.798    717.9736   1946.5061  
  279.4081   76.0931    229.7118   64.4295    68.7667    3.1452     
  8.236      0.382      31.9738    3.4139     0          0.0001000  
  0.1121     2.2907     1.2706     2.3655     2.4631     2.405900001525879 
  2.325799942016602 2.234499931335449 2.126399993896484 1.845399975776672 
  3.357500076293945 1.186699986457825 0.438      13.6176    1          
  7.2055     0.2855     0.875      0.7463    
688.7      
  2.1496     2.172300100326538 2.1688     2.172300100326538 2.281199932098389 
  215.9      211.957    212.509    212.233    681.591    1949.3258  
  279.2818   74.3725    229.8401   63.7165    67.8636    3.0971     
  8.02       0.3862     31.973     3.4769     0          0.0001000  
  0.1093     2.2776     1.2713     2.3696     2.7252     2.642199993133545 
  2.57699990272522 2.483999967575073 2.355000019073486 2.061300039291382 
  3.677200078964233 1.280099987983704 0.439      13.6176    1          
  7.0541     0.3107     0.8796     0.7278    
688.8      
  2.3025     2.337800025939941 2.2956     2.336999893188477 2.455100059509277 
  215.9      213.467    215.33     214.396    678.0578   1952.5719  
  281.6585   71.3989    230.0182   61.0484    65.3523    2.9486     
  7.5437     0.3909     31.973     3.5197     0          0.0078     
  0.1069     2.2191     1.2444     2.3807     2.9374     2.824700117111206 
  2.790999889373779 2.696799993515015 2.552700042724609 2.272000074386597 
  3.918999910354614 1.345399975776672 0.4399     13.6176    1          
  6.5432     0.3156     0.8674     0.6608    
688.9      
  2.306      2.493599891662598 2.4246     2.443700075149536 2.572799921035767 
  215.9      214.092    215.568    214.829    691.8557   1967.3267  
  282.545    71.6585    230.2061   61.1953    65.6397    2.9714     
  7.3652     0.4037     31.9726    3.5547     0          0.0001000  
  0.1001     2.2187     1.2758     2.3958     2.7703     2.650199890136719 
  2.634000062942505 2.552500009536743 2.413399934768677 2.16919994354248 
  3.660700082778931 1.631700038909912 0.4413     13.6176    1          
  6.5926     0.3098     0.8958     0.6667    
689        
  2.193      2.42960000038147 2.3828     2.407799959182739 2.519099950790405 
  215.9      213.902    213.422    213.662    721.6516   1992.705   
  282.0561   74.9027    230.4029   61.3422    65.9271    2.9942     
  7.1868     0.4166     31.9718    3.5878     0          0.0001000  
  0.1102     2.2183     1.3072     2.3995     2.4518     2.363800048828125 
  2.357399940490723 2.294300079345703 2.166599988937378 1.998299956321716 
  3.241300106048584 1.826500058174133 0.4433     13.6176    1          
  6.642      0.2939     0.9242     0.7337    
