~Version
 VERS              .         2.0                           : CWLS LOG ASCII STANDARD - VERSION 2.0
 WRAP              .         YES                            : ONE LINE PER DEPTH STEP
 DLM               .         SPACE                         : DELIMITING CHARACTER(SPACE TAB OR COMMA)
~Well Information
#_______________________________________________________________________________
#
#PARAMETER_NAME    .UNIT     VALUE                         : DESCRIPTION
#_______________________________________________________________________________
STRT               .M        0                             : First reference value
STOP               .M        740                           : Last reference value
STEP               .M        0.1                           : Step increment
NULL               .         -999.25                       : Missing value
COMP               .         COMPANY                       : Company
WELL               .         348                           : Well name
FLD                .         Karatube                      : Field
LOC                .         Atyrau                        : Location
CNTY               .                                       : County
STAT               .                                       : State
CTRY               .                                       : Country
SRVC               .         SCH                           : Service Company
DATE               .         09.09.2024                    : Date
API                .                                       : API number
APDAT              .         136.988                       : Elevation Above Permanent Datum
BHS                .         OPEN                          : Completion Status
COUNT              .         Kazakhstan                    : Country
DF                 .         136.988                       : DF Elevation
DRMEA              .         DF                            : Drill Measured From
EPDAT              .         0                             : Elevation of Permanent Datum
GL                 .         131.788                       : GL Elevation
KB                 .         0                             : KB Elevation
LGMEA              .         DF                            : Log Measured from
LATI               .         47.93162                      : Latitude/Northing
LONG               .         56.55725                      : Longitude/Easting
ORIGINALWELLNAME   .         348                           : 
PDAT               .         MSL                           : Permanent Datum
RWS                .         -999                          : Def_Rw
STATE              .         1_500 / 1_200                 : State
WST                .         -999                          : Def_Rwt
~Parameter Information Block
#_______________________________________________________________________________
#
#PARAMETER_NAME    .UNIT     VALUE                         : DESCRIPTION
#_______________________________________________________________________________
SET                .         model                         : 
TLFamily_AT10      .         Resistivity - Medium          : 
TLFamily_AT20      .         Resistivity (Array)           : 
TLFamily_AT30      .         Resistivity (Array)           : 
TLFamily_AT60      .         Resistivity (Array)           : 
TLFamily_AT90      .         Resistivity - Deep            : 
TLFamily_BSC       .         Bit Size                      : 
TLFamily_C1        .         Caliper 1                     : 
TLFamily_C2        .         Caliper 2                     : 
TLFamily_CALI      .         Caliper                       : 
TLFamily_CFTC      .         Neutron Far                   : 
TLFamily_CNTC      .         Neutron Near                  : 
TLFamily_DEPTH     .         Measured Depth                : 
TLFamily_DT        .         Compressional Slowness        : 
TLFamily_GR        .         Gamma Ray                     : 
TLFamily_HAZIM     .         Hole Azimuth                  : 
TLFamily_HCGR      .         Gamma Ray                     : 
TLFamily_HSGR      .         Gamma Ray                     : 
TLFamily_HTPR      .                                       : 
TLFamily_HTUR      .                                       : 
TLFamily_HUPR      .                                       : 
TLFamily_MTEM_FILT .         Temperature                   : 
TLFamily_PEFZ      .         Photoelectric Factor          : 
TLFamily_PHIE      .         Effective Porosity            : 
TLFamily_PHIT      .         Total Porosity                : 
TLFamily_POTA      .         Potassium Concentration       : 
TLFamily_PURA      .         Uranium Concentration         : 
TLFamily_Perm      .         Permeability                  : 
TLFamily_RHOZ      .         Bulk Density                  : 
TLFamily_RLA1      .         Resistivity (Array)           : 
TLFamily_RLA2      .         Resistivity (Array)           : 
TLFamily_RLA3      .         Resistivity (Array)           : 
TLFamily_RLA4      .         Resistivity (Array)           : 
TLFamily_RLA5      .         Resistivity (Array)           : 
TLFamily_RT        .         Resistivity - True Formation  : 
TLFamily_RXO       .         Resistivity - Flushed Zone    : 
TLFamily_RXOZ      .         Resistivity - Flushed Zone    : 
TLFamily_SDEVM     .         Sonde Deviation               : 
TLFamily_SP        .         Spontaneous Potential         : 
TLFamily_SW        .         Water Saturation              : 
TLFamily_THOR      .         Thorium Concentration         : 
TLFamily_TNPH      .                                       : 
TLFamily_URAN      .         Uranium Concentration         : 
TLFamily_VCLAV     .         Clay Volume Fraction          : 
~Curve Information
#_______________________________________________________________________________
#
#LOGNAME           .UNIT     LOG_ID                        : DESCRIPTION
#_______________________________________________________________________________
DEPTH              .M                                      : Depth 
AT10               .ohm.m                                  : MedRes     21 Array Induction Two Foot Resistivity A10 
AT20               .ohm.m                                  : MedRes     22 Array Induction Two Foot Resistivity A20 
AT30               .ohm.m                                  : MedRes     23 Array Induction Two Foot Resistivity A30 
AT60               .ohm.m                                  : DeepRes    24 Array Induction Two Foot Resistivity A60 
AT90               .ohm.m                                  : XDeepRes   25 Array Induction Two Foot Resistivity A90 
BSC                .mm                                     : 11 Nominal Caliper 
C1                 .mm                                     : 8 CALIPER DIAMETER 1 
C2                 .mm                                     : 9 CALIPER DIAMETER 2 
CALI               .mm                                     : Caliper    10 
CFTC               .1/s                                    : 28 Corrected Far Thermal Count Rate 
CNTC               .1/s                                    : Neutron    29 Corrected Near Thermal Count Rate 
DT                 .uSec/m                                 : Sonic      19 Sonic travel time 
GR                 .gAPI                                   : 30 Gamma Ray 
HAZIM              .deg                                    : Azimuth    2 Hole Azimuth 
HCGR               .gAPI                                   : HNGS Computed Gamma Ray 
HSGR               .gAPI                                   : HNGS Standard Gamma-Ray 
HTPR               .                                       : HNGS Thorium/Potassium Ratio 
HTUR               .                                       : HNGS Thorium/Uranium Ratio 
HUPR               .                                       : HNGS Uranium/Potassium Ratio 
MTEM_FILT          .degC                                   : 20 Filtered Mud Temperature 
PEFZ               .B/E                                    : PEF        4 Formation Photoelectric Factor 
Perm               .md                                     : Permeability 
PHIE               .Dec                                    : Effective porosity 
PHIT               .Dec                                    : Total porosity 
POTA               .%                                      : HNGS Formation Potassium Concentration 
PURA               .ppm                                    : Upper Limit of Formation Uranium Concentration 
RHOZ               .g/cm3                                  : Density    5 Bulk Density 
RLA1               .ohm.m                                  : ShalRes    12 HRLT Borehole Corrected Resistivity 1 
RLA2               .ohm.m                                  : MedRes     13 HRLT Borehole Corrected Resistivity 2 
RLA3               .ohm.m                                  : DeepRes    14 HRLT Borehole Corrected Resistivity 3 
RLA4               .ohm.m                                  : XDeepRes   15 HRLT Borehole Corrected Resisitivity 4 
RLA5               .ohm.m                                  : UltraDeepR 16 HRLT Borehole Corrected Resistivity 5 
RT                 .ohm.m                                  : 17 HRLT True Formation Resistivity 
RXO                .ohm.m                                  : MicroRes   18 HRLT Invaded Zone Resistivity 
RXOZ               .ohm.m                                  : MicroRes   6 Invaded Formation Resistivity filtered at 18 inches 
SDEVM              .deg                                    : 3 Sonde Deviation 
SP                 .mV                                     : SP         27 Spontaneous Potential 
SW                 .Dec                                    : Water saturation 
THOR               .ppm                                    : HNGS Formation Thorium Concentration 
TNPH               .v/v                                    : Neutron porosity 
URAN               .ppm                                    : HNGS Formation Uranium Concentration 
VCLAV              .Dec                                    : Clay volume
~Ascii
# ...
492.6      
  3.3949     3.658999919891357 3.7171     3.801100015640259 3.773699998855591 
  215.9      215.95     227.082    221.446    428.438    1497.4561  
  379.8189   89.5295    320.5694   59.0417    76.9972    6.0648     
  3.4886     1.7385     30.4907    2.595      0.2263000011444092 0.0911     
  0.1701     1.5845     3.187      2.2048     4.1975     4.123400211334229 
  4.112400054931641 3.996900081634521 3.710500001907349 3.451900005340576 
  5.622799873352051 1.578199982643127 0.5148     14.2313    1          
  9.6096     0.4437     2.7545     0.5271    
492.7      
  3.4296     3.610300064086914 3.6988     3.777400016784668 3.741699934005737 
  215.9      216.707    224.705    220.67     433.0786   1502.4285  
  379.4321   89.8967    320.7503   54.9763    73.9988    5.7932     
  3.0182     1.9194     30.4933    2.5266     0.1616999953985214 0.0844     
  0.1643     1.5098     3.3161     2.2104     4.295      4.181399822235107 
  4.148799896240234 4.037899971008301 3.748199939727783 3.409499883651733 
  5.735899925231934 1.435099959373474 0.5128     14.1942    1          
  8.7464     0.4358     2.8979     0.533     
492.8      
  3.383      3.568300008773804 3.6442     3.710599899291992 3.678999900817871 
  215.9      217.282    231.217    224.141    433.5059   1535.0151  
  376.5594   89.6854    321.0051   53.7648    73.6055    5.8212     
  2.8812     2.0254     30.4935    2.4576     0.1964000016450882 0.0882     
  0.1676     1.473      3.3989     2.2259     4.3798     4.263500213623047 
  4.219399929046631 4.108699798583984 3.81220006942749 3.446599960327148 
  5.858699798583984 1.504500031471252 0.5115     14.2815    1          
  8.5739     0.4519     2.9797     0.5296    
492.9      
  3.3878     3.629600048065186 3.7223     3.766499996185303 3.71779990196228 
  215.9      217.13     231.276    224.091    441.9684   1575.6348  
  374.4445   89.3649    321.2861   52.5532    73.2123    5.8493     
  2.7442     2.1315     30.494     2.4059     0.2623000144958496 0.0942     
  0.1728     1.4363     3.4816     2.2457     4.534      4.383900165557861 
  4.330399990081787 4.2221999168396 3.923700094223022 3.510699987411499 
  6.022500038146973 1.589499950408936 0.5101     14.462     1          
  8.4014     0.4578     3.0615     0.5245    
493        
  3.4072     3.646600008010864 3.7887     3.892699956893921 3.912300109863281 
  215.9      215.816    219.373    217.588    464.2208   1624.9052  
  373.9669   88.9593    321.598    51.6053    72.5917    5.8671     
  2.6516     2.2127     30.4952    2.3574     0.3749000132083893 0.1021     
  0.1798     1.4083     3.5461     2.2584     4.518      4.343900203704834 
  4.288599967956543 4.19159984588623 3.898999929428101 3.470799922943115 
  5.970499992370605 1.872400045394897 0.5085     14.7744    1          
  8.2625     0.4431     3.1161     0.518     
493.1      
  3.4451     3.728699922561646 3.8161     3.911400079727173 3.948199987411499 
  215.9      215.464    214.913    215.189    486.3379   1658.3431  
  372.3301   88.1054    321.9661   51.7935    73.4219    5.7221     
  2.562      2.2342     30.4953    2.3167     0.885200023651123 0.1202     
  0.1959     1.4314     3.6347     2.2675     4.4839     4.303899765014648 
  4.251299858093262 4.154900074005127 3.875600099563599 3.450099945068359 
  5.928999900817871 2.478800058364868 0.5065     15.2844    0.9315     
  8.1874     0.4241     3.1985     0.5043    
493.2      
  3.4816     3.786099910736084 3.8552     3.942199945449829 4.043099880218506 
  215.9      215.274    212.842    214.055    504.7135   1694.1097  
  371.0354   85.6218    322.3346   51.9817    74.252     5.577      
  2.4725     2.2556     30.4958    2.2955     3.266900062561035 0.1477     
  0.2173     1.4546     3.7233     2.274      4.5281     4.335000038146973 
  4.283199787139893 4.185500144958496 3.917900085449219 3.48799991607666 
  5.97599983215332 2.561100006103516 0.5048     15.8006    0.7623     
  8.1122     0.4119     3.281      0.4644    
493.3      
  3.5706     3.867700099945068 3.8731     3.975300073623657 4.035299777984619 
  215.9      215.092    213.059    214.073    515.8688   1739.3999  
  370.7715   80.116     322.6861   51.18      72.3425    5.6065     
  2.6157     2.1434     30.497     2.2796     13.17360019683838 0.1842     
  0.2407     1.4284     3.4969     2.2738     4.4638     4.324399948120117 
  4.28000020980835 4.185699939727783 3.925699949264526 3.595700025558472 
  5.916999816894531 2.620599985122681 0.5038     16.2665    0.6177     
  8.0085     0.4143     3.0617     0.3761    
493.4      
  3.6661     3.865700006484985 3.9643     4.099100112915039 4.127299785614014 
  215.9      213.984    213.62     213.802    532.1544   1769.7194  
  372.401    79.8362    322.9807   50.0766    69.9109    5.7695     
  2.8041     2.0629     30.4972    2.2771     14.44779968261719 0.1874     
  0.2431     1.3787     3.2706     2.2698     4.3491     4.243800163269043 
  4.20989990234375 4.119400024414063 3.874200105667114 3.609499931335449 
  5.782700061798096 2.666899919509888 0.5027     16.6641    0.6122     
  7.9464     0.4047     2.8482     0.3716    
493.5      
  3.7113     3.891000032424927 3.9779     4.197000026702881 4.140200138092041 
  215.9      213.479    214.012    213.745    547.8355   1791.0271  
  375.696    80.7304    323.198    48.9732    67.4793    5.9325     
  2.9925     1.9824     30.4972    2.2934     11.62310028076172 0.1793     
  0.2372     1.329      3.0443     2.2605     4.6048     4.47819995880127 
  4.436999797821045 4.346499919891357 4.091899871826172 3.790499925613403 
  6.128399848937988 2.613800048828125 0.5023     17.0507    0.6196     
  7.8843     0.393      2.6347     0.386     
493.6      
  3.822      4.068699836730957 4.1368     4.315499782562256 4.227799892425537 
  215.9      214.982    213.796    214.388    559.0904   1798.869   
  381.9812   81.4977    323.2586   46.3213    63.1781    6.1351     
  3.2375     1.895      30.4972    2.3139     10.76420021057129 0.1747     
  0.2345     1.2358     2.7307     2.2416     4.9696     4.837200164794922 
  4.797100067138672 4.700300216674805 4.434100151062012 4.129799842834473 
  6.595399856567383 2.670900106430054 0.5039     17.4492    0.6081     
  7.5817     0.3826     2.3419     0.3983    
493.7      
  4.0276     4.066500186920166 4.2714     4.404399871826172 4.372399806976318 
  215.9      213.477    213.256    213.366    560.7711   1791.522   
  385.8769   80.9628    323.2012   46.2237    62.7347    6.1662     
  3.3877     1.8233     30.4972    2.346      14.50599956512451 0.1811     
  0.2395     1.23       2.6293     2.2204     5.2722     5.153200149536133 
  5.126999855041504 5.024899959564209 4.746200084686279 4.488699913024902 
  6.922800064086914 2.90149998664856 0.5044     17.9478    0.5667     
  7.5843     0.3781     2.2431     0.3897    
493.8      
  4.2155     4.429100036621094 4.5598     4.670000076293945 4.605599880218506 
  215.9      211.565    212.769    212.166    559.4656   1780.4226  
  387.8986   79.2706    323.0793   46.1261    62.2913    6.1973     
  3.538      1.7516     30.4974    2.3915     20.95899963378906 0.1933     
  0.2477     1.2242     2.528      2.2074     5.1053     4.970099925994873 
  4.92519998550415 4.821700096130371 4.56279993057251 4.264599800109863 
  6.726699829101563 2.956799983978271 0.5051     18.469     0.5442     
  7.5869     0.3758     2.1444     0.3626    
493.9      
  4.1475     4.414199829101563 4.5636     4.671800136566162 4.565299987792969 
  215.9      211.374    212.769    212.07     558.2779   1772.6292  
  386.3751   75.2156    322.8709   46.4819    61.0381    5.832      
  3.6583     1.5942     30.4982    2.4703     27.94179916381836 0.2058     
  0.2545     1.2722     2.4023     2.2113     4.6803     4.507900238037109 
  4.454599857330322 4.356900215148926 4.129499912261963 3.759999990463257 
  6.228300094604492 2.968499898910522 0.5073     18.9619    0.5412     
  7.4197     0.3746     2.0282     0.3244    
