~Version
 VERS              .         2.0                           : CWLS LOG ASCII STANDARD - VERSION 2.0
 WRAP              .         YES                            : ONE LINE PER DEPTH STEP
 DLM               .         SPACE                         : DELIMITING CHARACTER(SPACE TAB OR COMMA)
~Well Information
#_______________________________________________________________________________
#
#PARAMETER_NAME    .UNIT     VALUE                         : DESCRIPTION
#_______________________________________________________________________________
STRT               .M        0                             : First reference value
STOP               .M        740                           : Last reference value
STEP               .M        0.1                           : Step increment
NULL               .         -999.25                       : Missing value
COMP               .         COMPANY                       : Company
WELL               .         348                           : Well name
FLD                .         Karatube                      : Field
LOC                .         Atyrau                        : Location
CNTY               .                                       : County
STAT               .                                       : State
CTRY               .                                       : Country
SRVC               .         SCH                           : Service Company
DATE               .         09.09.2024                    : Date
API                .                                       : API number
APDAT              .         136.988                       : Elevation Above Permanent Datum
BHS                .         OPEN                          : Completion Status
COUNT              .         Kazakhstan                    : Country
DF                 .         136.988                       : DF Elevation
DRMEA              .         DF                            : Drill Measured From
EPDAT              .         0                             : Elevation of Permanent Datum
GL                 .         131.788                       : GL Elevation
KB                 .         0                             : KB Elevation
LGMEA              .         DF                            : Log Measured from
LATI               .         47.93162                      : Latitude/Northing
LONG               .         56.55725                      : Longitude/Easting
ORIGINALWELLNAME   .         348                           : 
PDAT               .         MSL                           : Permanent Datum
RWS                .         -999                          : Def_Rw
STATE              .         1_500 / 1_200                 : State
WST                .         -999                          : Def_Rwt
~Parameter Information Block
#_______________________________________________________________________________
#
#PARAMETER_NAME    .UNIT     VALUE                         : DESCRIPTION
#_______________________________________________________________________________
SET                .         model                         : 
TLFamily_AT10      .         Resistivity - Medium          : 
TLFamily_AT20      .         Resistivity (Array)           : 
TLFamily_AT30      .         Resistivity (Array)           : 
TLFamily_AT60      .         Resistivity (Array)           : 
TLFamily_AT90      .         Resistivity - Deep            : 
TLFamily_BSC       .         Bit Size                      : 
TLFamily_C1        .         Caliper 1                     : 
TLFamily_C2        .         Caliper 2                     : 
TLFamily_CALI      .         Caliper                       : 
TLFamily_CFTC      .         Neutron Far                   : 
TLFamily_CNTC      .         Neutron Near                  : 
TLFamily_DEPTH     .         Measured Depth                : 
TLFamily_DT        .         Compressional Slowness        : 
TLFamily_GR        .         Gamma Ray                     : 
TLFamily_HAZIM     .         Hole Azimuth                  : 
TLFamily_HCGR      .         Gamma Ray                     : 
TLFamily_HSGR      .         Gamma Ray                     : 
TLFamily_HTPR      .                                       : 
TLFamily_HTUR      .                                       : 
TLFamily_HUPR      .                                       : 
TLFamily_MTEM_FILT .         Temperature                   : 
TLFamily_PEFZ      .         Photoelectric Factor          : 
TLFamily_PHIE      .         Effective Porosity            : 
TLFamily_PHIT      .         Total Porosity                : 
TLFamily_POTA      .         Potassium Concentration       : 
TLFamily_PURA      .         Uranium Concentration         : 
TLFamily_Perm      .         Permeability                  : 
TLFamily_RHOZ      .         Bulk Density                  : 
TLFamily_RLA1      .         Resistivity (Array)           : 
TLFamily_RLA2      .         Resistivity (Array)           : 
TLFamily_RLA3      .         Resistivity (Array)           : 
TLFamily_RLA4      .         Resistivity (Array)           : 
TLFamily_RLA5      .         Resistivity (Array)           : 
TLFamily_RT        .         Resistivity - True Formation  : 
TLFamily_RXO       .         Resistivity - Flushed Zone    : 
TLFamily_RXOZ      .         Resistivity - Flushed Zone    : 
TLFamily_SDEVM     .         Sonde Deviation               : 
TLFamily_SP        .         Spontaneous Potential         : 
TLFamily_SW        .         Water Saturation              : 
TLFamily_THOR      .         Thorium Concentration         : 
TLFamily_TNPH      .                                       : 
TLFamily_URAN      .         Uranium Concentration         : 
TLFamily_VCLAV     .         Clay Volume Fraction          : 
~Curve Information
#_______________________________________________________________________________
#
#LOGNAME           .UNIT     LOG_ID                        : DESCRIPTION
#_______________________________________________________________________________
DEPTH              .M                                      : Depth 
AT10               .ohm.m                                  : MedRes     21 Array Induction Two Foot Resistivity A10 
AT20               .ohm.m                                  : MedRes     22 Array Induction Two Foot Resistivity A20 
AT30               .ohm.m                                  : MedRes     23 Array Induction Two Foot Resistivity A30 
AT60               .ohm.m                                  : DeepRes    24 Array Induction Two Foot Resistivity A60 
AT90               .ohm.m                                  : XDeepRes   25 Array Induction Two Foot Resistivity A90 
BSC                .mm                                     : 11 Nominal Caliper 
C1                 .mm                                     : 8 CALIPER DIAMETER 1 
C2                 .mm                                     : 9 CALIPER DIAMETER 2 
CALI               .mm                                     : Caliper    10 
CFTC               .1/s                                    : 28 Corrected Far Thermal Count Rate 
CNTC               .1/s                                    : Neutron    29 Corrected Near Thermal Count Rate 
DT                 .uSec/m                                 : Sonic      19 Sonic travel time 
GR                 .gAPI                                   : 30 Gamma Ray 
HAZIM              .deg                                    : Azimuth    2 Hole Azimuth 
HCGR               .gAPI                                   : HNGS Computed Gamma Ray 
HSGR               .gAPI                                   : HNGS Standard Gamma-Ray 
HTPR               .                                       : HNGS Thorium/Potassium Ratio 
HTUR               .                                       : HNGS Thorium/Uranium Ratio 
HUPR               .                                       : HNGS Uranium/Potassium Ratio 
MTEM_FILT          .degC                                   : 20 Filtered Mud Temperature 
PEFZ               .B/E                                    : PEF        4 Formation Photoelectric Factor 
Perm               .md                                     : Permeability 
PHIE               .Dec                                    : Effective porosity 
PHIT               .Dec                                    : Total porosity 
POTA               .%                                      : HNGS Formation Potassium Concentration 
PURA               .ppm                                    : Upper Limit of Formation Uranium Concentration 
RHOZ               .g/cm3                                  : Density    5 Bulk Density 
RLA1               .ohm.m                                  : ShalRes    12 HRLT Borehole Corrected Resistivity 1 
RLA2               .ohm.m                                  : MedRes     13 HRLT Borehole Corrected Resistivity 2 
RLA3               .ohm.m                                  : DeepRes    14 HRLT Borehole Corrected Resistivity 3 
RLA4               .ohm.m                                  : XDeepRes   15 HRLT Borehole Corrected Resisitivity 4 
RLA5               .ohm.m                                  : UltraDeepR 16 HRLT Borehole Corrected Resistivity 5 
RT                 .ohm.m                                  : 17 HRLT True Formation Resistivity 
RXO                .ohm.m                                  : MicroRes   18 HRLT Invaded Zone Resistivity 
RXOZ               .ohm.m                                  : MicroRes   6 Invaded Formation Resistivity filtered at 18 inches 
SDEVM              .deg                                    : 3 Sonde Deviation 
SP                 .mV                                     : SP         27 Spontaneous Potential 
SW                 .Dec                                    : Water saturation 
THOR               .ppm                                    : HNGS Formation Thorium Concentration 
TNPH               .v/v                                    : Neutron porosity 
URAN               .ppm                                    : HNGS Formation Uranium Concentration 
VCLAV              .Dec                                    : Clay volume
~Ascii
# ...
259.8      
  3.3328     3.632499933242798 3.897      4.22760009765625 4.010000228881836 
  215.9      215.363    210.731    213.034    343.1068   1330.1042  
  495.3562   94.192     293.0181   73.4857    82.9006    5.3942     
  9.6068     0.5615     26.3437    2.9504     0          0.0001000  
  0.1365     2.0899     1.5755     2.1102     5.2187     5.069799900054932 
  4.99370002746582 4.901500225067139 4.579299926757813 4.174499988555908 
  6.95389986038208 1.987100005149841 0.6146     20.7249    1          
  11.2733    0.5311     1.1735     0.9094    
259.9      
  3.4373     3.791899919509888 4.1115     4.439499855041504 4.143899917602539 
  215.9      214.934    210.576    212.744    335.9226   1337.9421  
  492.4078   93.2079    292.7711   72.2037    83.073     5.3195     
  8.3423     0.6513     26.348     2.9753     0          0.0001000  
  0.135      2.067      1.7483     2.1244     5.534      5.374899864196777 
  5.317200183868408 5.223000049591064 4.879199981689453 4.495999813079834 
  7.332699775695801 2.018100023269653 0.6145     21.1717    1          
  10.9972    0.5575     1.3441     0.8993    
260        
  3.5054     3.849999904632568 4.2466     4.582300186157227 4.329899787902832 
  215.9      213.364    210.227    211.79     331.842    1341.3018  
  489.7321   94.0892    292.5183   70.9216    83.2454    5.2448     
  7.0777     0.741      26.3516    2.9984     0          0.0001000  
  0.1364     2.0441     1.9212     2.1279     5.4922     5.345099925994873 
  5.300600051879883 5.195700168609619 4.85319995880127 4.494699954986572 
  7.271900177001953 1.994300007820129 0.6141     21.6118    1          
  10.7211    0.5753     1.5148     0.9084    
260.1      
  3.436      3.821500062942505 4.1981     4.524300098419189 4.351099967956543 
  215.9      213.737    210.661    212.193    326.1021   1353.6128  
  489.0673   93.9554    292.2374   71.6823    83.9615    4.8781     
  7.0925     0.6878     26.3516    2.9832     0          0.0001000  
  0.1361     2.1367     1.8802     2.1183     5.4726     5.322800159454346 
  5.304599761962891 5.169899940490723 4.838799953460693 4.484600067138672 
  7.252600193023682 1.997599959373474 0.614      21.4987    1          
  10.4231    0.6148     1.4696     0.907     
260.2      
  3.3823     3.797899961471558 4.1521     4.442500114440918 4.339499950408936 
  215.9      213.812    210.96     212.381    330.6238   1368.2228  
  491.2453   96.185     291.9689   73.0658    85.2145    4.7628     
  7.2816     0.6549     26.3536    2.9398     0          0.0001000  
  0.1396     2.2023     1.8583     2.1055     5.4758     5.319300174713135 
  5.34660005569458 5.177800178527832 4.854199886322021 4.526500225067139 
  7.230199813842773 1.927600026130676 0.6137     21.7265    1          
  10.4815    0.6109     1.4402     0.9299    
260.3      
  3.3145     3.758300065994263 4.2054     4.483099937438965 4.450099945068359 
  215.9      213.628    211.137    212.379    344.3747   1384.8595  
  495.9241   100.4412   291.7116   74.4494    86.4674    4.6474     
  7.4707     0.6221     26.3572    2.8905     0          0.0001000  
  0.1462     2.2679     1.8364     2.094      5.292      5.135700225830078 
  5.204100131988525 5.005300045013428 4.69950008392334 4.399099826812744 
  6.980500221252441 1.873800039291382 0.613      22.254     1          
  10.54      0.5683     1.4108     0.9737    
260.4      
  3.3777     3.714799880981445 4.2334     4.581099987030029 4.404799938201904 
  215.9      214.005    210.958    212.476    370.9013   1400.3118  
  498.5928   97.8323    291.465    74.9817    86.1689    4.6682     
  7.9637     0.5883     26.3572    2.8369     0          0.0001000  
  0.1421     2.2796     1.7697     2.0826     5.2987     5.159800052642822 
  5.235199928283691 5.041600227355957 4.736499786376953 4.473499774932861 
  6.979499816894531 1.873600006103516 0.6137     22.522     1          
  10.6418    0.5094     1.3406     0.9469    
260.5      
  3.3759     3.819299936294556 4.2091     4.629000186920166 4.387100219726563 
  215.9      214.29     210.538    212.406    393.0415   1411.9174  
  501.0889   96.2809    291.2517   75.5141    85.8703    4.6889     
  8.4567     0.5545     26.358     2.8054     0          0.0001000  
  0.1397     2.2913     1.7031     2.08       5.4461     5.357900142669678 
  5.397500038146973 5.206999778747559 4.898399829864502 4.662300109863281 
  7.178500175476074 1.856799960136414 0.6145     22.9481    1          
  10.7436    0.4649     1.2704     0.9309    
260.6      
  3.2991     3.766599893569946 4.1604     4.657100200653076 4.448500156402588 
  215.9      214.476    209.857    212.154    410.4298   1419.3555  
  503.398    95.875     291.0745   72.14      82.9838    4.6026     
  7.1678     0.6421     26.3597    2.8183     0          0.0001000  
  0.1391     2.207      1.8522     2.0867     5.2485     5.275599956512451 
  5.226399898529053 5.061699867248535 4.766300201416016 4.56659984588623 
  7.042600154876709 1.815099954605103 0.6153     23.5454    1          
  10.1579    0.4358     1.4172     0.9267    
260.7      
  3.1676     3.764400005340576 4.2123     4.73169994354248 4.454400062561035 
  215.9      213.398    209.244    211.311    400.2772   1424.3134  
  502.2847   93.1338    290.9393   70.5776    81.3586    4.5285     
  6.7841     0.669      26.3598    2.8509     0          0.0001000  
  0.1349     2.1744     1.8861     2.0951     5.1504     5.248199939727783 
  5.1350998878479 4.978099822998047 4.695600032806396 4.486899852752686 
  7.072500228881836 1.85099995136261 0.6168     23.9501    1          
  9.8491     0.457      1.4539     0.8985    
260.8      
  3.0792     3.571099996566772 4.2828     4.875800132751465 4.56659984588623 
  215.9      212.6      209.186    210.886    390.6531   1444.998   
  497.7142   92.8947    290.8617   69.0152    79.7333    4.4544     
  6.4005     0.6959     26.361     2.8911     0          0.0001000  
  0.1345     2.1418     1.9201     2.1064     5.3055     5.420199871063232 
  5.257599830627441 5.106900215148926 4.821800231933594 4.562399864196777 
  7.391900062561035 1.838099956512451 0.6183     24.5848    1          
  9.5404     0.4871     1.4906     0.8961    
260.9      
  3.2216     3.54229998588562 4.2051     4.790200233459473 4.68720006942749 
  215.9      212.227    209.83     211.025    383.162    1485.8301  
  488.9252   95.9639    290.8552   62.2489    74.9099    3.9349     
  4.5985     0.8557     26.3638    2.9473     0          0.0001000  
  0.1392     2.0344     2.1481     2.1301     5.9111     5.901199817657471 
  5.762800216674805 5.60129976272583 5.301700115203857 4.934800148010254 
  8.091400146484375 1.834800004959106 0.6196     25.5225    1          
  8.0049     0.5259     1.7408     0.9276    
261        
  3.3254     3.894200086593628 4.5624     5.388999938964844 4.847499847412109 
  215.9      212.704    210.438    211.568    395.1857   1511.5701  
  474.0482   94.1488    290.9276   60.4165    72.0724    4.1442     
  4.9796     0.8339     26.3641    3.0199     0          0.0001000  
  0.1364     1.9352     2.0101     2.1534     6.5449     6.382199764251709 
  6.277699947357178 6.114799976348877 5.805300235748291 5.331999778747559 
  8.766400337219238 1.871899962425232 0.621      26.3325    1          
  7.9991     0.513      1.6159     0.909     
261.1      
  3.579      4.343699932098389 5.2861     6.469299793243408 5.837699890136719 
  215.9      213.267    211.239    212.251    412.4809   1535.1512  
  460.2552   92.0137    291.077    58.5841    69.2349    4.3535     
  5.3607     0.8121     26.3646    3.1166     0          0.0001000  
  0.1332     1.8361     1.8721     2.1708     6.2223     5.926199913024902 
  5.846700191497803 5.715799808502197 5.442999839782715 4.887199878692627 
  8.184599876403809 1.73360002040863 0.6222     26.8753    1          
  7.9932     0.4897     1.4911     0.887     
261.2      
  3.1535     4.08430004119873 5.2181     6.418499946594238 5.791299819946289 
  215.9      213.833    212.347    213.089    435.0026   1557.6906  
  449.0992   90.1336    291.3348   52.03      62.4559    4.2915     
  4.8062     0.8929     26.3658    3.2318     0          0.0001000  
  0.1303     1.6406     1.8159     2.1847     5.0349     4.779600143432617 
  4.711400032043457 4.606200218200684 4.395800113677979 3.921600103378296 
  6.626999855041504 1.612300038337708 0.6231     27.0198    1          
  7.0406     0.4581     1.4649     0.8677    
