~Version
 VERS              .         2.0                           : CWLS LOG ASCII STANDARD - VERSION 2.0
 WRAP              .         YES                            : ONE LINE PER DEPTH STEP
 DLM               .         SPACE                         : DELIMITING CHARACTER(SPACE TAB OR COMMA)
~Well Information
#_______________________________________________________________________________
#
#PARAMETER_NAME    .UNIT     VALUE                         : DESCRIPTION
#_______________________________________________________________________________
STRT               .M        0                             : First reference value
STOP               .M        740                           : Last reference value
STEP               .M        0.1                           : Step increment
NULL               .         -999.25                       : Missing value
COMP               .         COMPANY                       : Company
WELL               .         348                           : Well name
FLD                .         Karatube                      : Field
LOC                .         Atyrau                        : Location
CNTY               .                                       : County
STAT               .                                       : State
CTRY               .                                       : Country
SRVC               .         SCH                           : Service Company
DATE               .         09.09.2024                    : Date
API                .                                       : API number
APDAT              .         136.988                       : Elevation Above Permanent Datum
BHS                .         OPEN                          : Completion Status
COUNT              .         Kazakhstan                    : Country
DF                 .         136.988                       : DF Elevation
DRMEA              .         DF                            : Drill Measured From
EPDAT              .         0                             : Elevation of Permanent Datum
GL                 .         131.788                       : GL Elevation
KB                 .         0                             : KB Elevation
LGMEA              .         DF                            : Log Measured from
LATI               .         47.93162                      : Latitude/Northing
LONG               .         56.55725                      : Longitude/Easting
ORIGINALWELLNAME   .         348                           : 
PDAT               .         MSL                           : Permanent Datum
RWS                .         -999                          : Def_Rw
STATE              .         1_500 / 1_200                 : State
WST                .         -999                          : Def_Rwt
~Parameter Information Block
#_______________________________________________________________________________
#
#PARAMETER_NAME    .UNIT     VALUE                         : DESCRIPTION
#_______________________________________________________________________________
SET                .         model                         : 
TLFamily_AT10      .         Resistivity - Medium          : 
TLFamily_AT20      .         Resistivity (Array)           : 
TLFamily_AT30      .         Resistivity (Array)           : 
TLFamily_AT60      .         Resistivity (Array)           : 
TLFamily_AT90      .         Resistivity - Deep            : 
TLFamily_BSC       .         Bit Size                      : 
TLFamily_C1        .         Caliper 1                     : 
TLFamily_C2        .         Caliper 2                     : 
TLFamily_CALI      .         Caliper                       : 
TLFamily_CFTC      .         Neutron Far                   : 
TLFamily_CNTC      .         Neutron Near                  : 
TLFamily_DEPTH     .         Measured Depth                : 
TLFamily_DT        .         Compressional Slowness        : 
TLFamily_GR        .         Gamma Ray                     : 
TLFamily_HAZIM     .         Hole Azimuth                  : 
TLFamily_HCGR      .         Gamma Ray                     : 
TLFamily_HSGR      .         Gamma Ray                     : 
TLFamily_HTPR      .                                       : 
TLFamily_HTUR      .                                       : 
TLFamily_HUPR      .                                       : 
TLFamily_MTEM_FILT .         Temperature                   : 
TLFamily_PEFZ      .         Photoelectric Factor          : 
TLFamily_PHIE      .         Effective Porosity            : 
TLFamily_PHIT      .         Total Porosity                : 
TLFamily_POTA      .         Potassium Concentration       : 
TLFamily_PURA      .         Uranium Concentration         : 
TLFamily_Perm      .         Permeability                  : 
TLFamily_RHOZ      .         Bulk Density                  : 
TLFamily_RLA1      .         Resistivity (Array)           : 
TLFamily_RLA2      .         Resistivity (Array)           : 
TLFamily_RLA3      .         Resistivity (Array)           : 
TLFamily_RLA4      .         Resistivity (Array)           : 
TLFamily_RLA5      .         Resistivity (Array)           : 
TLFamily_RT        .         Resistivity - True Formation  : 
TLFamily_RXO       .         Resistivity - Flushed Zone    : 
TLFamily_RXOZ      .         Resistivity - Flushed Zone    : 
TLFamily_SDEVM     .         Sonde Deviation               : 
TLFamily_SP        .         Spontaneous Potential         : 
TLFamily_SW        .         Water Saturation              : 
TLFamily_THOR      .         Thorium Concentration         : 
TLFamily_TNPH      .                                       : 
TLFamily_URAN      .         Uranium Concentration         : 
TLFamily_VCLAV     .         Clay Volume Fraction          : 
~Curve Information
#_______________________________________________________________________________
#
#LOGNAME           .UNIT     LOG_ID                        : DESCRIPTION
#_______________________________________________________________________________
DEPTH              .M                                      : Depth 
AT10               .ohm.m                                  : MedRes     21 Array Induction Two Foot Resistivity A10 
AT20               .ohm.m                                  : MedRes     22 Array Induction Two Foot Resistivity A20 
AT30               .ohm.m                                  : MedRes     23 Array Induction Two Foot Resistivity A30 
AT60               .ohm.m                                  : DeepRes    24 Array Induction Two Foot Resistivity A60 
AT90               .ohm.m                                  : XDeepRes   25 Array Induction Two Foot Resistivity A90 
BSC                .mm                                     : 11 Nominal Caliper 
C1                 .mm                                     : 8 CALIPER DIAMETER 1 
C2                 .mm                                     : 9 CALIPER DIAMETER 2 
CALI               .mm                                     : Caliper    10 
CFTC               .1/s                                    : 28 Corrected Far Thermal Count Rate 
CNTC               .1/s                                    : Neutron    29 Corrected Near Thermal Count Rate 
DT                 .uSec/m                                 : Sonic      19 Sonic travel time 
GR                 .gAPI                                   : 30 Gamma Ray 
HAZIM              .deg                                    : Azimuth    2 Hole Azimuth 
HCGR               .gAPI                                   : HNGS Computed Gamma Ray 
HSGR               .gAPI                                   : HNGS Standard Gamma-Ray 
HTPR               .                                       : HNGS Thorium/Potassium Ratio 
HTUR               .                                       : HNGS Thorium/Uranium Ratio 
HUPR               .                                       : HNGS Uranium/Potassium Ratio 
MTEM_FILT          .degC                                   : 20 Filtered Mud Temperature 
PEFZ               .B/E                                    : PEF        4 Formation Photoelectric Factor 
Perm               .md                                     : Permeability 
PHIE               .Dec                                    : Effective porosity 
PHIT               .Dec                                    : Total porosity 
POTA               .%                                      : HNGS Formation Potassium Concentration 
PURA               .ppm                                    : Upper Limit of Formation Uranium Concentration 
RHOZ               .g/cm3                                  : Density    5 Bulk Density 
RLA1               .ohm.m                                  : ShalRes    12 HRLT Borehole Corrected Resistivity 1 
RLA2               .ohm.m                                  : MedRes     13 HRLT Borehole Corrected Resistivity 2 
RLA3               .ohm.m                                  : DeepRes    14 HRLT Borehole Corrected Resistivity 3 
RLA4               .ohm.m                                  : XDeepRes   15 HRLT Borehole Corrected Resisitivity 4 
RLA5               .ohm.m                                  : UltraDeepR 16 HRLT Borehole Corrected Resistivity 5 
RT                 .ohm.m                                  : 17 HRLT True Formation Resistivity 
RXO                .ohm.m                                  : MicroRes   18 HRLT Invaded Zone Resistivity 
RXOZ               .ohm.m                                  : MicroRes   6 Invaded Formation Resistivity filtered at 18 inches 
SDEVM              .deg                                    : 3 Sonde Deviation 
SP                 .mV                                     : SP         27 Spontaneous Potential 
SW                 .Dec                                    : Water saturation 
THOR               .ppm                                    : HNGS Formation Thorium Concentration 
TNPH               .v/v                                    : Neutron porosity 
URAN               .ppm                                    : HNGS Formation Uranium Concentration 
VCLAV              .Dec                                    : Clay volume
~Ascii
# ...
413.5      
  2.5169     2.731400012969971 2.8099     2.998899936676025 2.866499900817871 
  215.9      212.76     207.134    209.928    493.6815   1605.1893  
  439.768    106.754    310.934    82.2602    96.4941    4.745      
  5.5706     0.8518     28.8765    2.9678     0          0.0001000  
  0.1375     2.4819     2.5595     2.1997     3.1808     3.209500074386597 
  3.243000030517578 3.239799976348877 3.137900114059448 3.201499938964844 
  3.184400081634521 1.756800055503845 0.4534     13.4065    1          
  11.7764    0.3914     2.114      0.9161    
413.6      
  2.5685     2.817699909210205 2.9012     3.095000028610229 2.960700035095215 
  215.9      213.508    207.774    210.622    500.0276   1641.0284  
  421.5414   102.8598   311.1332   85.6745    95.4602    4.9535     
  8.3591     0.5926     28.8778    2.8458     0          0.0001000  
  0.1322     2.535      1.9439     2.215      3.0522     3.068399906158447 
  3.111500024795532 3.100699901580811 3.007400035858154 3.06660008430481 
  3.065900087356567 1.904199957847595 0.4512     13.0567    1          
  12.557     0.3969     1.5022     0.8808    
413.7      
  2.5353     2.814300060272217 2.8872     3.08299994468689 2.984200000762939 
  215.9      213.452    209.91     211.673    513.95     1659.2272  
  408.5464   105.2377   311.32     87.6925    96.1409    5.0973     
  10.7984    0.4943     28.8779    2.7106     0          0.0001000  
  0.1355     2.5603     1.7101     2.2278     2.9842     2.999900102615356 
  3.043200016021729 3.028300046920776 2.935800075531006 2.995199918746948 
  3.030400037765503 2.057499885559082 0.4475     12.9029    1          
  13.0542    0.3861     1.263      0.9024    
413.8      
  2.5519     2.775300025939941 2.8568     3.044600009918213 2.976799964904785 
  215.9      213.521    211.113    212.313    526.2929   1673.373   
  400.2111   106.5159   311.4307   89.7104    96.8217    5.2412     
  13.2377    0.3959     28.8782    2.6093     0          0.0001000  
  0.1372     2.5856     1.4763     2.2357     3.044      3.064899921417236 
  3.116199970245361 3.098299980163574 3.005000114440918 3.063699960708618 
  3.074399948120117 2.102999925613403 0.4432     12.9881    1          
  13.5515    0.3758     1.0237     0.914     
413.9      
  2.5577     2.761100053787231 2.8516     3.039400100708008 2.995599985122681 
  215.9      214.089    210.033    212.051    533.1754   1685.2264  
  399.268    103.6774   311.3976   90.3859    96.682     5.1618     
  14.4065    0.3583     28.879     2.5717     0          0.0001000  
  0.1333     2.6239     1.3936     2.2405     3.0123     3.052799940109253 
  3.104700088500977 3.088000059127808 3.002300024032593 3.050299882888794 
  3.045200109481812 1.959800004959106 0.4383     13.475     1          
  13.544     0.3718     0.9401     0.8882    
414        
  2.5417     2.741600036621094 2.8403     3.032700061798096 3.015599966049194 
  215.9      214.038    210.363    212.193    534.8899   1677.9707  
  404.4108   100.8543   311.2979   91.1402    97.3874    5.193      
  14.8953    0.3489     28.8791    2.6019     0          0.0001000  
  0.1295     2.6383     1.3733     2.2415     2.9911     3.028000116348267 
  3.072200059890747 3.059999942779541 2.968100070953369 3.022200107574463 
  3.021399974822998 1.827999949455261 0.4323     13.5921    1          
  13.7009    0.3672     0.9205     0.8626    
414.1      
  2.5249     2.726999998092651 2.8373     3.03439998626709 3.03029990196228 
  215.9      213.741    209.25     211.484    528.3759   1665.3896  
  410.3987   99.317     311.1849   91.8945    98.0928    5.2242     
  15.3841    0.3396     28.8794    2.6741     0          0.0001000  
  0.1274     2.6527     1.3531     2.2368     2.9744     3.001699924468994 
  3.039299964904785 3.029799938201904 2.938199996948242 2.994899988174438 
  3.006099939346313 1.756399989128113 0.4262     13.6176    1          
  13.8579    0.3709     0.9008     0.8487    
414.2      
  2.5112     2.720499992370605 2.8332     3.037400007247925 3.030999898910522 
  215.9      213.173    203.85     208.46     504.4936   1650.0403  
  415.1853   100.9192   311.0758   90.9447    97.2423    5.7912     
  17.0368    0.3399     28.8802    2.7769     0          0.0001000  
  0.1296     2.4974     1.294      2.2274     2.9688     2.986500024795532 
  3.016599893569946 3.012200117111206 2.918699979782104 2.977099895477295 
  3.020900011062622 1.732399940490723 0.4204     13.6176    1          
  14.463     0.395      0.8489     0.8632    
414.3      
  2.4912     2.700200080871582 2.8347     3.044699907302856 3.02649998664856 
  215.9      212.899    203.602    208.198    497.2865   1624.8599  
  427.3784   103.9761   310.9681   90.5345    97.5966    5.9263     
  15.347     0.3919     28.881     2.9006     0          0.0001000  
  0.1337     2.4581     1.408      2.2153     2.928      2.948600053787231 
  2.964200019836426 2.959800004959106 2.856800079345703 2.923700094223022 
  3.012900114059448 1.731099963188171 0.4172     13.6851    1          
  14.562     0.3944     0.9612     0.8909    
414.4      
  2.4221     2.633500099182129 2.7739     3.015100002288818 3.001199960708618 
  215.9      212.757    204.789    208.735    491.8266   1595.1488  
  441.3835   107.1578   310.8711   90.1243    97.951     6.0615     
  13.6572    0.4438     28.8817    3.0365     0          0.0001000  
  0.1381     2.4187     1.5219     2.2014     2.8482     2.880800008773804 
  2.884799957275391 2.882999897003174 2.78029990196228 2.848000049591064 
  2.940700054168701 1.718999981880188 0.4147     13.8266    1          
  14.6611    0.39       1.0735     0.9198    
414.5      
  2.3658     2.567699909210205 2.6908     2.920599937438965 2.941900014877319 
  215.9      212.757    205.653    209.175    476.1266   1560.3896  
  454.1206   109.3589   310.8065   90.6299    96.787     6.1441     
  19.2638    0.3189     28.8817    3.1653     0          0.0001000  
  0.1411     2.4156     1.2102     2.1868     2.7488     2.768800020217896 
  2.769099950790405 2.762200117111206 2.661799907684326 2.723999977111816 
  2.907099962234497 1.634400010108948 0.4114     14.1385    1          
  14.8414    0.3974     0.7704     0.9398    
414.6      
  2.3201     2.493599891662598 2.6254     2.823299884796143 2.892499923706055 
  215.9      212.348    207.138    209.727    460.8589   1551.9915  
  462.0981   106.3747   310.8085   90.3479    96.7436    6.2468     
  18.1354    0.3461     28.8823    3.2746     0          0.0001000  
  0.137      2.3879     1.2671     2.177      2.6578     2.684700012207031 
  2.688299894332886 2.673099994659424 2.578799962997437 2.635799884796143 
  2.856899976730347 1.721500039100647 0.4088     14.4866    1          
  14.9135    0.4166     0.8258     0.9127    
414.7      
  2.2853     2.443700075149536 2.562      2.736999988555908 2.849299907684326 
  215.9      213.166    208.608    210.874    445.083    1549.8879  
  466.9293   101.7028   310.8866   90.0659    96.7003    6.3495     
  17.0071    0.3733     28.883     3.3562     0          0.0001000  
  0.1306     2.3601     1.3239     2.175      2.6764     2.696500062942505 
  2.702699899673462 2.673799991607666 2.578200101852417 2.62470006942749 
  2.990299940109253 1.646000027656555 0.4067     14.8233    1          
  14.9857    0.4401     0.8811     0.8703    
414.8      
  2.2812     2.453500032424927 2.5452     2.691299915313721 2.863300085067749 
  215.9      219.531    209.048    214.225    426.6017   1531.9572  
  466.5792   98.346     311.1659   88.8027    96.4907    6.25       
  14.5545    0.4294     28.883     3.3882     0          0.0001000  
  0.1261     2.3461     1.4501     2.1797     2.7176     2.724100112915039 
  2.738300085067749 2.687400102615356 2.591099977493286 2.615299940109253 
  3.180200099945068 1.696200013160706 0.4058     15.0585    1          
  14.6633    0.4625     1.0075     0.8399    
414.9      
  2.3187     2.494499921798706 2.5785     2.715800046920776 2.927000045776367 
  215.9      220.751    209.624    215.116    421.6745   1526.2441  
  466.0035   99.2048    311.6937   88.9697    97.1937    6.02       
  13.6204    0.4429     28.8835    3.3744     0          0.0001000  
  0.1273     2.3971     1.5058     2.1884     2.8038     2.786400079727173 
  2.80839991569519 2.739700078964233 2.646300077438354 2.641599893569946 
  3.379899978637695 1.835000038146973 0.406      15.1794    1          
  14.4186    0.4668     1.0624     0.8477    
