~Version
 VERS              .         2.0                           : CWLS LOG ASCII STANDARD - VERSION 2.0
 WRAP              .         YES                            : ONE LINE PER DEPTH STEP
 DLM               .         SPACE                         : DELIMITING CHARACTER(SPACE TAB OR COMMA)
~Well Information
#_______________________________________________________________________________
#
#PARAMETER_NAME    .UNIT     VALUE                         : DESCRIPTION
#_______________________________________________________________________________
STRT               .M        0                             : First reference value
STOP               .M        740                           : Last reference value
STEP               .M        0.1                           : Step increment
NULL               .         -999.25                       : Missing value
COMP               .         COMPANY                       : Company
WELL               .         348                           : Well name
FLD                .         Karatube                      : Field
LOC                .         Atyrau                        : Location
CNTY               .                                       : County
STAT               .                                       : State
CTRY               .                                       : Country
SRVC               .         SCH                           : Service Company
DATE               .         09.09.2024                    : Date
API                .                                       : API number
APDAT              .         136.988                       : Elevation Above Permanent Datum
BHS                .         OPEN                          : Completion Status
COUNT              .         Kazakhstan                    : Country
DF                 .         136.988                       : DF Elevation
DRMEA              .         DF                            : Drill Measured From
EPDAT              .         0                             : Elevation of Permanent Datum
GL                 .         131.788                       : GL Elevation
KB                 .         0                             : KB Elevation
LGMEA              .         DF                            : Log Measured from
LATI               .         47.93162                      : Latitude/Northing
LONG               .         56.55725                      : Longitude/Easting
ORIGINALWELLNAME   .         348                           : 
PDAT               .         MSL                           : Permanent Datum
RWS                .         -999                          : Def_Rw
STATE              .         1_500 / 1_200                 : State
WST                .         -999                          : Def_Rwt
~Parameter Information Block
#_______________________________________________________________________________
#
#PARAMETER_NAME    .UNIT     VALUE                         : DESCRIPTION
#_______________________________________________________________________________
SET                .         model                         : 
TLFamily_AT10      .         Resistivity - Medium          : 
TLFamily_AT20      .         Resistivity (Array)           : 
TLFamily_AT30      .         Resistivity (Array)           : 
TLFamily_AT60      .         Resistivity (Array)           : 
TLFamily_AT90      .         Resistivity - Deep            : 
TLFamily_BSC       .         Bit Size                      : 
TLFamily_C1        .         Caliper 1                     : 
TLFamily_C2        .         Caliper 2                     : 
TLFamily_CALI      .         Caliper                       : 
TLFamily_CFTC      .         Neutron Far                   : 
TLFamily_CNTC      .         Neutron Near                  : 
TLFamily_DEPTH     .         Measured Depth                : 
TLFamily_DT        .         Compressional Slowness        : 
TLFamily_GR        .         Gamma Ray                     : 
TLFamily_HAZIM     .         Hole Azimuth                  : 
TLFamily_HCGR      .         Gamma Ray                     : 
TLFamily_HSGR      .         Gamma Ray                     : 
TLFamily_HTPR      .                                       : 
TLFamily_HTUR      .                                       : 
TLFamily_HUPR      .                                       : 
TLFamily_MTEM_FILT .         Temperature                   : 
TLFamily_PEFZ      .         Photoelectric Factor          : 
TLFamily_PHIE      .         Effective Porosity            : 
TLFamily_PHIT      .         Total Porosity                : 
TLFamily_POTA      .         Potassium Concentration       : 
TLFamily_PURA      .         Uranium Concentration         : 
TLFamily_Perm      .         Permeability                  : 
TLFamily_RHOZ      .         Bulk Density                  : 
TLFamily_RLA1      .         Resistivity (Array)           : 
TLFamily_RLA2      .         Resistivity (Array)           : 
TLFamily_RLA3      .         Resistivity (Array)           : 
TLFamily_RLA4      .         Resistivity (Array)           : 
TLFamily_RLA5      .         Resistivity (Array)           : 
TLFamily_RT        .         Resistivity - True Formation  : 
TLFamily_RXO       .         Resistivity - Flushed Zone    : 
TLFamily_RXOZ      .         Resistivity - Flushed Zone    : 
TLFamily_SDEVM     .         Sonde Deviation               : 
TLFamily_SP        .         Spontaneous Potential         : 
TLFamily_SW        .         Water Saturation              : 
TLFamily_THOR      .         Thorium Concentration         : 
TLFamily_TNPH      .                                       : 
TLFamily_URAN      .         Uranium Concentration         : 
TLFamily_VCLAV     .         Clay Volume Fraction          : 
~Curve Information
#_______________________________________________________________________________
#
#LOGNAME           .UNIT     LOG_ID                        : DESCRIPTION
#_______________________________________________________________________________
DEPTH              .M                                      : Depth 
AT10               .ohm.m                                  : MedRes     21 Array Induction Two Foot Resistivity A10 
AT20               .ohm.m                                  : MedRes     22 Array Induction Two Foot Resistivity A20 
AT30               .ohm.m                                  : MedRes     23 Array Induction Two Foot Resistivity A30 
AT60               .ohm.m                                  : DeepRes    24 Array Induction Two Foot Resistivity A60 
AT90               .ohm.m                                  : XDeepRes   25 Array Induction Two Foot Resistivity A90 
BSC                .mm                                     : 11 Nominal Caliper 
C1                 .mm                                     : 8 CALIPER DIAMETER 1 
C2                 .mm                                     : 9 CALIPER DIAMETER 2 
CALI               .mm                                     : Caliper    10 
CFTC               .1/s                                    : 28 Corrected Far Thermal Count Rate 
CNTC               .1/s                                    : Neutron    29 Corrected Near Thermal Count Rate 
DT                 .uSec/m                                 : Sonic      19 Sonic travel time 
GR                 .gAPI                                   : 30 Gamma Ray 
HAZIM              .deg                                    : Azimuth    2 Hole Azimuth 
HCGR               .gAPI                                   : HNGS Computed Gamma Ray 
HSGR               .gAPI                                   : HNGS Standard Gamma-Ray 
HTPR               .                                       : HNGS Thorium/Potassium Ratio 
HTUR               .                                       : HNGS Thorium/Uranium Ratio 
HUPR               .                                       : HNGS Uranium/Potassium Ratio 
MTEM_FILT          .degC                                   : 20 Filtered Mud Temperature 
PEFZ               .B/E                                    : PEF        4 Formation Photoelectric Factor 
Perm               .md                                     : Permeability 
PHIE               .Dec                                    : Effective porosity 
PHIT               .Dec                                    : Total porosity 
POTA               .%                                      : HNGS Formation Potassium Concentration 
PURA               .ppm                                    : Upper Limit of Formation Uranium Concentration 
RHOZ               .g/cm3                                  : Density    5 Bulk Density 
RLA1               .ohm.m                                  : ShalRes    12 HRLT Borehole Corrected Resistivity 1 
RLA2               .ohm.m                                  : MedRes     13 HRLT Borehole Corrected Resistivity 2 
RLA3               .ohm.m                                  : DeepRes    14 HRLT Borehole Corrected Resistivity 3 
RLA4               .ohm.m                                  : XDeepRes   15 HRLT Borehole Corrected Resisitivity 4 
RLA5               .ohm.m                                  : UltraDeepR 16 HRLT Borehole Corrected Resistivity 5 
RT                 .ohm.m                                  : 17 HRLT True Formation Resistivity 
RXO                .ohm.m                                  : MicroRes   18 HRLT Invaded Zone Resistivity 
RXOZ               .ohm.m                                  : MicroRes   6 Invaded Formation Resistivity filtered at 18 inches 
SDEVM              .deg                                    : 3 Sonde Deviation 
SP                 .mV                                     : SP         27 Spontaneous Potential 
SW                 .Dec                                    : Water saturation 
THOR               .ppm                                    : HNGS Formation Thorium Concentration 
TNPH               .v/v                                    : Neutron porosity 
URAN               .ppm                                    : HNGS Formation Uranium Concentration 
VCLAV              .Dec                                    : Clay volume
~Ascii
# ...
182.8      
  1.1537     1.546700000762939 1.8588     2.351799964904785 2.61269998550415 
  215.9      293.988    333.003    312.888    411.6445007324219 1388.2764  
  572.7216   73.5955    256.0039   52.1321    52.8652    2.302      
  9.4068     0.1361     24.7041    2.1961     30.93129920959473 0.2784     
  0.3289     2.045      0.6158     2.0174     2.6171     2.3889000415802 
  2.422399997711182 2.415899991989136 2.364799976348877 2.286600112915039 
  2.881700038909912 0.7577000260353088 0.7072     32.5271    1          
  4.7034     0.3772     0.2783     0.3363    
182.9      
  1.1681     1.575899958610535 1.8992     2.386199951171875 2.624799966812134 
  215.9      292.92     320.615    306.455    407.7795104980469 1410.594   
  568.4736   74.7307    255.8146   53.1293    54.1906    2.2298     
  9.375      0.1361     24.7096    2.1504     34.25590133666992 0.285      
  0.3368     2.1022     0.6313     2.0057     2.4898     2.269700050354004 
  2.310199975967407 2.309400081634521 2.263499975204468 2.199899911880493 
  2.705699920654297 0.8095999956130981 0.7078     32.7181    1          
  4.6875     0.3947     0.2862     0.3453    
183        
  1.1853     1.606099963188171 1.9194     2.363699913024902 2.546999931335449 
  215.9      289.708    312.656    300.963    412.4266967773438 1414.319   
  573.6268   74.46      255.9373   56.6186    58.2089    2.0996     
  9.5612     0.1348     24.7096    2.0929     38.69800186157227 0.293      
  0.3445     2.2769     0.6804     1.9897     2.4959     2.281199932098389 
  2.322499990463257 2.324899911880493 2.272300004959106 2.212199926376343 
  2.723200082778931 0.829800009727478 0.7078     32.7321    1          
  4.7806     0.3911     0.307      0.3431    
183.1      
  1.2006     1.632300019264221 1.9611     2.398699998855591 2.572000026702881 
  215.9      284.812    313.385    298.757    413.1346130371094 1415.8354  
  542.6733   75.1952    256.1062   56.9786    58.5777    2.0823     
  9.563      0.1198     24.7148    2.0325     38.38320159912109 0.2924     
  0.345      2.2965     0.6551     1.9759     2.4875     2.299299955368042 
  2.351599931716919 2.354399919509888 2.301199913024902 2.277499914169312 
  2.618900060653687 0.8076000213623047 0.7073     32.7525    1          
  4.7815     0.3942     0.2747     0.3501    
183.2      
  1.2199     1.689200043678284 1.9736     2.4653000831604 2.518199920654297 
  215.9      279.978    319.592    299.13     410.5697021484375 1417.6987  
  502.0805   75.6751    256.334    57.3385    58.9464    2.065      
  9.5647     0.1047     24.7213    1.9812     36.33150100708008 0.2888     
  0.3425     2.316      0.6299     1.9696     2.4169     2.270699977874756 
  2.335799932479858 2.349999904632568 2.296999931335449 2.311100006103516 
  2.404400110244751 0.8015999794006348 0.7067     32.7563    1          
  4.7824     0.4025     0.2425     0.3582    
183.3      
  1.2379     1.702200055122375 1.9964     2.556099891662598 2.507299900054932 
  215.9      279.984    333.683    305.656    399.964599609375 1427.4164  
  503.1508   72.0257    256.7718   56.4172    57.9094    1.931      
  8.952      0.0964     24.7213    1.9479     45.63309860229492 0.3042     
  0.3528     2.318      0.6075     1.9688     2.3485     2.248600006103516 
  2.330899953842163 2.350699901580811 2.297399997711182 2.314100027084351 
  2.296200037002563 0.8148000240325928 0.7076     32.6485    1          
  4.476      0.422      0.2236     0.3241    
183.4      
  1.2553     1.699599981307983 1.9742     2.515799999237061 2.430599927902222 
  215.9      284.353    338.162    310.093    401.8485107421875 1435.0815  
  501.0818   70.8446    257.233    56.487     57.4313    1.9042     
  8.8688     0.0677     24.7272    1.9485     48.4010009765625 0.3083     
  0.3555     2.3289     0.5369     1.9646     2.3693     2.274100065231323 
  2.367399930953979 2.385299921035767 2.320499897003174 2.329200029373169 
  2.497400045394897 0.848800003528595 0.7068     32.4394    1          
  4.4344     0.4192     0.1574     0.3149    
183.5      
  1.2738     1.697800040245056 1.9546     2.404299974441528 2.333199977874756 
  215.9      290.573    337.464    313.142    408.6351013183594 1440.1842  
  497.3727   70.6575    257.7162   56.5567    56.9533    1.8774     
  8.7856     0.039      24.7357    1.9639     48.84830093383789 0.3089     
  0.3559     2.3398     0.4663     1.9495     2.582      2.362799882888794 
  2.411999940872192 2.4274001121521 2.347500085830688 2.275099992752075 
  2.890799999237061 0.8309999704360962 0.705      32.1685    1          
  4.3928     0.4076     0.0912     0.3135    
183.6      
  1.2919     1.690199971199036 1.9607     2.336600065231323 2.320899963378906 
  215.9      290.385    340.981    314.668    393.5322875976563 1433.0763  
  495.496    66.371     258.2737   55.8567    55.7297    1.9715     
  9.0021     -0.0103    24.7357    1.9954     59.75790023803711 0.3234     
  0.3656     2.2831     0.3443     1.9346     2.664      2.38860011100769 
  2.407599925994873 2.417500019073486 2.333800077438354 2.190299987792969 
  3.017699956893921 0.7766000032424927 0.7019     31.8772    1          
  4.501      0.4347     -0.0234    0.2813    
183.7      
  1.3089     1.682700037956238 1.9429     2.280999898910522 2.210599899291992 
  215.9      289.273    336.326    311.914    389.1081848144531 1434.5994  
  493.4673   63.7866    258.7604   53.9335    54.733     1.9625     
  8.6635     0.0258     24.7418    2.0299     66.93840026855469 0.3318     
  0.3712     2.2069     0.4151     1.9363     2.6143     2.345099925994873 
  2.35260009765625 2.359699964523315 2.271699905395508 2.108099937438965 
  2.993000030517578 0.7376000285148621 0.6991     31.5043    1          
  4.3318     0.445      0.0543     0.2626    
183.8      
  1.3244     1.679999947547913 1.9328     2.294100046157837 2.193700075149536 
  215.9      287.225    326.211    306.098    391.2344970703125 1441.6871  
  491.3582   62.4031    259.2071   52.0102    53.7363    1.9535     
  8.325      0.062      24.7517    2.0535     70.96379852294922 0.3363     
  0.3742     2.1308     0.486      1.9452     2.5271     2.290600061416626 
  2.304800033569336 2.307699918746948 2.222300052642822 2.082600116729736 
  2.934799909591675 0.7315000295639038 0.6967     31.072     1          
  4.1625     0.4455     0.132      0.2527    
183.9      
  1.3307     1.661200046539307 1.9303     2.308000087738037 2.262200117111206 
  215.9      281.002    323.252    301.388    374.8366088867188 1438.038   
  489.7131   60.5234    259.8341   46.5173    49.4893    1.7754     
  6.9247     0.1401     24.7517    2.0666     76.63030242919922 0.3422     
  0.3781     1.9502     0.602      1.9592     2.5227     2.30620002746582 
  2.328999996185303 2.335299968719482 2.247499942779541 2.136800050735474 
  2.9274001121521 0.7300000190734863 0.6967     30.6316    1          
  3.4623     0.4839     0.2733     0.2395    
184        
  1.3242     1.666499972343445 1.929      2.305599927902222 2.261399984359741 
  215.9      277.689    320.51     298.332    371.4400939941406 1426.7338  
  488.7294   60.7043    260.2564   45.669     48.3303    1.7592     
  6.7516     0.1349     24.7576    2.06       76.07530212402344 0.3416     
  0.3778     1.9187     0.5851     1.9796     2.5623     2.342999935150146 
  2.374200105667114 2.375099897384644 2.29010009765625 2.193700075149536 
  2.931299924850464 0.7735999822616577 0.6956     30.2539    1          
  3.3758     0.4855     0.2591     0.2408    
184.1      
  1.3216     1.672600030899048 1.9502     2.312299966812134 2.294500112533569 
  215.9      276.979    318.035    296.798    379.3533020019531 1408.6434  
  488.3171   62.7139    260.4992   44.8206    47.1712    1.743      
  6.5785     0.1297     24.7687    2.0098     70.04869842529297 0.3353     
  0.3735     1.8871     0.5681     1.9915     2.4978     2.353899955749512 
  2.413899898529053 2.414000034332275 2.330600023269653 2.326800107955933 
  2.701200008392334 0.7809000015258789 0.6935     29.9297    1          
  3.2893     0.4551     0.2448     0.2549    
