~Version
 VERS              .         2.0                           : CWLS LOG ASCII STANDARD - VERSION 2.0
 WRAP              .         YES                            : ONE LINE PER DEPTH STEP
 DLM               .         SPACE                         : DELIMITING CHARACTER(SPACE TAB OR COMMA)
~Well Information
#_______________________________________________________________________________
#
#PARAMETER_NAME    .UNIT     VALUE                         : DESCRIPTION
#_______________________________________________________________________________
STRT               .M        0                             : First reference value
STOP               .M        740                           : Last reference value
STEP               .M        0.1                           : Step increment
NULL               .         -999.25                       : Missing value
COMP               .         COMPANY                       : Company
WELL               .         348                           : Well name
FLD                .         Karatube                      : Field
LOC                .         Atyrau                        : Location
CNTY               .                                       : County
STAT               .                                       : State
CTRY               .                                       : Country
SRVC               .         SCH                           : Service Company
DATE               .         09.09.2024                    : Date
API                .                                       : API number
APDAT              .         136.988                       : Elevation Above Permanent Datum
BHS                .         OPEN                          : Completion Status
COUNT              .         Kazakhstan                    : Country
DF                 .         136.988                       : DF Elevation
DRMEA              .         DF                            : Drill Measured From
EPDAT              .         0                             : Elevation of Permanent Datum
GL                 .         131.788                       : GL Elevation
KB                 .         0                             : KB Elevation
LGMEA              .         DF                            : Log Measured from
LATI               .         47.93162                      : Latitude/Northing
LONG               .         56.55725                      : Longitude/Easting
ORIGINALWELLNAME   .         348                           : 
PDAT               .         MSL                           : Permanent Datum
RWS                .         -999                          : Def_Rw
STATE              .         1_500 / 1_200                 : State
WST                .         -999                          : Def_Rwt
~Parameter Information Block
#_______________________________________________________________________________
#
#PARAMETER_NAME    .UNIT     VALUE                         : DESCRIPTION
#_______________________________________________________________________________
SET                .         model                         : 
TLFamily_AT10      .         Resistivity - Medium          : 
TLFamily_AT20      .         Resistivity (Array)           : 
TLFamily_AT30      .         Resistivity (Array)           : 
TLFamily_AT60      .         Resistivity (Array)           : 
TLFamily_AT90      .         Resistivity - Deep            : 
TLFamily_BSC       .         Bit Size                      : 
TLFamily_C1        .         Caliper 1                     : 
TLFamily_C2        .         Caliper 2                     : 
TLFamily_CALI      .         Caliper                       : 
TLFamily_CFTC      .         Neutron Far                   : 
TLFamily_CNTC      .         Neutron Near                  : 
TLFamily_DEPTH     .         Measured Depth                : 
TLFamily_DT        .         Compressional Slowness        : 
TLFamily_GR        .         Gamma Ray                     : 
TLFamily_HAZIM     .         Hole Azimuth                  : 
TLFamily_HCGR      .         Gamma Ray                     : 
TLFamily_HSGR      .         Gamma Ray                     : 
TLFamily_HTPR      .                                       : 
TLFamily_HTUR      .                                       : 
TLFamily_HUPR      .                                       : 
TLFamily_MTEM_FILT .         Temperature                   : 
TLFamily_PEFZ      .         Photoelectric Factor          : 
TLFamily_PHIE      .         Effective Porosity            : 
TLFamily_PHIT      .         Total Porosity                : 
TLFamily_POTA      .         Potassium Concentration       : 
TLFamily_PURA      .         Uranium Concentration         : 
TLFamily_Perm      .         Permeability                  : 
TLFamily_RHOZ      .         Bulk Density                  : 
TLFamily_RLA1      .         Resistivity (Array)           : 
TLFamily_RLA2      .         Resistivity (Array)           : 
TLFamily_RLA3      .         Resistivity (Array)           : 
TLFamily_RLA4      .         Resistivity (Array)           : 
TLFamily_RLA5      .         Resistivity (Array)           : 
TLFamily_RT        .         Resistivity - True Formation  : 
TLFamily_RXO       .         Resistivity - Flushed Zone    : 
TLFamily_RXOZ      .         Resistivity - Flushed Zone    : 
TLFamily_SDEVM     .         Sonde Deviation               : 
TLFamily_SP        .         Spontaneous Potential         : 
TLFamily_SW        .         Water Saturation              : 
TLFamily_THOR      .         Thorium Concentration         : 
TLFamily_TNPH      .                                       : 
TLFamily_URAN      .         Uranium Concentration         : 
TLFamily_VCLAV     .         Clay Volume Fraction          : 
~Curve Information
#_______________________________________________________________________________
#
#LOGNAME           .UNIT     LOG_ID                        : DESCRIPTION
#_______________________________________________________________________________
DEPTH              .M                                      : Depth 
AT10               .ohm.m                                  : MedRes     21 Array Induction Two Foot Resistivity A10 
AT20               .ohm.m                                  : MedRes     22 Array Induction Two Foot Resistivity A20 
AT30               .ohm.m                                  : MedRes     23 Array Induction Two Foot Resistivity A30 
AT60               .ohm.m                                  : DeepRes    24 Array Induction Two Foot Resistivity A60 
AT90               .ohm.m                                  : XDeepRes   25 Array Induction Two Foot Resistivity A90 
BSC                .mm                                     : 11 Nominal Caliper 
C1                 .mm                                     : 8 CALIPER DIAMETER 1 
C2                 .mm                                     : 9 CALIPER DIAMETER 2 
CALI               .mm                                     : Caliper    10 
CFTC               .1/s                                    : 28 Corrected Far Thermal Count Rate 
CNTC               .1/s                                    : Neutron    29 Corrected Near Thermal Count Rate 
DT                 .uSec/m                                 : Sonic      19 Sonic travel time 
GR                 .gAPI                                   : 30 Gamma Ray 
HAZIM              .deg                                    : Azimuth    2 Hole Azimuth 
HCGR               .gAPI                                   : HNGS Computed Gamma Ray 
HSGR               .gAPI                                   : HNGS Standard Gamma-Ray 
HTPR               .                                       : HNGS Thorium/Potassium Ratio 
HTUR               .                                       : HNGS Thorium/Uranium Ratio 
HUPR               .                                       : HNGS Uranium/Potassium Ratio 
MTEM_FILT          .degC                                   : 20 Filtered Mud Temperature 
PEFZ               .B/E                                    : PEF        4 Formation Photoelectric Factor 
Perm               .md                                     : Permeability 
PHIE               .Dec                                    : Effective porosity 
PHIT               .Dec                                    : Total porosity 
POTA               .%                                      : HNGS Formation Potassium Concentration 
PURA               .ppm                                    : Upper Limit of Formation Uranium Concentration 
RHOZ               .g/cm3                                  : Density    5 Bulk Density 
RLA1               .ohm.m                                  : ShalRes    12 HRLT Borehole Corrected Resistivity 1 
RLA2               .ohm.m                                  : MedRes     13 HRLT Borehole Corrected Resistivity 2 
RLA3               .ohm.m                                  : DeepRes    14 HRLT Borehole Corrected Resistivity 3 
RLA4               .ohm.m                                  : XDeepRes   15 HRLT Borehole Corrected Resisitivity 4 
RLA5               .ohm.m                                  : UltraDeepR 16 HRLT Borehole Corrected Resistivity 5 
RT                 .ohm.m                                  : 17 HRLT True Formation Resistivity 
RXO                .ohm.m                                  : MicroRes   18 HRLT Invaded Zone Resistivity 
RXOZ               .ohm.m                                  : MicroRes   6 Invaded Formation Resistivity filtered at 18 inches 
SDEVM              .deg                                    : 3 Sonde Deviation 
SP                 .mV                                     : SP         27 Spontaneous Potential 
SW                 .Dec                                    : Water saturation 
THOR               .ppm                                    : HNGS Formation Thorium Concentration 
TNPH               .v/v                                    : Neutron porosity 
URAN               .ppm                                    : HNGS Formation Uranium Concentration 
VCLAV              .Dec                                    : Clay volume
~Ascii
# ...
219.4      
  2.1272     2.839699983596802 3.3016     4.118400096893311 4.315000057220459 
  215.9      213.866    212.807    213.336    464.2974   1616.423   
  463.4548   77.9558    296.2188   59.473     70.0334    4.1382     
  7.0222     0.5903     25.4671    2.7597     0          0.0018     
  0.1132     1.9043     1.4889     2.0888     4.215      4.327700138092041 
  4.469299793243408 4.441400051116943 4.323699951171875 4.379499912261963 
  3.989200115203857 1.066900014877319 0.5436     30.8232    1          
  7.8747     0.4354     1.1227     0.7425    
219.5      
  2.1658     2.753200054168701 3.3022     4.11299991607666 4.234099864959717 
  215.9      214.6      212.635    213.615    458.4292   1607.2804  
  463.9127   79.0573    296.0922   59.6218    69.9511    3.9793     
  7.1997     0.5527     25.469     2.6057     0          0.0014     
  0.1145     1.9393     1.4392     2.0825     4.0207     4.138700008392334 
  4.274400234222412 4.247099876403809 4.13640022277832 4.210599899291992 
  3.564899921417236 0.9678000211715698 0.544      30.408     1          
  7.7172     0.4411     1.0719     0.7538    
219.6      
  2.1107     2.721699953079224 3.1572     3.916300058364868 3.903300046920776 
  215.9      212.9      212.206    212.553    449.1284   1601.5837  
  458.7231   82.7651    295.9379   62.8655    74.1133    3.9547     
  7.002      0.5648     25.4733    2.5404     0          0.0005     
  0.1193     2.05       1.5455     2.0793     3.5001     3.697499990463257 
  3.797800064086914 3.776299953460693 3.69160008430481 3.825400114059448 
  2.880800008773804 0.9434000253677368 0.5446     29.906     1          
  8.107      0.4544     1.1578     0.7919    
219.7      
  2.0668     2.557800054550171 2.9234     3.671099901199341 3.511100053787231 
  215.9      211.551    211.157    211.354    437.7612   1586.6075  
  459.586    86.1502    295.7595   66.8756    77.3467    3.977      
  8.2571     0.4926     25.477     2.5555     0          0.0002     
  0.1242     2.1755     1.4665     2.0706     3.2063     3.45199990272522 
  3.481499910354614 3.466599941253662 3.375900030136108 3.498500108718872 
  2.742199897766113 0.9157999753952026 0.5447     28.7428    1          
  8.6547     0.4674     1.0626     0.8267    
219.8      
  2.0541     2.490099906921387 2.7758     3.38919997215271 3.230600118637085 
  215.9      210.819    210.485    210.652    433.3141   1576.9785  
  461.4349   90.3594    295.5776   70.8857    80.5802    3.9993     
  9.5121     0.4204     25.4792    2.5944     0          0.0001000  
  0.1306     2.301      1.3875     2.0614     3.4874     3.819600105285645 
  3.849299907684326 3.837399959564209 3.738600015640259 3.949300050735474 
  2.786099910736084 0.9742000102996826 0.5449     27.7258    1          
  9.2024     0.4706     0.9674     0.87      
219.9      
  2.2527     2.714600086212158 3.0545     3.589900016784668 3.726399898529053 
  215.9      211.007    210.485    210.746    439.9717   1576.9745  
  464.0027   95.9013    295.3938   69.1916    82.8674    3.8787     
  5.7154     0.6786     25.4792    2.6456     0          0.0001000  
  0.1392     2.2738     1.9721     2.0594     4.3677     4.87909984588623 
  4.950399875640869 4.93720006942749 4.809100151062012 5.236199855804443 
  3.170700073242188 1.144299983978271 0.5451     27.0272    1          
  8.8194     0.4587     1.5431     0.927     
220        
  2.41       3.164000034332275 3.676      4.061100006103516 4.166999816894531 
  215.9      211.855    211.449    211.652    435.0103   1562.1305  
  467.1799   99.1585    295.2155   67.2252    81.2735    3.9167     
  5.22       0.7578     25.4809    2.7212     0          0.0001000  
  0.1442     2.2009     2.0852     2.0673     4.6628     5.039899826049805 
  5.151100158691406 5.119699954986572 4.982699871063232 5.25600004196167 
  3.685499906539917 1.386700034141541 0.5455     26.9363    1          
  8.6175     0.46       1.6621     0.9605    
220.1      
  2.617      3.52649998664856 4.2257     4.695700168609619 5.328400135040283 
  215.9      212.414    212.033    212.223    438.4943   1545.1512  
  469.6408   101.05     295.0239   65.2588    79.6797    3.9548     
  4.7247     0.8371     25.4822    2.7753     0          0.0001000  
  0.1471     2.1279     2.1983     2.0773     4.064      4.274400234222412 
  4.388000011444092 4.352399826049805 4.237599849700928 4.350599765777588 
  3.565799951553345 1.61080002784729 0.546      26.9363    1          
  8.4155     0.4472     1.7812     0.9799    
220.2      
  2.6293     3.503499984741211 4.0742     4.788000106811523 5.721700191497803 
  215.9      212.221    211.597    211.909    461.7426   1528.3315  
  470.5344   100.9534   294.8047   61.2853    75.4602    3.9595     
  4.5425     0.8717     25.4822    2.7897     0          0.0001000  
  0.1469     1.9974     2.1267     2.0793     3.7479     3.891900062561035 
  4.017799854278564 3.983400106430054 3.88700008392334 3.960400104522705 
  3.373399972915649 1.66100001335144 0.5469     26.9363    1          
  7.9086     0.4031     1.741      0.979     
220.3      
  2.2832     3.098099946975708 3.4571     4.156899929046631 4.437600135803223 
  215.9      211.879    211.166    211.522    475.9378   1511.5085  
  468.8595   98.6087    294.5709   59.3207    73.5912    3.7175     
  4.1899     0.8887     25.484     2.7674     0          0.0001000  
  0.1433     1.9818     2.1365     2.0706     3.5512     3.664000034332275 
  3.787600040435791 3.76449990272522 3.678100109100342 3.733000040054321 
  3.244100093841553 1.297299981117249 0.5479     26.9392    1          
  7.3713     0.3762     1.761      0.9548    
220.4      
  2.1578     2.720200061798096 2.9925     3.571599960327148 3.913800001144409 
  215.9      211.557    210.79     211.173    484.0641   1502.8818  
  466.2854   94.6077    294.335    57.3561    71.7221    3.4756     
  3.8373     0.9057     25.4855    2.7227     0          0.0001000  
  0.1372     1.9663     2.1464     2.0561     3.3318     3.398400068283081 
  3.489000082015991 3.479599952697754 3.399699926376343 3.428600072860718 
  3.26200008392334 1.040799975395203 0.5489     26.9417    1          
  6.8341     0.3618     1.781      0.9137    
220.5      
  2.024      2.475300073623657 2.6675     3.200700044631958 3.366199970245361 
  215.9      211.362    210.542    210.952    482.6664   1513.3812  
  462.9291   87.8933    294.1018   60.1703    73.8939    3.5386     
  4.3942     0.8053     25.4855    2.6677     0          0.0001000  
  0.1268     2.0489     2.0235     2.0467     3.2643     3.298099994659424 
  3.374000072479248 3.374200105667114 3.289299964904785 3.318700075149536 
  3.341200113296509 0.917900025844574 0.5498     26.9417    1          
  7.2504     0.3677     1.65       0.8447    
220.6      
  2.0032     2.519999980926514 2.6912     3.174700021743774 3.104300022125244 
  215.9      211.469    210.346    210.906    491.0605   1508.4218  
  462.5117   87.0477    293.8384   63.1325    76.877     3.6578     
  4.7535     0.772      25.4858    2.6269     0          0.0002     
  0.1256     2.1219     2.0248     2.0483     3.5153     3.574700117111206 
  3.652699947357178 3.662400007247925 3.562999963760376 3.591000080108643 
  3.633699893951416 0.9289000034332275 0.5506     26.7845    1          
  7.7703     0.3555     1.6357     0.836     
220.7      
  2.2084     2.798099994659424 3.0813     3.565000057220459 3.396300077438354 
  215.9      211.568    210.209    210.888    492.6153   1502.8014  
  463.7812   87.7474    293.5797   66.0946    79.86      3.7769     
  5.1128     0.7387     25.4861    2.6111     0          0.0001000  
  0.1266     2.195      2.0262     2.0634     4.2343     4.359700202941895 
  4.444600105285645 4.463500022888184 4.326900005340576 4.371900081634521 
  4.237400054931641 1.067199945449829 0.5516     26.4284    1          
  8.2902     0.352      1.6214     0.8432    
220.8      
  2.4398     3.238699913024902 3.7319     4.230500221252441 4.057799816131592 
  215.9      211.379    210.203    210.79     464.8771   1509.0511  
  467.478    87.8241    293.3625   70.6084    84.386     3.8344     
  5.3582     0.7156     25.4861    2.629      0          0.0001000  
  0.1267     2.3309     2.0965     2.083      4.7258     4.904799938201904 
  4.960999965667725 4.97599983215332 4.816199779510498 4.883999824523926 
  4.683800220489502 1.328999996185303 0.5531     25.6163    1          
  8.9377     0.3909     1.6681     0.8439    
