~Version
 VERS              .         3.0                           : CWLS LOG ASCII STANDARD - VERSION 3.0
 WRAP              .         NO                            : ONE LINE PER DEPTH STEP
 DLM               .         SPACE                         : DELIMITING CHARACTER(SPACE TAB OR COMMA)
~Well Information
#_______________________________________________________________________________
#
#PARAMETER_NAME    .UNIT     VALUE                         : DESCRIPTION
#_______________________________________________________________________________
STRT               .M        13                            : First reference value
STOP               .M        939                           : Last reference value
STEP               .M        0.1                           : Step increment
NULL               .         -9999                         : Missing value
COMP               .         ICPetroleum                   : Company
WELL               .         314                           : Well name
FLD                .         Karatobe                      : Field
LOC                .                                       : Location
SRVC               .         ТОО ГК ГИС Сервис             : Service Company
CTRY               .         KZ                            : Country
DATE               .         20.01.2022                    : Service Date
LATI               .         0                             : Latitude
LONG               .         0                             : Longitude
GDAT               .         WGS 84                        : Geodetic Datum
COORDIN            .                                       : Grid System
COUNTRY            .         Kazakhstan                    : 
COUNTRY            .         Kazakhstan                    : 
EREF               .m        142.1                         : 
KB                 .         141.2                         : KB Elevation
ORIGINALWELLNAME   .         314                           : 
PROV               .                                       : Province
RWS                .         -999                          : Def_Rw
UWI                .                                       : Уникальный идентификатор скважины
WST                .         -999                          : Def_Rwt
X                  .km       466035.84                     : 
XCOORD             .                                       : X or East-West Coordinate
Y                  .km       5307724.98                    : 
YCOORD             .                                       : Y or North-South Coordinate
~Parameter Information Block
#_______________________________________________________________________________
#
#PARAMETER_NAME    .UNIT     VALUE                         : DESCRIPTION
#_______________________________________________________________________________
SET                .         Las                           : 
BS                 .MM       215.90                        : Bit Size
DFD                .G/C3     1.14                          : Drilling Fluid Density
DFV                .S        39.00                         : Drilling Fluid Viscosity
RMS                .OHMM     .00                           : Mud Sample Resistivity
TLFamily_DEPT      .         Measured Depth                : 
TLFamily_PHI_FINAL .         Porosity                      : 
TLFamily_SW_AR     .         Water Saturation              : 
TLFamily_VSH_FINAL .         Shale Volume                  : 
~Curve Information
#_______________________________________________________________________________
#
#LOGNAME           .UNIT     LOG_ID                        : DESCRIPTION
#_______________________________________________________________________________
DEPT               .M                                      : Depth curve {F}
PHI_FINAL          .m3/m3                                  : Porosity {F}
SW_AR              .m3/m3                                  :  {F}
VSH_FINAL          .unitless                               : Vshale {F}
~Ascii
# ...
920.5      0.03608811 1          0.08958751
920.6      0.03831806 1          0.08349023
920.7      0.04156682 1          0.0752963 
920.8      0.03894699 1          0.07669109
920.9      0.03888474 1          0.07240082
921        0.03547499 1          0.0756597 
921.1      0.03877768 1          0.06976482
921.2      0.04500632 1          0.061258  
921.3      0.0502443  1          0.05799891
921.4      0.05368683 1          0.0581728 
921.5      0.06042968 1          0.04906243
921.6      0.06870073 1          0.03169411
921.7      0.06929003 1          0.02399745
921.8      0.05834523 1          0.03560499
921.9      0.04728782 1          0.04652304
922        0.04254896 1          0.04764955
922.1      0.03874853 1          0.05144795
922.2      0.03902248 1          0.05276068
922.3      0.04362827 1          0.0494023 
922.4      0.05139752 1          0.04099615
922.5      0.05253245 1          0.04388897
922.6      0.0554806  1          0.03983425
922.7      0.05635253 1          0.03878614
922.8      0.05571488 1          0.04022115
922.9      0.05339837 1          0.04556817
923        0.05129615 1          0.0497992 
923.1      0.04461226 1          0.06348512
923.2      0.04591247 1          0.05985792
923.3      0.04792504 1          0.05321832
923.4      0.04056518 1          0.06407329
923.5      0.03926139 1          0.06283913
923.6      0.0399301  1          0.0594505 
923.7      0.04387164 1          0.05236066
923.8      0.04902169 1          0.04579262
923.9      0.04672475 1          0.05603343
924        0.04791712 1          0.0589273 
924.1      0.05033362 1          0.05915974
924.2      0.04582603 1          0.07300232
924.3      0.04007195 1          0.08733732
924.4      0.04076188 1          0.08503719
924.5      0.03898967 1          0.08466541
924.6      0.03754083 1          0.08349023
924.7      0.04426467 1          0.06578402
924.8      0.04970353 1          0.05241779
924.9      0.06219712 1          0.02670444
925        0.06642646 0.9470311  0.01984476
925.1      0.07268753 0.8596741  0.008080462
925.2      0.07522537 0.8237931  0.002471633
925.3      0.07525693 0.7995197  0.00391492
925.4      0.07808215 0.7642964  0.002670328
925.5      0.08180825 0.7272863  0         
925.6      0.08269536 0.701735   0         
925.7      0.08303699 0.6984496  0         
925.8      0.0828578  0.7021549  0.004164403
925.9      0.08268744 0.7162859  0.00980179
926        0.08500313 0.6855767  0.006920976
926.1      0.0808381  0.731145   0.01081843
926.2      0.07532104 0.7875627  0.01321951
926.3      0.07273914 0.8124509  0.0102589 
926.4      0.0673852  0.8757281  0.01553427
926.5      0.06686414 0.8791751  0.0137839 
926.6      0.06816401 0.8640808  0.00980179
926.7      0.0689972  0.8538855  0.007979475
926.8      0.07379091 0.8049335  0.0007380332
926.9      0.07614388 0.7778646  0         
927        0.07748055 0.7650071  0         
927.1      0.07517796 0.7872656  0.002421969
927.2      0.07215714 0.8208248  0.0008862669
927.3      0.06463478 0.9501993  0.006166941
927.4      0.06141147 1          0.003565972
927.5      0.05895975 1          0.003117853
927.6      0.05327601 1          0.01250253
927.7      0.05525201 1          0.009751031
927.8      0.05657677 1          0.01010646
927.9      0.05765538 1          0.01204241
928        0.05783999 1          0.0146065 
928.1      0.05553856 1          0.02042005
928.2      0.05293087 1          0.0244207 
928.3      0.04379245 1          0.04055309
928.4      0.03811809 1          0.04855318
928.5      0.03546027 1          0.05065111
928.6      0.0277176  1          0.06460343
928.7      0.02883007 1          0.06348512
928.8      0.01985082 1          0.08485124
928.9      0.01406976 1          0.1021176 
929        0.01227955 1          0.1129661 
929.1      0.01429776 1          0.1164201 
929.2      0.01589739 1          0.1150884 
929.3      0.01239581 1          0.1207755 
929.4      0.008884637 1          0.1252414 
929.5      0.007598284 1          0.1283801 
929.6      0          1          0.1455365 
929.7      0.002989084 1          0.136113  
929.8      0.008511989 1          0.1250374 
929.9      0.005867544 1          0.1321614 
930        0.004568103 1          0.1343063 
930.1      0.002764913 1          0.139467  
930.2      0.003268777 1          0.1406606 
930.3      0.003835909 1          0.1395371 
930.4      0.00250516 1          0.1400985 
930.5      0.001595825 1          0.14052   
930.6      0.003827868 1          0.1357651 
930.7      0.00324387 1          0.1359738 
930.8      0.006076334 1          0.1282432 
930.9      0.006026569 1          0.1268081 
931        0.003632489 1          0.1325066 
931.1      0.001654736 1          0.1343757 
931.2      0          1          0.1431276 
931.3      0.00275873 1          0.131127  
931.4      0.00130188 1          0.1352783 
931.5      0          1          0.1431983 
931.6      0.002230355 1          0.136113  
931.7      0.006565899 1          0.1272859 
931.8      0.006876756 1          0.1267398 
931.9      0.001548073 1          0.1377171 
932        0.0003607934 1          0.1368795 
932.1      0          1          0.1389764 
932.2      0.001119057 1          0.1287911 
932.3      0.003512315 1          0.1228    
932.4      0.007059319 1          0.113562  
932.5      0.00236076 1          0.1240869 
932.6      0.002729819 1          0.1216517 
932.7      0          1          0.1354173 
932.8      0.0004164952 1          0.1274909 
932.9      0.001057806 1          0.12599   
933        0          1          0.1285856 
933.1      0.004425895 1          0.1174883 
933.2      0.005262305 1          0.1191624 
933.3      0.004269274 1          0.124019  
933.4      0.00941002 1          0.115421  
933.5      0.01250296 1          0.1105247 
933.6      0.005916   1          0.1251054 
933.7      0.01210025 1          0.1124371 
933.8      0.005972725 1          0.1250374 
933.9      0.003079094 1          0.1279695 
934        0.002590235 1          0.1281748 
934.1      0.0001817157 1          0.1314026 
934.2      0          1          0.1438348 
934.3      0          1          0.1590795 
934.4      0          1          0.1495309 
934.5      0          1          0.1426332 
934.6      0          1          0.1396774 
934.7      0          1          0.1415754 
934.8      0.001885487 1          0.1316094 
934.9      0.001825856 1          0.1328522 
935        0.002507351 1          0.1318163 
935.1      0          1          0.1439764 
935.2      0          1          0.1470305 
935.3      0          1          0.1415754 
935.4      0.004509862 1          0.1266716 
935.5      0          1          0.1568201 
935.6      0          1          0.1651068 
935.7      0          1          0.1567474 
935.8      0.002459626 1          0.1318853 
935.9      -9999      -9999      -9999     
936        -9999      -9999      -9999     
936.1      -9999      -9999      -9999     
936.2      -9999      -9999      -9999     
936.3      -9999      -9999      -9999     
936.4      -9999      -9999      -9999     
936.5      -9999      -9999      -9999     
936.6      -9999      -9999      -9999     
936.7      -9999      -9999      -9999     
936.8      -9999      -9999      -9999     
936.9      -9999      -9999      -9999     
937        -9999      -9999      -9999     
937.1      -9999      -9999      -9999     
937.2      -9999      -9999      -9999     
937.3      -9999      -9999      -9999     
937.4      -9999      -9999      -9999     
937.5      -9999      -9999      -9999     
937.6      -9999      -9999      -9999     
937.7      -9999      -9999      -9999     
937.8      -9999      -9999      -9999     
937.9      -9999      -9999      -9999     
938        -9999      -9999      -9999     
938.1      -9999      -9999      -9999     
938.2      -9999      -9999      -9999     
938.3      -9999      -9999      -9999     
938.4      -9999      -9999      -9999     
938.5      -9999      -9999      -9999     
