~Version
 VERS              .         3.0                           : CWLS LOG ASCII STANDARD - VERSION 3.0
 WRAP              .         NO                            : ONE LINE PER DEPTH STEP
 DLM               .         SPACE                         : DELIMITING CHARACTER(SPACE TAB OR COMMA)
~Well Information
#_______________________________________________________________________________
#
#PARAMETER_NAME    .UNIT     VALUE                         : DESCRIPTION
#_______________________________________________________________________________
STRT               .M        13                            : First reference value
STOP               .M        939                           : Last reference value
STEP               .M        0.1                           : Step increment
NULL               .         -9999                         : Missing value
COMP               .         ICPetroleum                   : Company
WELL               .         314                           : Well name
FLD                .         Karatobe                      : Field
LOC                .                                       : Location
SRVC               .         ТОО ГК ГИС Сервис             : Service Company
CTRY               .         KZ                            : Country
DATE               .         20.01.2022                    : Service Date
LATI               .         0                             : Latitude
LONG               .         0                             : Longitude
GDAT               .         WGS 84                        : Geodetic Datum
COORDIN            .                                       : Grid System
COUNTRY            .         Kazakhstan                    : 
COUNTRY            .         Kazakhstan                    : 
EREF               .m        142.1                         : 
KB                 .         141.2                         : KB Elevation
ORIGINALWELLNAME   .         314                           : 
PROV               .                                       : Province
RWS                .         -999                          : Def_Rw
UWI                .                                       : Уникальный идентификатор скважины
WST                .         -999                          : Def_Rwt
X                  .km       466035.84                     : 
XCOORD             .                                       : X or East-West Coordinate
Y                  .km       5307724.98                    : 
YCOORD             .                                       : Y or North-South Coordinate
~Parameter Information Block
#_______________________________________________________________________________
#
#PARAMETER_NAME    .UNIT     VALUE                         : DESCRIPTION
#_______________________________________________________________________________
SET                .         Las                           : 
BS                 .MM       215.90                        : Bit Size
DFD                .G/C3     1.14                          : Drilling Fluid Density
DFV                .S        39.00                         : Drilling Fluid Viscosity
RMS                .OHMM     .00                           : Mud Sample Resistivity
TLFamily_DEPT      .         Measured Depth                : 
TLFamily_PHI_FINAL .         Porosity                      : 
TLFamily_SW_AR     .         Water Saturation              : 
TLFamily_VSH_FINAL .         Shale Volume                  : 
~Curve Information
#_______________________________________________________________________________
#
#LOGNAME           .UNIT     LOG_ID                        : DESCRIPTION
#_______________________________________________________________________________
DEPT               .M                                      : Depth curve {F}
PHI_FINAL          .m3/m3                                  : Porosity {F}
SW_AR              .m3/m3                                  :  {F}
VSH_FINAL          .unitless                               : Vshale {F}
~Ascii
# ...
866.1      0          1          0.2637193 
866.2      0          1          0.2931594 
866.3      0          1          0.3133044 
866.4      0          1          0.30995   
866.5      0          1          0.3224981 
866.6      0          1          0.3298489 
866.7      0          1          0.3168696 
866.8      0          1          0.369325  
866.9      0          1          0.4366097 
867        0          1          0.4930999 
867.1      0          1          0.6301384 
867.2      0          1          0.7018137 
867.3      0          1          0.8287922 
867.4      0          1          0.9582453 
867.5      0          1          1         
867.6      0          1          0.7315164 
867.7      0          1          0.5669184 
867.8      0          1          0.3858117 
867.9      0          1          0.3089948 
868        0          1          0.3031991 
868.1      0          1          0.3534221 
868.2      0          1          0.4218672 
868.3      0          1          0.5923244 
868.4      0          1          0.8589491 
868.5      0          1          1         
868.6      0          1          1         
868.7      0          1          1         
868.8      0          1          0.3688029 
868.9      0          1          0.09896649
869        0          1          0.03538661
869.1      0          1          0.016827  
869.2      0          1          0.0115829 
869.3      0          1          0.007575845
869.4      0          1          0.004563946
869.5      0          1          0.003665632
869.6      0          1          0.002471633
869.7      0          1          0         
869.8      0          1          0         
869.9      0          1          0         
870        0          1          0         
870.1      0          1          0         
870.2      0          1          0         
870.3      0          1          0         
870.4      0          1          0         
870.5      0          1          0         
870.6      0          1          0         
870.7      0          1          0         
870.8      0          1          0         
870.9      0          1          0         
871        0          1          0         
871.1      0          1          0         
871.2      0          1          0         
871.3      0          1          0         
871.4      0          1          0         
871.5      0          1          0         
871.6      0          1          0         
871.7      0          1          0         
871.8      0          1          0         
871.9      0          1          0         
872        0          1          0         
872.1      0          1          0         
872.2      0          1          0         
872.3      0          1          0         
872.4      0          1          0         
872.5      0          1          0         
872.6      0          1          0         
872.7      0          1          0         
872.8      0          1          0         
872.9      0          1          0         
873        0          1          0         
873.1      0          1          0         
873.2      0          1          0         
873.3      0          1          0         
873.4      0          1          0         
873.5      0          1          0         
873.6      0          1          0         
873.7      0          1          0         
873.8      0          1          0         
873.9      0          1          0         
874        0          1          0         
874.1      0          1          0         
874.2      0          1          0         
874.3      0          1          0         
874.4      0          1          0         
874.5      0          1          0         
874.6      0          1          0.00571532
874.7      0          1          0.008636401
874.8      0          1          0.01434923
874.9      0          1          0.008333049
875        0          1          0         
875.1      0          1          0         
875.2      0          1          0         
875.3      0          1          0         
875.4      0          1          0         
875.5      0          1          0         
875.6      0          1          0         
875.7      0          1          0         
875.8      0          1          0         
875.9      0          1          0         
876        0          1          0         
876.1      0          1          0         
876.2      0          1          0         
876.3      0          1          0         
876.4      0          1          0         
876.5      0          1          0         
876.6      0          1          0         
876.7      0          1          0         
876.8      0          1          0         
876.9      0          1          0         
877        0          1          0         
877.1      0          1          0         
877.2      0          1          0         
877.3      0          1          0         
877.4      0          1          0         
877.5      0          1          0         
877.6      0          1          0         
877.7      0          1          0         
877.8      0          1          0.000491108
877.9      0          1          0.001578928
878        0          1          0.003715481
878.1      0          1          0.002521296
878.2      0          1          0.002968611
878.3      0          1          0         
878.4      0          1          0         
878.5      0          1          0         
878.6      0          1          0         
878.7      0          1          0         
878.8      0          1          0         
878.9      0          1          0         
879        0          1          0         
879.1      0          1          0         
879.2      0          1          0         
879.3      0          1          0         
879.4      0          1          0         
879.5      0          1          0         
879.6      0          1          0         
879.7      0          1          0         
879.8      0          1          0         
879.9      0          1          0         
880        0          1          0         
880.1      0          1          0         
880.2      0          1          0         
880.3      0          1          0         
880.4      0          1          0         
880.5      0          1          0         
880.6      0          1          0.001678003
880.7      0          1          0.002918882
880.8      0          1          0.002471633
880.9      0          1          0.005915963
881        0          1          0.007424606
881.1      0          1          0.00376533
881.2      0          1          0.004264242
881.3      0          1          0         
881.4      0          1          0         
881.5      0          1          0         
881.6      0          1          0         
881.7      0          1          0         
881.8      0          1          0         
881.9      0          1          0         
882        0          1          0         
882.1      0          1          0         
882.2      0          1          0         
882.3      0          1          0         
882.4      0          1          0         
882.5      0          1          0         
882.6      0          1          0         
882.7      0          1          0         
882.8      0          1          0         
882.9      0          1          0         
883        0          1          0         
883.1      0          1          0         
883.2      0          1          0         
883.3      0          1          0         
883.4      0          1          0         
883.5      0          1          0         
883.6      0          1          0         
883.7      0          1          0         
883.8      0          1          0.002024976
883.9      0          1          0.005314403
884        0          1          0.00536449
884.1      0          1          0.007172697
884.2      0          1          0.003217379
