~Version
 VERS              .         3.0                           : CWLS LOG ASCII STANDARD - VERSION 3.0
 WRAP              .         NO                            : ONE LINE PER DEPTH STEP
 DLM               .         SPACE                         : DELIMITING CHARACTER(SPACE TAB OR COMMA)
~Well Information
#_______________________________________________________________________________
#
#PARAMETER_NAME    .UNIT     VALUE                         : DESCRIPTION
#_______________________________________________________________________________
STRT               .M        13                            : First reference value
STOP               .M        939                           : Last reference value
STEP               .M        0.1                           : Step increment
NULL               .         -9999                         : Missing value
COMP               .         ICPetroleum                   : Company
WELL               .         314                           : Well name
FLD                .         Karatobe                      : Field
LOC                .                                       : Location
SRVC               .         ТОО ГК ГИС Сервис             : Service Company
CTRY               .         KZ                            : Country
DATE               .         20.01.2022                    : Service Date
LATI               .         0                             : Latitude
LONG               .         0                             : Longitude
GDAT               .         WGS 84                        : Geodetic Datum
COORDIN            .                                       : Grid System
COUNTRY            .         Kazakhstan                    : 
COUNTRY            .         Kazakhstan                    : 
EREF               .m        142.1                         : 
KB                 .         141.2                         : KB Elevation
ORIGINALWELLNAME   .         314                           : 
PROV               .                                       : Province
RWS                .         -999                          : Def_Rw
UWI                .                                       : Уникальный идентификатор скважины
WST                .         -999                          : Def_Rwt
X                  .km       466035.84                     : 
XCOORD             .                                       : X or East-West Coordinate
Y                  .km       5307724.98                    : 
YCOORD             .                                       : Y or North-South Coordinate
~Parameter Information Block
#_______________________________________________________________________________
#
#PARAMETER_NAME    .UNIT     VALUE                         : DESCRIPTION
#_______________________________________________________________________________
SET                .         Las                           : 
BS                 .MM       215.90                        : Bit Size
DFD                .G/C3     1.14                          : Drilling Fluid Density
DFV                .S        39.00                         : Drilling Fluid Viscosity
RMS                .OHMM     .00                           : Mud Sample Resistivity
TLFamily_DEPT      .         Measured Depth                : 
TLFamily_PHI_FINAL .         Porosity                      : 
TLFamily_SW_AR     .         Water Saturation              : 
TLFamily_VSH_FINAL .         Shale Volume                  : 
~Curve Information
#_______________________________________________________________________________
#
#LOGNAME           .UNIT     LOG_ID                        : DESCRIPTION
#_______________________________________________________________________________
DEPT               .M                                      : Depth curve {F}
PHI_FINAL          .m3/m3                                  : Porosity {F}
SW_AR              .m3/m3                                  :  {F}
VSH_FINAL          .unitless                               : Vshale {F}
~Ascii
# ...
247.3      0.1839779  1          0.6820149 
247.4      0.1492735  1          0.7166411 
247.5      0.117626   1          0.7659487 
247.6      0.1380214  1          0.710295  
247.7      0.1247096  1          0.7352399 
247.8      0.1156111  1          0.7664315 
247.9      0.1024881  1          0.7858431 
248        0.06559946 1          0.8642356 
248.1      0.05594224 1          0.9014444 
248.2      0.03007813 1          1         
248.3      0.0459634  1          1         
248.4      0.0498018  1          1         
248.5      0.05416621 1          1         
248.6      0.06053632 1          1         
248.7      0.0986428  1          0.9009966 
248.8      0.085204   1          0.9192618 
248.9      0.1007062  1          0.8525463 
249        0.06804859 1          0.9257191 
249.1      0.06668516 1          0.9171307 
249.2      0.09423932 1          0.8562568 
249.3      0.1264946  1          0.7640117 
249.4      0.119348   1          0.7661021 
249.5      0.1126851  1          0.7624067 
249.6      0.1444557  1          0.6753674 
249.7      0.1464404  1          0.6709296 
249.8      0.1492935  1          0.6622679 
249.9      0.1460035  1          0.667237  
250        0.07664809 1          0.8205667 
250.1      0.1033409  1          0.7138617 
250.2      0.09826875 1          0.6591972 
250.3      0.1067989  1          0.5873906 
250.4      0.09505424 1          0.5794475 
250.5      0.1149874  1          0.476341  
250.6      0.1109501  1          0.4324991 
250.7      0.1051991  1          0.4279501 
250.8      0.1237241  1          0.4171497 
250.9      0.1340969  1          0.4409292 
251        0.1642401  1          0.434343  
251.1      0.1674291  1          0.4973905 
251.2      0.1720822  1          0.5510744 
251.3      0.1914479  1          0.5635774 
251.4      0.1766584  1          0.6090696 
251.5      0.1335675  1          0.6980808 
251.6      0.1091905  1          0.728379  
251.7      0.08612856 1          0.7588909 
251.8      0.0692214  1          0.7600073 
251.9      0.06634053 1          0.7230299 
252        0.08457225 1          0.6328487 
252.1      0.100951   1          0.5634453 
252.2      0.09593195 1          0.5776799 
252.3      0.06742083 1          0.6951703 
252.4      0.06822849 1          0.7470309 
252.5      0.04863723 1          0.8686829 
252.6      0.04686932 1          0.9313121 
252.7      0.04415013 1          0.9725936 
252.8      0.07796287 1          0.8717195 
252.9      0.06491021 1          0.9071976 
253        0.07104775 1          0.8789486 
253.1      0.06397243 1          0.8875244 
253.2      0.02330091 1          0.9819182 
253.3      0.03967455 1          0.9105215 
253.4      0.06813818 1          0.8265647 
253.5      0.04087796 1          0.9056245 
253.6      0.05144415 1          0.892803  
253.7      0.09769851 1          0.8056495 
253.8      0.103748   1          0.8210589 
253.9      0.1126427  1          0.8294632 
254        0.1319658  1          0.8403831 
254.1      0.1157297  1          0.9699346 
254.2      0.1282628  1          1         
254.3      0.1414801  1          1         
254.4      0.1772638  1          0.9162095 
254.5      0.2101035  1          0.8492857 
254.6      0.2469437  1          0.7603278 
254.7      0.2820308  1          0.6538203 
254.8      0.3199604  0.9258236  0.5383271 
254.9      0.3133185  0.9407827  0.5111534 
255        0.2879834  1          0.539297  
255.1      0.3019286  0.9235479  0.5038306 
255.2      0.2979659  0.8931555  0.5099718 
255.3      0.294985   0.8855737  0.5186695 
255.4      0.309537   0.8600907  0.4854601 
255.5      0.3309878  0.8167555  0.4285664 
255.6      0.3346597  0.8036277  0.4144044 
255.7      0.3206865  0.8144738  0.4276435 
255.8      0.2675666  0.9579815  0.5415376 
255.9      0.2589477  0.9962652  0.5598419 
256        0.2601004  1          0.5592501 
256.1      0.2824915  0.9358241  0.4978364 
256.2      0.2306113  1          0.6101287 
256.3      0.2285045  1          0.6040233 
256.4      0.2166057  1          0.634352  
256.5      0.1875719  1          0.6939199 
256.6      0.1601266  1          0.7536772 
256.7      0.1482466  1          0.7788118 
256.8      0.1169142  1          0.8332595 
256.9      0.07891173 1          0.9285611 
257        0.04292794 1          1         
257.1      0.04110513 1          1         
257.2      0.06079037 1          0.9313796 
257.3      0.0298057  1          1         
257.4      0.03067406 1          1         
257.5      0.03673058 1          1         
257.6      0.04174066 1          1         
257.7      0.04150808 1          1         
257.8      0.04533629 1          1         
257.9      0.04531266 1          1         
258        0.1164232  1          0.8290545 
258.1      0.1428677  1          0.7582678 
258.2      0.1055473  1          0.8397526 
258.3      0.05472291 1          0.9487395 
258.4      0.08578805 1          0.8733428 
258.5      0.1486638  1          0.7183869 
258.6      0.119369   1          0.7916945 
258.7      0.1239499  1          0.7964795 
258.8      0.1461027  1          0.7744132 
258.9      0.1450101  1          0.8057911 
259        0.1661267  1          0.7753797 
259.1      0.1778578  1          0.74539   
259.2      0.1682606  1          0.792338  
259.3      0.2145669  1          0.6807327 
259.4      0.2120124  1          0.6883913 
259.5      0.180679   1          0.7460186 
259.6      0.108751   1          0.8950533 
259.7      0.1185939  1          0.8335993 
259.8      0.06209749 1          0.9371068 
259.9      0.05224166 1          0.9418979 
260        0.02445938 1          1         
260.1      0.02639268 1          0.980734  
260.2      0.03738267 1          0.9060762 
260.3      0.002254151 1          0.9895285 
260.4      0          1          0.9941538 
260.5      0          1          0.9746741 
260.6      0          1          1         
260.7      0          1          1         
260.8      0          1          1         
260.9      0          1          1         
261        0          1          1         
261.1      0.0000976  1          1         
261.2      0.002738198 1          0.9935789 
261.3      0.06379628 1          0.7839394 
261.4      0.09322242 1          0.7440196 
261.5      0.1134144  1          0.7482249 
261.6      0.1319534  1          0.7396857 
261.7      0.1460751  1          0.7239304 
261.8      0.1599421  1          0.7064016 
261.9      0.1698783  1          0.6852076 
262        0.1886064  1          0.6273741 
262.1      0.2110429  1          0.5655717 
262.2      0.2376213  1          0.5446293 
262.3      0.2742081  1          0.4774895 
262.4      0.2592189  1          0.5247244 
262.5      0.2705388  1          0.4928784 
262.6      0.2665235  1          0.4917089 
262.7      0.2846794  1          0.4542933 
262.8      0.2844519  1          0.4607007 
262.9      0.2902164  1          0.4341599 
263        0.278998   1          0.4362213 
263.1      0.2513392  1          0.4844078 
263.2      0.2469728  1          0.4877343 
263.3      0.219049   1          0.5570377 
263.4      0.1996399  1          0.6044483 
263.5      0.2088225  1          0.5905535 
263.6      0.2140249  1          0.5811617 
263.7      0.203851   1          0.5948849 
263.8      0.1555694  1          0.7088578 
263.9      0.1292979  1          0.7790302 
264        0.1131732  1          0.8335086 
264.1      0.08924701 1          0.9094799 
264.2      0.07954229 1          0.9406307 
264.3      0.05506694 1          1         
264.4      0.05340317 1          1         
264.5      0.05482678 1          1         
264.6      0.1053727  1          0.8900868 
264.7      0.1780659  1          0.725834  
264.8      0.2191809  1          0.635951  
264.9      0.2446077  1          0.6050055 
265        0.2442977  1          0.6695821 
265.1      0.2414459  1          0.7337591 
265.2      0.2111045  1          0.8110641 
265.3      0.1779243  1          0.841182  
265.4      0.1380678  1          0.8708802 
