~Version
 VERS              .         3.0                           : CWLS LOG ASCII STANDARD - VERSION 3.0
 WRAP              .         NO                            : ONE LINE PER DEPTH STEP
 DLM               .         SPACE                         : DELIMITING CHARACTER(SPACE TAB OR COMMA)
~Well Information
#_______________________________________________________________________________
#
#PARAMETER_NAME    .UNIT     VALUE                         : DESCRIPTION
#_______________________________________________________________________________
STRT               .M        13                            : First reference value
STOP               .M        939                           : Last reference value
STEP               .M        0.1                           : Step increment
NULL               .         -9999                         : Missing value
COMP               .         ICPetroleum                   : Company
WELL               .         314                           : Well name
FLD                .         Karatobe                      : Field
LOC                .                                       : Location
SRVC               .         ТОО ГК ГИС Сервис             : Service Company
CTRY               .         KZ                            : Country
DATE               .         20.01.2022                    : Service Date
LATI               .         0                             : Latitude
LONG               .         0                             : Longitude
GDAT               .         WGS 84                        : Geodetic Datum
COORDIN            .                                       : Grid System
COUNTRY            .         Kazakhstan                    : 
COUNTRY            .         Kazakhstan                    : 
EREF               .m        142.1                         : 
KB                 .         141.2                         : KB Elevation
ORIGINALWELLNAME   .         314                           : 
PROV               .                                       : Province
RWS                .         -999                          : Def_Rw
UWI                .                                       : Уникальный идентификатор скважины
WST                .         -999                          : Def_Rwt
X                  .km       466035.84                     : 
XCOORD             .                                       : X or East-West Coordinate
Y                  .km       5307724.98                    : 
YCOORD             .                                       : Y or North-South Coordinate
~Parameter Information Block
#_______________________________________________________________________________
#
#PARAMETER_NAME    .UNIT     VALUE                         : DESCRIPTION
#_______________________________________________________________________________
SET                .         Las                           : 
BS                 .MM       215.90                        : Bit Size
DFD                .G/C3     1.14                          : Drilling Fluid Density
DFV                .S        39.00                         : Drilling Fluid Viscosity
RMS                .OHMM     .00                           : Mud Sample Resistivity
TLFamily_DEPT      .         Measured Depth                : 
TLFamily_PHI_FINAL .         Porosity                      : 
TLFamily_SW_AR     .         Water Saturation              : 
TLFamily_VSH_FINAL .         Shale Volume                  : 
~Curve Information
#_______________________________________________________________________________
#
#LOGNAME           .UNIT     LOG_ID                        : DESCRIPTION
#_______________________________________________________________________________
DEPT               .M                                      : Depth curve {F}
PHI_FINAL          .m3/m3                                  : Porosity {F}
SW_AR              .m3/m3                                  :  {F}
VSH_FINAL          .unitless                               : Vshale {F}
~Ascii
# ...
756.9      0.1129586  1          0.2937182 
757        0.1489547  1          0.2906513 
757.1      0.2054105  1          0.2920434 
757.2      0.2118895  1          0.3284705 
757.3      0.2223807  1          0.3475269 
757.4      0.2274487  1          0.3463135 
757.5      0.2104944  1          0.3707889 
757.6      0.1922934  1          0.3835699 
757.7      0.1844824  1          0.3702657 
757.8      0.1861319  1          0.3402794 
757.9      0.1790976  1          0.339379  
758        0.1833672  1          0.3280772 
758.1      0.183248   1          0.3320208 
758.2      0.1773426  1          0.3324164 
758.3      0.1694352  1          0.3437927 
758.4      0.1675417  1          0.3532179 
758.5      0.1517796  1          0.3953912 
758.6      0.160304   1          0.3696385 
758.7      0.1381926  1          0.3748832 
758.8      0.1061791  1          0.3690117 
758.9      0.07534184 1          0.3768865 
759        0.08560117 1          0.3827177 
759.1      0.1673397  1          0.3719413 
759.2      0.1891233  1          0.3661983 
759.3      0.1594531  1          0.3758315 
759.4      0.1562689  1          0.4149363 
759.5      0.1723908  1          0.39107   
759.6      0.1767692  1          0.3749885 
759.7      0.2053413  1          0.3726757 
759.8      0.2017912  1          0.3812289 
759.9      0.1877802  1          0.3916087 
760        0.1710074  1          0.3679683 
760.1      0.1571957  1          0.3853842 
760.2      0.1199208  1          0.3550573 
760.3      0.07699094 1          0.339879  
760.4      0.0492912  1          0.335292  
760.5      0.07388393 1          0.2935318 
760.6      0.1124523  1          0.2854814 
760.7      0.1706962  1          0.2759941 
760.8      0.20485    1          0.2864935 
760.9      0.2196916  1          0.2937182 
761        0.232159   1          0.2822721 
761.1      0.2256894  1          0.2834622 
761.2      0.1988044  1          0.2938113 
761.3      0.1583994  1          0.2652288 
761.4      0.0814156  1          0.2891697 
761.5      0.04794941 1          0.3015932 
761.6      0.0601972  1          0.2904659 
761.7      0.0856548  1          0.2862173 
761.8      0.1100357  1          0.2906513 
761.9      0.1388866  1          0.2845627 
762        0.1612907  1          0.2946505 
762.1      0.1829905  1          0.3103325 
762.2      0.1896543  1          0.3341007 
762.3      0.1916667  1          0.3409806 
762.4      0.1725333  1          0.3612245 
762.5      0.1341816  1          0.3641216 
762.6      0.0802115  1          0.3999562 
762.7      0.07515997 1          0.3787896 
762.8      0.07724414 1          0.3887044 
762.9      0.08797519 1          0.4017028 
763        0.1087235  1          0.3920401 
763.1      0.12025    1          0.4024683 
763.2      0.1528026  1          0.3837831 
763.3      0.1735432  1          0.377309  
763.4      0.1763896  1          0.3777317 
763.5      0.1706488  1          0.3717317 
763.6      0.1609484  1          0.3624646 
763.7      0.1098085  1          0.3488438 
763.8      0.04018937 1          0.3850636 
763.9      0.008927089 1          0.3935515 
764        0.008445864 1          0.3927954 
764.1      0.02610848 1          0.3869888 
764.2      0.05387362 1          0.3767809 
764.3      0.05631448 1          0.3614311 
764.4      0.09444683 1          0.337781  
764.5      0.1061671  1          0.3479318 
764.6      0.1143545  1          0.3440948 
764.7      0.1389806  1          0.3503664 
764.8      0.1325631  1          0.3195807 
764.9      0.09741246 1          0.3330104 
765        0.08006442 1          0.3279788 
765.1      0.07136385 1          0.3430886 
765.2      0.1116691  1          0.3050935 
765.3      0.1411904  1          0.3197747 
765.4      0.1613458  1          0.3428876 
765.5      0.1618948  1          0.3772034 
765.6      0.1594622  1          0.3877389 
765.7      0.155932   1          0.3901013 
765.8      0.142838   1          0.3896712 
765.9      0.1343975  1          0.3831437 
766        0.1215031  1          0.3865606 
766.1      0.09429311 1          0.4166073 
766.2      0.07397878 1          0.432043  
766.3      0.07929461 1          0.4139356 
766.4      0.1066196  1          0.3842097 
766.5      0.124938   1          0.4069678 
766.6      0.160104   1          0.3908546 
766.7      0.1661043  1          0.3971269 
766.8      0.1746711  1          0.3959332 
766.9      0.1755891  1          0.3964755 
767        0.1632334  1          0.4060877 
767.1      0.1366474  1          0.4390181 
767.2      0.1493324  1          0.4270511 
767.3      0.1724818  1          0.4061976 
767.4      0.1878136  1          0.3712077 
767.5      0.1763743  1          0.3865606 
767.6      0.1736935  1          0.3717317 
767.7      0.1542689  1          0.4032345 
767.8      0.1487477  1          0.3940921 
767.9      0.1225791  1          0.3998472 
768        0.06459747 1          0.4538626 
768.1      0.02339292 1          0.4660156 
768.2      0          1          0.4985273 
768.3      0          1          0.4569128 
768.4      0          1          0.4700685 
768.5      0.0258603  1          0.4414341 
768.6      0.02924696 1          0.4412037 
768.7      0.0353934  1          0.409946  
768.8      0.02339406 1          0.4072981 
768.9      0.009594985 1          0.4220918 
769        0.0180385  1          0.4215303 
769.1      0.03954292 1          0.4321568 
769.2      0.06382635 1          0.4689937 
769.3      0.1034822  1          0.4844169 
769.4      0.13955    1          0.4519915 
769.5      0.1541221  1          0.4254696 
769.6      0.1532077  1          0.4173883 
769.7      0.1598095  1          0.3839963 
769.8      0.1741178  1          0.3369836 
769.9      0.1532427  1          0.373726  
770        0.1423889  1          0.4077388 
770.1      0.1625176  1          0.3763588 
770.2      0.1720532  1          0.3690117 
770.3      0.171142   1          0.3695339 
770.4      0.1608548  1          0.3664063 
770.5      0.1369117  1          0.3688029 
770.6      0.1175135  1          0.3908546 
770.7      0.1374744  1          0.3780489 
770.8      0.1556898  1          0.3826113 
770.9      0.1734371  1          0.3536263 
771        0.1874141  1          0.3218161 
771.1      0.1762357  1          0.3223031 
771.2      0.153195   1          0.3403795 
771.3      0.1413027  1          0.3490466 
771.4      0.1224539  1          0.3849569 
771.5      0.1256771  1          0.3798491 
771.6      0.1262294  1          0.3728855 
771.7      0.1144784  1          0.3810165 
771.8      0.1033302  1          0.3850636 
771.9      0.107686   1          0.3674472 
772        0.1167937  1          0.3591627 
772.1      0.12384    1          0.3709983 
772.2      0.1352142  1          0.3742518 
772.3      0.1389744  1          0.3743569 
772.4      0.145529   1          0.3414819 
772.5      0.1455678  1          0.3015932 
772.6      0.1167189  1          0.3168696 
772.7      0.08850605 1          0.3404797 
772.8      0.07475404 1          0.3464146 
772.9      0.06002735 1          0.3607085 
773        0.05130975 1          0.3760424 
773.1      0.05872289 1          0.3919322 
773.2      0.1021913  1          0.3819729 
773.3      0.1612746  1          0.3780489 
773.4      0.1788253  1          0.4069678 
773.5      0.207553   1          0.3682812 
773.6      0.2228763  1          0.3781547 
773.7      0.2224079  1          0.40829   
773.8      0.2180454  1          0.4290892 
773.9      0.2096179  1          0.4355798 
774        0.2053492  1          0.4081797 
774.1      0.1736171  1          0.4298834 
774.2      0.1430963  1          0.4455934 
774.3      0.093485   1          0.4615102 
774.4      0.03004156 1          0.4901545 
774.5      0.0000401  1          0.488319  
774.6      0          1          0.5088631 
774.7      0          1          0.4651837 
774.8      0          1          0.4736618 
774.9      0          1          0.4502414 
775        0          1          0.4537455 
