~Version
 VERS              .         3.0                           : CWLS LOG ASCII STANDARD - VERSION 3.0
 WRAP              .         NO                            : ONE LINE PER DEPTH STEP
 DLM               .         SPACE                         : DELIMITING CHARACTER(SPACE TAB OR COMMA)
~Well Information
#_______________________________________________________________________________
#
#PARAMETER_NAME    .UNIT     VALUE                         : DESCRIPTION
#_______________________________________________________________________________
STRT               .M        13                            : First reference value
STOP               .M        939                           : Last reference value
STEP               .M        0.1                           : Step increment
NULL               .         -9999                         : Missing value
COMP               .         ICPetroleum                   : Company
WELL               .         314                           : Well name
FLD                .         Karatobe                      : Field
LOC                .                                       : Location
SRVC               .         ТОО ГК ГИС Сервис             : Service Company
CTRY               .         KZ                            : Country
DATE               .         20.01.2022                    : Service Date
LATI               .         0                             : Latitude
LONG               .         0                             : Longitude
GDAT               .         WGS 84                        : Geodetic Datum
COORDIN            .                                       : Grid System
COUNTRY            .         Kazakhstan                    : 
COUNTRY            .         Kazakhstan                    : 
EREF               .m        142.1                         : 
KB                 .         141.2                         : KB Elevation
ORIGINALWELLNAME   .         314                           : 
PROV               .                                       : Province
RWS                .         -999                          : Def_Rw
UWI                .                                       : Уникальный идентификатор скважины
WST                .         -999                          : Def_Rwt
X                  .km       466035.84                     : 
XCOORD             .                                       : X or East-West Coordinate
Y                  .km       5307724.98                    : 
YCOORD             .                                       : Y or North-South Coordinate
~Parameter Information Block
#_______________________________________________________________________________
#
#PARAMETER_NAME    .UNIT     VALUE                         : DESCRIPTION
#_______________________________________________________________________________
SET                .         Las                           : 
BS                 .MM       215.90                        : Bit Size
DFD                .G/C3     1.14                          : Drilling Fluid Density
DFV                .S        39.00                         : Drilling Fluid Viscosity
RMS                .OHMM     .00                           : Mud Sample Resistivity
TLFamily_DEPT      .         Measured Depth                : 
TLFamily_PHI_FINAL .         Porosity                      : 
TLFamily_SW_AR     .         Water Saturation              : 
TLFamily_VSH_FINAL .         Shale Volume                  : 
~Curve Information
#_______________________________________________________________________________
#
#LOGNAME           .UNIT     LOG_ID                        : DESCRIPTION
#_______________________________________________________________________________
DEPT               .M                                      : Depth curve {F}
PHI_FINAL          .m3/m3                                  : Porosity {F}
SW_AR              .m3/m3                                  :  {F}
VSH_FINAL          .unitless                               : Vshale {F}
~Ascii
# ...
556.7      0.07401729 1          0.7088024 
556.8      0.06829301 1          0.7261528 
556.9      0.07247185 1          0.7230952 
557        0.06522757 1          0.7650746 
557.1      0.0650209  1          0.7590561 
557.2      0.08032677 1          0.7244472 
557.3      0.05024916 1          0.8181935 
557.4      0.1136225  1          0.6653223 
557.5      0.1630125  1          0.5732264 
557.6      0.1864085  1          0.5420923 
557.7      0.2241319  1          0.4718607 
557.8      0.2478568  1          0.4200824 
557.9      0.2203779  1          0.4735745 
558        0.1193946  1          0.6909439 
558.1      0.04487829 1          0.8436242 
558.2      0.019217   1          0.9109098 
558.3      0.01695584 1          0.9071443 
558.4      0.003853022 1          0.9303365 
558.5      0          1          0.9609998 
558.6      0.006971467 1          0.9169037 
558.7      0.0317047  1          0.8236124 
558.8      0.02033987 1          0.8426034 
558.9      0.001224997 1          0.9577866 
559        0.008230322 1          0.8994603 
559.1      0.002900568 1          0.939339  
559.2      0.01345698 1          0.8864455 
559.3      0.0385794  1          0.7960315 
559.4      0.03150311 1          0.8295    
559.5      0.0119096  1          0.9001549 
559.6      0.02577912 1          0.8493041 
559.7      0.05097627 1          0.7496863 
559.8      0.08594792 1          0.672287  
559.9      0.09225744 1          0.6483479 
560        0.09116825 1          0.648908  
560.1      0.114168   1          0.5733079 
560.2      0.09698242 1          0.5919383 
560.3      0.08030478 1          0.6039951 
560.4      0.06560029 1          0.5756266 
560.5      0.05192905 1          0.5239102 
560.6      0.01126864 1          0.5190797 
560.7      0.002293472 1          0.4729879 
560.8      0          1          0.4299647 
560.9      0          1          0.4238925 
561        0          1          0.4227614 
561.1      0.001867667 1          0.4115164 
561.2      0.01134091 1          0.4011078 
561.3      0.04062666 1          0.3678667 
561.4      0.07441527 1          0.3723352 
561.5      0.1123553  1          0.3879571 
561.6      0.1440994  1          0.394639  
561.7      0.1907223  1          0.3545196 
561.8      0.20081    1          0.3642276 
561.9      0.1948703  1          0.4085259 
562        0.2131715  1          0.3792366 
562.1      0.2119092  1          0.3849444 
562.2      0.2122831  1          0.3914378 
562.3      0.2001985  1          0.4138193 
562.4      0.1965934  1          0.4276027 
562.5      0.1908324  1          0.4359358 
562.6      0.2179806  1          0.3710441 
562.7      0.2069721  1          0.3972204 
562.8      0.2048925  1          0.4142801 
562.9      0.209389   1          0.4273008 
563        0.2243711  1          0.4261634 
563.1      0.2299174  1          0.4431331 
563.2      0.2363511  1          0.4344085 
563.3      0.2373423  1          0.4301479 
563.4      0.2140723  1          0.4766799 
563.5      0.1819654  1          0.5050039 
563.6      0.1054749  1          0.6267458 
563.7      0.04165385 1          0.7618639 
563.8      0.003604283 1          0.866937  
563.9      0          1          1         
564        0          1          1         
564.1      0          1          1         
564.2      0          1          1         
564.3      0.005748944 1          0.8658984 
564.4      0.04946262 1          0.7258335 
564.5      0.08438001 1          0.6597779 
564.6      0.1231601  1          0.5695463 
564.7      0.113889   1          0.6112742 
564.8      0.1164679  1          0.6086711 
564.9      0.1321659  1          0.5738232 
565        0.1583992  1          0.5207527 
565.1      0.1702294  1          0.4965994 
565.2      0.1799595  1          0.4722424 
565.3      0.1837784  1          0.4733466 
565.4      0.1815913  1          0.4890917 
565.5      0.1989073  1          0.4432035 
565.6      0.2067069  1          0.4391913 
565.7      0.2032582  1          0.4465767 
565.8      0.1765097  1          0.5139828 
565.9      0.1637831  1          0.5458465 
566        0.1657906  1          0.5328271 
566.1      0.1558726  1          0.5542624 
566.2      0.1189427  1          0.6301688 
566.3      0.1021755  1          0.6698009 
566.4      0.05067716 1          0.8007778 
566.5      0.05517233 1          0.7814252 
566.6      0.04860654 1          0.7986456 
566.7      0.08227452 1          0.7050855 
566.8      0.09139923 1          0.6848255 
566.9      0.1173075  1          0.6222153 
567        0.1297989  1          0.595663  
567.1      0.1619167  1          0.53921   
567.2      0.1767356  1          0.5075555 
567.3      0.1834129  1          0.4892799 
567.4      0.1851065  1          0.4937041 
567.5      0.1915114  1          0.4802511 
567.6      0.1647325  1          0.529516  
567.7      0.1579213  1          0.544361  
567.8      0.1203332  1          0.6209109 
567.9      0.1221547  1          0.6040722 
568        0.106639   1          0.6415581 
568.1      0.07304452 1          0.726281  
568.2      0.06240527 1          0.7609723 
568.3      0.02531511 1          0.8727717 
568.4      0.02944865 1          0.85102   
568.5      0.02154466 1          0.8796809 
568.6      0.04653567 1          0.8055174 
568.7      0.05247308 1          0.794493  
568.8      0.0774406  1          0.7443852 
568.9      0.03639012 1          0.8472049 
569        0.03116656 1          0.8708515 
569.1      0.01130794 1          0.9334744 
569.2      0.02465775 1          0.8800576 
569.3      0.005460124 1          0.9679431 
569.4      0.0008763853 1          0.9946433 
569.5      0.0008190952 1          1         
569.6      0.04339802 1          0.8197556 
569.7      0.0740338  1          0.7570494 
569.8      0.06340415 1          0.8001572 
569.9      0.03169733 1          0.9029892 
570        0.0515723  1          0.8771021 
570.1      0.01491338 1          1         
570.2      0.016607   1          0.9928892 
570.3      0.01443421 1          0.9978942 
570.4      0.01002382 1          1         
570.5      0.004501444 1          1         
570.6      0.0007078427 1          1         
570.7      0.0124783  1          0.9005434 
570.8      0.003082455 1          0.9194724 
570.9      0.001526295 1          0.924744  
571        0.01750567 1          0.845826  
571.1      0.01323269 1          0.8682615 
571.2      0.0009029035 1          0.9527805 
571.3      0.0005293802 1          0.9666989 
571.4      0          1          1         
571.5      0          1          1         
571.6      0          1          1         
571.7      0          1          1         
571.8      0          1          1         
571.9      0          1          1         
572        0          1          1         
572.1      0          1          1         
572.2      0.0002187065 1          1         
572.3      0.001652907 1          1         
572.4      0.001849077 1          1         
572.5      0.02304065 1          0.8991889 
572.6      0.01944811 1          0.9183698 
572.7      0.02182966 1          0.9137133 
572.8      0.02293196 1          0.8996019 
572.9      0.006754102 1          0.9826396 
573        0.01410252 1          0.9506716 
573.1      0.01964051 1          0.9229799 
573.2      0.008446821 1          1         
573.3      0.01006133 1          1         
573.4      0.01073684 1          1         
573.5      0.01793372 1          0.9526203 
573.6      0.02162411 1          0.9352119 
573.7      0.01098938 1          1         
573.8      0.01069963 1          1         
573.9      0.01621662 1          0.9562975 
574        0.0105774  1          0.9721345 
574.1      0.004997142 1          1         
574.2      0.003567881 1          0.995765  
574.3      0.001514408 1          1         
574.4      0          1          1         
574.5      0          1          1         
574.6      0          1          1         
574.7      0.01040401 1          0.9243054 
574.8      0.01551783 1          0.8991147 
