~Version
 VERS              .         3.0                           : CWLS LOG ASCII STANDARD - VERSION 3.0
 WRAP              .         NO                            : ONE LINE PER DEPTH STEP
 DLM               .         SPACE                         : DELIMITING CHARACTER(SPACE TAB OR COMMA)
~Well Information
#_______________________________________________________________________________
#
#PARAMETER_NAME    .UNIT     VALUE                         : DESCRIPTION
#_______________________________________________________________________________
STRT               .M        13                            : First reference value
STOP               .M        939                           : Last reference value
STEP               .M        0.1                           : Step increment
NULL               .         -9999                         : Missing value
COMP               .         ICPetroleum                   : Company
WELL               .         314                           : Well name
FLD                .         Karatobe                      : Field
LOC                .                                       : Location
SRVC               .         ТОО ГК ГИС Сервис             : Service Company
CTRY               .         KZ                            : Country
DATE               .         20.01.2022                    : Service Date
LATI               .         0                             : Latitude
LONG               .         0                             : Longitude
GDAT               .         WGS 84                        : Geodetic Datum
COORDIN            .                                       : Grid System
COUNTRY            .         Kazakhstan                    : 
COUNTRY            .         Kazakhstan                    : 
EREF               .m        142.1                         : 
KB                 .         141.2                         : KB Elevation
ORIGINALWELLNAME   .         314                           : 
PROV               .                                       : Province
RWS                .         -999                          : Def_Rw
UWI                .                                       : Уникальный идентификатор скважины
WST                .         -999                          : Def_Rwt
X                  .km       466035.84                     : 
XCOORD             .                                       : X or East-West Coordinate
Y                  .km       5307724.98                    : 
YCOORD             .                                       : Y or North-South Coordinate
~Parameter Information Block
#_______________________________________________________________________________
#
#PARAMETER_NAME    .UNIT     VALUE                         : DESCRIPTION
#_______________________________________________________________________________
SET                .         Las                           : 
BS                 .MM       215.90                        : Bit Size
DFD                .G/C3     1.14                          : Drilling Fluid Density
DFV                .S        39.00                         : Drilling Fluid Viscosity
RMS                .OHMM     .00                           : Mud Sample Resistivity
TLFamily_DEPT      .         Measured Depth                : 
TLFamily_PHI_FINAL .         Porosity                      : 
TLFamily_SW_AR     .         Water Saturation              : 
TLFamily_VSH_FINAL .         Shale Volume                  : 
~Curve Information
#_______________________________________________________________________________
#
#LOGNAME           .UNIT     LOG_ID                        : DESCRIPTION
#_______________________________________________________________________________
DEPT               .M                                      : Depth curve {F}
PHI_FINAL          .m3/m3                                  : Porosity {F}
SW_AR              .m3/m3                                  :  {F}
VSH_FINAL          .unitless                               : Vshale {F}
~Ascii
# ...
611.3      0.05916235 1          0.6398094 
611.4      0.05779025 1          0.6512229 
611.5      0.04280099 1          0.7086961 
611.6      0.05078943 1          0.6743677 
611.7      0.0404249  1          0.7110226 
611.8      0.03141987 1          0.7392792 
611.9      0.02616488 1          0.7522526 
612        0.02722055 1          0.7553133 
612.1      0.02705417 1          0.769534  
612.2      0.06045463 1          0.6601339 
612.3      0.04528711 1          0.7096486 
612.4      0.06806693 1          0.6560276 
612.5      0.0807998  1          0.6264892 
612.6      0.08551032 1          0.6132395 
612.7      0.0756389  1          0.6298323 
612.8      0.09931595 1          0.5802678 
612.9      0.1067275  1          0.5724698 
613        0.0750249  1          0.6430007 
613.1      0.04792764 1          0.7092104 
613.2      0.08622789 1          0.6157372 
613.3      0.04123296 1          0.7391793 
613.4      0.05146584 1          0.711655  
613.5      0.02970585 1          0.7894402 
613.6      0.02241403 1          0.8286688 
613.7      0.02639427 1          0.804869  
613.8      0.01739995 1          0.8236124 
613.9      0.01679958 1          0.8242705 
614        0          1          0.9555402 
614.1      0.003989313 1          0.8952941 
614.2      0.02080639 1          0.8358617 
614.3      0.00747106 1          0.8975651 
614.4      0.02410197 1          0.8162028 
614.5      0.03380837 1          0.7630711 
614.6      0.02548622 1          0.7977409 
614.7      0.05319441 1          0.7000593 
614.8      0.0649322  1          0.6663916 
614.9      0.05980986 1          0.6873655 
615        0.007411106 1          0.8789253 
615.1      0          1          1         
615.2      0          1          1         
615.3      0          1          1         
615.4      0          1          1         
615.5      0          1          1         
615.6      0          1          1         
615.7      0          1          1         
615.8      0          1          1         
615.9      0          1          1         
616        0          1          1         
616.1      0          1          1         
616.2      0          1          1         
616.3      0          1          1         
616.4      0          1          0.9306728 
616.5      0.0407879  1          0.6917183 
616.6      0.08901814 1          0.5733339 
616.7      0.1298502  1          0.4629267 
616.8      0.1493578  1          0.4111834 
616.9      0.1999669  1          0.2882873 
617        0.2088908  1          0.246221  
617.1      0.2115207  1          0.2370112 
617.2      0.2206271  1          0.2040067 
617.3      0.2110906  0.9995526  0.2045707 
617.4      0.201776   0.909986   0.1873917 
617.5      0.1734755  1          0.1654521 
617.6      0.1470405  1          0.152117  
617.7      0.1214086  1          0.1538903 
617.8      0.1184243  1          0.1591101 
617.9      0.1314868  1          0.1725063 
618        0.15041    1          0.201248  
618.1      0.1713916  1          0.218197  
618.2      0.2016717  1          0.2071455 
618.3      0.2272287  1          0.1993661 
618.4      0.2400887  1          0.2072691 
618.5      0.2579746  1          0.2068237 
618.6      0.2615993  1          0.2135483 
618.7      0.2524703  1          0.2345359 
618.8      0.2575507  1          0.2261129 
618.9      0.2378904  1          0.2567777 
619        0.2272241  1          0.2877705 
619.1      0.2035085  1          0.3347576 
619.2      0.1603109  1          0.4247169 
619.3      0.1230761  1          0.5131899 
619.4      0.07091838 1          0.633357  
619.5      0.06254172 1          0.6463082 
619.6      0.06267246 1          0.652606  
619.7      0.09417773 1          0.5898142 
619.8      0.09563599 1          0.5924732 
619.9      0.07181823 1          0.6606994 
620        0.1106828  1          0.5713964 
620.1      0.1215714  1          0.5490363 
620.2      0.1593289  1          0.4643247 
620.3      0.1757992  1          0.4202602 
620.4      0.1907056  1          0.3977298 
620.5      0.2276031  1          0.3023072 
620.6      0.2439096  1          0.2573551 
620.7      0.2521434  1          0.2336331 
620.8      0.2487287  1          0.2452371 
620.9      0.2358202  1          0.2632563 
621        0.2113828  1          0.306063  
621.1      0.2025696  1          0.309549  
621.2      0.2082607  1          0.2950561 
621.3      0.2215242  1          0.2497082 
621.4      0.2396628  1          0.1918966 
621.5      0.2496779  1          0.1576683 
621.6      0.2619594  1          0.1445843 
621.7      0.2716279  1          0.1294773 
621.8      0.2911584  1          0.1099703 
621.9      0.2951588  1          0.114788  
622        0.3055184  1          0.1050762 
622.1      0.3033584  1          0.0959463 
622.2      0.3034464  1          0.1020204 
622.3      0.302067   1          0.1009922 
622.4      0.2904504  1          0.09986349
622.5      0.272336   1          0.1162232 
622.6      0.2630685  1          0.1105625 
622.7      0.2393191  1          0.1160278 
622.8      0.2215705  1          0.132197  
622.9      0.2230973  1          0.1242679 
623        0.2295007  1          0.1202606 
623.1      0.2331072  1          0.1306635 
623.2      0.2546872  1          0.1276312 
623.3      0.2798794  1          0.1162516 
623.4      0.289045   1          0.1265692 
623.5      0.2978943  1          0.1399307 
623.6      0.3126859  1          0.1315328 
623.7      0.3144294  1          0.1332087 
623.8      0.3126426  1          0.130699  
623.9      0.3192832  1          0.1254768 
624        0.31805    1          0.1291283 
624.1      0.315256   1          0.1337854 
624.2      0.3140298  1          0.1435524 
624.3      0.3244262  1          0.1192301 
624.4      0.3238142  1          0.1240299 
624.5      0.3218041  1          0.1307966 
624.6      0.3213004  1          0.1315299 
624.7      0.3225318  1          0.1243551 
624.8      0.3275965  1          0.1214156 
624.9      0.325462   1          0.130003  
625        0.3346925  1          0.1175736 
625.1      0.3349775  1          0.1121662 
625.2      0.3397133  1          0.1001413 
625.3      0.3432502  1          0.09828208
625.4      0.3498005  1          0.08741111
625.5      0.3633628  1          0.07139909
625.6      0.3687795  1          0.06315675
625.7      0.3768418  1          0.05281077
625.8      0.375537   1          0.05034769
625.9      0.3724165  1          0.05590936
626        0.369316   1          0.05474163
626.1      0.3629078  1          0.06161336
626.2      0.3613033  1          0.06274491
626.3      0.360128   1          0.06456812
626.4      0.3637356  1          0.05844709
626.5      0.359797   1          0.05544038
626.6      0.362251   1          0.05713171
626.7      0.3631273  1          0.06145759
626.8      0.3672161  1          0.05546723
626.9      0.3735658  1          0.05003407
627        0.3724198  1          0.05177643
627.1      0.3781815  1          0.04686474
627.2      0.3821591  1          0.04094176
627.3      0.3864499  1          0.03883786
627.4      0.3914603  1          0.03816606
627.5      0.3998398  1          0.03795276
627.6      0.405259   1          0.0470348 
627.7      0.4032743  1          0.04820413
627.8      0.4060042  1          0.04665141
627.9      0.4066683  1          0.04131549
628        0.3993649  1          0.04378494
628.1      0.4009068  1          0.04425982
628.2      0.3965107  1          0.04720133
628.3      0.3985721  1          0.0418079 
628.4      0.4006071  1          0.04054629
628.5      0.4052133  1          0.03165065
628.6      0.4054182  1          0.02853797
628.7      0.4024936  1          0.03234516
628.8      0.4030359  1          0.03180978
628.9      0.4067161  1          0.03005955
629        0.4053004  1          0.02917725
629.1      0.4048309  1          0.02676636
629.2      0.4085813  0.9969475  0.02701888
629.3      0.415864   0.9830755  0.02506057
629.4      0.4189923  0.9801178  0.02518394
