~Version
 VERS              .         3.0                           : CWLS LOG ASCII STANDARD - VERSION 3.0
 WRAP              .         NO                            : ONE LINE PER DEPTH STEP
 DLM               .         SPACE                         : DELIMITING CHARACTER(SPACE TAB OR COMMA)
~Well Information
#_______________________________________________________________________________
#
#PARAMETER_NAME    .UNIT     VALUE                         : DESCRIPTION
#_______________________________________________________________________________
STRT               .M        13                            : First reference value
STOP               .M        939                           : Last reference value
STEP               .M        0.1                           : Step increment
NULL               .         -9999                         : Missing value
COMP               .         ICPetroleum                   : Company
WELL               .         314                           : Well name
FLD                .         Karatobe                      : Field
LOC                .                                       : Location
SRVC               .         ТОО ГК ГИС Сервис             : Service Company
CTRY               .         KZ                            : Country
DATE               .         20.01.2022                    : Service Date
LATI               .         0                             : Latitude
LONG               .         0                             : Longitude
GDAT               .         WGS 84                        : Geodetic Datum
COORDIN            .                                       : Grid System
COUNTRY            .         Kazakhstan                    : 
COUNTRY            .         Kazakhstan                    : 
EREF               .m        142.1                         : 
KB                 .         141.2                         : KB Elevation
ORIGINALWELLNAME   .         314                           : 
PROV               .                                       : Province
RWS                .         -999                          : Def_Rw
UWI                .                                       : Уникальный идентификатор скважины
WST                .         -999                          : Def_Rwt
X                  .km       466035.84                     : 
XCOORD             .                                       : X or East-West Coordinate
Y                  .km       5307724.98                    : 
YCOORD             .                                       : Y or North-South Coordinate
~Parameter Information Block
#_______________________________________________________________________________
#
#PARAMETER_NAME    .UNIT     VALUE                         : DESCRIPTION
#_______________________________________________________________________________
SET                .         Las                           : 
BS                 .MM       215.90                        : Bit Size
DFD                .G/C3     1.14                          : Drilling Fluid Density
DFV                .S        39.00                         : Drilling Fluid Viscosity
RMS                .OHMM     .00                           : Mud Sample Resistivity
TLFamily_DEPT      .         Measured Depth                : 
TLFamily_PHI_FINAL .         Porosity                      : 
TLFamily_SW_AR     .         Water Saturation              : 
TLFamily_VSH_FINAL .         Shale Volume                  : 
~Curve Information
#_______________________________________________________________________________
#
#LOGNAME           .UNIT     LOG_ID                        : DESCRIPTION
#_______________________________________________________________________________
DEPT               .M                                      : Depth curve {F}
PHI_FINAL          .m3/m3                                  : Porosity {F}
SW_AR              .m3/m3                                  :  {F}
VSH_FINAL          .unitless                               : Vshale {F}
~Ascii
# ...
665.9      0.0262858  1          0.7726349 
666        0.030479   1          0.7645631 
666.1      0.04225254 1          0.7092631 
666.2      0.03274309 1          0.7439584 
666.3      0.02705827 1          0.771423  
666.4      0.004897207 1          0.8709344 
666.5      0.003006019 1          0.886568  
666.6      0.03210164 1          0.7477129 
666.7      0.02105964 1          0.7936938 
666.8      0.008513781 1          0.8440472 
666.9      0.001213905 1          0.9020096 
667        0          1          1         
667.1      0          1          1         
667.2      0          1          1         
667.3      0          1          1         
667.4      0          1          1         
667.5      0          1          1         
667.6      0          1          1         
667.7      0.00129548 1          0.8938958 
667.8      0.02603737 1          0.753849  
667.9      0.03369722 1          0.7313368 
668        0.05413427 1          0.6680103 
668.1      0.07134237 1          0.6242495 
668.2      0.05909021 1          0.6659019 
668.3      0.08349863 1          0.6092403 
668.4      0.07266246 1          0.6380923 
668.5      0.09822747 1          0.5618728 
668.6      0.1201525  1          0.503244  
668.7      0.1100023  1          0.5169091 
668.8      0.08567152 1          0.580285  
668.9      0.09474096 1          0.5517957 
669        0.09279837 1          0.5504637 
669.1      0.1002882  1          0.5427409 
669.2      0.09509271 1          0.5538937 
669.3      0.1310188  1          0.4756194 
669.4      0.1433243  1          0.4534531 
669.5      0.1540483  1          0.4365506 
669.6      0.1446489  1          0.4644985 
669.7      0.1299826  1          0.502147  
669.8      0.1273484  1          0.5142582 
669.9      0.1264347  1          0.5196046 
670        0.1113596  1          0.563763  
670.1      0.110333   1          0.5693647 
670.2      0.1196456  1          0.5429546 
670.3      0.1651918  1          0.4309856 
670.4      0.1859133  1          0.380765  
670.5      0.1864324  1          0.3725468 
670.6      0.1868849  1          0.3744313 
670.7      0.1747641  1          0.395367  
670.8      0.1782765  1          0.3799175 
670.9      0.1617453  1          0.4176268 
671        0.1364408  1          0.4756214 
671.1      0.1475644  1          0.4607896 
671.2      0.1507488  1          0.4736052 
671.3      0.1376786  1          0.5179104 
671.4      0.1389086  1          0.5258542 
671.5      0.1465325  1          0.5172578 
671.6      0.1764385  1          0.465714  
671.7      0.2164866  0.8856544  0.3659922 
671.8      0.228317   0.8491593  0.3362202 
671.9      0.2337853  0.8390925  0.327525  
672        0.2520939  0.7892174  0.2772603 
672.1      0.2546822  0.7847763  0.268601  
672.2      0.2638954  0.7546574  0.2541113 
672.3      0.2540648  0.775215   0.2786897 
672.4      0.255829   0.7643593  0.2695998 
672.5      0.267603   0.7310057  0.2432784 
672.6      0.2614812  0.748902   0.263042  
672.7      0.254122   0.7805268  0.2742062 
672.8      0.2389291  0.8416272  0.3106365 
672.9      0.2350067  0.8689447  0.3115986 
673        0.2299964  0.8962465  0.3221491 
673.1      0.2285358  0.9117948  0.3299451 
673.2      0.2478211  0.8578458  0.300962  
673.3      0.2642291  0.8167913  0.2830791 
673.4      0.2636829  0.8214891  0.2874019 
673.5      0.2755263  0.7714385  0.2661973 
673.6      0.2849145  0.7297525  0.2502199 
673.7      0.2837715  0.6789546  0.2473888 
673.8      0.2977834  0.6184714  0.220686  
673.9      0.3045395  0.570155   0.214652  
674        0.3000129  0.5515143  0.2252031 
674.1      0.3086289  0.5188739  0.2016581 
674.2      0.3107052  0.4887014  0.1866606 
674.3      0.3184184  0.4601557  0.1720239 
674.4      0.3112571  0.4584515  0.1851085 
674.5      0.3218792  0.4407507  0.159529  
674.6      0.3217506  0.4438836  0.1680554 
674.7      0.3313942  0.4340726  0.1511811 
674.8      0.3356167  0.4265444  0.1514301 
674.9      0.3391623  0.4239262  0.1464554 
675        0.3362027  0.4426265  0.148712  
675.1      0.3347562  0.4597107  0.1523108 
675.2      0.3275256  0.478689   0.1595551 
675.3      0.3179424  0.4921335  0.1669511 
675.4      0.3113113  0.4965413  0.1666533 
675.5      0.304254   0.4972056  0.1546457 
675.6      0.2968739  0.5045751  0.1525676 
675.7      0.2927206  0.4744172  0.1495248 
675.8      0.2974939  0.4536114  0.1241299 
675.9      0.3050264  0.4384487  0.1056562 
676        0.3031275  0.4553703  0.1202987 
676.1      0.2996272  0.4820466  0.119432  
676.2      0.3067617  0.4939815  0.1076006 
676.3      0.3071693  0.4963132  0.1097465 
676.4      0.304717   0.4745558  0.1088716 
676.5      0.2925803  0.4512572  0.1083771 
676.6      0.2734538  0.4260288  0.1003115 
676.7      0.2415479  0.3991477  0.09627717
676.8      0.1979121  0.4220337  0.1020539 
676.9      0.15657    0.5033886  0.09545616
677        0.09569081 0.9026998  0.09094215
677.1      0.04500915 1          0.08879694
677.2      0.02566253 1          0.09274428
677.3      0.02492816 1          0.09607598
677.4      0.03735197 1          0.1073249 
677.5      0.07959931 1          0.1233544 
677.6      0.150127   1          0.1414242 
677.7      0.205238   0.8483703  0.1722226 
677.8      0.2603672  0.6704001  0.1784453 
677.9      0.2866612  0.596931   0.1627616 
678        0.2978729  0.5496148  0.166501  
678.1      0.3087017  0.4974994  0.1488512 
678.2      0.3084203  0.4636696  0.1456042 
678.3      0.3177143  0.4217683  0.1348118 
678.4      0.3238359  0.3917134  0.1309801 
678.5      0.3405524  0.3619557  0.1103972 
678.6      0.3545744  0.3481219  0.09013566
678.7      0.3675453  0.3414904  0.08003291
678.8      0.3759436  0.3317376  0.08039279
678.9      0.3852976  0.3103441  0.07783781
679        0.3795971  0.3057681  0.09010486
679.1      0.3674482  0.3165032  0.09942503
679.2      0.3552407  0.3405968  0.1000831 
679.3      0.3468862  0.3680829  0.1099386 
679.4      0.3476907  0.3959454  0.1004256 
679.5      0.3452922  0.4191548  0.1080871 
679.6      0.3421592  0.4346552  0.11357   
679.7      0.3349056  0.4459302  0.1173459 
679.8      0.3239761  0.4519013  0.1306287 
679.9      0.3251186  0.4419353  0.1211828 
680        0.3295244  0.4337709  0.1125392 
680.1      0.3291436  0.433273   0.1199045 
680.2      0.326856   0.4422902  0.1266036 
680.3      0.3274508  0.460594   0.132856  
680.4      0.3261131  0.5165268  0.1346062 
680.5      0.3237236  0.5508887  0.1479223 
680.6      0.3261678  0.5478573  0.1434196 
680.7      0.3222857  0.5326298  0.145703  
680.8      0.3160781  0.5280159  0.1590831 
680.9      0.3126573  0.5295594  0.1602921 
681        0.3158043  0.5282156  0.1504543 
681.1      0.3114417  0.5386949  0.1502435 
681.2      0.3167421  0.5295959  0.1318386 
681.3      0.3246427  0.5093172  0.121199  
681.4      0.3268824  0.4802209  0.1169404 
681.5      0.3340503  0.4404029  0.1095605 
681.6      0.3386477  0.4161784  0.1102535 
681.7      0.3406033  0.4113362  0.1044826 
681.8      0.3436772  0.4160029  0.09786832
681.9      0.3482878  0.4321854  0.08581324
682        0.345447   0.4474612  0.09508573
682.1      0.3390281  0.4630938  0.0954771 
682.2      0.3392322  0.4681781  0.0897623 
682.3      0.3378712  0.4691735  0.09833303
682.4      0.3336287  0.4628632  0.1011912 
682.5      0.3360707  0.4470975  0.09775813
682.6      0.3279547  0.4504678  0.1061397 
682.7      0.3324136  0.456425   0.100444  
682.8      0.3398301  0.459758   0.09180889
682.9      0.3470246  0.4388733  0.08048492
683        0.3494531  0.4045149  0.06831987
683.1      0.3477131  0.3754444  0.07401157
683.2      0.3550673  0.339773   0.06890318
683.3      0.3645476  0.3221193  0.05918592
683.4      0.3688484  0.3208632  0.05230784
683.5      0.3758619  0.3265622  0.04901151
683.6      0.3809054  0.3387381  0.0504568 
683.7      0.3850752  0.3416907  0.04248323
683.8      0.3811907  0.3465145  0.03769225
683.9      0.3781772  0.3657066  0.03584606
684        0.3777642  0.3867646  0.03802502
