~Version
 VERS              .         3.0                           : CWLS LOG ASCII STANDARD - VERSION 3.0
 WRAP              .         NO                            : ONE LINE PER DEPTH STEP
 DLM               .         SPACE                         : DELIMITING CHARACTER(SPACE TAB OR COMMA)
~Well Information
#_______________________________________________________________________________
#
#PARAMETER_NAME    .UNIT     VALUE                         : DESCRIPTION
#_______________________________________________________________________________
STRT               .M        13                            : First reference value
STOP               .M        939                           : Last reference value
STEP               .M        0.1                           : Step increment
NULL               .         -9999                         : Missing value
COMP               .         ICPetroleum                   : Company
WELL               .         314                           : Well name
FLD                .         Karatobe                      : Field
LOC                .                                       : Location
SRVC               .         ТОО ГК ГИС Сервис             : Service Company
CTRY               .         KZ                            : Country
DATE               .         20.01.2022                    : Service Date
LATI               .         0                             : Latitude
LONG               .         0                             : Longitude
GDAT               .         WGS 84                        : Geodetic Datum
COORDIN            .                                       : Grid System
COUNTRY            .         Kazakhstan                    : 
COUNTRY            .         Kazakhstan                    : 
EREF               .m        142.1                         : 
KB                 .         141.2                         : KB Elevation
ORIGINALWELLNAME   .         314                           : 
PROV               .                                       : Province
RWS                .         -999                          : Def_Rw
UWI                .                                       : Уникальный идентификатор скважины
WST                .         -999                          : Def_Rwt
X                  .km       466035.84                     : 
XCOORD             .                                       : X or East-West Coordinate
Y                  .km       5307724.98                    : 
YCOORD             .                                       : Y or North-South Coordinate
~Parameter Information Block
#_______________________________________________________________________________
#
#PARAMETER_NAME    .UNIT     VALUE                         : DESCRIPTION
#_______________________________________________________________________________
SET                .         Las                           : 
BS                 .MM       215.90                        : Bit Size
DFD                .G/C3     1.14                          : Drilling Fluid Density
DFV                .S        39.00                         : Drilling Fluid Viscosity
RMS                .OHMM     .00                           : Mud Sample Resistivity
TLFamily_DEPT      .         Measured Depth                : 
TLFamily_PHI_FINAL .         Porosity                      : 
TLFamily_SW_AR     .         Water Saturation              : 
TLFamily_VSH_FINAL .         Shale Volume                  : 
~Curve Information
#_______________________________________________________________________________
#
#LOGNAME           .UNIT     LOG_ID                        : DESCRIPTION
#_______________________________________________________________________________
DEPT               .M                                      : Depth curve {F}
PHI_FINAL          .m3/m3                                  : Porosity {F}
SW_AR              .m3/m3                                  :  {F}
VSH_FINAL          .unitless                               : Vshale {F}
~Ascii
# ...
392.9      0.02273054 1          1         
393        0.02404817 1          1         
393.1      0.02379342 1          1         
393.2      0.02634264 1          1         
393.3      0.02550425 1          1         
393.4      0.02459404 1          1         
393.5      0.02325727 1          1         
393.6      0.02776999 1          1         
393.7      0.02665026 1          1         
393.8      0.02456571 1          1         
393.9      0.01998034 1          1         
394        0.01609448 1          1         
394.1      0.01494638 1          1         
394.2      0.01038427 1          1         
394.3      0.007222707 1          1         
394.4      0.005244553 1          1         
394.5      0.00411823 1          1         
394.6      0.006158697 1          1         
394.7      0.008660052 1          1         
394.8      0.01186416 1          1         
394.9      0.01696372 1          1         
395        0.01512805 1          1         
395.1      0.01508068 1          1         
395.2      0.01599763 1          1         
395.3      0.01322835 1          1         
395.4      0.01225489 1          1         
395.5      0.01160551 1          1         
395.6      0.02412461 1          0.9383237 
395.7      0.01116053 1          1         
395.8      0.02225671 1          0.9235272 
395.9      0.008759912 1          1         
396        0.02094878 1          0.9177227 
396.1      0.02766986 1          0.8858622 
396.2      0.02410238 1          0.8955798 
396.3      0.03274021 1          0.8673223 
396.4      0.03410656 1          0.8690853 
396.5      0.05495584 1          0.8236192 
396.6      0.06271266 1          0.8103612 
396.7      0.1159022  1          0.6783068 
396.8      0.1114767  1          0.6953804 
396.9      0.09730372 1          0.733848  
397        0.09196065 1          0.753858  
397.1      0.08904193 1          0.7534336 
397.2      0.09186433 1          0.7423285 
397.3      0.109428   1          0.6637979 
397.4      0.09294561 1          0.6751338 
397.5      0.1044603  1          0.5903638 
397.6      0.1218916  0.8865174  0.4780393 
397.7      0.09492949 1          0.4657615 
397.8      0.07483848 1          0.4332761 
397.9      0.06831963 1          0.4184084 
398        0.08611954 1          0.3892123 
398.1      0.1056081  0.9104177  0.3991566 
398.2      0.1234678  0.8700705  0.3807073 
398.3      0.1180313  1          0.3694978 
398.4      0.09144541 1          0.3536617 
398.5      0.04495783 1          0.4219252 
398.6      0.02523473 1          0.4538957 
398.7      0.01308452 1          0.5067148 
398.8      0.01887932 1          0.5195245 
398.9      0.01166785 1          0.596923  
399        0.009180656 1          0.6640372 
399.1      0.01493634 1          0.7112972 
399.2      0.0136164  1          0.7811695 
399.3      0.04681399 1          0.75798   
399.4      0.06405724 1          0.7310038 
399.5      0.0273891  1          0.8806357 
399.6      0.03810903 1          0.8707493 
399.7      0.01203276 1          0.9623418 
399.8      0.008167035 1          1         
399.9      0.01070186 1          1         
400        0.02598747 1          0.9325428 
400.1      0.06958768 1          0.8088754 
400.2      0.04922749 1          0.8481066 
400.3      0.05569508 1          0.8274274 
400.4      0.03870374 1          0.8771428 
400.5      0.09831039 1          0.73089   
400.6      0.07515284 1          0.7875898 
400.7      0.05738208 1          0.8252587 
400.8      0.03983247 1          0.855956  
400.9      0.05620705 1          0.806142  
401        0.04222093 1          0.8340215 
401.1      0.06381678 1          0.7824544 
401.2      0.06341374 1          0.7982174 
401.3      0.02169316 1          0.9206148 
401.4      0.008029216 1          1         
401.5      0.02553786 1          0.9108198 
401.6      0.01466331 1          0.9911602 
401.7      0.01347996 1          1         
401.8      0.01432953 1          1         
401.9      0.01444153 1          1         
402        0.0137326  1          0.99726   
402.1      0.01411541 1          1         
402.2      0.02897788 1          0.9533393 
402.3      0.04151914 1          0.934456  
402.4      0.04772933 1          0.9352997 
402.5      0.03345917 1          1         
402.6      0.03019571 1          1         
402.7      0.02314401 1          1         
402.8      0.01861307 1          0.9779836 
402.9      0.02769362 1          0.9009908 
403        0.05861858 1          0.7931344 
403.1      0.08602512 1          0.7252071 
403.2      0.1124631  1          0.67318   
403.3      0.1044749  1          0.6856432 
403.4      0.09921046 1          0.7110463 
403.5      0.09425851 1          0.7394987 
403.6      0.1060823  1          0.7180378 
403.7      0.1060579  1          0.71387   
403.8      0.1302152  1          0.6603385 
403.9      0.1146929  1          0.7085276 
404        0.131036   1          0.6750126 
404.1      0.1544617  1          0.6245816 
404.2      0.175947   1          0.5702139 
404.3      0.1457595  1          0.6436709 
404.4      0.1170826  1          0.702838  
404.5      0.09768611 1          0.7433993 
404.6      0.09458417 1          0.744096  
404.7      0.04571872 1          0.8479647 
404.8      0.02300194 1          0.9149544 
404.9      0.02040707 1          0.9114227 
405        0.07959243 1          0.7028624 
405.1      0.08004708 1          0.6828972 
405.2      0.08275419 1          0.6649504 
405.3      0.08055363 1          0.6943291 
405.4      0.0759085  1          0.7360767 
405.5      0.0314776  1          0.886581  
405.6      0.04179423 1          0.8782912 
405.7      0.03277341 1          0.9079895 
405.8      0.05104453 1          0.8477355 
405.9      0.06140216 1          0.8134788 
406        0.06425294 1          0.7992709 
406.1      0.03630842 1          0.8554137 
406.2      0.0126126  1          0.9670976 
406.3      0.0167916  1          0.9588182 
406.4      0.01499575 1          1         
406.5      0.01974102 1          0.9814392 
406.6      0.03275371 1          0.944341  
406.7      0.02336632 1          0.9774759 
406.8      0.0248575  1          0.9677038 
406.9      0.0149559  1          1         
407        0.01328998 1          1         
407.1      0.01134892 1          1         
407.2      0.01118196 1          1         
407.3      0.02983509 1          0.9011708 
407.4      0.05109194 1          0.8435751 
407.5      0.06197587 1          0.8182466 
407.6      0.06239792 1          0.8186963 
407.7      0.05603097 1          0.8534097 
407.8      0.04203114 1          0.9029356 
407.9      0.02699272 1          0.9585639 
408        0.03601205 1          0.9233138 
408.1      0.05290166 1          0.8571616 
408.2      0.05288294 1          0.8522751 
408.3      0.03624797 1          0.9073576 
408.4      0.0211835  1          0.9745126 
408.5      0.05428261 1          0.8386987 
408.6      0.08346226 1          0.7466468 
408.7      0.1148842  1          0.6333613 
408.8      0.1095948  1          0.6045201 
408.9      0.08144244 1          0.6092756 
409        0.05072133 1          0.5962861 
409.1      0.05595872 1          0.5213431 
409.2      0.05264327 1          0.5176187 
409.3      0.02954257 1          0.6326918 
409.4      0.01607204 1          0.7842123 
409.5      0.01041126 1          0.9256555 
409.6      0.01676949 1          0.9778575 
409.7      0.02120064 1          1         
409.8      0.02410668 1          1         
409.9      0.02335475 1          1         
410        0.02305835 1          1         
410.1      0.02451264 1          1         
410.2      0.02806099 1          1         
410.3      0.06905817 1          0.8861145 
410.4      0.06090741 1          0.9126084 
410.5      0.06708611 1          0.8805895 
410.6      0.04802414 1          0.9372405 
410.7      0.04760621 1          0.9305817 
410.8      0.02160457 1          1         
410.9      0.01883594 1          1         
411        0.02512908 1          0.9450763 
