~Version
 VERS              .         3.0                           : CWLS LOG ASCII STANDARD - VERSION 3.0
 WRAP              .         NO                            : ONE LINE PER DEPTH STEP
 DLM               .         SPACE                         : DELIMITING CHARACTER(SPACE TAB OR COMMA)
~Well Information
#_______________________________________________________________________________
#
#PARAMETER_NAME    .UNIT     VALUE                         : DESCRIPTION
#_______________________________________________________________________________
STRT               .M        13                            : First reference value
STOP               .M        939                           : Last reference value
STEP               .M        0.1                           : Step increment
NULL               .         -9999                         : Missing value
COMP               .         ICPetroleum                   : Company
WELL               .         314                           : Well name
FLD                .         Karatobe                      : Field
LOC                .                                       : Location
SRVC               .         ТОО ГК ГИС Сервис             : Service Company
CTRY               .         KZ                            : Country
DATE               .         20.01.2022                    : Service Date
LATI               .         0                             : Latitude
LONG               .         0                             : Longitude
GDAT               .         WGS 84                        : Geodetic Datum
COORDIN            .                                       : Grid System
COUNTRY            .         Kazakhstan                    : 
COUNTRY            .         Kazakhstan                    : 
EREF               .m        142.1                         : 
KB                 .         141.2                         : KB Elevation
ORIGINALWELLNAME   .         314                           : 
PROV               .                                       : Province
RWS                .         -999                          : Def_Rw
UWI                .                                       : Уникальный идентификатор скважины
WST                .         -999                          : Def_Rwt
X                  .km       466035.84                     : 
XCOORD             .                                       : X or East-West Coordinate
Y                  .km       5307724.98                    : 
YCOORD             .                                       : Y or North-South Coordinate
~Parameter Information Block
#_______________________________________________________________________________
#
#PARAMETER_NAME    .UNIT     VALUE                         : DESCRIPTION
#_______________________________________________________________________________
SET                .         Las                           : 
BS                 .MM       215.90                        : Bit Size
DFD                .G/C3     1.14                          : Drilling Fluid Density
DFV                .S        39.00                         : Drilling Fluid Viscosity
RMS                .OHMM     .00                           : Mud Sample Resistivity
TLFamily_DEPT      .         Measured Depth                : 
TLFamily_PHI_FINAL .         Porosity                      : 
TLFamily_SW_AR     .         Water Saturation              : 
TLFamily_VSH_FINAL .         Shale Volume                  : 
~Curve Information
#_______________________________________________________________________________
#
#LOGNAME           .UNIT     LOG_ID                        : DESCRIPTION
#_______________________________________________________________________________
DEPT               .M                                      : Depth curve {F}
PHI_FINAL          .m3/m3                                  : Porosity {F}
SW_AR              .m3/m3                                  :  {F}
VSH_FINAL          .unitless                               : Vshale {F}
~Ascii
# ...
338.3      0          1          1         
338.4      0          1          1         
338.5      0          1          1         
338.6      0          1          1         
338.7      0          1          1         
338.8      0          1          1         
338.9      0          1          1         
339        0.002809617 1          0.9841765 
339.1      0.01871872 1          0.9041631 
339.2      0.03753976 1          0.8474213 
339.3      0.054456   1          0.7989209 
339.4      0.02398717 1          0.9067465 
339.5      0.008696425 1          1         
339.6      0.008158217 1          1         
339.7      0.008904881 1          1         
339.8      0.009375605 1          1         
339.9      0.0117542  1          1         
340        0.04066699 1          0.8945177 
340.1      0.03015666 1          0.9427752 
340.2      0.05994586 1          0.8609182 
340.3      0.1122589  1          0.7434234 
340.4      0.1413064  1          0.6586719 
340.5      0.1327225  1          0.7094296 
340.6      0.1651393  1          0.6459692 
340.7      0.1535649  1          0.663816  
340.8      0.171288   1          0.6229457 
340.9      0.1257043  1          0.733575  
341        0.06332945 1          0.8913096 
341.1      0.08122353 1          0.8461421 
341.2      0.09117708 1          0.84368   
341.3      0.05321427 1          0.9462177 
341.4      0.03091749 1          1         
341.5      0.05909021 1          0.9175503 
341.6      0.039506   1          0.965775  
341.7      0.06173204 1          0.883876  
341.8      0.09139824 1          0.8112168 
341.9      0.0958814  1          0.7911044 
342        0.05299715 1          0.9001752 
342.1      0.01996845 1          1         
342.2      0.0242603  1          1         
342.3      0.0262679  1          1         
342.4      0.03086329 1          0.99297   
342.5      0.0235332  1          1         
342.6      0.02125203 1          1         
342.7      0.01990206 1          1         
342.8      0.02288789 1          1         
342.9      0.02548189 1          1         
343        0.02616753 1          1         
343.1      0.0262816  1          1         
343.2      0.02510292 1          1         
343.3      0.01434166 1          1         
343.4      0.0007456113 1          1         
343.5      0          1          1         
343.6      0          1          1         
343.7      0          1          1         
343.8      0          1          1         
343.9      0          1          1         
344        0          1          1         
344.1      0          1          1         
344.2      0          1          1         
344.3      0          1          1         
344.4      0          1          1         
344.5      0.0009600561 1          1         
344.6      0.007912719 1          1         
344.7      0.05386259 1          0.8590648 
344.8      0.128488   1          0.7252221 
344.9      0.1903758  1          0.5833849 
345        0.1730846  1          0.6391768 
345.1      0.1954008  1          0.5757177 
345.2      0.2090024  1          0.567327  
345.3      0.2196557  1          0.5434305 
345.4      0.2548276  0.9665377  0.4908195 
345.5      0.3176406  0.783679   0.4084885 
345.6      0.3350171  0.7440727  0.3859688 
345.7      0.3455165  0.7254836  0.3503932 
345.8      0.3272843  0.7794459  0.3608238 
345.9      0.3164505  0.8194971  0.3498279 
346        0.3204418  0.8247807  0.3320435 
346.1      0.3405207  0.7902017  0.3046376 
346.2      0.3365456  0.8079901  0.3510363 
346.3      0.3732859  0.7427567  0.3154577 
346.4      0.3935307  0.7174792  0.3120642 
346.5      0.4273847  0.6702198  0.2738723 
346.6      0.4212348  0.6760149  0.2606663 
346.7      0.425914   0.6533148  0.2499335 
346.8      0.4045905  0.6494098  0.2495479 
346.9      0.3631048  0.6741037  0.2963317 
347        0.3288002  0.7086845  0.3086078 
347.1      0.2908073  0.7759235  0.3218474 
347.2      0.2566957  0.872582   0.3407091 
347.3      0.2738085  0.8256686  0.3203315 
347.4      0.2897526  0.7862171  0.3030998 
347.5      0.3079725  0.7429714  0.2701149 
347.6      0.3090544  0.7410997  0.2689623 
347.7      0.3001184  0.7594224  0.2880833 
347.8      0.3127173  0.7156397  0.2653211 
347.9      0.2994978  0.7129009  0.2960288 
348        0.3183886  0.6539856  0.2630523 
348.1      0.3317563  0.6147799  0.2470029 
348.2      0.3323908  0.6071968  0.2484772 
348.3      0.3511681  0.5715978  0.2501917 
348.4      0.3501078  0.5698077  0.2600021 
348.5      0.3492837  0.5690049  0.2528208 
348.6      0.352042   0.5612676  0.2779515 
348.7      0.3354131  0.5842119  0.3259203 
348.8      0.3213823  0.6043904  0.3537437 
348.9      0.310276   0.6235253  0.3890517 
349        0.3014677  0.6484834  0.411008  
349.1      0.3009415  0.6764135  0.4269592 
349.2      0.2954043  0.7247862  0.4426851 
349.3      0.2710339  0.8423076  0.5124955 
349.4      0.2434662  0.9946594  0.5929845 
349.5      0.1876164  1          0.7260555 
349.6      0.1080582  1          0.9340048 
349.7      0.09075619 1          1         
349.8      0.09269958 1          1         
349.9      0.1141412  1          1         
350        0.1185533  1          1         
350.1      0.1154928  1          1         
350.2      0.1262558  1          0.9779628 
350.3      0.165719   1          0.8843774 
350.4      0.1370073  1          0.9193873 
350.5      0.2156158  1          0.7179028 
350.6      0.2370272  1          0.6184525 
350.7      0.2479058  1          0.5481595 
350.8      0.2319505  1          0.5120009 
350.9      0.1718871  1          0.5757406 
351        0.1149926  1          0.6211994 
351.1      0.1170771  1          0.5906956 
351.2      0.07624891 1          0.7152653 
351.3      0.04916219 1          0.7884427 
351.4      0.03802339 1          0.8228131 
351.5      0.05024399 1          0.7853933 
351.6      0.03421354 1          0.8320451 
351.7      0.03115273 1          0.8480315 
351.8      0.02455907 1          0.8786589 
351.9      0.05558228 1          0.7933232 
352        0.03594099 1          0.8813354 
352.1      0.02528072 1          0.9050643 
352.2      0.006949347 1          1         
352.3      0.01418569 1          1         
352.4      0.01867845 1          1         
352.5      0.01611929 1          1         
352.6      0.01374386 1          1         
352.7      0.008321323 1          1         
352.8      0.003498933 1          1         
352.9      0          1          1         
353        0          1          1         
353.1      0          1          0.9440434 
353.2      0          1          1         
353.3      0          1          1         
353.4      0.01100621 1          0.9641172 
353.5      0.01458785 1          0.9936054 
353.6      0.02090219 1          1         
353.7      0.01759506 1          1         
353.8      0.01328934 1          1         
353.9      0.0104868  1          1         
354        0.008331708 1          1         
354.1      0.006246351 1          1         
354.2      0.005493477 1          1         
354.3      0.00238608 1          1         
354.4      0          1          1         
354.5      0          1          1         
354.6      0          1          1         
354.7      0          1          1         
354.8      0          1          1         
354.9      0          1          1         
355        0          1          1         
355.1      0.0005537648 1          1         
355.2      0.003191915 1          1         
355.3      0.006292998 1          1         
355.4      0.009318941 1          1         
355.5      0.01350715 1          1         
355.6      0.01739167 1          1         
355.7      0.01794137 1          1         
355.8      0.01767222 1          1         
355.9      0.01675792 1          1         
356        0.01488786 1          1         
356.1      0.01480866 1          1         
356.2      0.01549248 1          1         
356.3      0.01774078 1          1         
356.4      0.019257   1          1         
