~Version
 VERS              .         3.0                           : CWLS LOG ASCII STANDARD - VERSION 3.0
 WRAP              .         NO                            : ONE LINE PER DEPTH STEP
 DLM               .         SPACE                         : DELIMITING CHARACTER(SPACE TAB OR COMMA)
~Well Information
#_______________________________________________________________________________
#
#PARAMETER_NAME    .UNIT     VALUE                         : DESCRIPTION
#_______________________________________________________________________________
STRT               .M        13                            : First reference value
STOP               .M        939                           : Last reference value
STEP               .M        0.1                           : Step increment
NULL               .         -9999                         : Missing value
COMP               .         ICPetroleum                   : Company
WELL               .         314                           : Well name
FLD                .         Karatobe                      : Field
LOC                .                                       : Location
SRVC               .         ТОО ГК ГИС Сервис             : Service Company
CTRY               .         KZ                            : Country
DATE               .         20.01.2022                    : Service Date
LATI               .         0                             : Latitude
LONG               .         0                             : Longitude
GDAT               .         WGS 84                        : Geodetic Datum
COORDIN            .                                       : Grid System
COUNTRY            .         Kazakhstan                    : 
COUNTRY            .         Kazakhstan                    : 
EREF               .m        142.1                         : 
KB                 .         141.2                         : KB Elevation
ORIGINALWELLNAME   .         314                           : 
PROV               .                                       : Province
RWS                .         -999                          : Def_Rw
UWI                .                                       : Уникальный идентификатор скважины
WST                .         -999                          : Def_Rwt
X                  .km       466035.84                     : 
XCOORD             .                                       : X or East-West Coordinate
Y                  .km       5307724.98                    : 
YCOORD             .                                       : Y or North-South Coordinate
~Parameter Information Block
#_______________________________________________________________________________
#
#PARAMETER_NAME    .UNIT     VALUE                         : DESCRIPTION
#_______________________________________________________________________________
SET                .         Las                           : 
BS                 .MM       215.90                        : Bit Size
DFD                .G/C3     1.14                          : Drilling Fluid Density
DFV                .S        39.00                         : Drilling Fluid Viscosity
RMS                .OHMM     .00                           : Mud Sample Resistivity
TLFamily_DEPT      .         Measured Depth                : 
TLFamily_PHI_FINAL .         Porosity                      : 
TLFamily_SW_AR     .         Water Saturation              : 
TLFamily_VSH_FINAL .         Shale Volume                  : 
~Curve Information
#_______________________________________________________________________________
#
#LOGNAME           .UNIT     LOG_ID                        : DESCRIPTION
#_______________________________________________________________________________
DEPT               .M                                      : Depth curve {F}
PHI_FINAL          .m3/m3                                  : Porosity {F}
SW_AR              .m3/m3                                  :  {F}
VSH_FINAL          .unitless                               : Vshale {F}
~Ascii
# ...
192.7      0.1424563  1          0.7911993 
192.8      0.1515614  1          0.7606276 
192.9      0.1569274  1          0.7425405 
193        0.2004004  1          0.632295  
193.1      0.2041041  1          0.6122566 
193.2      0.2189565  1          0.5890321 
193.3      0.2321144  1          0.5910519 
193.4      0.2372941  0.9724553  0.6118768 
193.5      0.2236531  1          0.6538443 
193.6      0.1856209  1          0.7519556 
193.7      0.2064176  1          0.705988  
193.8      0.1848976  1          0.7542825 
193.9      0.1947528  1          0.7269609 
194        0.2058827  1          0.6927911 
194.1      0.1957863  1          0.7250384 
194.2      0.2053894  1          0.7067948 
194.3      0.199187   1          0.7366814 
194.4      0.1913612  1          0.7440408 
194.5      0.1895611  1          0.7537879 
194.6      0.210092   1          0.7169125 
194.7      0.208971   1          0.7273053 
194.8      0.1998158  1          0.7660042 
194.9      0.1625748  1          0.8562634 
195        0.2049575  1          0.7440496 
195.1      0.2095173  1          0.7066783 
195.2      0.2356941  1          0.6399392 
195.3      0.2359996  1          0.6426796 
195.4      0.2667499  0.9025929  0.5567858 
195.5      0.2809903  0.859567   0.5245152 
195.6      0.2700786  0.8898625  0.5457437 
195.7      0.2763142  0.865528   0.533533  
195.8      0.255407   0.931269   0.5814187 
195.9      0.2599119  0.916631   0.5587677 
196        0.2542353  0.9379416  0.5689161 
196.1      0.2237751  1          0.651732  
196.2      0.2143254  1          0.6589136 
196.3      0.1885453  1          0.7279934 
196.4      0.1811829  1          0.7375372 
196.5      0.1887484  1          0.7351031 
196.6      0.2024705  1          0.711928  
196.7      0.2161622  1          0.6808881 
196.8      0.2121712  1          0.6846886 
196.9      0.2050525  1          0.6937225 
197        0.2188568  1          0.6681499 
197.1      0.2086137  1          0.6894369 
197.2      0.1431541  1          0.847732  
197.3      0.1586206  1          0.7872778 
197.4      0.1504921  1          0.8020509 
197.5      0.1359909  1          0.833986  
197.6      0.1240841  1          0.8830042 
197.7      0.1675228  1          0.7814289 
197.8      0.1651819  1          0.7809138 
197.9      0.1560537  1          0.8050171 
198        0.1800768  1          0.7683471 
198.1      0.1688121  1          0.8022012 
198.2      0.1833353  1          0.7768129 
198.3      0.1664973  1          0.8259841 
198.4      0.1215783  1          0.9088725 
198.5      0.09626927 1          0.9466564 
198.6      0.1234645  1          0.8594827 
198.7      0.08690029 1          0.9220666 
198.8      0.04401672 1          1         
198.9      0.04740487 1          1         
199        0.04791452 1          1         
199.1      0.05771778 1          1         
199.2      0.06955678 1          1         
199.3      0.07650761 1          1         
199.4      0.08381141 1          1         
199.5      0.08866084 1          1         
199.6      0.08503288 1          1         
199.7      0.08346944 1          1         
199.8      0.09589759 1          1         
199.9      0.08984932 1          1         
200        0.0851448  1          1         
200.1      0.08426326 1          1         
200.2      0.07916667 1          1         
200.3      0.08128256 1          1         
200.4      0.07966033 1          1         
200.5      0.07778922 1          1         
200.6      0.0921438  1          0.9649593 
200.7      0.09964561 1          0.9564879 
200.8      0.1120323  1          0.9263269 
200.9      0.0862085  1          1         
201        0.1367628  1          0.8761656 
201.1      0.1383191  1          0.8620563 
201.2      0.1722148  1          0.739903  
201.3      0.172191   1          0.7041536 
201.4      0.1729654  1          0.6628623 
201.5      0.2001296  0.9690291  0.5618932 
201.6      0.2119406  0.919441   0.5251927 
201.7      0.2052232  0.9575483  0.5184065 
201.8      0.1929474  1          0.5314996 
201.9      0.2127529  0.9797083  0.4892675 
202        0.2221668  0.9661537  0.475566  
202.1      0.2410768  0.9297337  0.4333036 
202.2      0.2686338  0.8652149  0.3737967 
202.3      0.2876832  0.8225841  0.3429278 
202.4      0.3000529  0.7800382  0.3185602 
202.5      0.3176961  0.7336519  0.2806619 
202.6      0.3205323  0.7281067  0.2847988 
202.7      0.3094572  0.755465   0.3265533 
202.8      0.3161659  0.7422572  0.3289271 
202.9      0.2962634  0.7881646  0.3809533 
203        0.3114801  0.750451   0.3511557 
203.1      0.3063947  0.7661579  0.3648266 
203.2      0.3063501  0.7773435  0.3697319 
203.3      0.3172598  0.7582855  0.3561346 
203.4      0.3128128  0.7682118  0.3667562 
203.5      0.3290179  0.7283334  0.3321183 
203.6      0.334724   0.7087005  0.3212467 
203.7      0.3367059  0.6941817  0.3303727 
203.8      0.3437369  0.6757771  0.309835  
203.9      0.3376549  0.6854053  0.3263712 
204        0.3232728  0.7066385  0.3579524 
204.1      0.3467832  0.6524416  0.3012641 
204.2      0.3439796  0.6592978  0.3042525 
204.3      0.3448202  0.661984   0.3007105 
204.4      0.3407353  0.6704329  0.3018713 
204.5      0.3449392  0.6630132  0.2935769 
204.6      0.3374125  0.6809595  0.3126785 
204.7      0.3435749  0.673579   0.2902337 
204.8      0.3531584  0.6573312  0.2754986 
204.9      0.3535447  0.6481442  0.2713858 
205        0.3474078  0.6500334  0.2857116 
205.1      0.3439244  0.6506971  0.2832067 
205.2      0.3310463  0.6761481  0.3117423 
205.3      0.3175577  0.7036046  0.3411588 
205.4      0.3377529  0.6637425  0.293735  
205.5      0.3421641  0.6599587  0.2847545 
205.6      0.3296939  0.6948189  0.3093667 
205.7      0.3427906  0.6735249  0.2813503 
205.8      0.3440549  0.6674586  0.265742  
205.9      0.3463638  0.656324   0.2631036 
206        0.3415865  0.664077   0.2792136 
206.1      0.3323957  0.6874125  0.3058839 
206.2      0.3154184  0.7260238  0.3429696 
206.3      0.3274202  0.7006019  0.3065471 
206.4      0.3328946  0.6890429  0.2965204 
206.5      0.3302669  0.6964365  0.3082864 
206.6      0.3269484  0.7059375  0.3164705 
206.7      0.3109444  0.7395487  0.3614807 
206.8      0.3303671  0.6959042  0.3260533 
206.9      0.3436047  0.6727684  0.2955317 
207        0.3569979  0.652852   0.2664672 
207.1      0.3680426  0.6335861  0.2448779 
207.2      0.3790947  0.6136237  0.2220982 
207.3      0.377756   0.6140077  0.2181356 
207.4      0.3944379  0.589509   0.1842129 
207.5      0.3905304  0.5957531  0.1955446 
207.6      0.3789536  0.614827   0.2259416 
207.7      0.3763033  0.6196206  0.2242137 
207.8      0.3662485  0.6355975  0.2542697 
207.9      0.3780775  0.6211897  0.2246284 
208        0.3617489  0.6547734  0.2619555 
208.1      0.3626359  0.6594381  0.2513818 
208.2      0.3713834  0.6391202  0.2273149 
208.3      0.3757408  0.6175168  0.2259436 
208.4      0.3801893  0.599556   0.2119302 
208.5      0.3713534  0.6093801  0.2268461 
208.6      0.3638521  0.6247014  0.2385782 
208.7      0.3354549  0.683202   0.3010837 
208.8      0.3446504  0.6756126  0.2762567 
208.9      0.3431292  0.68424    0.2732651 
209        0.350526   0.6701321  0.2553793 
209.1      0.3615295  0.6437541  0.2284662 
209.2      0.3429361  0.6695182  0.2919085 
209.3      0.354142   0.6426798  0.2760342 
209.4      0.3533819  0.6392419  0.2799529 
209.5      0.3577698  0.6309546  0.2684255 
209.6      0.34698    0.6531973  0.2855978 
209.7      0.327442   0.6943029  0.3176465 
209.8      0.3281272  0.6928232  0.3015909 
209.9      0.3425487  0.6594601  0.257678  
210        0.3411125  0.6662914  0.2489392 
210.1      0.3342065  0.6886682  0.2620299 
210.2      0.3031177  0.7531466  0.3337071 
210.3      0.3018103  0.7490215  0.3339771 
210.4      0.3075221  0.7370028  0.3191601 
210.5      0.3027458  0.75982    0.3289928 
210.6      0.305998   0.7705718  0.3260426 
210.7      0.3282615  0.7217701  0.277384  
210.8      0.3278614  0.7186193  0.2824559 
