~Version
 VERS              .         3.0                           : CWLS LOG ASCII STANDARD - VERSION 3.0
 WRAP              .         NO                            : ONE LINE PER DEPTH STEP
 DLM               .         SPACE                         : DELIMITING CHARACTER(SPACE TAB OR COMMA)
~Well Information
#_______________________________________________________________________________
#
#PARAMETER_NAME    .UNIT     VALUE                         : DESCRIPTION
#_______________________________________________________________________________
STRT               .M        13                            : First reference value
STOP               .M        939                           : Last reference value
STEP               .M        0.1                           : Step increment
NULL               .         -9999                         : Missing value
COMP               .         ICPetroleum                   : Company
WELL               .         314                           : Well name
FLD                .         Karatobe                      : Field
LOC                .                                       : Location
SRVC               .         ТОО ГК ГИС Сервис             : Service Company
CTRY               .         KZ                            : Country
DATE               .         20.01.2022                    : Service Date
LATI               .         0                             : Latitude
LONG               .         0                             : Longitude
GDAT               .         WGS 84                        : Geodetic Datum
COORDIN            .                                       : Grid System
COUNTRY            .         Kazakhstan                    : 
COUNTRY            .         Kazakhstan                    : 
EREF               .m        142.1                         : 
KB                 .         141.2                         : KB Elevation
ORIGINALWELLNAME   .         314                           : 
PROV               .                                       : Province
RWS                .         -999                          : Def_Rw
UWI                .                                       : Уникальный идентификатор скважины
WST                .         -999                          : Def_Rwt
X                  .km       466035.84                     : 
XCOORD             .                                       : X or East-West Coordinate
Y                  .km       5307724.98                    : 
YCOORD             .                                       : Y or North-South Coordinate
~Parameter Information Block
#_______________________________________________________________________________
#
#PARAMETER_NAME    .UNIT     VALUE                         : DESCRIPTION
#_______________________________________________________________________________
SET                .         Las                           : 
BS                 .MM       215.90                        : Bit Size
DFD                .G/C3     1.14                          : Drilling Fluid Density
DFV                .S        39.00                         : Drilling Fluid Viscosity
RMS                .OHMM     .00                           : Mud Sample Resistivity
TLFamily_DEPT      .         Measured Depth                : 
TLFamily_PHI_FINAL .         Porosity                      : 
TLFamily_SW_AR     .         Water Saturation              : 
TLFamily_VSH_FINAL .         Shale Volume                  : 
~Curve Information
#_______________________________________________________________________________
#
#LOGNAME           .UNIT     LOG_ID                        : DESCRIPTION
#_______________________________________________________________________________
DEPT               .M                                      : Depth curve {F}
PHI_FINAL          .m3/m3                                  : Porosity {F}
SW_AR              .m3/m3                                  :  {F}
VSH_FINAL          .unitless                               : Vshale {F}
~Ascii
# ...
502.1      0.3407241  0.9514059  0.1855757 
502.2      0.3581792  0.9208136  0.1391869 
502.3      0.3566096  0.9406887  0.1310833 
502.4      0.3553269  0.9505656  0.136727  
502.5      0.3587528  0.9386576  0.1282491 
502.6      0.3465059  0.9660014  0.1440677 
502.7      0.3403327  0.9691136  0.1571886 
502.8      0.3326481  0.9782347  0.1674988 
502.9      0.3368554  0.9637619  0.1729692 
503        0.3437566  0.9617673  0.1642561 
503.1      0.3557282  0.9550993  0.1381487 
503.2      0.3604164  0.9482914  0.1167363 
503.3      0.3650967  0.9153464  0.1025137 
503.4      0.3727048  0.8827618  0.1027368 
503.5      0.3673702  0.8859972  0.1189713 
503.6      0.3646704  0.8845432  0.1220263 
503.7      0.3583885  0.9002653  0.1209864 
503.8      0.3619067  0.9115591  0.121038  
503.9      0.3676881  0.9118291  0.1078879 
504        0.368766   0.9231259  0.09744668
504.1      0.3777498  0.9127921  0.085926  
504.2      0.3857927  0.8935934  0.08183235
504.3      0.3899058  0.8808834  0.08275852
504.4      0.3904303  0.8864934  0.09577419
504.5      0.3982449  0.8806623  0.08446842
504.6      0.3985296  0.8830847  0.08769696
504.7      0.3983682  0.8715211  0.09164362
504.8      0.3866087  0.8701105  0.09658027
504.9      0.3661346  0.8933857  0.1282601 
505        0.3467989  0.9333987  0.1486579 
505.1      0.328175   0.9863764  0.1711814 
505.2      0.3375665  0.9624203  0.1492806 
505.3      0.3396868  0.9476426  0.1274133 
505.4      0.3522055  0.9061418  0.09924719
505.5      0.3581591  0.8916283  0.0946664 
505.6      0.361513   0.9017338  0.09150987
505.7      0.3652581  0.9067179  0.0943142 
505.8      0.3714445  0.9059749  0.08797199
505.9      0.3795628  0.8942015  0.06809653
506        0.3817228  0.8957931  0.05705126
506.1      0.3930217  0.8742758  0.03884907
506.2      0.3906094  0.8822891  0.03263143
506.3      0.383573   0.9069386  0.03922528
506.4      0.3826623  0.9151735  0.04291603
506.5      0.386357   0.9118892  0.04052819
506.6      0.3865986  0.91198    0.04006121
506.7      0.3880232  0.905687   0.03909765
506.8      0.3910342  0.8902601  0.03974659
506.9      0.3840482  0.8998222  0.04464599
507        0.3809573  0.9097629  0.04653572
507.1      0.3749746  0.9348304  0.05119945
507.2      0.3736416  0.9405686  0.05292977
507.3      0.3729528  0.9251249  0.05633076
507.4      0.3782171  0.8917575  0.05645686
507.5      0.3751624  0.8909767  0.06247462
507.6      0.3763783  0.8748767  0.0611539 
507.7      0.3784405  0.8463604  0.06351507
507.8      0.385126   0.8331808  0.05775337
507.9      0.3860261  0.8446804  0.06470136
508        0.3924886  0.846311   0.05456306
508.1      0.4048555  0.8259288  0.04392418
508.2      0.4253831  0.7857291  0.0384782 
508.3      0.436078   0.755845   0.03293947
508.4      0.4358881  0.7471923  0.02751553
508.5      0.4270166  0.7625431  0.02488189
508.6      0.4137443  0.8009262  0.03376913
508.7      0.4059018  0.8394856  0.0339127 
508.8      0.4041052  0.8606777  0.0366862 
508.9      0.4141444  0.8423428  0.03387071
509        0.4223556  0.8116665  0.03910095
509.1      0.4187417  0.8032591  0.04677849
509.2      0.431169   0.7762332  0.04496047
509.3      0.4400328  0.7727812  0.04245974
509.4      0.4345088  0.7761472  0.04443376
509.5      0.431645   0.6586086  0.04530993
509.6      0.4195967  0.534771   0.03703741
509.7      0.400778   0.469329   0.04154669
509.8      0.3824539  0.5125581  0.0399567 
509.9      0.3611621  0.6482535  0.02665753
510        0.337009   0.9074823  0.02675837
510.1      0.3212575  1          0.03631163
510.2      0.3346404  1          0.03541689
510.3      0.3556258  0.9619524  0.0395567 
510.4      0.3758083  0.9106133  0.05475178
510.5      0.3910562  0.8790106  0.05548093
510.6      0.4021135  0.8615351  0.06626271
510.7      0.4024134  0.8620775  0.06813435
510.8      0.4031371  0.8543539  0.07195405
510.9      0.4031381  0.8490492  0.08194005
511        0.4124948  0.8275896  0.07952798
511.1      0.4292299  0.8009288  0.07516253
511.2      0.4405801  0.7855081  0.0800218 
511.3      0.4434299  0.7840977  0.08021821
511.4      0.4402777  0.793103   0.06880125
511.5      0.4180338  0.8411754  0.06495658
511.6      0.3926184  0.901242   0.06152537
511.7      0.3626117  0.9757111  0.05594342
511.8      0.3434534  1          0.05335952
511.9      0.3336746  1          0.06205171
512        0.3347307  1          0.06177477
512.1      0.3289824  1          0.05309066
512.2      0.328871   1          0.05287387
512.3      0.3372759  1          0.05543832
512.4      0.3565452  0.9738158  0.05363042
512.5      0.3772635  0.9191115  0.05607844
512.6      0.3848482  0.9001547  0.04975396
512.7      0.379993   0.9101173  0.0579917 
512.8      0.3714325  0.926855   0.05754736
512.9      0.3664525  0.9365908  0.06762385
513        0.3741426  0.9198922  0.0630817 
513.1      0.3840197  0.8983896  0.05596273
513.2      0.3872113  0.8910874  0.05604464
513.3      0.3880651  0.8889377  0.05924265
513.4      0.3889937  0.8881097  0.05375517
513.5      0.3892156  0.8917916  0.05456346
513.6      0.3867505  0.8995851  0.0514201 
513.7      0.3875196  0.9006327  0.04696349
513.8      0.3966656  0.8848848  0.0399418 
513.9      0.3919994  0.8985383  0.03690945
514        0.3930907  0.8995929  0.03300792
514.1      0.3892027  0.909038   0.03675405
514.2      0.3870361  0.9138509  0.0327859 
514.3      0.388743   0.9145144  0.03548554
514.4      0.3884464  0.9200262  0.03685725
514.5      0.3889688  0.9221284  0.04146132
514.6      0.3903377  0.9180876  0.03700085
514.7      0.3905007  0.9151232  0.0303804 
514.8      0.3908551  0.9133688  0.03778283
514.9      0.3943199  0.9083456  0.03759173
515        0.3958037  0.907706   0.04032487
515.1      0.384187   0.9323172  0.05504684
515.2      0.3796375  0.9408743  0.06580672
515.3      0.3703312  0.9605031  0.09137183
515.4      0.3623169  0.9680214  0.1255693 
515.5      0.3511075  0.9698291  0.146844  
515.6      0.3253433  0.9529588  0.216589  
515.7      0.2978635  0.9688681  0.2924559 
515.8      0.2233222  1          0.4803255 
515.9      0.0875181  1          0.805888  
516        0.02043499 1          0.9635988 
516.1      0.001523579 1          1         
516.2      0          1          1         
516.3      0          1          1         
516.4      0          1          0.9809495 
516.5      0.0004252908 1          0.9146913 
516.6      0.0035909  1          0.9055603 
516.7      0.001877392 1          0.8585494 
516.8      0.02818629 1          0.7024228 
516.9      0.03703183 1          0.6688228 
517        0.04847207 1          0.6500001 
517.1      0.04843941 1          0.672352  
517.2      0.06291235 1          0.6591942 
517.3      0.092807   1          0.5829327 
517.4      0.09093738 1          0.5805651 
517.5      0.1016658  1          0.5325487 
517.6      0.0919433  1          0.5311272 
517.7      0.05057372 1          0.6213263 
517.8      0.02938042 1          0.691062  
517.9      0.03089997 1          0.6974724 
518        0.02965339 1          0.7328421 
518.1      0.0193288  1          0.8158261 
518.2      0.01228697 1          0.8694878 
518.3      0.0038884  1          0.9520888 
518.4      0.0004423712 1          1         
518.5      0.01522019 1          0.9231881 
518.6      0.02708798 1          0.90812   
518.7      0.05431459 1          0.8920665 
518.8      0.102237   1          0.8434551 
518.9      0.1341717  1          0.8199957 
519        0.1375411  1          0.8354167 
519.1      0.1314534  1          0.8666108 
519.2      0.1812265  1          0.7435818 
519.3      0.1780994  1          0.7403787 
519.4      0.1756283  1          0.7489951 
519.5      0.1776302  1          0.7274384 
519.6      0.1938769  1          0.6763746 
519.7      0.2250693  1          0.602074  
519.8      0.2833143  0.954016   0.4777918 
519.9      0.3043021  0.8874066  0.414369  
520        0.3235331  0.7905911  0.3548504 
520.1      0.3196444  0.7734643  0.3597237 
520.2      0.3136013  0.8003629  0.3563873 
