~Version
 VERS              .         3.0                           : CWLS LOG ASCII STANDARD - VERSION 3.0
 WRAP              .         NO                            : ONE LINE PER DEPTH STEP
 DLM               .         SPACE                         : DELIMITING CHARACTER(SPACE TAB OR COMMA)
~Well Information
#_______________________________________________________________________________
#
#PARAMETER_NAME    .UNIT     VALUE                         : DESCRIPTION
#_______________________________________________________________________________
STRT               .M        13                            : First reference value
STOP               .M        939                           : Last reference value
STEP               .M        0.1                           : Step increment
NULL               .         -9999                         : Missing value
COMP               .         ICPetroleum                   : Company
WELL               .         314                           : Well name
FLD                .         Karatobe                      : Field
LOC                .                                       : Location
SRVC               .         ТОО ГК ГИС Сервис             : Service Company
CTRY               .         KZ                            : Country
DATE               .         20.01.2022                    : Service Date
LATI               .         0                             : Latitude
LONG               .         0                             : Longitude
GDAT               .         WGS 84                        : Geodetic Datum
COORDIN            .                                       : Grid System
COUNTRY            .         Kazakhstan                    : 
COUNTRY            .         Kazakhstan                    : 
EREF               .m        142.1                         : 
KB                 .         141.2                         : KB Elevation
ORIGINALWELLNAME   .         314                           : 
PROV               .                                       : Province
RWS                .         -999                          : Def_Rw
UWI                .                                       : Уникальный идентификатор скважины
WST                .         -999                          : Def_Rwt
X                  .km       466035.84                     : 
XCOORD             .                                       : X or East-West Coordinate
Y                  .km       5307724.98                    : 
YCOORD             .                                       : Y or North-South Coordinate
~Parameter Information Block
#_______________________________________________________________________________
#
#PARAMETER_NAME    .UNIT     VALUE                         : DESCRIPTION
#_______________________________________________________________________________
SET                .         Las                           : 
BS                 .MM       215.90                        : Bit Size
DFD                .G/C3     1.14                          : Drilling Fluid Density
DFV                .S        39.00                         : Drilling Fluid Viscosity
RMS                .OHMM     .00                           : Mud Sample Resistivity
TLFamily_DEPT      .         Measured Depth                : 
TLFamily_PHI_FINAL .         Porosity                      : 
TLFamily_SW_AR     .         Water Saturation              : 
TLFamily_VSH_FINAL .         Shale Volume                  : 
~Curve Information
#_______________________________________________________________________________
#
#LOGNAME           .UNIT     LOG_ID                        : DESCRIPTION
#_______________________________________________________________________________
DEPT               .M                                      : Depth curve {F}
PHI_FINAL          .m3/m3                                  : Porosity {F}
SW_AR              .m3/m3                                  :  {F}
VSH_FINAL          .unitless                               : Vshale {F}
~Ascii
# ...
138.1      0.04376601 -9999      0.09317517
138.2      0.04586407 -9999      0.08498032
138.3      0.04462507 -9999      0.08715613
138.4      0.04834643 -9999      0.08224858
138.5      0.04709414 -9999      0.08237628
138.6      0.04928643 -9999      0.07949447
138.7      0.04856839 -9999      0.07713019
138.8      0.04937782 -9999      0.07579086
138.9      0.04704437 -9999      0.08295691
139        0.04858201 -9999      0.0723024 
139.1      0.04772237 -9999      0.07106844
139.2      0.04696501 -9999      0.08698648
139.3      0.0464226  -9999      0.08868442
139.4      0.04374619 -9999      0.08611665
139.5      0.04414184 -9999      0.08117552
139.6      0.0467193  -9999      0.0763796 
139.7      0.04721056 -9999      0.07425942
139.8      0.04908248 -9999      0.07178044
139.9      0.04774567 -9999      0.07595379
140        0.04698459 -9999      0.08112525
140.1      0.04924647 -9999      0.07201251
140.2      0.05061559 -9999      0.06568078
140.3      0.04877299 -9999      0.06401069
140.4      0.0483921  -9999      0.0668461 
140.5      0.0443184  -9999      0.06809111
140.6      0.04560508 -9999      0.05618612
140.7      0.04489912 -9999      0.06757256
140.8      0.04852226 -9999      0.06409542
140.9      0.04721327 -9999      0.0756629 
141        0.04898219 -9999      0.07394617
141.1      0.04607699 -9999      0.08245446
141.2      0.05073999 -9999      0.07458258
141.3      0.04798868 -9999      0.08113137
141.4      0.05110145 -9999      0.07410626
141.5      0.05051522 -9999      0.07344512
141.6      0.05633355 -9999      0.0541109 
141.7      0.05724739 -9999      0.05128295
141.8      0.05311853 -9999      0.06225746
141.9      0.05199158 -9999      0.06003243
142        0.05147755 -9999      0.06547925
142.1      0.05430987 -9999      0.05954354
142.2      0.0535543  -9999      0.05959592
142.3      0.04929741 -9999      0.06807072
142.4      0.04936047 -9999      0.06059317
142.5      0.04785359 -9999      0.06624477
142.6      0.04576388 -9999      0.07756166
142.7      0.04747268 -9999      0.0809229 
142.8      0.05142384 -9999      0.07888239
142.9      0.05368451 -9999      0.07144867
143        0.05311539 -9999      0.06940055
143.1      0.05028824 -9999      0.07691526
143.2      0.05299941 -9999      0.06938396
143.3      0.05090385 -9999      0.07816323
143.4      0.04779873 -9999      0.08688128
143.5      0.04866187 -9999      0.09268118
143.6      0.04772227 -9999      0.08587494
143.7      0.04291952 -9999      0.1025529 
143.8      0.04144054 -9999      0.1058813 
143.9      0.04058204 -9999      0.104851  
144        0.0453245  -9999      0.09059303
144.1      0.04414088 -9999      0.09451569
144.2      0.04222851 -9999      0.09006666
144.3      0.04203768 -9999      0.09005527
144.4      0.04299766 -9999      0.08204939
144.5      0.04358672 -9999      0.08327634
144.6      0.04342626 -9999      0.09372073
144.7      0.04140276 1          0.0983123 
144.8      0.04118153 1          0.09620631
144.9      0.04286648 1          0.09375823
145        0.0435072  1          0.1002394 
145.1      0.05165773 1          0.07364511
145.2      0.05599304 1          0.06646677
145.3      0.0540926  1          0.07143502
145.4      0.05333535 1          0.07097898
145.5      0.05319959 1          0.07257433
145.6      0.04943398 1          0.0779436 
145.7      0.05809513 1          0.05812125
145.8      0.06400229 1          0.05362625
145.9      0.07446896 1          0.04032927
146        0.07379439 1          0.0436913 
146.1      0.07168619 1          0.04331965
146.2      0.06673328 1          0.04041839
146.3      0.06243262 1          0.04887027
146.4      0.06104277 1          0.06306889
146.5      0.06928883 1          0.06458161
146.6      0.07755508 1          0.06543206
146.7      0.08291291 1          0.06226275
146.8      0.08667661 1          0.06902381
146.9      0.0978689  1          0.09300905
147        0.1503191  1          0.1070835 
147.1      0.2184173  1          0.1353395 
147.2      0.2625768  1          0.210139  
147.3      0.2997429  1          0.2439439 
147.4      0.2989883  1          0.3379445 
147.5      0.345736   0.8004079  0.4134335 
147.6      0.4547931  0.5629832  0.4810444 
147.7      0.6302593  0.3913968  0.4361657 
147.8      0.7411641  0.31885    0.4627234 
147.9      0.8072437  0.2828869  0.4880304 
148        0.8667426  0.2578811  0.4547001 
148.1      0.8839352  0.2460636  0.4653888 
148.2      0.8668749  0.2445309  0.5585904 
148.3      0.8611062  0.2431616  0.5584735 
148.4      0.8468395  0.2460488  0.5695905 
148.5      0.865587   0.2399347  0.5239347 
148.6      0.8922649  0.2342678  0.5248314 
148.7      0.9177426  0.2296136  0.53767   
148.8      0.9021838  0.2342474  0.5849315 
148.9      0.8735064  0.2421128  0.5741307 
149        0.7128534  0.2992607  0.6561236 
149.1      0.5485144  0.3890779  0.6804987 
149.2      0.4454574  0.4751748  0.6564464 
149.3      0.3303581  0.631549   0.726975  
149.4      0.2668097  0.7749526  0.7560953 
149.5      0.2287434  0.8993143  0.789134  
149.6      0.240609   0.8602     0.7616592 
149.7      0.2383522  0.8680198  0.7812415 
149.8      0.2217233  0.9247352  0.8321059 
149.9      0.2248116  0.9005923  0.8330444 
150        0.2076591  0.9488168  0.8659496 
150.1      0.2255776  0.8505422  0.8176574 
150.2      0.2422995  0.7789199  0.7655029 
150.3      0.2606015  0.7158883  0.7190204 
150.4      0.2382405  0.7803302  0.7509211 
150.5      0.1974194  0.9392765  0.8262255 
150.6      0.2278179  0.822962   0.7644513 
150.7      0.1837751  1          0.844399  
150.8      0.1044385  1          1         
150.9      0.1080087  1          1         
151        0.1018572  1          1         
151.1      0.103854   1          1         
151.2      0.1053588  1          1         
151.3      0.1066184  1          1         
151.4      0.1113636  1          1         
151.5      0.1132216  1          1         
151.6      0.1154895  1          1         
151.7      0.1205949  1          1         
151.8      0.119991   1          1         
151.9      0.1201916  1          1         
152        0.1227689  1          1         
152.1      0.1198904  1          1         
152.2      0.1207239  1          1         
152.3      0.1181827  1          1         
152.4      0.1120216  1          1         
152.5      0.1064667  1          1         
152.6      0.09497842 1          1         
152.7      0.08684322 1          1         
152.8      0.08537327 1          1         
152.9      0.09670943 1          0.9717811 
153        0.07728964 1          1         
153.1      0.1203434  1          0.9163598 
153.2      0.124608   1          0.9153169 
153.3      0.1577934  1          0.8638684 
153.4      0.180826   1          0.8299882 
153.5      0.1904985  1          0.8141515 
153.6      0.2020648  0.9438809  0.792446  
153.7      0.2088924  0.9101578  0.7815243 
153.8      0.2408936  0.7882639  0.7279415 
153.9      0.1944262  0.9633001  0.8163495 
154        0.2245616  0.8378592  0.7654874 
154.1      0.2684602  0.7037217  0.6830407 
154.2      0.3288565  0.5778827  0.5829356 
154.3      0.3347643  0.5648875  0.592466  
154.4      0.366564   0.5202663  0.5542948 
154.5      0.361993   0.5406806  0.5612934 
154.6      0.3146629  0.6534394  0.651761  
154.7      0.2711351  0.7858998  0.7241423 
154.8      0.3107181  0.7508293  0.6548055 
154.9      0.3532477  0.6960849  0.5981226 
155        0.3990745  0.6453721  0.5427094 
155.1      0.4565607  0.5822889  0.479659  
155.2      0.552895   0.4930365  0.3346186 
155.3      0.5935659  0.4650812  0.2994092 
155.4      0.6337734  0.4390668  0.2740015 
155.5      0.668931   0.4177386  0.2338626 
155.6      0.6724263  0.4130544  0.2410648 
155.7      0.6727972  0.4098316  0.2362695 
155.8      0.6689457  0.4060353  0.2376769 
155.9      0.6587467  0.4072338  0.2445598 
156        0.6481862  0.4051722  0.2540714 
156.1      0.6490844  0.3983901  0.2431383 
156.2      0.6206806  0.4110752  0.2991009 
