~Version
 VERS              .         3.0                           : CWLS LOG ASCII STANDARD - VERSION 3.0
 WRAP              .         NO                            : ONE LINE PER DEPTH STEP
 DLM               .         SPACE                         : DELIMITING CHARACTER(SPACE TAB OR COMMA)
~Well Information
#_______________________________________________________________________________
#
#PARAMETER_NAME    .UNIT     VALUE                         : DESCRIPTION
#_______________________________________________________________________________
STRT               .M        13                            : First reference value
STOP               .M        939                           : Last reference value
STEP               .M        0.1                           : Step increment
NULL               .         -9999                         : Missing value
COMP               .         ICPetroleum                   : Company
WELL               .         314                           : Well name
FLD                .         Karatobe                      : Field
LOC                .                                       : Location
SRVC               .         ТОО ГК ГИС Сервис             : Service Company
CTRY               .         KZ                            : Country
DATE               .         20.01.2022                    : Service Date
LATI               .         0                             : Latitude
LONG               .         0                             : Longitude
GDAT               .         WGS 84                        : Geodetic Datum
COORDIN            .                                       : Grid System
COUNTRY            .         Kazakhstan                    : 
COUNTRY            .         Kazakhstan                    : 
EREF               .m        142.1                         : 
KB                 .         141.2                         : KB Elevation
ORIGINALWELLNAME   .         314                           : 
PROV               .                                       : Province
RWS                .         -999                          : Def_Rw
UWI                .                                       : Уникальный идентификатор скважины
WST                .         -999                          : Def_Rwt
X                  .km       466035.84                     : 
XCOORD             .                                       : X or East-West Coordinate
Y                  .km       5307724.98                    : 
YCOORD             .                                       : Y or North-South Coordinate
~Parameter Information Block
#_______________________________________________________________________________
#
#PARAMETER_NAME    .UNIT     VALUE                         : DESCRIPTION
#_______________________________________________________________________________
SET                .         Las                           : 
BS                 .MM       215.90                        : Bit Size
DFD                .G/C3     1.14                          : Drilling Fluid Density
DFV                .S        39.00                         : Drilling Fluid Viscosity
RMS                .OHMM     .00                           : Mud Sample Resistivity
TLFamily_DEPT      .         Measured Depth                : 
TLFamily_PHI_FINAL .         Porosity                      : 
TLFamily_SW_AR     .         Water Saturation              : 
TLFamily_VSH_FINAL .         Shale Volume                  : 
~Curve Information
#_______________________________________________________________________________
#
#LOGNAME           .UNIT     LOG_ID                        : DESCRIPTION
#_______________________________________________________________________________
DEPT               .M                                      : Depth curve {F}
PHI_FINAL          .m3/m3                                  : Porosity {F}
SW_AR              .m3/m3                                  :  {F}
VSH_FINAL          .unitless                               : Vshale {F}
~Ascii
# ...
720.5      0.08398052 1          0.2673665 
720.6      0.07929259 1          0.2713054 
720.7      0.06549826 1          0.2982061 
720.8      0.06718139 1          0.3164832 
720.9      0.05897095 1          0.360399  
721        0.03736283 1          0.3818665 
721.1      0.03174923 1          0.4189529 
721.2      0.03887375 1          0.4187292 
721.3      0.04449775 1          0.3956079 
721.4      0.03738763 1          0.3657824 
721.5      0.04501507 1          0.3798491 
721.6      0.009301015 1          0.4172768 
721.7      0.0035649  1          0.4347797 
721.8      0.001479391 1          0.4378703 
721.9      0.02188659 1          0.4264859 
722        0.02357383 1          0.4287491 
722.1      0.04200234 1          0.3940921 
722.2      0.04193643 1          0.4223165 
722.3      0.02848218 1          0.3880606 
722.4      0.02687691 1          0.4075184 
722.5      0.03145707 1          0.409946  
722.6      0.0402207  1          0.39615   
722.7      0.07514977 1          0.3953912 
722.8      0.09266751 1          0.3538305 
722.9      0.1050935  1          0.3415822 
723        0.09674294 1          0.3191926 
723.1      0.07441051 1          0.2939045 
723.2      0.0790346  1          0.2601825 
723.3      0.08167247 1          0.2592136 
723.4      0.07958923 1          0.2662967 
723.5      0.08444961 1          0.2617714 
723.6      0.07839579 1          0.2803546 
723.7      0.073366   1          0.2974558 
723.8      0.0818214  1          0.2887075 
723.9      0.06147758 1          0.2878763 
724        0.06179146 1          0.2768093 
724.1      0.04313869 1          0.2702286 
724.2      0.05004646 1          0.2667422 
724.3      0.02868802 1          0.2753608 
724.4      0.0278141  1          0.2963322 
724.5      0.04477127 1          0.2866777 
724.6      0.0461758  1          0.3339023 
724.7      0.04397311 1          0.3353914 
724.8      0.04325582 1          0.3538305 
724.9      0.04594161 1          0.3686985 
725        0.04044322 1          0.3913932 
725.1      0.03632823 1          0.3853842 
725.2      0.01014937 1          0.4003924 
725.3      0.0258672  1          0.3649515 
725.4      0.02144744 1          0.3559789 
725.5      0.05380968 1          0.3299474 
725.6      0.03270365 1          0.3457077 
725.7      0.01229751 1          0.3430886 
725.8      0.0266837  1          0.3281755 
725.9      0.02903138 1          0.3161936 
726        0.02411785 1          0.3088994 
726.1      0.04693143 1          0.2993331 
726.2      0.03765797 1          0.2988633 
726.3      0.04071807 1          0.3144585 
726.4      0.04688769 1          0.3374819 
726.5      0.04235872 1          0.3408804 
726.6      0.02993657 1          0.3531159 
726.7      0.03509078 1          0.3435915 
726.8      0.01653416 1          0.3706842 
726.9      0.0172646  1          0.3942003 
727        0.02621759 1          0.3817603 
727.1      0.002892325 1          0.3950662 
727.2      0.03525936 1          0.3970182 
727.3      0.04273189 1          0.4176117 
727.4      0.0450191  1          0.417835  
727.5      0.05783017 1          0.4102776 
727.6      0.09934675 1          0.3611213 
727.7      0.09620114 1          0.3218161 
727.8      0.1077034  1          0.3087086 
727.9      0.08694427 1          0.3112897 
728        0.09085288 1          0.3160006 
728.1      0.04839066 1          0.3283722 
728.2      0.02871132 1          0.3512817 
728.3      0.02928155 1          0.3673431 
728.4      0.03322583 1          0.3919322 
728.5      0.02649104 1          0.4108307 
728.6      0.01705486 1          0.4589135 
728.7      0          1          0.4799283 
728.8      0          1          0.5202162 
728.9      0.009360017 1          0.5350762 
729        0.01338811 1          0.4913805 
729.1      0          1          0.4980325 
729.2      0.01066048 1          0.4806544 
729.3      0.03864595 1          0.409504  
729.4      0.02662342 1          0.4363807 
729.5      0.02430281 1          0.4122706 
729.6      0.0164927  1          0.426825  
729.7      0.01802108 1          0.4076285 
729.8      0.02381381 1          0.3959332 
729.9      0.02640967 1          0.3791074 
730        0.02068544 1          0.3765699 
730.1      0.01893308 1          0.4065276 
730.2      0.01584773 1          0.4390181 
730.3      0.03690891 1          0.4334101 
730.4      0.05265113 1          0.3898863 
730.5      0.0500611  1          0.3966925 
730.6      0.0635824  1          0.4107201 
730.7      0.0471037  1          0.4067477 
730.8      0.0237851  1          0.4020308 
730.9      0.06584152 1          0.3816539 
731        0.06419897 1          0.3813351 
731.1      0.05276938 1          0.4014843 
731.2      0.07436105 1          0.3680726 
731.3      0.07380043 1          0.3279788 
731.4      0.07751392 1          0.3173529 
731.5      0.09472435 1          0.2948371 
731.6      0.0859694  1          0.3266043 
731.7      0.08096349 1          0.3256243 
731.8      0.08318685 1          0.3020651 
731.9      0.08881379 1          0.3009332 
732        0.06692562 1          0.3173529 
732.1      0.08095545 1          0.3296518 
732.2      0.07297643 1          0.3407802 
732.3      0.09724308 1          0.3282738 
732.4      0.09795337 1          0.3498585 
732.5      0.09184127 1          0.3646401 
732.6      0.1089472  1          0.3404797 
732.7      0.0987977  1          0.3429881 
732.8      0.1051534  1          0.339379  
732.9      0.08435411 1          0.3520963 
733        0.09561294 1          0.3218161 
733.1      0.09476238 1          0.318708  
733.2      0.1055743  1          0.3059478 
733.3      0.09727871 1          0.3121524 
733.4      0.1031531  1          0.3001797 
733.5      0.09447888 1          0.3036722 
733.6      0.1043128  1          0.3102368 
733.7      0.09999672 1          0.3329113 
733.8      0.1069908  1          0.3311314 
733.9      0.1052665  1          0.334994  
734        0.1034148  1          0.3432897 
734.1      0.1062384  1          0.3356897 
734.2      0.1193065  1          0.3292578 
734.3      0.1094376  1          0.3328124 
734.4      0.1079184  1          0.3139774 
734.5      0.1110079  1          0.3054731 
734.6      0.09941064 1          0.3049038 
734.7      0.08934665 1          0.3011217 
734.8      0.06386216 1          0.3117688 
734.9      0.05290711 1          0.3130162 
735        0.04876528 1          0.3110982 
735.1      0.04624331 1          0.311673  
735.2      0.06581028 1          0.2991451 
735.3      0.0734593  1          0.2871384 
735.4      0.06249553 1          0.2924152 
735.5      0.0704549  1          0.2773534 
735.6      0.07319725 1          0.2660295 
735.7      0.08221581 1          0.2673665 
735.8      0.08657427 1          0.2745476 
735.9      0.07973023 1          0.2898175 
736        0.07645696 1          0.2709463 
736.1      0.08984862 1          0.287415  
736.2      0.09246489 1          0.2965193 
736.3      0.07828024 1          0.3147474 
736.4      0.08278623 1          0.3214268 
736.5      0.08473518 1          0.3268005 
736.6      0.08254182 1          0.3622578 
736.7      0.06758942 1          0.3870959 
736.8      0.06544589 1          0.4163842 
736.9      0.06018509 1          0.4122706 
737        0.05867358 1          0.4334101 
737.1      0.08322908 1          0.4019214 
737.2      0.08324252 1          0.3938758 
737.3      0.09683717 1          0.3816539 
737.4      0.1079166  1          0.3259181 
737.5      0.09346001 1          0.3046193 
737.6      0.09549874 1          0.2722043 
737.7      0.120903   1          0.25983   
737.8      0.09006558 1          0.270677  
737.9      0.07989338 1          0.2772626 
738        0.08981156 1          0.2815409 
738.1      0.08750351 1          0.3033882 
738.2      0.08738673 1          0.313785  
738.3      0.08688719 1          0.3194836 
738.4      0.07002832 1          0.308804  
738.5      0.06138826 1          0.3381802 
738.6      0.06994734 1          0.3390791 
