~Version
 VERS              .         3.0                           : CWLS LOG ASCII STANDARD - VERSION 3.0
 WRAP              .         NO                            : ONE LINE PER DEPTH STEP
 DLM               .         SPACE                         : DELIMITING CHARACTER(SPACE TAB OR COMMA)
~Well Information
#_______________________________________________________________________________
#
#PARAMETER_NAME    .UNIT     VALUE                         : DESCRIPTION
#_______________________________________________________________________________
STRT               .M        13                            : First reference value
STOP               .M        939                           : Last reference value
STEP               .M        0.1                           : Step increment
NULL               .         -9999                         : Missing value
COMP               .         ICPetroleum                   : Company
WELL               .         314                           : Well name
FLD                .         Karatobe                      : Field
LOC                .                                       : Location
SRVC               .         ТОО ГК ГИС Сервис             : Service Company
CTRY               .         KZ                            : Country
DATE               .         20.01.2022                    : Service Date
LATI               .         0                             : Latitude
LONG               .         0                             : Longitude
GDAT               .         WGS 84                        : Geodetic Datum
COORDIN            .                                       : Grid System
COUNTRY            .         Kazakhstan                    : 
COUNTRY            .         Kazakhstan                    : 
EREF               .m        142.1                         : 
KB                 .         141.2                         : KB Elevation
ORIGINALWELLNAME   .         314                           : 
PROV               .                                       : Province
RWS                .         -999                          : Def_Rw
UWI                .                                       : Уникальный идентификатор скважины
WST                .         -999                          : Def_Rwt
X                  .km       466035.84                     : 
XCOORD             .                                       : X or East-West Coordinate
Y                  .km       5307724.98                    : 
YCOORD             .                                       : Y or North-South Coordinate
~Parameter Information Block
#_______________________________________________________________________________
#
#PARAMETER_NAME    .UNIT     VALUE                         : DESCRIPTION
#_______________________________________________________________________________
SET                .         Las                           : 
BS                 .MM       215.90                        : Bit Size
DFD                .G/C3     1.14                          : Drilling Fluid Density
DFV                .S        39.00                         : Drilling Fluid Viscosity
RMS                .OHMM     .00                           : Mud Sample Resistivity
TLFamily_DEPT      .         Measured Depth                : 
TLFamily_PHI_FINAL .         Porosity                      : 
TLFamily_SW_AR     .         Water Saturation              : 
TLFamily_VSH_FINAL .         Shale Volume                  : 
~Curve Information
#_______________________________________________________________________________
#
#LOGNAME           .UNIT     LOG_ID                        : DESCRIPTION
#_______________________________________________________________________________
DEPT               .M                                      : Depth curve {F}
PHI_FINAL          .m3/m3                                  : Porosity {F}
SW_AR              .m3/m3                                  :  {F}
VSH_FINAL          .unitless                               : Vshale {F}
~Ascii
# ...
811.5      0.1124371  1          0.3159041 
811.6      0.146861   1          0.2934387 
811.7      0.1639834  1          0.2904659 
811.8      0.1788016  1          0.2722943 
811.9      0.1708585  1          0.2724742 
812        0.1418304  1          0.2805369 
812.1      0.09041331 1          0.3039562 
812.2      0.05912654 1          0.2802634 
812.3      0.02721487 1          0.2846545 
812.4      0.02152866 1          0.2857573 
812.5      0.03617437 1          0.2923222 
812.6      0.06479828 1          0.2958646 
812.7      0.08396421 1          0.3154219 
812.8      0.08358382 1          0.3107152 
812.9      0.08307103 1          0.3144585 
813        0.111363   1          0.314266  
813.1      0.1066604  1          0.3242548 
813.2      0.1206531  1          0.3386794 
813.3      0.1075998  1          0.3290608 
813.4      0.09543139 1          0.3400792 
813.5      0.06592169 1          0.3189988 
813.6      0.03729481 1          0.308804  
813.7      0.02580072 1          0.2919505 
813.8      0.01388    1          0.2934387 
813.9      0          1          0.3070888 
814        0          1          0.3052832 
814.1      0          1          0.3026319 
814.2      0          1          0.2903732 
814.3      0          1          0.2466754 
814.4      0          1          0.2297027 
814.5      0          1          0.1458918 
814.6      0          1          0.1146897 
814.7      0          1          0.101795  
814.8      0.009434824 1          0.0948218 
814.9      0.01759541 1          0.09507568
815        0.01305755 1          0.09450462
815.1      0.01994832 1          0.09507568
815.2      0.02074244 1          0.1023759 
815.3      0          1          0.1080968 
815.4      0          1          0.09475832
815.5      0.01579333 1          0.09520271
815.6      0.0000168  1          0.09084284
815.7      0.001984027 1          0.08615458
815.8      0.006085036 1          0.08821095
815.9      0.008125212 1          0.08927425
816        0.02121283 1          0.08677664
816.1      0.01690913 1          0.09140898
816.2      0.03439336 1          0.07596277
816.3      0.04512765 1          0.06946637
816.4      0.04934106 1          0.07114057
816.5      0.01458115 1          0.06732407
816.6      0          1          0.06869143
816.7      0.004206644 1          0.08059754
816.8      0.03608671 1          0.0762054 
816.9      0.02118441 1          0.08287307
817        0.03813438 1          0.08324327
817.1      0.03628704 1          0.08752437
817.2      0.0364694  1          0.08090431
817.3      0.0377939  1          0.07240082
817.4      0.03421629 1          0.08256482
817.5      0.02575086 1          0.08534728
817.6      0.03420671 1          0.08059754
817.7      0.01934808 1          0.07711653
817.8      0.02220088 1          0.07541738
817.9      0.03387065 1          0.07973982
818        0.03203863 1          0.07796878
818.1      0.03921568 1          0.05956685
818.2      0.03725111 1          0.05224646
818.3      0.009497197 1          0.04860972
818.4      0.01559321 1          0.05788302
818.5      0.01185924 1          0.05857889
818.6      0.01657137 1          0.06055733
818.7      0.007173912 1          0.07650887
818.8      0.01775252 1          0.07054182
818.9      0.01715271 1          0.07258117
819        0.01773437 1          0.08460346
819.1      0.01761065 1          0.08902383
819.2      0.02253732 1          0.08827341
819.3      0.03179732 1          0.08478928
819.4      0.04555581 1          0.08201057
819.5      0.02912911 1          0.08386098
819.6      0.04142259 1          0.07006349
819.7      0.03444685 1          0.0757809 
819.8      0.009969966 1          0.07300232
819.9      0.005373466 1          0.07663035
820        0.01037839 1          0.08361377
820.1      0          1          0.09115728
820.2      0          1          0.08423204
820.3      0.01132996 1          0.1003784 
820.4      0.01821846 1          0.1029575 
820.5      0.02424107 1          0.09248043
820.6      0.04297383 1          0.08478928
820.7      0.03821317 1          0.08497521
820.8      0.0330461  1          0.09254353
820.9      0.02199947 1          0.09210196
821        0.01484091 1          0.09444123
821.1      0          1          0.08671442
821.2      0          1          0.09285922
821.3      0          1          0.1023759 
821.4      0          1          0.1036047 
821.5      0          1          0.0974953 
821.6      0.01341735 1          0.103281  
821.7      0.01711742 1          0.0787007 
821.8      0.002676802 1          0.08379915
821.9      0.01512309 1          0.07748156
822        0.009896989 1          0.07925049
822.1      0.0112751  1          0.08256482
822.2      0          1          0.08821095
822.3      0.008006349 1          0.07967862
822.4      0.005454177 1          0.08435582
822.5      0.0468114  1          0.05974145
822.6      0.04929082 1          0.06531136
822.7      0.04022488 1          0.06213563
822.8      0.01121969 1          0.05875305
822.9      0          1          0.06225277
823        0          1          0.06976482
823.1      0          1          0.06643485
823.2      0.004686499 1          0.06096591
823.3      0.01088336 1          0.06389675
823.4      0.01887609 1          0.06472133
823.5      0.01749388 1          0.06519329
823.6      0.01631676 1          0.06756155
823.7      0.009789472 1          0.08516119
823.8      0.009403082 1          0.09412435
823.9      0.01306241 1          0.09743145
824        0.02402437 1          0.0864033 
824.1      0.02198798 1          0.1001214 
824.2      0.01960829 1          0.1116447 
824.3      0.01976553 1          0.1128338 
824.4      0.01711347 1          0.1117767 
824.5      0.002107942 1          0.1274909 
824.6      0          1          0.1450396 
824.7      0          1          0.1457497 
824.8      0.009984139 1          0.1485292 
824.9      0.04156096 1          0.1607627 
825        0.07444165 1          0.1688928 
825.1      0.09214866 1          0.1808832 
825.2      0.09306864 1          0.2111239 
825.3      0.09932467 1          0.2428122 
825.4      0.1209117  1          0.2667422 
825.5      0.1436425  1          0.2912078 
825.6      0.1668641  1          0.2844709 
825.7      0.1539624  1          0.30766   
825.8      0.1163612  1          0.3443968 
825.9      0.07676468 1          0.3605022 
826        0.05388365 1          0.3248413 
826.1      0.01659495 1          0.3119606 
826.2      0          1          0.3251349 
826.3      0          1          0.3326143 
826.4      0          1          0.3173529 
826.5      0          1          0.3220109 
826.6      0          1          0.3144585 
826.7      0          1          0.3041456 
826.8      0          1          0.277172  
826.9      0          1          0.2732847 
827        0          1          0.2703183 
827.1      0          1          0.2506514 
827.2      0          1          0.221899  
827.3      0.02452254 1          0.1915233 
827.4      0.01358408 1          0.1587144 
827.5      0.01096677 1          0.1336133 
827.6      0          1          0.1158869 
827.7      0          1          0.104967  
827.8      0          1          0.09826223
827.9      0          1          0.1019886 
828        0.002224356 1          0.08733732
828.1      0.01591867 1          0.08677664
828.2      0.007932352 1          0.08305812
828.3      0          1          0.07827359
828.4      0          1          0.08652771
828.5      0          1          0.08908642
828.6      0          1          0.08902383
828.7      0          1          0.1030222 
828.8      0.003815087 1          0.1058124 
828.9      0.02882302 1          0.09858221
829        0.03881686 1          0.1048371 
829.1      0.04281997 1          0.1073122 
829.2      0.05332897 1          0.1255815 
829.3      0.06027658 1          0.1339597 
829.4      0.07377461 1          0.1380666 
829.5      0.08375202 1          0.1661432 
829.6      0.0798282  1          0.1834844 
