~Version
 VERS              .         3.0                           : CWLS LOG ASCII STANDARD - VERSION 3.0
 WRAP              .         NO                            : ONE LINE PER DEPTH STEP
 DLM               .         SPACE                         : DELIMITING CHARACTER(SPACE TAB OR COMMA)
~Well Information
#_______________________________________________________________________________
#
#PARAMETER_NAME    .UNIT     VALUE                         : DESCRIPTION
#_______________________________________________________________________________
STRT               .M        13                            : First reference value
STOP               .M        939                           : Last reference value
STEP               .M        0.1                           : Step increment
NULL               .         -9999                         : Missing value
COMP               .         ICPetroleum                   : Company
WELL               .         314                           : Well name
FLD                .         Karatobe                      : Field
LOC                .                                       : Location
SRVC               .         ТОО ГК ГИС Сервис             : Service Company
CTRY               .         KZ                            : Country
DATE               .         20.01.2022                    : Service Date
LATI               .         0                             : Latitude
LONG               .         0                             : Longitude
GDAT               .         WGS 84                        : Geodetic Datum
COORDIN            .                                       : Grid System
COUNTRY            .         Kazakhstan                    : 
COUNTRY            .         Kazakhstan                    : 
EREF               .m        142.1                         : 
KB                 .         141.2                         : KB Elevation
ORIGINALWELLNAME   .         314                           : 
PROV               .                                       : Province
RWS                .         -999                          : Def_Rw
UWI                .                                       : Уникальный идентификатор скважины
WST                .         -999                          : Def_Rwt
X                  .km       466035.84                     : 
XCOORD             .                                       : X or East-West Coordinate
Y                  .km       5307724.98                    : 
YCOORD             .                                       : Y or North-South Coordinate
~Parameter Information Block
#_______________________________________________________________________________
#
#PARAMETER_NAME    .UNIT     VALUE                         : DESCRIPTION
#_______________________________________________________________________________
SET                .         Las                           : 
BS                 .MM       215.90                        : Bit Size
DFD                .G/C3     1.14                          : Drilling Fluid Density
DFV                .S        39.00                         : Drilling Fluid Viscosity
RMS                .OHMM     .00                           : Mud Sample Resistivity
TLFamily_DEPT      .         Measured Depth                : 
TLFamily_PHI_FINAL .         Porosity                      : 
TLFamily_SW_AR     .         Water Saturation              : 
TLFamily_VSH_FINAL .         Shale Volume                  : 
~Curve Information
#_______________________________________________________________________________
#
#LOGNAME           .UNIT     LOG_ID                        : DESCRIPTION
#_______________________________________________________________________________
DEPT               .M                                      : Depth curve {F}
PHI_FINAL          .m3/m3                                  : Porosity {F}
SW_AR              .m3/m3                                  :  {F}
VSH_FINAL          .unitless                               : Vshale {F}
~Ascii
# ...
301.9      0.1290268  1          0.5956371 
302        0.1145436  1          0.6037171 
302.1      0.1371419  1          0.5403031 
302.2      0.1264998  1          0.575856  
302.3      0.1023542  1          0.6564867 
302.4      0.1020643  1          0.7066464 
302.5      0.1064439  1          0.7393138 
302.6      0.08498497 1          0.8047022 
302.7      0.09079787 1          0.7965097 
302.8      0.07496306 1          0.85069   
302.9      0.08705321 1          0.8244242 
303        0.08853222 1          0.8341982 
303.1      0.1472593  1          0.7218829 
303.2      0.1739672  1          0.6862905 
303.3      0.2081848  1          0.6472197 
303.4      0.2411421  1          0.5986526 
303.5      0.24406    1          0.60952   
303.6      0.2396282  1          0.6205588 
303.7      0.2401292  1          0.6027839 
303.8      0.2284538  1          0.6106848 
303.9      0.2191237  1          0.6130925 
304        0.2093205  1          0.6094478 
304.1      0.1907963  1          0.6215035 
304.2      0.1810963  1          0.6099722 
304.3      0.1656533  1          0.6199908 
304.4      0.1708633  1          0.5848064 
304.5      0.1747016  1          0.5634742 
304.6      0.1796644  1          0.5326894 
304.7      0.1664437  1          0.5736682 
304.8      0.1887988  1          0.5188042 
304.9      0.1755041  1          0.5373318 
305        0.1872429  1          0.5011953 
305.1      0.1699046  1          0.5293126 
305.2      0.143719   1          0.5543705 
305.3      0.08158927 1          0.657253  
305.4      0.01162866 1          0.8317299 
305.5      0          1          0.8826867 
305.6      0          1          0.850145  
305.7      0.006676071 1          0.8079795 
305.8      0.01283996 1          0.8129968 
305.9      0          1          1         
306        0          1          0.9832836 
306.1      0.005107035 1          0.9529755 
306.2      0.01619294 1          0.9036667 
306.3      0.01236172 1          0.928823  
306.4      0.0339023  1          0.8678373 
306.5      0.06987938 1          0.7853191 
306.6      0.0929205  1          0.7410228 
306.7      0.1361178  1          0.6419634 
306.8      0.1461158  1          0.6257409 
306.9      0.1719931  1          0.5673215 
307        0.1966873  1          0.51243   
307.1      0.1995006  1          0.5108309 
307.2      0.1812694  1          0.5416212 
307.3      0.1761331  1          0.5636169 
307.4      0.1887806  1          0.5407465 
307.5      0.2109534  1          0.4985536 
307.6      0.1999131  1          0.5351552 
307.7      0.1972483  1          0.5359541 
307.8      0.1717356  1          0.6001413 
307.9      0.1483466  1          0.6518427 
308        0.1682009  1          0.596219  
308.1      0.2070523  1          0.5086337 
308.2      0.2072501  1          0.5064062 
308.3      0.2082679  1          0.500164  
308.4      0.2049703  1          0.5172004 
308.5      0.194693   1          0.548745  
308.6      0.2066675  1          0.5137678 
308.7      0.1997406  1          0.545582  
308.8      0.2187557  0.9909983  0.5127217 
308.9      0.202197   1          0.55178   
309        0.2259394  0.9871609  0.5001763 
309.1      0.2399704  0.9404406  0.4715017 
309.2      0.2441927  0.9323297  0.4674243 
309.3      0.2592791  0.8886917  0.4250767 
309.4      0.2596232  0.8953769  0.410165  
309.5      0.2526475  0.9267949  0.4147533 
309.6      0.2468119  0.9548006  0.423212  
309.7      0.2265155  1          0.4686116 
309.8      0.2363327  0.960398   0.4409372 
309.9      0.2564837  0.8719087  0.3846615 
310        0.2311794  0.8099878  0.4438243 
310.1      0.2177632  0.8737158  0.4435581 
310.2      0.1903739  1          0.4404473 
310.3      0.1375161  1          0.457866  
310.4      0.09292278 1          0.4435211 
310.5      0.0638595  1          0.4351436 
310.6      0.04078218 1          0.46037   
310.7      0.05393032 1          0.4907442 
310.8      0.09233678 1          0.5076874 
310.9      0.1676166  1          0.4660478 
311        0.2229853  1          0.4303066 
311.1      0.2406892  0.9802856  0.4322763 
311.2      0.2392831  0.9865844  0.4494113 
311.3      0.1873381  1          0.5823956 
311.4      0.1752665  1          0.5993134 
311.5      0.187592   1          0.5535229 
311.6      0.1683757  1          0.5981057 
311.7      0.1788867  1          0.5724341 
311.8      0.2033728  1          0.5110585 
311.9      0.1971421  1          0.5370288 
312        0.1970559  1          0.5364846 
312.1      0.1995574  1          0.5209407 
312.2      0.2191656  1          0.479827  
312.3      0.1964001  1          0.531743  
312.4      0.1866613  1          0.5448683 
312.5      0.1841628  1          0.5515991 
312.6      0.1774895  1          0.5632775 
312.7      0.1799358  1          0.5475212 
312.8      0.1792656  1          0.5345961 
312.9      0.1692106  1          0.5443747 
313        0.1152138  1          0.6452551 
313.1      0.07912587 1          0.6661678 
313.2      0.05644811 1          0.633553  
313.3      0.03236804 1          0.5831216 
313.4      0.03722658 1          0.4975562 
313.5      0.02255363 1          0.5428805 
313.6      0.03252305 1          0.5423315 
313.7      0.04633885 1          0.5453956 
313.8      0.05501778 1          0.5655378 
313.9      0.07351302 1          0.5559261 
314        0.07700165 1          0.5778289 
314.1      0.1007974  1          0.514114  
314.2      0.1088238  1          0.4964373 
314.3      0.1324401  1          0.4621367 
314.4      0.1461453  1          0.4741641 
314.5      0.1829421  1          0.451867  
314.6      0.1844517  1          0.4896595 
314.7      0.185757   1          0.505035  
314.8      0.1822547  1          0.518434  
314.9      0.1729292  1          0.5294845 
315        0.1813182  1          0.4928293 
315.1      0.1527116  1          0.5205418 
315.2      0.1617749  1          0.4711075 
315.3      0.1325432  1          0.5064051 
315.4      0.1073721  1          0.5296709 
315.5      0.08217287 1          0.5582203 
315.6      0.06560952 1          0.5880952 
315.7      0.09046447 1          0.5296064 
315.8      0.1145738  1          0.470419  
315.9      0.1212493  1          0.4594973 
316        0.1187808  1          0.4724497 
316.1      0.1145061  1          0.5021004 
316.2      0.1150561  1          0.5092093 
316.3      0.07822175 1          0.6326761 
316.4      0.0595059  1          0.6903505 
316.5      0.0956725  1          0.6204478 
316.6      0.1279778  1          0.5848444 
316.7      0.1193681  1          0.6144243 
316.8      0.09880441 1          0.6848312 
316.9      0.1233517  1          0.6184677 
317        0.1421159  1          0.6004346 
317.1      0.1780542  1          0.534462  
317.2      0.1813474  1          0.5317093 
317.3      0.1720449  1          0.5715051 
317.4      0.1846608  1          0.5494394 
317.5      0.2182049  0.9669139  0.4824882 
317.6      0.2403337  0.8541092  0.448524  
317.7      0.2317092  0.8481846  0.4851704 
317.8      0.2478956  0.7998552  0.4638623 
317.9      0.2630647  0.7938023  0.4528945 
318        0.2837127  0.7470211  0.4292944 
318.1      0.2772971  0.7628298  0.4364467 
318.2      0.2444699  0.8465426  0.4738445 
318.3      0.202558   0.9931393  0.4912231 
318.4      0.1784571  1          0.4637762 
318.5      0.1565863  1          0.5041827 
318.6      0.188501   1          0.4630283 
318.7      0.2250876  0.9009624  0.4287896 
318.8      0.2496522  0.8254621  0.4128074 
318.9      0.2574845  0.8053583  0.3968098 
319        0.2559172  0.8053653  0.3897375 
319.1      0.2561001  0.8037496  0.383607  
319.2      0.2627127  0.802162   0.3685571 
319.3      0.2564612  0.8413936  0.3763409 
319.4      0.2517447  0.8774051  0.3973452 
319.5      0.2715125  0.8303156  0.3600377 
319.6      0.281052   0.807686   0.3593452 
319.7      0.2905945  0.7834415  0.3550254 
319.8      0.287607   0.787652   0.3866955 
319.9      0.2975755  0.7586285  0.3925643 
320        0.293894   0.7664238  0.4132301 
