~Version
 VERS              .         3.0                           : CWLS LOG ASCII STANDARD - VERSION 3.0
 WRAP              .         NO                            : ONE LINE PER DEPTH STEP
 DLM               .         SPACE                         : DELIMITING CHARACTER(SPACE TAB OR COMMA)
~Well Information
#_______________________________________________________________________________
#
#PARAMETER_NAME    .UNIT     VALUE                         : DESCRIPTION
#_______________________________________________________________________________
STRT               .M        13                            : First reference value
STOP               .M        939                           : Last reference value
STEP               .M        0.1                           : Step increment
NULL               .         -9999                         : Missing value
COMP               .         ICPetroleum                   : Company
WELL               .         314                           : Well name
FLD                .         Karatobe                      : Field
LOC                .                                       : Location
SRVC               .         ТОО ГК ГИС Сервис             : Service Company
CTRY               .         KZ                            : Country
DATE               .         20.01.2022                    : Service Date
LATI               .         0                             : Latitude
LONG               .         0                             : Longitude
GDAT               .         WGS 84                        : Geodetic Datum
COORDIN            .                                       : Grid System
COUNTRY            .         Kazakhstan                    : 
COUNTRY            .         Kazakhstan                    : 
EREF               .m        142.1                         : 
KB                 .         141.2                         : KB Elevation
ORIGINALWELLNAME   .         314                           : 
PROV               .                                       : Province
RWS                .         -999                          : Def_Rw
UWI                .                                       : Уникальный идентификатор скважины
WST                .         -999                          : Def_Rwt
X                  .km       466035.84                     : 
XCOORD             .                                       : X or East-West Coordinate
Y                  .km       5307724.98                    : 
YCOORD             .                                       : Y or North-South Coordinate
~Parameter Information Block
#_______________________________________________________________________________
#
#PARAMETER_NAME    .UNIT     VALUE                         : DESCRIPTION
#_______________________________________________________________________________
SET                .         Las                           : 
BS                 .MM       215.90                        : Bit Size
DFD                .G/C3     1.14                          : Drilling Fluid Density
DFV                .S        39.00                         : Drilling Fluid Viscosity
RMS                .OHMM     .00                           : Mud Sample Resistivity
TLFamily_DEPT      .         Measured Depth                : 
TLFamily_PHI_FINAL .         Porosity                      : 
TLFamily_SW_AR     .         Water Saturation              : 
TLFamily_VSH_FINAL .         Shale Volume                  : 
~Curve Information
#_______________________________________________________________________________
#
#LOGNAME           .UNIT     LOG_ID                        : DESCRIPTION
#_______________________________________________________________________________
DEPT               .M                                      : Depth curve {F}
PHI_FINAL          .m3/m3                                  : Porosity {F}
SW_AR              .m3/m3                                  :  {F}
VSH_FINAL          .unitless                               : Vshale {F}
~Ascii
# ...
447.5      0.209864   1          0.4790345 
447.6      0.251411   1          0.4079297 
447.7      0.2702017  1          0.379862  
447.8      0.2832091  0.9508323  0.3507051 
447.9      0.3060617  0.8651531  0.2930205 
448        0.3088648  0.8025005  0.2882262 
448.1      0.3517618  0.6640874  0.2237885 
448.2      0.3820274  0.5864853  0.1823922 
448.3      0.4164667  0.5327418  0.1389998 
448.4      0.4329989  0.5204938  0.1166545 
448.5      0.44871    0.5225821  0.09632698
448.6      0.4523206  0.5236015  0.09520946
448.7      0.4518948  0.5131296  0.1049295 
448.8      0.4484327  0.5091851  0.1171267 
448.9      0.4261603  0.5509113  0.1579921 
449        0.406159   0.6390408  0.2046508 
449.1      0.3487854  0.7664772  0.3005855 
449.2      0.2989039  0.9233115  0.3998138 
449.3      0.1807701  1          0.6473572 
449.4      0.06929321 1          0.8876473 
449.5      0.02037374 1          1         
449.6      0.01118995 1          1         
449.7      0.008414959 1          1         
449.8      0.007500625 1          1         
449.9      0.006008425 1          1         
450        0.003879563 1          1         
450.1      0.004096313 1          1         
450.2      0.004627417 1          1         
450.3      0.005808493 1          1         
450.4      0.005409905 1          1         
450.5      0.006419357 1          1         
450.6      0.00708605 1          1         
450.7      0.008395002 1          1         
450.8      0.009178474 1          1         
450.9      0.01116977 1          1         
451        0.01426763 1          1         
451.1      0.01783502 1          1         
451.2      0.03577456 1          0.9558098 
451.3      0.1487759  1          0.7050717 
451.4      0.1286318  1          0.7728665 
451.5      0.16944    1          0.6788478 
451.6      0.2014301  1          0.6004863 
451.7      0.2094446  1          0.5769966 
451.8      0.2095069  1          0.5784056 
451.9      0.2275401  1          0.5565115 
452        0.2324251  1          0.5656402 
452.1      0.2085605  1          0.642354  
452.2      0.2011268  1          0.6517434 
452.3      0.1482511  1          0.7314349 
452.4      0.1078571  1          0.751687  
452.5      0.04778913 1          0.8278641 
452.6      0.04010857 1          0.7957042 
452.7      0.02743378 1          0.8088011 
452.8      0.006198103 1          0.8785285 
452.9      0.001659936 1          0.8909498 
453        0.003397534 1          0.8904651 
453.1      0.06755914 1          0.7185783 
453.2      0.09742322 1          0.6803042 
453.3      0.1253086  1          0.6710609 
453.4      0.1528183  1          0.6633849 
453.5      0.1581076  1          0.6914415 
453.6      0.1558112  1          0.7024738 
453.7      0.1351794  1          0.731993  
453.8      0.1382515  1          0.6890686 
453.9      0.1340481  1          0.683698  
454        0.1476204  1          0.6569034 
454.1      0.1322668  1          0.7170463 
454.2      0.1429731  1          0.7032633 
454.3      0.1797271  1          0.6294436 
454.4      0.180049   1          0.6377154 
454.5      0.1967049  1          0.6102841 
454.6      0.2025521  1          0.6025681 
454.7      0.2208923  1          0.5683916 
454.8      0.2423407  1          0.5227984 
454.9      0.2340865  1          0.5439266 
455        0.2540743  1          0.5000533 
455.1      0.2466908  1          0.5352603 
455.2      0.2532336  1          0.534973  
455.3      0.2603961  1          0.5377006 
455.4      0.274938   1          0.5220968 
455.5      0.2889018  1          0.5049755 
455.6      0.3050087  1          0.4720731 
455.7      0.3130222  1          0.4618267 
455.8      0.3459438  0.9057381  0.4045288 
455.9      0.3658225  0.8262408  0.3896702 
456        0.4097739  0.6403589  0.3164935 
456.1      0.4286149  0.5583671  0.2974744 
456.2      0.4628619  0.4854902  0.2393145 
456.3      0.4973192  0.4639753  0.1661803 
456.4      0.4877167  0.5211112  0.1577393 
456.5      0.4824473  0.5980467  0.1611816 
456.6      0.4635797  0.6383725  0.1774422 
456.7      0.4454421  0.6565147  0.1925398 
456.8      0.4461361  0.6606622  0.1894955 
456.9      0.4490781  0.6708056  0.1797546 
457        0.4332093  0.6799612  0.2174796 
457.1      0.4262604  0.6538242  0.2187216 
457.2      0.4116196  0.5880545  0.2398453 
457.3      0.4063532  0.5575699  0.251534  
457.4      0.4016211  0.554019   0.2532408 
457.5      0.3762846  0.6269653  0.278996  
457.6      0.3395243  0.7186913  0.3271973 
457.7      0.2962034  0.8428611  0.3935541 
457.8      0.1804456  1          0.6287001 
457.9      0.1031329  1          0.7726737 
458        0.009690351 1          1         
458.1      0.001928138 1          1         
458.2      0.0002677544 1          1         
458.3      0.0004668505 1          1         
458.4      0.0003047558 1          1         
458.5      0.001338232 1          1         
458.6      0.002507069 1          1         
458.7      0.004503177 1          1         
458.8      0.005829014 1          1         
458.9      0.007246302 1          1         
459        0.03254919 1          0.9254864 
459.1      0.07400386 1          0.8367294 
459.2      0.120501   1          0.7566096 
459.3      0.1599771  1          0.6985128 
459.4      0.2324526  1          0.551765  
459.5      0.2821971  1          0.4756823 
459.6      0.3403846  0.9824265  0.3449789 
459.7      0.3443421  0.9593271  0.3574353 
459.8      0.3820894  0.8468496  0.2810751 
459.9      0.3727246  0.7930836  0.2786892 
460        0.3591531  0.7453746  0.2556603 
460.1      0.3480973  0.7787294  0.2126961 
460.2      0.3163089  0.9235104  0.2105729 
460.3      0.3044307  1          0.1908237 
460.4      0.3080329  1          0.1907124 
460.5      0.333231   0.9690207  0.1751262 
460.6      0.3410572  0.9583061  0.2066972 
460.7      0.3334194  0.978464   0.2457192 
460.8      0.3121859  1          0.2921684 
460.9      0.2737655  1          0.3497667 
461        0.2234027  1          0.4186251 
461.1      0.1412841  1          0.5564086 
461.2      0.0607946  1          0.7055722 
461.3      0          1          0.9034366 
461.4      0          1          0.9515981 
461.5      0          1          0.9490786 
461.6      0          1          0.9475643 
461.7      0          1          0.9371114 
461.8      0          1          0.9907109 
461.9      0          1          1         
462        0          1          0.9889416 
462.1      0          1          1         
462.2      0.0006301692 1          1         
462.3      0.001410983 1          1         
462.4      0.03093578 1          0.8269444 
462.5      0.02708505 1          0.8392193 
462.6      0.03257449 1          0.807743  
462.7      0.04239377 1          0.7652057 
462.8      0.03978895 1          0.7777609 
462.9      0.04234283 1          0.7801256 
463        0.03342437 1          0.8280919 
463.1      0.03922421 1          0.8072951 
463.2      0.03351589 1          0.8301433 
463.3      0.01264417 1          0.9199182 
463.4      0.0195351  1          0.8897744 
463.5      0.01924191 1          0.9022469 
463.6      0.02260252 1          0.8769671 
463.7      0.02199318 1          0.8755652 
463.8      0.02513694 1          0.8735483 
463.9      0.03494666 1          0.8240877 
464        0.04643586 1          0.7897727 
464.1      0.06381924 1          0.7401283 
464.2      0.1165293  1          0.6048507 
464.3      0.13714    1          0.5693086 
464.4      0.1248379  1          0.6095459 
464.5      0.1346975  1          0.588547  
464.6      0.1142228  1          0.6297339 
464.7      0.1371351  1          0.5950975 
464.8      0.1860816  1          0.480607  
464.9      0.2139903  1          0.4246256 
465        0.2617873  0.9334153  0.3551592 
465.1      0.2698002  0.8935705  0.3811373 
465.2      0.2903713  0.8566211  0.36549   
465.3      0.2655539  0.9500267  0.4361171 
465.4      0.238344   1          0.4848968 
465.5      0.1653031  1          0.6244301 
465.6      0.09371839 1          0.7493541 
