~Version information                                                          
  VERS.                            1.20: CWLS LAS  -  VERSION 1.20            
  WRAP.                             NO : One line per depth step              
~Well information                                                             
# MNEM.UNIT         DATA TYPE  INFORMATION                                    
# ====.================================: ===================                  
  STRT.M                        13.000 : First depth in file                  
  STOP.M                       939.000 : Last  depth in file                  
  STEP.M                          .100 : Depth increment                      
  NULL.                       -999.250 : Null  values                         
  WN  .                            WELL: 314
  FN  .                           FIELD: KARATUBE
  DATE.                        LOG DATE: 03.12.2004
~Curve information                                                            
# MNEM.UNIT                   API CODE   CURVE DESCRIPTION                    
# ====.================================:====================                  
  DEPT.M                               : Depth curve                          
  GR  .UR/H                            : Gamma-ray log
  NGLD.UE                              : Neutron-gamma log
  GZ3B.OHMM                            : App.resistivity by lateral N0.5M2.0A                                     
  C1  .MM                              : Caliper, diameter 1
  C2  .MM                              : Caliper, diameter 2
  CALI.MM                              : Caliper
  LL3 .OHMM                            : Appar.resist.laterolog,3 electrodes
  GZ3 .OHMM                            : App.resistivity by lateral A2.0M0.5N
  MLL .OHMM                            : Microlaterolog sonde
  CILR.MMHO                            : Conduct. by sonde 7I1.6,reactive signal
  CILA.MMHO                            : Conduct. by sonde 7I1.6,active signal
  SP  .MV                              : Spontaneous potential
  RHOB.G/C3                            : Bulk density by gamma-gamma log    
  DTP .US/M                            : Interval travel time (P-wave)  
  T1  .US                              : Travel time 1 
  T2  .US                              : Travel time 2
  BSC .MM                              : Bit size
~Parameter information block                                                  
# MNEM.UNIT                     VALUE       DESCRIPTION                       
# ====.================================:====================                  
  BS  .MM                       215.90 : Bit Size                             
  DFD .G/C3                       1.14 : Drilling Fluid Density
  DFV .S                         39.00 : Drilling Fluid Viscosity             
  RMS .OHMM                        .00 : Mud Sample Resistivity               
~Other information                                                            
# ------------------- REMARKS AREA ------------------------                   
# ==========================================================                  
~ASCII Log Data                                                               
# ...
    510.00        3.298        2.009        2.793      217.632      218.226      217.929        1.478        2.271        4.666      188.627      173.405      103.035        2.467      446.670     1334.983     1511.675      215.900
    510.10        3.565        1.938        2.662      216.602      218.109      217.355        1.160        2.343         .952      186.492      174.077      102.588        2.499      433.138     1327.112     1497.241      215.900
    510.20        3.541        1.778        2.506      217.016      216.197      216.607        1.113        2.401         .951      191.887      175.241      101.242        2.476      437.302     1316.213     1489.160      215.900
    510.30        3.651        1.678        2.346      215.175      212.848      214.012        1.111        2.417        1.020      188.746      181.285      101.266        2.425      451.657     1306.442     1488.129      215.900
    510.40        4.025        1.556        2.242      212.919      201.318      207.119        1.119        2.568         .968      191.208      176.822      101.926        2.359      465.547     1303.033     1490.390      215.900
    510.50        4.042        1.476        2.164      215.626      202.102      208.864        1.112        2.634         .909      192.288      176.187      101.727        2.323      472.909     1305.834     1495.446      215.900
    510.60        4.282        1.448        2.150      214.263      207.341      210.802        1.093        2.547         .890      190.884      174.139      100.349        2.247      476.250     1311.645     1502.167      215.900
    510.70        4.322        1.434        2.139      214.068      211.832      212.950        1.089        2.375         .893      189.373      168.778       98.490        2.251      477.568     1319.494     1510.860      215.900
    510.80        4.402        1.416        2.143      212.803      213.514      213.158        1.111        2.336         .870      189.082      168.281       97.559        2.246      477.820     1328.999     1520.193      215.900
    510.90        4.602        1.472        2.142      213.962      216.059      215.010        1.130        2.152         .927      185.445      164.212       96.730        2.212      480.355     1339.997     1530.823      215.900
    511.00        4.555        1.467        2.137      215.930      216.933      216.432        1.142        2.092         .929      186.712      164.732       98.022        2.204      490.032     1351.640     1546.047      215.900
    511.10        4.468        1.469        2.139      214.658      216.954      215.806        1.127        1.957         .862      185.483      164.630      100.070        2.186      507.501     1368.080     1570.886      215.900
    511.20        4.565        1.463        2.150      214.095      215.513      214.804        1.111        2.028         .833      187.869      167.266      102.335        2.184      526.008     1388.955     1600.743      215.900
    511.30        4.569        1.481        2.162      214.331      215.365      214.848        1.098        2.004         .831      188.934      170.920      105.152        2.191      533.609     1412.810     1629.424      215.900
    511.40        4.337        1.486        2.163      213.108      215.698      214.403        1.084        2.013         .831      195.774      172.393      106.378        2.193      523.073     1435.841     1647.770      215.900
    511.50        4.255        1.516        2.156      215.949      217.530      216.740        1.055        1.918         .854      198.975      175.782      106.235        2.199      492.239     1457.732     1656.875      215.900
    511.60        4.180        1.483        2.137      216.804      219.922      218.363        1.027        1.957         .885      202.368      174.531      105.624        2.203      452.760     1473.963     1653.578      215.900
    511.70        4.054        1.466        2.092      216.905      217.785      217.345        1.015        1.961         .804      202.744      179.430      105.552        2.201      415.874     1475.582     1640.137      215.900
    511.80        3.994        1.489        2.057      216.531      218.931      217.731        1.036        2.095         .831      202.314      179.370      105.718        2.194      396.202     1460.374     1615.257      215.900
    511.90        4.192        1.461        2.027      215.814      219.307      217.560        1.062        2.089         .849      203.475      178.662      104.976        2.198      388.180     1431.934     1587.938      215.900
    512.00        4.186        1.431        2.019      216.396      220.255      218.326        1.074        2.111         .854      202.243      176.280      105.222        2.209      386.658     1408.335     1563.265      215.900
    512.10        3.988        1.483        2.026      216.837      219.694      218.266        1.069        2.050         .856      206.003      172.460      104.889        2.239      381.001     1396.755     1549.812      215.900
    512.20        3.983        1.454        2.043      215.676      219.708      217.692        1.063        2.128         .786      203.623      175.033      104.226        2.251      378.457     1399.903     1549.118      215.900
    512.30        4.043        1.481        2.062      217.765      219.467      218.616        1.061        2.190         .798      205.774      173.890      101.895        2.255      390.429     1409.471     1561.345      215.900
    512.40        4.001        1.540        2.081      218.253      218.875      218.564        1.067        2.172         .820      208.144      176.351       99.949        2.264      416.896     1419.416     1586.837      215.900
    512.50        4.058        1.572        2.096      217.282      218.525      217.904        1.080        2.178         .818      207.172      174.433       98.983        2.258      447.430     1429.799     1610.781      215.900
    512.60        3.909        1.587        2.103      218.656      218.530      218.593        1.086        2.108         .782      208.980      171.774       97.988        2.277      459.922     1437.713     1626.231      215.900
    512.70        4.102        1.585        2.116      217.028      218.981      218.004        1.089        2.093         .745      208.576      175.969       98.564        2.272      456.475     1445.928     1628.332      215.900
    512.80        4.092        1.574        2.137      215.814      219.932      217.873        1.099        2.016         .719      210.758      172.735      101.263        2.279      445.154     1451.524     1628.369      215.900
    512.90        4.314        1.514        2.158      218.589      218.162      218.375        1.106        1.980         .726      212.858      175.640      104.060        2.282      440.378     1456.266     1631.204      215.900
    513.00        4.216        1.464        2.179      217.268      218.151      217.710        1.101        1.984         .764      214.341      175.726      106.413        2.269      441.575     1459.656     1636.327      215.900
    513.10        4.056        1.435        2.199      217.829      218.075      217.952        1.098        1.992         .761      217.976      177.965      107.785        2.252      445.177     1463.437     1641.718      215.900
    513.20        4.058        1.443        2.236      217.832      218.154      217.993        1.099        1.948         .753      214.912      178.546      109.125        2.245      448.654     1466.954     1646.213      215.900
    513.30        4.131        1.469        2.253      216.938      218.335      217.637        1.100        1.956         .789      217.252      179.306      111.635        2.237      451.838     1469.639     1650.481      215.900
    513.40        4.005        1.485        2.262      218.411      218.403      218.407        1.096        1.977         .790      217.418      179.319      114.178        2.254      455.227     1473.658     1655.760      215.900
