~Version information                                                          
  VERS.                            1.20: CWLS LAS  -  VERSION 1.20            
  WRAP.                             NO : One line per depth step              
~Well information                                                             
# MNEM.UNIT         DATA TYPE  INFORMATION                                    
# ====.================================: ===================                  
  STRT.M                        13.000 : First depth in file                  
  STOP.M                       939.000 : Last  depth in file                  
  STEP.M                          .100 : Depth increment                      
  NULL.                       -999.250 : Null  values                         
  WN  .                            WELL: 314
  FN  .                           FIELD: KARATUBE
  DATE.                        LOG DATE: 03.12.2004
~Curve information                                                            
# MNEM.UNIT                   API CODE   CURVE DESCRIPTION                    
# ====.================================:====================                  
  DEPT.M                               : Depth curve                          
  GR  .UR/H                            : Gamma-ray log
  NGLD.UE                              : Neutron-gamma log
  GZ3B.OHMM                            : App.resistivity by lateral N0.5M2.0A                                     
  C1  .MM                              : Caliper, diameter 1
  C2  .MM                              : Caliper, diameter 2
  CALI.MM                              : Caliper
  LL3 .OHMM                            : Appar.resist.laterolog,3 electrodes
  GZ3 .OHMM                            : App.resistivity by lateral A2.0M0.5N
  MLL .OHMM                            : Microlaterolog sonde
  CILR.MMHO                            : Conduct. by sonde 7I1.6,reactive signal
  CILA.MMHO                            : Conduct. by sonde 7I1.6,active signal
  SP  .MV                              : Spontaneous potential
  RHOB.G/C3                            : Bulk density by gamma-gamma log    
  DTP .US/M                            : Interval travel time (P-wave)  
  T1  .US                              : Travel time 1 
  T2  .US                              : Travel time 2
  BSC .MM                              : Bit size
~Parameter information block                                                  
# MNEM.UNIT                     VALUE       DESCRIPTION                       
# ====.================================:====================                  
  BS  .MM                       215.90 : Bit Size                             
  DFD .G/C3                       1.14 : Drilling Fluid Density
  DFV .S                         39.00 : Drilling Fluid Viscosity             
  RMS .OHMM                        .00 : Mud Sample Resistivity               
~Other information                                                            
# ------------------- REMARKS AREA ------------------------                   
# ==========================================================                  
~ASCII Log Data                                                               
# ...
    881.00        1.931        3.671       81.227      222.618      230.386      226.502      223.660       38.151       16.392        2.209        2.198       66.031        3.069      180.555      867.630      939.903      215.900
    881.10        1.858        3.760       81.477      223.922      230.910      227.416      264.828       37.532      158.033        1.997        7.272       65.023        3.022      181.581      868.038      940.911      215.900
    881.20        1.868        3.833       81.638      224.208      231.100      227.654      287.758       37.227      288.929        2.015        5.516       63.955        3.031      181.147      868.405      941.156      215.900
    881.30        1.770        3.970       81.831      224.377      230.189      227.283      277.654       37.085      281.258        2.645        1.392       64.746        3.060      179.097      869.017      940.770      215.900
    881.40        1.643        4.022       82.046      221.521      225.257      223.389      253.923       36.952      107.080        2.647         .488       67.542        3.013      176.315      869.906      940.320      215.900
    881.50        1.523        4.043       82.059      224.361      222.173      223.267      241.169       36.732       27.728        2.679        1.962       68.865        3.034      174.278      870.825      940.237      215.900
    881.60        1.453        4.103       81.805      224.026      220.219      222.123      239.230       36.283       31.294        2.676        4.937       68.709        3.031      173.788      871.482      940.791      215.900
    881.70        1.569        4.145       81.410      224.282      220.447      222.364      254.172       35.847       40.570        1.519        5.179       67.588        3.041      174.674      871.799      941.624      215.900
    881.80        1.506        4.310       81.067      223.738      221.387      222.562      265.024       35.122       57.682        2.176        7.299       66.589        3.050      175.768      871.890      942.364      215.900
    881.90        1.363        4.451       80.800      223.003      223.514      223.259      255.086       34.412      125.098        1.654        5.457       66.022        3.069      176.147      872.146      942.768      215.900
    882.00        1.324        4.527       80.514      220.977      226.043      223.510      238.221       33.944      232.057        2.509        6.749       65.979        3.070      175.679      872.888      943.168      215.900
    882.10        1.382        4.581       79.923      222.925      227.320      225.122      237.241       33.320      150.827        2.176        5.225       63.330        3.071      175.183      874.221      944.134      215.900
    882.20        1.369        4.610       79.365      222.753      228.697      225.725      256.923       32.665       49.115        1.890        8.053       62.410        3.082      175.465      875.702      945.727      215.900
    882.30        1.462        4.594       78.919      222.628      227.484      225.056      292.953       32.088       47.461        2.311        8.740       63.401        3.101      176.512      876.873      947.492      215.900
    882.40        1.499        4.586       78.399      225.728      227.200      226.464      393.521       31.524      199.010        1.801       10.098       65.459        3.072      177.515      877.489      948.657      215.900
    882.50        1.575        4.587       78.078      227.600      226.031      226.815      490.559       31.249      285.078        -.487       11.546       67.426        3.126      177.456      877.846      949.075      215.900
    882.60        1.599        4.674       77.726      231.246      223.569      227.408      556.391       31.161      312.665        -.220       12.568       69.275        3.083      176.034      878.243      948.792      215.900
    882.70        1.645        4.697       77.654      234.656      224.464      229.560      545.507       31.206      306.973         .758       14.068       71.188        3.100      173.832      878.823      948.286      215.900
    882.80        1.476        4.653       77.423      232.717      223.642      228.180      489.623       31.327      310.071       -1.706       13.963       71.565        3.106      171.964      879.381      947.968      215.900
    882.90        1.583        4.702       77.342      233.933      224.348      229.141      384.643       31.525      220.853        1.005       15.972       72.220        3.105      171.302      879.685      947.993      215.900
    883.00        1.661        4.642       77.404      234.470      225.565      230.017      290.848       31.614       66.989        -.896       16.671       73.257        3.124      171.717      879.564      948.232      215.900
    883.10        1.657        4.557       77.794      233.686      226.695      230.191      243.279       31.687       47.537         .761       20.611       73.042        3.082      172.473      878.955      948.040      215.900
    883.20        1.670        4.404       78.453      235.757      228.392      232.074      198.845       31.683       93.531         .316       19.115       72.324        3.106      172.751      877.989      947.205      215.900
    883.30        1.681        4.308       79.331      238.145      228.536      233.340      175.422       31.605       50.419        2.862       16.377       72.352        3.085      172.392      876.892      945.892      215.900
    883.40        1.690        4.143       80.882      237.924      227.484      232.704      160.226       31.451       41.140        1.163       15.281       72.519        3.067      171.837      875.991      944.645      215.900
    883.50        1.582        4.023       82.135      239.618      225.639      232.628      144.364       31.189       94.755        -.170       16.064       73.178        3.057      171.638      875.367      943.916      215.900
    883.60        1.636        3.895       83.770      237.674      225.053      231.363      132.742       30.845       41.566        1.658       16.472       73.620        3.060      172.172      874.924      943.686      215.900
    883.70        1.715        3.827       85.320      237.802      223.515      230.658      122.529       30.305       41.975        3.034        9.205       74.732        3.029      173.333      874.333      943.627      215.900
    883.80        1.823        3.729       87.087      239.154      223.442      231.298      116.155       29.681       23.390        4.345        6.015       73.231        3.046      174.833      873.521      943.463      215.900
    883.90        1.889        3.712       90.074      234.891      223.993      229.442      108.703       28.860       20.758        4.975        8.337       71.428        3.052      176.168      872.647      943.208      215.900
    884.00        1.890        3.671       92.513      233.385      223.221      228.303      102.519       28.091       20.194        6.826        9.322       69.366        3.036      177.231      872.262      943.160      215.900
    884.10        1.926        3.591       96.140      230.456      223.302      226.879       97.772       26.970       15.602        8.349        9.039       69.429        3.040      177.665      872.491      943.709      215.900
    884.20        1.847        3.603       99.170      228.474      223.056      225.765       99.421       25.753       40.919        6.022        6.825       70.799        3.051      177.361      872.983      944.065      215.900
    884.30        1.841        3.578      101.648      225.100      223.962      224.531       98.012       24.551       79.508        5.688        3.084       71.402        3.043      176.269      873.112      943.645      215.900
    884.40        1.862        3.645      104.609      227.025      224.734      225.879       81.491       23.199       22.776        6.109       -1.090       73.163        3.011      175.172      872.666      942.574      215.900
