~Version information                                                          
  VERS.                            1.20: CWLS LAS  -  VERSION 1.20            
  WRAP.                             NO : One line per depth step              
~Well information                                                             
# MNEM.UNIT         DATA TYPE  INFORMATION                                    
# ====.================================: ===================                  
  STRT.M                        13.000 : First depth in file                  
  STOP.M                       939.000 : Last  depth in file                  
  STEP.M                          .100 : Depth increment                      
  NULL.                       -999.250 : Null  values                         
  WN  .                            WELL: 314
  FN  .                           FIELD: KARATUBE
  DATE.                        LOG DATE: 03.12.2004
~Curve information                                                            
# MNEM.UNIT                   API CODE   CURVE DESCRIPTION                    
# ====.================================:====================                  
  DEPT.M                               : Depth curve                          
  GR  .UR/H                            : Gamma-ray log
  NGLD.UE                              : Neutron-gamma log
  GZ3B.OHMM                            : App.resistivity by lateral N0.5M2.0A                                     
  C1  .MM                              : Caliper, diameter 1
  C2  .MM                              : Caliper, diameter 2
  CALI.MM                              : Caliper
  LL3 .OHMM                            : Appar.resist.laterolog,3 electrodes
  GZ3 .OHMM                            : App.resistivity by lateral A2.0M0.5N
  MLL .OHMM                            : Microlaterolog sonde
  CILR.MMHO                            : Conduct. by sonde 7I1.6,reactive signal
  CILA.MMHO                            : Conduct. by sonde 7I1.6,active signal
  SP  .MV                              : Spontaneous potential
  RHOB.G/C3                            : Bulk density by gamma-gamma log    
  DTP .US/M                            : Interval travel time (P-wave)  
  T1  .US                              : Travel time 1 
  T2  .US                              : Travel time 2
  BSC .MM                              : Bit size
~Parameter information block                                                  
# MNEM.UNIT                     VALUE       DESCRIPTION                       
# ====.================================:====================                  
  BS  .MM                       215.90 : Bit Size                             
  DFD .G/C3                       1.14 : Drilling Fluid Density
  DFV .S                         39.00 : Drilling Fluid Viscosity             
  RMS .OHMM                        .00 : Mud Sample Resistivity               
~Other information                                                            
# ------------------- REMARKS AREA ------------------------                   
# ==========================================================                  
~ASCII Log Data                                                               
# ...
    247.50        8.525        1.402        6.509      218.210      216.053      217.131        2.601        5.493     -999.250       67.643      132.882       34.518        2.366      492.887     1526.325     1722.281      215.900
    247.60        8.347        1.396        6.363      218.732      217.912      218.322        2.602        5.407     -999.250       65.909      135.645       35.587        2.344      484.737     1529.607     1722.557      215.900
    247.70        8.429        1.409        6.247      220.262      218.904      219.583        2.457        5.306     -999.250       66.428      139.081       34.642        2.339      480.625     1526.031     1718.810      215.900
    247.80        8.528        1.349        6.179      220.354      218.834      219.594        2.293        5.274     -999.250       66.852      140.411       34.339        2.335      476.392     1520.691     1711.713      215.900
    247.90        8.588        1.336        6.128      230.552      220.233      225.392        2.144        5.278     -999.250       69.272      143.803       34.800        2.352      470.377     1516.352     1704.222      215.900
    248.00        8.816        1.333        6.108      233.441      219.822      226.631        1.980        5.308     -999.250       69.283      147.625       36.359        2.374      466.766     1513.108     1698.669      215.900
    248.10        8.918        1.295        6.100      233.522      224.433      228.977        1.941        5.378     -999.250       67.375      146.711       37.898        2.377      468.765     1511.740     1698.428      215.900
    248.20        9.496        1.252        6.101      236.388      222.935      229.661        1.937        5.459     -999.250       65.304      141.747       39.451        2.385      476.250     1512.343     1702.611      215.900
    248.30        9.538        1.227        6.104      232.979      221.003      226.991        2.004        5.486     -999.250       65.343      138.749       39.891        2.320      485.995     1517.432     1711.976      215.900
    248.40        9.543        1.276        6.221      235.043      224.436      229.740        2.145        5.481     -999.250       61.154      134.731       40.109        2.297      496.256     1527.563     1725.944      215.900
    248.50        9.571        1.293        6.321      229.402      224.013      226.708        2.265        5.406     -999.250       59.482      130.739       40.828        2.296      505.328     1542.009     1744.593      215.900
    248.60        9.270        1.285        6.547      227.367      220.990      224.178        2.358        5.302     -999.250       56.323      122.431       43.791        2.292      512.304     1556.092     1761.520      215.900
    248.70        8.920        1.299        6.759      225.549      219.651      222.600        2.459        5.158     -999.250       55.188      118.411       46.791        2.300      514.341     1565.935     1772.688      215.900
    248.80        8.969        1.334        6.958      225.890      213.306      219.598        2.579        5.044     -999.250       55.314      117.858       47.957        2.302      511.569     1570.788     1775.816      215.900
    248.90        8.788        1.351        7.169      227.015      213.936      220.475        2.672        4.923     -999.250       53.676      115.949       47.551        2.344      506.743     1572.929     1775.031      215.900
    249.00        8.987        1.342        7.338      225.159      212.839      218.999        2.801        4.883     -999.250       53.064      113.741       48.555        2.364      504.666     1574.147     1775.108      215.900
    249.10        8.965        1.369        7.514      224.220      210.514      217.367        3.046        4.863     -999.250       51.480      111.814       50.644        2.390      507.260     1575.155     1777.692      215.900
    249.20        8.800        1.382        7.679      224.089      211.536      217.812        3.156        4.922     -999.250       52.004      111.134       51.631        2.375      510.606     1575.997     1781.212      215.900
    249.30        8.528        1.400        7.855      224.373      209.500      216.936        3.204        4.983     -999.250       52.684      110.837       50.236        2.399      510.671     1577.009     1781.985      215.900
    249.40        8.535        1.400        8.007      225.232      213.539      219.385        3.193        5.072     -999.250       51.015      108.759       49.170        2.421      506.408     1577.197     1779.812      215.900
    249.50        8.524        1.409        8.089      225.894      215.144      220.519        3.108        5.164     -999.250       49.406      109.136       48.379        2.451      502.225     1575.743     1775.842      215.900
    249.60        8.238        1.461        8.165      227.809      214.392      221.100        3.039        5.276     -999.250       49.456      111.102       48.235        2.441      500.841     1571.747     1771.704      215.900
    249.70        8.223        1.442        8.208      225.996      213.548      219.772        2.980        5.416     -999.250       49.280      112.290       50.351        2.457      502.584     1566.613     1767.567      215.900
    249.80        8.193        1.451        8.228      226.672      213.437      220.054        2.951        5.534     -999.250       46.793      112.099       51.975        2.464      504.075     1561.240     1763.429      215.900
    249.90        8.211        1.489        8.206      229.355      217.701      223.528        2.925        5.561     -999.250       52.046      109.163       53.070        2.441      501.127     1557.545     1759.291      215.900
    250.00        8.702        1.467        8.184      229.468      217.611      223.540        2.896        5.558     -999.250       51.807      110.040       53.781        2.437      487.675     1556.878     1754.296      215.900
    250.10        8.371        1.466        8.077      226.375      218.973      222.674        2.880        5.536     -999.250       50.776      110.215       53.862        2.423      462.253     1559.977     1746.024      215.900
    250.20        8.184        1.493        7.717      220.806      217.572      219.189        2.932        5.444     -999.250       48.824      108.978       54.062        2.426      428.351     1567.458     1738.695      215.900
    250.30        7.916        1.444        7.491      220.811      217.346      219.079        3.075        5.375     -999.250       50.182      106.940       54.179        2.427      395.645     1577.155     1733.892      215.900
    250.40        7.885        1.463        7.191      221.693      218.309      220.001        3.248        5.318     -999.250       47.481      103.091       53.882        2.377      369.170     1586.952     1733.754      215.900
    250.50        7.439        1.461        7.009      222.882      219.654      221.268        3.334        5.264     -999.250       45.881      105.454       53.410        2.347      345.608     1591.403     1730.868      215.900
    250.60        7.224        1.481        6.882      226.043      220.767      223.405        3.261        5.244     -999.250       49.999      111.840       53.202        2.353      326.021     1589.271     1717.734      215.900
    250.70        7.201        1.455        6.813      226.273      222.033      224.153        2.933        5.289     -999.250       53.002      112.608       53.132        2.374      316.409     1577.303     1700.598      215.900
    250.80        7.145        1.421        6.771      225.788      221.112      223.450        2.669        5.362     -999.250       54.091      113.106       52.191        2.381      327.674     1560.361     1688.292      215.900
    250.90        7.268        1.482        6.663      224.633      220.256      222.445        2.507        5.407     -999.250       58.208      117.277       49.241        2.412      355.130     1543.884     1685.865      215.900
