~Version information                                                          
  VERS.                            1.20: CWLS LAS  -  VERSION 1.20            
  WRAP.                             NO : One line per depth step              
~Well information                                                             
# MNEM.UNIT         DATA TYPE  INFORMATION                                    
# ====.================================: ===================                  
  STRT.M                        13.000 : First depth in file                  
  STOP.M                       939.000 : Last  depth in file                  
  STEP.M                          .100 : Depth increment                      
  NULL.                       -999.250 : Null  values                         
  WN  .                            WELL: 314
  FN  .                           FIELD: KARATUBE
  DATE.                        LOG DATE: 03.12.2004
~Curve information                                                            
# MNEM.UNIT                   API CODE   CURVE DESCRIPTION                    
# ====.================================:====================                  
  DEPT.M                               : Depth curve                          
  GR  .UR/H                            : Gamma-ray log
  NGLD.UE                              : Neutron-gamma log
  GZ3B.OHMM                            : App.resistivity by lateral N0.5M2.0A                                     
  C1  .MM                              : Caliper, diameter 1
  C2  .MM                              : Caliper, diameter 2
  CALI.MM                              : Caliper
  LL3 .OHMM                            : Appar.resist.laterolog,3 electrodes
  GZ3 .OHMM                            : App.resistivity by lateral A2.0M0.5N
  MLL .OHMM                            : Microlaterolog sonde
  CILR.MMHO                            : Conduct. by sonde 7I1.6,reactive signal
  CILA.MMHO                            : Conduct. by sonde 7I1.6,active signal
  SP  .MV                              : Spontaneous potential
  RHOB.G/C3                            : Bulk density by gamma-gamma log    
  DTP .US/M                            : Interval travel time (P-wave)  
  T1  .US                              : Travel time 1 
  T2  .US                              : Travel time 2
  BSC .MM                              : Bit size
~Parameter information block                                                  
# MNEM.UNIT                     VALUE       DESCRIPTION                       
# ====.================================:====================                  
  BS  .MM                       215.90 : Bit Size                             
  DFD .G/C3                       1.14 : Drilling Fluid Density
  DFV .S                         39.00 : Drilling Fluid Viscosity             
  RMS .OHMM                        .00 : Mud Sample Resistivity               
~Other information                                                            
# ------------------- REMARKS AREA ------------------------                   
# ==========================================================                  
~ASCII Log Data                                                               
# ...
    566.00        9.056        1.545        2.121      210.476      211.328      210.902        1.070        1.535         .537      206.640      176.823       91.752        2.303      430.956     1449.238     1621.702      215.900
    566.10        9.170        1.552        2.188      211.427      212.151      211.789        1.093        1.586         .534      202.243      177.989       92.130        2.303      429.840     1447.515     1619.514      215.900
    566.20        9.544        1.564        2.261      212.753      212.541      212.647        1.134        1.653         .613      198.942      174.783       91.698        2.330      427.825     1444.949     1616.293      215.900
    566.30        9.724        1.534        2.329      213.797      212.203      213.000        1.194        1.732         .706      193.805      176.577       91.686        2.333      424.993     1442.314     1612.360      215.900
    566.40       10.257        1.502        2.389      211.546      210.475      211.011        1.210        1.780         .660      191.934      173.877       92.140        2.304      421.446     1440.267     1608.869      215.900
    566.50       10.184        1.500        2.460      215.158      209.216      212.187        1.214        1.881         .668      192.468      178.856       92.993        2.314      418.140     1439.317     1606.405      215.900
    566.60       10.250        1.493        2.519      217.547      210.521      214.034        1.212        1.926         .671      187.634      181.265       94.909        2.325      415.599     1439.236     1605.315      215.900
    566.70        9.878        1.512        2.541      211.786      210.581      211.183        1.209        1.955         .629      190.854      185.803       94.163        2.329      414.586     1439.765     1605.318      215.900
    566.80        9.792        1.516        2.556      212.840      210.408      211.624        1.183        1.959         .702      191.927      191.582       94.492        2.325      415.510     1440.535     1606.406      215.900
    566.90        9.510        1.514        2.555      214.287      210.065      212.176        1.116        1.991         .609      194.491      189.253       95.411        2.339      418.715     1441.212     1608.400      215.900
    567.00        9.383        1.525        2.533      213.633      209.395      211.514        1.051        2.031         .535      196.161      190.999       97.247        2.346      423.687     1441.676     1611.075      215.900
    567.10        9.095        1.542        2.495      213.717      209.208      211.462         .992        2.037         .516      193.870      190.767       97.275        2.304      429.145     1441.869     1613.705      215.900
    567.20        8.922        1.536        2.436      213.435      208.898      211.166         .968        2.017         .484      195.976      193.594       96.851        2.315      433.446     1442.165     1615.905      215.900
    567.30        8.818        1.547        2.374      211.878      209.039      210.458         .984        1.992         .569      188.159      195.615       97.471        2.326      435.492     1442.909     1617.470      215.900
    567.40        8.844        1.541        2.325      212.476      210.117      211.296        1.032        1.925         .655      189.337      192.385       96.917        2.302      435.051     1444.572     1618.862      215.900
    567.50        8.766        1.495        2.317      215.714      211.266      213.490        1.046        1.812         .710      183.530      187.206       97.397        2.304      432.821     1446.946     1620.156      215.900
    567.60        9.045        1.518        2.342      212.358      213.530      212.944        1.060        1.798         .618      180.709      184.852       98.489        2.326      429.932     1449.341     1621.227      215.900
    567.70        9.125        1.492        2.396      214.347      214.532      214.440        1.109        1.702         .763      177.738      180.612       98.634        2.330      427.310     1450.864     1621.685      215.900
    567.80        9.508        1.544        2.477      214.317      216.688      215.503        1.186        1.707         .765      168.711      173.940       97.322        2.341      425.224     1451.277     1621.340      215.900
    567.90        9.428        1.554        2.570      211.557      217.245      214.401        1.245        1.636         .785      167.515      170.111       95.906        2.362      423.436     1450.950     1620.334      215.900
    568.00        9.605        1.539        2.699      212.419      216.945      214.682        1.292        1.658         .829      161.475      171.440       95.127        2.362      421.820     1450.048     1618.722      215.900
    568.10        9.973        1.497        2.805      213.817      216.187      215.002        1.336        1.653         .879      160.213      168.593       94.383        2.374      420.760     1448.643     1616.769      215.900
    568.20       10.113        1.473        2.923      212.208      215.104      213.656        1.354        1.667         .895      157.865      167.788       94.029        2.363      420.583     1446.616     1614.729      215.900
    568.30       10.527        1.438        3.055      213.090      214.869      213.980        1.364        1.713         .861      154.026      164.463       93.018        2.388      421.385     1444.598     1613.061      215.900
    568.40       10.451        1.446        3.150      212.992      215.446      214.219        1.350        1.747         .810      156.833      165.652       91.475        2.404      422.676     1442.983     1612.071      215.900
    568.50       10.552        1.451        3.228      211.800      215.407      213.603        1.322        1.845         .760      158.963      172.901       91.047        2.399      424.086     1441.973     1611.635      215.900
    568.60       10.286        1.429        3.272      211.908      216.326      214.117        1.313        1.900         .728      162.930      174.398       90.166        2.399      425.211     1441.212     1611.365      215.900
    568.70       10.245        1.452        3.281      211.303      215.921      213.612        1.320        1.949         .732      163.309      178.353       89.072        2.377      425.902     1440.555     1610.994      215.900
    568.80       10.050        1.438        3.267      209.172      214.495      211.834        1.342        2.011         .746      163.633      176.266       87.600        2.353      426.049     1439.994     1610.485      215.900
    568.90       10.440        1.487        3.240      212.765      215.983      214.374        1.359        2.001         .879      159.703      178.605       85.798        2.350      425.692     1439.669     1609.999      215.900
    569.00       10.524        1.482        3.195      213.413      216.780      215.097        1.369        2.044         .966      159.000      181.705       84.463        2.335      424.953     1439.576     1609.587      215.900
    569.10       10.736        1.520        3.168      213.974      215.772      214.873        1.357        2.038         .839      157.041      186.220       83.336        2.348      424.106     1439.850     1609.453      215.900
    569.20       10.557        1.507        3.144      215.159      214.835      214.997        1.316        2.029         .791      159.546      187.394       82.602        2.345      423.417     1440.398     1609.711      215.900
    569.30       10.848        1.475        3.132      216.028      214.275      215.152        1.211        2.002         .651      165.406      186.431       81.625        2.335      423.340     1441.237     1610.422      215.900
    569.40       10.932        1.504        3.121      213.913      213.891      213.902        1.142        2.049         .586      162.499      193.006       80.567        2.351      424.112     1441.984     1611.495      215.900
