~Version information                                                          
  VERS.                            1.20: CWLS LAS  -  VERSION 1.20            
  WRAP.                             NO : One line per depth step              
~Well information                                                             
# MNEM.UNIT         DATA TYPE  INFORMATION                                    
# ====.================================: ===================                  
  STRT.M                        13.000 : First depth in file                  
  STOP.M                       939.000 : Last  depth in file                  
  STEP.M                          .100 : Depth increment                      
  NULL.                       -999.250 : Null  values                         
  WN  .                            WELL: 314
  FN  .                           FIELD: KARATUBE
  DATE.                        LOG DATE: 03.12.2004
~Curve information                                                            
# MNEM.UNIT                   API CODE   CURVE DESCRIPTION                    
# ====.================================:====================                  
  DEPT.M                               : Depth curve                          
  GR  .UR/H                            : Gamma-ray log
  NGLD.UE                              : Neutron-gamma log
  GZ3B.OHMM                            : App.resistivity by lateral N0.5M2.0A                                     
  C1  .MM                              : Caliper, diameter 1
  C2  .MM                              : Caliper, diameter 2
  CALI.MM                              : Caliper
  LL3 .OHMM                            : Appar.resist.laterolog,3 electrodes
  GZ3 .OHMM                            : App.resistivity by lateral A2.0M0.5N
  MLL .OHMM                            : Microlaterolog sonde
  CILR.MMHO                            : Conduct. by sonde 7I1.6,reactive signal
  CILA.MMHO                            : Conduct. by sonde 7I1.6,active signal
  SP  .MV                              : Spontaneous potential
  RHOB.G/C3                            : Bulk density by gamma-gamma log    
  DTP .US/M                            : Interval travel time (P-wave)  
  T1  .US                              : Travel time 1 
  T2  .US                              : Travel time 2
  BSC .MM                              : Bit size
~Parameter information block                                                  
# MNEM.UNIT                     VALUE       DESCRIPTION                       
# ====.================================:====================                  
  BS  .MM                       215.90 : Bit Size                             
  DFD .G/C3                       1.14 : Drilling Fluid Density
  DFV .S                         39.00 : Drilling Fluid Viscosity             
  RMS .OHMM                        .00 : Mud Sample Resistivity               
~Other information                                                            
# ------------------- REMARKS AREA ------------------------                   
# ==========================================================                  
~ASCII Log Data                                                               
# ...
    142.50        3.816        1.069     -999.250      226.846      228.936      227.891     -999.250     -999.250     -999.250     -999.250     -999.250       76.016     -999.250      167.500      915.636      982.376     -999.250
    142.60        3.992        1.063     -999.250      226.800      229.060      227.930     -999.250     -999.250     -999.250     -999.250     -999.250       77.191     -999.250      167.682      915.513      982.389     -999.250
    142.70        4.042        1.043     -999.250      226.858      228.922      227.890     -999.250     -999.250     -999.250     -999.250     -999.250       77.499     -999.250      169.129      915.111      982.716     -999.250
    142.80        4.012        1.012     -999.250      226.704      228.925      227.814     -999.250     -999.250     -999.250     -999.250     -999.250       77.282     -999.250      170.770      914.556      983.033     -999.250
    142.90        3.899        1.016     -999.250      226.858      229.104      227.981     -999.250     -999.250     -999.250     -999.250     -999.250       77.304     -999.250      171.780      914.246      983.091     -999.250
    143.00        3.867        1.032     -999.250      226.964      229.033      227.999     -999.250     -999.250     -999.250     -999.250     -999.250       77.831     -999.250      171.865      914.267      983.083     -999.250
    143.10        3.983        1.045     -999.250      226.941      229.022      227.981     -999.250     -999.250     -999.250     -999.250     -999.250       77.433     -999.250      171.605      914.441      983.019      215.900
    143.20        3.867        1.028     -999.250      226.665      229.029      227.847     -999.250     -999.250     -999.250     -999.250     -999.250       77.767     -999.250      171.382      914.557      983.090      215.900
    143.30        4.002        1.028     -999.250      227.084      228.920      228.002     -999.250     -999.250     -999.250     -999.250     -999.250       78.237     -999.250      171.304      914.464      983.011      215.900
    143.40        4.129        1.042     -999.250      227.076      228.721      227.899     -999.250     -999.250     -999.250     -999.250     -999.250       78.290     -999.250      171.136      914.318      982.801      215.900
    143.50        4.210        1.007     -999.250      226.995      229.032      228.013     -999.250     -999.250     -999.250     -999.250     -999.250       77.898     -999.250      170.859      914.024      982.356      215.900
    143.60        4.115        1.042     -999.250      227.188      228.922      228.055     -999.250     -999.250     -999.250     -999.250     -999.250       77.324     -999.250      170.757      913.775      981.990      215.900
    143.70        4.342        1.059     -999.250      227.147      228.922      228.035     -999.250     -999.250     -999.250     -999.250     -999.250       75.928     -999.250      170.969      913.461      981.822      215.900
    143.80        4.385        1.075     -999.250      227.056      229.036      228.046     -999.250     -999.250     -999.250     -999.250     -999.250       73.787     -999.250      171.343      913.342      981.929      215.900
    143.90        4.372        1.094     -999.250      227.120      228.972      228.046     -999.250     -999.250     -999.250     -999.250     -999.250       72.469     -999.250      171.421      913.374      982.038      215.900
    144.00        4.182        1.065     -999.250      227.276      229.034      228.155     -999.250     -999.250     -999.250     -999.250     -999.250       71.135     -999.250      170.995      913.678      982.133      215.900
    144.10        4.236        1.061     -999.250      226.910      229.072      227.991     -999.250     -999.250     -999.250     -999.250     -999.250       70.443     -999.250      170.344      914.066      982.141      215.900
    144.20        4.175        1.102     -999.250      225.783      229.070      227.426     -999.250     -999.250     -999.250     -999.250     -999.250       70.699     -999.250      169.828      914.417      982.300      215.900
    144.30        4.175        1.104     -999.250      227.195      229.116      228.156     -999.250     -999.250     -999.250     -999.250     -999.250       69.567     -999.250      169.735      914.592      982.428      215.900
    144.40        4.061        1.121     -999.250      227.008      229.122      228.065     -999.250     -999.250     -999.250     -999.250     -999.250       68.666     -999.250      169.842      914.622      982.586      215.900
    144.50        4.079        1.108     -999.250      226.974      229.230      228.102     -999.250     -999.250     -999.250     -999.250     -999.250       67.846     -999.250      169.997      914.567      982.578      215.900
    144.60        4.226        1.071     -999.250      226.190      229.070      227.630     -999.250     -999.250     -999.250     -999.250     -999.250       67.257     -999.250      170.021      914.518      982.540      215.900
    144.70        4.288        1.087         .195      224.089      229.104      226.597         .095         .119     -999.250     -999.250     -999.250       66.970     -999.250      170.055      914.494      982.487      215.900
    144.80        4.260        1.101         .196      226.332      229.197      227.765         .095         .112     -999.250     -999.250     -999.250       66.434     -999.250      170.214      914.441      982.492      215.900
    144.90        4.227        1.087         .197      225.592      228.163      226.877         .096         .117     -999.250     -999.250     -999.250       65.919     -999.250      170.557      914.260      982.473      215.900
    145.00        4.314        1.059         .197      225.340      228.587      226.964         .096         .126     -999.250     -999.250     -999.250       66.434     -999.250      171.033      913.901      982.304      215.900
    145.10        3.936        1.035         .195      226.743      226.905      226.824         .096         .129     -999.250     -999.250     -999.250       70.173     -999.250      171.533      913.448      982.069      215.900
    145.20        3.823        1.003         .194      225.498      228.509      227.003         .097         .116     -999.250     -999.250     -999.250       72.078     -999.250      172.052      913.075      981.889      215.900
    145.30        3.902        1.018         .195      225.391      228.542      226.966         .097         .113     -999.250     -999.250     -999.250       75.880     -999.250      172.449      912.923      981.949      215.900
    145.40        3.895        1.034         .196      227.351      228.430      227.890         .096         .113     -999.250     -999.250     -999.250       77.718     -999.250      172.749      913.088      982.186      215.900
    145.50        3.920        1.034         .195      227.084      229.049      228.067         .095         .120     -999.250     -999.250     -999.250       78.944     -999.250      173.035      913.444      982.618      215.900
    145.60        4.002        1.090         .194      227.095      229.020      228.057         .092         .120     -999.250     -999.250     -999.250       80.176     -999.250      174.342      913.771      983.141      215.900
    145.70        3.685        1.082         .194      226.628      229.737      228.183         .091         .114     -999.250     -999.250     -999.250       81.178     -999.250      178.736      913.745      984.411      215.900
    145.80        3.607        1.098         .197      226.950      229.271      228.110         .086         .108     -999.250     -999.250     -999.250       82.498     -999.250      185.884      913.454      987.901      215.900
    145.90        3.360        1.077         .201      226.761      228.924      227.842         .081         .113     -999.250     -999.250     -999.250       83.295     -999.250      193.374      913.309      991.258      215.900
