~Version information                                                          
  VERS.                            1.20: CWLS LAS  -  VERSION 1.20            
  WRAP.                             NO : One line per depth step              
~Well information                                                             
# MNEM.UNIT         DATA TYPE  INFORMATION                                    
# ====.================================: ===================                  
  STRT.M                        13.000 : First depth in file                  
  STOP.M                       939.000 : Last  depth in file                  
  STEP.M                          .100 : Depth increment                      
  NULL.                       -999.250 : Null  values                         
  WN  .                            WELL: 314
  FN  .                           FIELD: KARATUBE
  DATE.                        LOG DATE: 03.12.2004
~Curve information                                                            
# MNEM.UNIT                   API CODE   CURVE DESCRIPTION                    
# ====.================================:====================                  
  DEPT.M                               : Depth curve                          
  GR  .UR/H                            : Gamma-ray log
  NGLD.UE                              : Neutron-gamma log
  GZ3B.OHMM                            : App.resistivity by lateral N0.5M2.0A                                     
  C1  .MM                              : Caliper, diameter 1
  C2  .MM                              : Caliper, diameter 2
  CALI.MM                              : Caliper
  LL3 .OHMM                            : Appar.resist.laterolog,3 electrodes
  GZ3 .OHMM                            : App.resistivity by lateral A2.0M0.5N
  MLL .OHMM                            : Microlaterolog sonde
  CILR.MMHO                            : Conduct. by sonde 7I1.6,reactive signal
  CILA.MMHO                            : Conduct. by sonde 7I1.6,active signal
  SP  .MV                              : Spontaneous potential
  RHOB.G/C3                            : Bulk density by gamma-gamma log    
  DTP .US/M                            : Interval travel time (P-wave)  
  T1  .US                              : Travel time 1 
  T2  .US                              : Travel time 2
  BSC .MM                              : Bit size
~Parameter information block                                                  
# MNEM.UNIT                     VALUE       DESCRIPTION                       
# ====.================================:====================                  
  BS  .MM                       215.90 : Bit Size                             
  DFD .G/C3                       1.14 : Drilling Fluid Density
  DFV .S                         39.00 : Drilling Fluid Viscosity             
  RMS .OHMM                        .00 : Mud Sample Resistivity               
~Other information                                                            
# ------------------- REMARKS AREA ------------------------                   
# ==========================================================                  
~ASCII Log Data                                                               
# ...
    933.50        3.716        8.748       44.293      118.822       92.143      105.483    27728.030         .119         .259        6.029       -6.687       53.720        2.279      217.251      951.602     1038.495      215.900
    933.60        3.934        8.781       44.326      118.152       92.137      105.145    27500.230         .146         .173        5.217       -6.072       53.956        2.283      217.645      951.582     1038.609      215.900
    933.70        3.745        8.742       44.342      118.258       92.152      105.205    27255.680         .152         .038        3.964       -6.270       56.333        2.305      217.783      951.532     1038.785      215.900
    933.80        3.933        8.761       44.381      118.598       92.080      105.339    26622.570         .149         .003        5.297       -5.815       59.011        2.288      217.552      951.608     1038.666      215.900
    933.90        3.976        8.893       44.413      118.068       92.111      105.089    26135.660         .155         .009        5.176       -5.721       60.078        2.297      216.539      951.889     1038.639      215.900
    934.00        3.979        8.790       44.456      118.055       92.087      105.071    26248.430         .159        -.016        5.036       -5.261       63.083        2.288      215.451      952.278     1038.315      215.900
    934.10        4.026        8.812       44.461      117.288       92.032      104.660    26219.620         .158        -.036        4.575       -5.082       66.139        2.317      214.504      952.562     1038.315      215.900
    934.20        4.204        8.754       44.465      117.527       91.974      104.751    26790.840         .155        -.024        4.392       -4.496       61.397     -999.250      214.620      952.665     1038.279      215.900
    934.30        4.416        8.790       44.447      116.457       91.897      104.177    26681.140         .143         .000        3.635       -5.479       56.049     -999.250      215.366      952.539     1038.718      215.900
    934.40        4.284        8.853       44.441      116.794       91.866      104.330    25103.880         .149         .016        4.242       -5.488       53.650     -999.250      216.464      952.332     1038.980      215.900
    934.50        4.187        8.754       44.443      115.973       91.100      103.537    25322.790         .158         .134        4.069       -4.782       53.121     -999.250      216.930      952.132     1039.063      215.900
    934.60        4.145        8.752       44.449      115.957       90.616      103.286    25401.190         .165         .083        6.101       -4.688       53.137     -999.250      216.833      952.013     1038.750      215.900
    934.70        4.172        8.741       44.495      115.314       90.399      102.856    24772.510         .154         .350        6.237       -4.901       53.939     -999.250      216.483      951.847     1038.378      215.900
    934.80        4.029        8.801       44.512      114.780       90.365      102.572    24679.400         .145         .747        5.726       -4.436       57.535     -999.250      216.563      951.626     1038.137      215.900
    934.90        4.047        8.792       44.531      115.828       90.195      103.012    24862.710         .135         .851        6.201       -3.987       61.442     -999.250      217.117      951.418     1038.251      215.900
    935.00        4.032        8.824       44.538      115.468       90.180      102.824    25118.890         .133         .855        6.359       -3.807       60.009     -999.250      217.551      951.347     1038.545      215.900
    935.10        4.206        8.766       44.524      117.037       90.180      103.608    24448.560         .139         .836        4.617       -3.000       58.806     -999.250      217.408      951.417     1038.448      215.900
    935.20        4.249        8.795       44.491      114.476       90.166      102.321    24900.890         .138         .597        4.067       -2.409       58.618     -999.250      216.716      951.529     1038.191      215.900
    935.30        4.172        8.806     -999.250      115.504       90.069      102.786    24935.820         .160         .351        6.309       -3.385       57.011     -999.250      216.405      951.648     1038.014      215.900
    935.40        3.957        8.733     -999.250      114.899       89.987      102.443    25408.340         .151         .188     -999.250     -999.250       56.003     -999.250      216.547      951.707     1038.365      215.900
    935.50        4.385        8.723     -999.250      115.212       89.911      102.562    22593.190         .141         .116     -999.250     -999.250       54.703     -999.250      216.987      951.701     1038.534      215.900
    935.60        4.498        8.686     -999.250      115.874       89.887      102.880    22501.230         .147         .074     -999.250     -999.250       53.412     -999.250      217.120      951.607     1038.500      215.900
    935.70        4.384        8.644     -999.250      115.939       89.845      102.893    22733.380         .149        -.009     -999.250     -999.250       51.965     -999.250      217.033      951.473     1038.291      215.900
    935.80        4.033        8.720     -999.250      115.567       89.844      102.706    23028.520         .132        -.032     -999.250     -999.250       52.710     -999.250      216.895      951.350     1038.078      215.900
    935.90     -999.250        8.881     -999.250      115.055       89.916      102.485    22050.330         .145        -.061     -999.250     -999.250       52.025     -999.250      216.806      951.331     1038.058      215.900
    936.00     -999.250        8.913     -999.250      114.863       89.832      102.348    21815.480         .119        -.033     -999.250     -999.250       50.502     -999.250      216.914      951.363     1038.075      215.900
    936.10     -999.250        8.855     -999.250      114.150       89.747      101.949    21981.570         .119        -.073     -999.250     -999.250       53.381     -999.250      216.997      951.345     1038.202      215.900
    936.20     -999.250        8.893     -999.250      115.106       89.796      102.451    21155.770         .147        -.067     -999.250     -999.250       57.303     -999.250     -999.250     -999.250     -999.250      215.900
    936.30     -999.250        8.881     -999.250      113.843       89.759      101.801    20793.670         .146        -.070     -999.250     -999.250       61.817     -999.250     -999.250     -999.250     -999.250      215.900
    936.40     -999.250        8.875     -999.250      115.412       89.708      102.560    20585.210         .151        -.053     -999.250     -999.250       66.621     -999.250     -999.250     -999.250     -999.250      215.900
    936.50     -999.250        8.892     -999.250      115.324       89.757      102.540    20167.790         .152        -.053     -999.250     -999.250       68.951     -999.250     -999.250     -999.250     -999.250      215.900
    936.60     -999.250        8.821     -999.250      115.693       89.831      102.762    19581.320         .148        -.043     -999.250     -999.250       69.619     -999.250     -999.250     -999.250     -999.250      215.900
    936.70     -999.250        8.814     -999.250      113.933       89.733      101.833     -999.250         .149        -.072     -999.250     -999.250       71.288     -999.250     -999.250     -999.250     -999.250      215.900
    936.80     -999.250        8.815     -999.250      114.114       89.723      101.918     -999.250         .148     -999.250     -999.250     -999.250       75.936     -999.250     -999.250     -999.250     -999.250      215.900
    936.90     -999.250        8.837     -999.250      115.323       89.746      102.534     -999.250         .148     -999.250     -999.250     -999.250       79.158     -999.250     -999.250     -999.250     -999.250      215.900
