~Version information                                                          
  VERS.                            1.20: CWLS LAS  -  VERSION 1.20            
  WRAP.                             NO : One line per depth step              
~Well information                                                             
# MNEM.UNIT         DATA TYPE  INFORMATION                                    
# ====.================================: ===================                  
  STRT.M                        13.000 : First depth in file                  
  STOP.M                       939.000 : Last  depth in file                  
  STEP.M                          .100 : Depth increment                      
  NULL.                       -999.250 : Null  values                         
  WN  .                            WELL: 314
  FN  .                           FIELD: KARATUBE
  DATE.                        LOG DATE: 03.12.2004
~Curve information                                                            
# MNEM.UNIT                   API CODE   CURVE DESCRIPTION                    
# ====.================================:====================                  
  DEPT.M                               : Depth curve                          
  GR  .UR/H                            : Gamma-ray log
  NGLD.UE                              : Neutron-gamma log
  GZ3B.OHMM                            : App.resistivity by lateral N0.5M2.0A                                     
  C1  .MM                              : Caliper, diameter 1
  C2  .MM                              : Caliper, diameter 2
  CALI.MM                              : Caliper
  LL3 .OHMM                            : Appar.resist.laterolog,3 electrodes
  GZ3 .OHMM                            : App.resistivity by lateral A2.0M0.5N
  MLL .OHMM                            : Microlaterolog sonde
  CILR.MMHO                            : Conduct. by sonde 7I1.6,reactive signal
  CILA.MMHO                            : Conduct. by sonde 7I1.6,active signal
  SP  .MV                              : Spontaneous potential
  RHOB.G/C3                            : Bulk density by gamma-gamma log    
  DTP .US/M                            : Interval travel time (P-wave)  
  T1  .US                              : Travel time 1 
  T2  .US                              : Travel time 2
  BSC .MM                              : Bit size
~Parameter information block                                                  
# MNEM.UNIT                     VALUE       DESCRIPTION                       
# ====.================================:====================                  
  BS  .MM                       215.90 : Bit Size                             
  DFD .G/C3                       1.14 : Drilling Fluid Density
  DFV .S                         39.00 : Drilling Fluid Viscosity             
  RMS .OHMM                        .00 : Mud Sample Resistivity               
~Other information                                                            
# ------------------- REMARKS AREA ------------------------                   
# ==========================================================                  
~ASCII Log Data                                                               
# ...
    457.50        6.948        1.150        4.104      219.516      223.555      221.535        2.751        3.653        1.787       95.586      132.399       75.183        1.772      500.663     1631.259     1831.111      215.900
    457.60        7.334        1.190        4.390      219.685      220.154      219.919        2.521        3.867        1.530      100.256      132.223       74.360        1.743      488.287     1640.043     1835.641      215.900
    457.70        7.797        1.226        4.657      224.654      220.235      222.444        2.355        4.115        1.593       97.655      131.552       73.033        1.721      475.835     1647.431     1837.926      215.900
    457.80        9.035        1.269        4.865      224.202      219.764      221.983        2.349        4.370        1.573      101.017      128.603       71.243        1.728      461.657     1652.615     1837.525      215.900
    457.90        9.604        1.303        4.978      219.533      218.932      219.233        2.372        4.565        1.594      101.961      131.003       68.357        1.757      446.934     1656.590     1835.172      215.900
    458.00       10.475        1.319        4.939      220.635      218.310      219.473        2.364        4.575        1.601      103.337      127.932       65.802        1.888      433.350     1659.618     1832.448      215.900
    458.10       11.007        1.376        4.845      217.900      218.205      218.052        2.159        4.470        1.527      106.277      129.173       64.263        2.092      423.618     1661.770     1830.379      215.900
    458.20       11.165        1.400        4.693      218.877      217.876      218.377        2.085        4.266        1.526      105.362      129.435       63.922        2.193      418.865     1661.550     1828.454      215.900
    458.30       10.964        1.392        4.510      217.886      218.071      217.978        2.051        4.137        1.551      107.217      136.170       63.751        2.310      418.798     1657.538     1824.664      215.900
    458.40       11.333        1.417        4.307      219.066      214.629      216.848        2.025        4.054        1.555      108.979      148.969       64.001        2.334      421.397     1648.665     1817.194      215.900
    458.50       11.225        1.419        4.208      220.737      216.240      218.488        2.009        3.985        1.551      113.610      149.081       65.974        2.324      424.782     1635.875     1805.897      215.900
    458.60       10.919        1.427        4.183      219.016      217.527      218.272        1.999        3.918        1.567      108.360      142.832       67.009        2.327      427.692     1621.514     1792.701      215.900
    458.70       10.935        1.395        4.216      217.588      216.220      216.904        1.968        3.916        1.564      103.264      133.883       67.447        2.326      430.146     1608.779     1780.800      215.900
    458.80       10.802        1.396        4.276      219.417      216.088      217.753        1.850        4.041        1.534      102.738      139.979       67.551        2.334      433.035     1599.450     1772.416      215.900
    458.90       10.664        1.412        4.408      218.299      211.721      215.010        1.749        4.202        1.496       97.689      142.367       68.294        2.340      437.808     1592.923     1767.577      215.900
    459.00       10.117        1.400        4.545      218.621      210.687      214.654        1.623        4.381        1.407      103.004      141.195       68.375        2.306      445.466     1586.812     1764.562      215.900
    459.10        9.833        1.407        4.706      217.534      215.671      216.602        1.509        4.480        1.265      101.742      140.256       67.786        2.284      456.334     1580.082     1762.236      215.900
    459.20        9.552        1.380        4.879      217.077      214.517      215.797        1.328        4.573        1.298      115.633      142.130       65.977        2.273      469.560     1572.089     1759.784      215.900
    459.30        9.331        1.359        4.996      219.379      214.003      216.691        1.245        4.519        1.274      121.070      155.822       64.046        2.248      484.774     1563.620     1757.240      215.900
    459.40        8.689        1.391        4.963      229.132      225.449      227.290        1.188        4.466        1.283      129.763      184.462       61.269        2.216      501.135     1554.221     1754.636      215.900
    459.50        8.295        1.359        4.804      242.180      244.544      243.362        1.170        4.304        1.401      136.421      198.672       58.920        2.184      518.092     1545.236     1752.562      215.900
    459.60        7.472        1.472        4.452      273.069      290.689      281.879        1.174        4.030        1.405      135.253      190.434       57.019        2.173      533.357     1537.289     1751.257      215.900
    459.70        7.561        1.458        4.024      326.740      334.196      330.468        1.215        3.511        1.276      127.136      170.926       56.185        2.169      544.330     1531.685     1750.417      215.900
    459.80        6.973        1.450        3.719      367.268      341.944      354.606        1.302        3.121        1.357      106.515      167.465       57.185        2.130      546.337     1528.975     1749.469      215.900
    459.90        6.953        1.469        3.449      359.022      325.839      342.431        1.630        2.674        1.882       88.619      155.176       58.516        2.131      534.991     1529.617     1745.995      215.900
    460.00        6.750        1.478        3.506      339.295      325.780      332.538        2.055        2.564        2.941       82.062      144.797       60.913        2.111      507.671     1533.211     1738.329      215.900
    460.10        6.331        1.417        3.831      314.416      308.776      311.596        1.988        2.615        1.729       81.050      122.613       61.169        2.095      469.777     1538.811     1726.521      215.900
    460.20        6.309        1.407        4.491      275.355      281.005      278.180        1.642        2.898        1.374       92.411      129.874       60.848        2.115      433.360     1544.546     1715.452      215.900
    460.30        6.094        1.434        4.901      220.979      239.588      230.283        1.458        3.325        1.291       97.805      151.630       60.526        2.157      413.194     1548.123     1709.544      215.900
    460.40        6.093        1.419        5.324      241.160      250.372      245.766        1.337        3.855        1.231      106.457      185.024       60.427        2.199      415.698     1547.029     1710.533      215.900
    460.50        5.912        1.410        5.406      279.332      281.982      280.657        1.284        4.143        1.194      107.363      196.963       62.843        2.228      435.471     1542.455     1716.367      215.900
    460.60        6.269        1.395        5.047      333.667      302.430      318.049        1.248        4.208        1.258      119.707      189.752       63.007        2.200      457.550     1538.413     1723.562      215.900
    460.70        6.660        1.406        4.549      350.695      301.547      326.121        1.250        4.054        1.366      117.991      192.702       66.098        2.207      468.938     1539.516     1729.513      215.900
    460.80        7.069        1.385        3.987      356.349      300.224      328.286        1.313        3.645        1.405      110.714      186.735       68.274        2.171      465.065     1545.291     1732.869      215.900
    460.90        7.511        1.386        3.432      289.055      314.437      301.746        1.450        3.169        1.396       98.143      178.812       70.161        2.136      449.395     1553.001     1733.502      215.900
