~Version information                                                          
  VERS.                            1.20: CWLS LAS  -  VERSION 1.20            
  WRAP.                             NO : One line per depth step              
~Well information                                                             
# MNEM.UNIT         DATA TYPE  INFORMATION                                    
# ====.================================: ===================                  
  STRT.M                        13.000 : First depth in file                  
  STOP.M                       939.000 : Last  depth in file                  
  STEP.M                          .100 : Depth increment                      
  NULL.                       -999.250 : Null  values                         
  WN  .                            WELL: 314
  FN  .                           FIELD: KARATUBE
  DATE.                        LOG DATE: 03.12.2004
~Curve information                                                            
# MNEM.UNIT                   API CODE   CURVE DESCRIPTION                    
# ====.================================:====================                  
  DEPT.M                               : Depth curve                          
  GR  .UR/H                            : Gamma-ray log
  NGLD.UE                              : Neutron-gamma log
  GZ3B.OHMM                            : App.resistivity by lateral N0.5M2.0A                                     
  C1  .MM                              : Caliper, diameter 1
  C2  .MM                              : Caliper, diameter 2
  CALI.MM                              : Caliper
  LL3 .OHMM                            : Appar.resist.laterolog,3 electrodes
  GZ3 .OHMM                            : App.resistivity by lateral A2.0M0.5N
  MLL .OHMM                            : Microlaterolog sonde
  CILR.MMHO                            : Conduct. by sonde 7I1.6,reactive signal
  CILA.MMHO                            : Conduct. by sonde 7I1.6,active signal
  SP  .MV                              : Spontaneous potential
  RHOB.G/C3                            : Bulk density by gamma-gamma log    
  DTP .US/M                            : Interval travel time (P-wave)  
  T1  .US                              : Travel time 1 
  T2  .US                              : Travel time 2
  BSC .MM                              : Bit size
~Parameter information block                                                  
# MNEM.UNIT                     VALUE       DESCRIPTION                       
# ====.================================:====================                  
  BS  .MM                       215.90 : Bit Size                             
  DFD .G/C3                       1.14 : Drilling Fluid Density
  DFV .S                         39.00 : Drilling Fluid Viscosity             
  RMS .OHMM                        .00 : Mud Sample Resistivity               
~Other information                                                            
# ------------------- REMARKS AREA ------------------------                   
# ==========================================================                  
~ASCII Log Data                                                               
# ...
    828.50        3.382        2.237        9.542      218.328      215.731      217.030        6.607        6.059        4.349       28.187       47.319       67.134        2.720      159.265     1168.685     1228.590      215.900
    828.60        3.381        2.305        9.482      219.388      214.925      217.156        6.915        6.124        4.791       28.161       63.808       67.602        2.723      168.120     1156.797     1222.307      215.900
    828.70        3.601        2.315        9.391      218.390      215.423      216.906        7.009        6.181        5.376       27.315       68.912       66.176        2.710      189.085     1141.076     1217.406      215.900
    828.80        3.644        2.282        9.232      218.439      216.628      217.533        6.829        6.579        6.080       26.894       64.963       64.241        2.695      207.647     1125.551     1210.617      215.900
    828.90        3.532        2.307        8.982      218.720      218.095      218.408        6.462        6.974        6.261       26.635       60.596       61.998        2.711      218.374     1112.481     1200.258      215.900
    829.00        3.629        2.274        8.744      219.280      220.314      219.797        6.261        7.394        5.545       27.082       58.751       60.545        2.733      224.924     1099.790     1188.996      215.900
    829.10        3.667        2.233        8.453      218.778      221.559      220.169        5.806        8.226        5.130       27.379       57.511       59.812        2.730      233.106     1084.737     1177.663      215.900
    829.20        3.941        2.188        8.244      219.081      222.314      220.697        4.960        8.902        5.585       28.191       58.818       61.951        2.703      243.349     1067.971     1165.568      215.900
    829.30        4.063        2.151        7.897      218.262      221.387      219.824        4.267        9.928        6.773       27.552       60.593       60.341        2.687      252.435     1053.697     1155.197      215.900
    829.40        4.122        2.128        7.570      219.765      221.539      220.652        3.218       10.713        6.244       29.218       55.650       58.723        2.662      260.726     1044.647     1148.471      215.900
    829.50        4.512        2.035        7.199      219.672      222.608      221.140        2.679       11.367        5.712       29.936       50.691       57.570        2.631      269.481     1040.298     1147.846      215.900
    829.60        4.742        1.963        6.628      224.329      221.888      223.108        2.349       11.770        6.665       30.397       44.607       56.071        2.629      279.438     1038.038     1150.040      215.900
    829.70        4.706        1.964        6.232      248.182      221.430      234.806        2.194       11.850        6.745       31.659       44.013       55.752        2.576      287.842     1035.778     1151.553      215.900
    829.80        5.165        1.962        5.738      241.518      224.209      232.863        2.098       11.563        6.285       30.667       40.919       55.818        2.578      293.232     1033.518     1151.151      215.900
    829.90        5.254        1.922        5.337      239.689      235.452      237.570        1.961       11.164        6.360       33.140       40.559       56.951        2.573      295.386     1031.183     1149.651      215.900
    830.00        5.301        1.931        4.961      238.778      239.932      239.355        1.835       10.680        6.823       31.878       43.475       57.330        2.523      294.213     1028.395     1146.757      215.900
    830.10        5.422        1.972        4.534      252.603      245.831      249.217        1.738        9.926        7.419       33.175       52.733       57.470        2.512      289.159     1024.854     1141.080      215.900
    830.20        5.309        1.970        4.339      277.307      258.387      267.847        1.711        9.403        7.377       31.009       58.397       57.911        2.451      280.957     1020.635     1133.038      215.900
    830.30        4.969        2.008        4.150      309.034      280.803      294.918        1.760        8.605        4.594       32.119       58.608       58.125        2.409      272.887     1016.115     1124.633      215.900
    830.40        4.882        2.004        4.083      320.471      302.571      311.521        1.897        7.907        4.830       35.720       53.503       57.295        2.356      268.359     1011.355     1117.900      215.900
    830.50        4.753        1.988        4.060      317.307      348.518      332.912        2.026        7.241        6.280       40.195       42.353       56.414        2.282      269.590     1005.479     1112.447      215.900
    830.60        4.816        1.927        4.162      336.266      370.521      353.393        2.255        6.778        3.923       41.338       49.284       56.371        2.269      275.910      999.414     1109.409      215.900
    830.70        4.680        1.888        4.437      337.049      368.030      352.540        2.571        6.736        2.525       40.148       52.070       55.854        2.213      284.273      995.829     1109.958      215.900
    830.80        4.803        1.897        4.950      259.164      330.712      294.938        2.866        6.925        1.978       42.531       57.786       55.873        2.196      290.458      995.888     1112.892      215.900
    830.90        4.708        1.921        5.423      223.731      301.846      262.789        3.400        7.341        2.100       43.476       63.084       55.229        2.200      291.570      998.970     1116.386      215.900
    831.00        4.786        1.907        5.913      221.240      271.712      246.476        3.819        7.736        2.335       46.347       72.991       55.726        2.290      288.092     1003.450     1118.915      215.900
    831.10        4.517        1.935        6.287      221.359      238.792      230.075        4.869        8.254        2.513       46.127       77.922       54.325        2.380      283.240     1008.680     1121.511      215.900
    831.20        4.241        1.930        6.476      218.625      230.755      224.690        5.907        8.596        5.132       45.976       79.209       52.939        2.498      281.518     1013.731     1125.322      215.900
    831.30        3.986        1.992        6.761      221.042      218.493      219.768        6.712        8.882        7.843       47.455       80.010       54.947        2.598      285.344     1017.135     1130.534      215.900
    831.40        3.859        2.037        6.755      220.801      220.480      220.641        7.306        9.163        7.958       49.608       79.407       59.386        2.650      293.478     1019.266     1136.688      215.900
    831.50        3.742        2.021        6.635      220.895      219.438      220.167        7.271        9.373        6.911       51.086       70.726       60.757        2.646      302.284     1021.244     1142.598      215.900
    831.60        3.793        2.024        6.471      219.739      219.870      219.804        6.906        9.704        4.904       44.786       63.791       61.800        2.633      308.822     1024.435     1148.398      215.900
    831.70        4.081        2.074        6.328      219.455      220.274      219.865        6.180        9.958        5.459       36.510       71.025       62.841        2.652      313.036     1028.930     1154.199      215.900
    831.80        4.143        2.067        6.150      224.164      218.296      221.230        5.416       10.308        5.807       41.455       91.702       62.768        2.654      317.030     1033.704     1160.114      215.900
    831.90        4.478        2.034        5.945      220.277      219.068      219.672        4.958       10.542        2.825       48.064       92.242       64.781        2.634      323.361     1037.959     1166.715      215.900
