~Version information                                                          
  VERS.                            1.20: CWLS LAS  -  VERSION 1.20            
  WRAP.                             NO : One line per depth step              
~Well information                                                             
# MNEM.UNIT         DATA TYPE  INFORMATION                                    
# ====.================================: ===================                  
  STRT.M                        13.000 : First depth in file                  
  STOP.M                       939.000 : Last  depth in file                  
  STEP.M                          .100 : Depth increment                      
  NULL.                       -999.250 : Null  values                         
  WN  .                            WELL: 314
  FN  .                           FIELD: KARATUBE
  DATE.                        LOG DATE: 03.12.2004
~Curve information                                                            
# MNEM.UNIT                   API CODE   CURVE DESCRIPTION                    
# ====.================================:====================                  
  DEPT.M                               : Depth curve                          
  GR  .UR/H                            : Gamma-ray log
  NGLD.UE                              : Neutron-gamma log
  GZ3B.OHMM                            : App.resistivity by lateral N0.5M2.0A                                     
  C1  .MM                              : Caliper, diameter 1
  C2  .MM                              : Caliper, diameter 2
  CALI.MM                              : Caliper
  LL3 .OHMM                            : Appar.resist.laterolog,3 electrodes
  GZ3 .OHMM                            : App.resistivity by lateral A2.0M0.5N
  MLL .OHMM                            : Microlaterolog sonde
  CILR.MMHO                            : Conduct. by sonde 7I1.6,reactive signal
  CILA.MMHO                            : Conduct. by sonde 7I1.6,active signal
  SP  .MV                              : Spontaneous potential
  RHOB.G/C3                            : Bulk density by gamma-gamma log    
  DTP .US/M                            : Interval travel time (P-wave)  
  T1  .US                              : Travel time 1 
  T2  .US                              : Travel time 2
  BSC .MM                              : Bit size
~Parameter information block                                                  
# MNEM.UNIT                     VALUE       DESCRIPTION                       
# ====.================================:====================                  
  BS  .MM                       215.90 : Bit Size                             
  DFD .G/C3                       1.14 : Drilling Fluid Density
  DFV .S                         39.00 : Drilling Fluid Viscosity             
  RMS .OHMM                        .00 : Mud Sample Resistivity               
~Other information                                                            
# ------------------- REMARKS AREA ------------------------                   
# ==========================================================                  
~ASCII Log Data                                                               
# ...
    618.50        6.696        1.467        2.057      213.577      216.016      214.796         .903        4.523        1.105      243.389      177.126       81.759        2.437      396.793     1279.698     1438.517      215.900
    618.60        6.775        1.473        1.806      214.606      216.250      215.428         .925        3.755        1.097      240.093      171.906       80.661        2.407      399.973     1280.382     1440.654      215.900
    618.70        7.010        1.472        1.731      212.326      217.208      214.767         .952        3.250        1.129      238.982      164.214       80.801        2.420      401.574     1280.998     1441.874      215.900
    618.80        6.918        1.502        1.676      213.010      216.059      214.534         .977        2.685        1.127      232.242      158.326       81.317        2.394      401.521     1281.835     1442.576      215.900
    618.90        7.243        1.561        1.657      215.485      216.155      215.820        1.059        2.438        1.194      227.675      156.264       81.805        2.411      400.111     1282.645     1442.854      215.900
    619.00        7.543        1.516        1.656      212.708      216.141      214.425        1.129        2.221        1.345      221.651      155.328       82.283        2.403      397.612     1283.867     1443.050      215.900
    619.10        7.953        1.525        1.663      214.402      215.624      215.013        1.222        2.003        1.419      217.836      153.720       83.172        2.413      394.039     1285.900     1443.644      215.900
    619.20        8.623        1.534        1.668      214.833      215.629      215.231        1.217        1.821        1.399      224.726      153.645       83.435        2.436      390.331     1288.799     1444.718      215.900
    619.30        9.175        1.534        1.690      213.167      217.103      215.135        1.131        1.780        1.233      233.198      158.477       83.656        2.433      387.780     1291.702     1446.436      215.900
    619.40        9.806        1.530        1.695      215.453      216.681      216.067        1.019        1.839        1.147      241.054      162.693       83.127        2.459      387.799     1293.311     1447.994      215.900
    619.50        9.868        1.515        1.675      213.997      216.231      215.114         .989        1.908        1.151      248.511      170.823       82.061        2.500      390.335     1293.599     1449.540      215.900
    619.60        9.898        1.541        1.619      210.608      216.520      213.564         .970        1.973        1.127      255.957      176.202       80.114        2.488      393.928     1292.973     1450.748      215.900
    619.70        9.592        1.565        1.559      214.017      215.211      214.614         .940        2.005        1.077      265.371      176.907       78.649        2.450      396.732     1292.805     1451.801      215.900
    619.80        9.606        1.576        1.456      212.353      216.563      214.458         .903        2.081        1.039      269.719      176.719       77.489        2.433      397.724     1294.091     1453.398      215.900
    619.90        9.937        1.564        1.420      213.605      217.351      215.478         .873        2.068        1.030      276.086      174.930       76.072        2.413      397.698     1297.533     1456.499      215.900
    620.00        9.498        1.573        1.392      216.691      218.384      217.538         .866        2.195        1.068      277.840      173.968       75.048        2.391      397.903     1304.853     1463.818      215.900
    620.10        9.379        1.566        1.365      215.535      217.063      216.299         .880        2.371        1.140      282.463      170.155       73.714        2.389      399.264     1316.378     1475.932      215.900
    620.20        8.885        1.630        1.352      215.663      217.557      216.610         .888        2.313        1.151      280.759      170.565       74.263        2.352      401.485     1333.556     1494.156      215.900
    620.30        8.597        1.654        1.352      214.374      216.519      215.447         .878        2.332        1.036      283.330      167.435       75.745        2.366      403.904     1352.266     1513.896      215.900
    620.40        8.440        1.593        1.370      213.079      216.087      214.583         .874        2.257        1.039      285.807      163.858       76.082        2.360      405.974     1369.407     1531.862      215.900
    620.50        7.680        1.602        1.382      215.141      216.030      215.586         .877        2.221        1.163      280.274      157.382       76.108        2.377      407.414     1380.359     1543.443      215.900
    620.60        7.254        1.615        1.407      216.043      215.572      215.807         .872        2.081        1.180      277.348      154.964       75.716        2.389      408.087     1386.513     1549.871      215.900
    620.70        7.006        1.631        1.418      215.058      213.422      214.240         .909        2.046         .980      273.452      157.444       73.311        2.391      407.754     1389.340     1552.603      215.900
    620.80        7.130        1.613        1.432      212.636      216.219      214.427         .994        1.977        1.249      269.662      153.939       72.033        2.383      406.638     1391.367     1554.052      215.900
    620.90        7.314        1.645        1.429      215.298      215.394      215.346        1.052        1.901        1.254      261.545      153.944       71.773        2.401      405.021     1392.794     1554.813      215.900
    621.00        7.715        1.669        1.423      213.404      212.720      213.062        1.055        1.861        1.146      255.830      157.266       73.084        2.431      403.227     1393.996     1555.318      215.900
    621.10        7.746        1.648        1.405      212.012      211.301      211.657        1.051        1.867        1.140      258.309      167.570       74.436        2.473      400.303     1394.680     1555.214      215.900
    621.20        7.617        1.573        1.401      211.882      212.842      212.362         .997        1.863        1.140      264.452      170.161       75.714        2.476      395.282     1394.877     1553.385      215.900
    621.30        7.178        1.544        1.370      210.245      215.728      212.986         .880        1.896         .867      279.000      173.039       78.170        2.485      388.109     1394.430     1549.726      215.900
    621.40        6.522        1.499        1.354      211.097      214.654      212.875         .788        1.917         .887      284.511      176.532       80.915        2.508      381.615     1393.482     1545.410      215.900
    621.50        6.065        1.556        1.325      205.413      214.492      209.952         .738        1.987         .972      299.732      178.056       81.593        2.498      379.518     1392.111     1542.823      215.900
    621.60        5.873        1.551        1.261      203.547      211.090      207.319         .715        2.027        1.000      301.126      179.450       80.531        2.475      383.647     1389.590     1542.371      215.900
    621.70        5.637        1.547        1.189      210.339      212.985      211.662         .716        2.055        1.049      301.065      179.307       80.445        2.498      392.359     1386.749     1543.632      215.900
    621.80        5.306        1.551        1.109      215.380      215.827      215.603         .734        1.928        1.141      301.758      179.154       81.012        2.463      401.005     1384.565     1545.733      215.900
    621.90        5.391        1.561        1.056      214.820      214.835      214.827         .752        1.763        1.070      304.058      172.783       81.807        2.446      406.319     1385.368     1548.521      215.900
