~Version information                                                          
  VERS.                            1.20: CWLS LAS  -  VERSION 1.20            
  WRAP.                             NO : One line per depth step              
~Well information                                                             
# MNEM.UNIT         DATA TYPE  INFORMATION                                    
# ====.================================: ===================                  
  STRT.M                        13.000 : First depth in file                  
  STOP.M                       939.000 : Last  depth in file                  
  STEP.M                          .100 : Depth increment                      
  NULL.                       -999.250 : Null  values                         
  WN  .                            WELL: 314
  FN  .                           FIELD: KARATUBE
  DATE.                        LOG DATE: 03.12.2004
~Curve information                                                            
# MNEM.UNIT                   API CODE   CURVE DESCRIPTION                    
# ====.================================:====================                  
  DEPT.M                               : Depth curve                          
  GR  .UR/H                            : Gamma-ray log
  NGLD.UE                              : Neutron-gamma log
  GZ3B.OHMM                            : App.resistivity by lateral N0.5M2.0A                                     
  C1  .MM                              : Caliper, diameter 1
  C2  .MM                              : Caliper, diameter 2
  CALI.MM                              : Caliper
  LL3 .OHMM                            : Appar.resist.laterolog,3 electrodes
  GZ3 .OHMM                            : App.resistivity by lateral A2.0M0.5N
  MLL .OHMM                            : Microlaterolog sonde
  CILR.MMHO                            : Conduct. by sonde 7I1.6,reactive signal
  CILA.MMHO                            : Conduct. by sonde 7I1.6,active signal
  SP  .MV                              : Spontaneous potential
  RHOB.G/C3                            : Bulk density by gamma-gamma log    
  DTP .US/M                            : Interval travel time (P-wave)  
  T1  .US                              : Travel time 1 
  T2  .US                              : Travel time 2
  BSC .MM                              : Bit size
~Parameter information block                                                  
# MNEM.UNIT                     VALUE       DESCRIPTION                       
# ====.================================:====================                  
  BS  .MM                       215.90 : Bit Size                             
  DFD .G/C3                       1.14 : Drilling Fluid Density
  DFV .S                         39.00 : Drilling Fluid Viscosity             
  RMS .OHMM                        .00 : Mud Sample Resistivity               
~Other information                                                            
# ------------------- REMARKS AREA ------------------------                   
# ==========================================================                  
~ASCII Log Data                                                               
# ...
    300.00        9.193        1.439        7.203      226.512      225.978      226.245        2.689        5.122     -999.250       54.175      115.145       11.366        2.481      450.008     1504.082     1684.104      215.900
    300.10        9.132        1.396        7.183      248.822      237.852      243.337        2.603        5.179     -999.250       56.325      109.042       12.273        2.481      444.885     1501.098     1678.527      215.900
    300.20        8.888        1.427        7.156      243.181      231.522      237.351        2.479        5.377     -999.250       56.976      106.018       13.689        2.469      444.162     1500.818     1677.229      215.900
    300.30        8.959        1.408        7.112      222.199      219.329      220.764        2.616        5.544     -999.250       60.531      121.682       16.104        2.453      448.931     1501.142     1680.295      215.900
    300.40        8.691        1.399        7.005      229.222      222.170      225.696        3.104        5.618     -999.250       55.301      120.472       17.191        2.448      455.802     1500.729     1683.881      215.900
    300.50        8.810        1.434        6.775      251.750      237.523      244.637        3.885        5.547     -999.250       51.410      115.755       17.440        2.410      456.335     1500.043     1684.700      215.900
    300.60        8.876        1.454        6.588      281.062      265.488      273.275        4.040        5.494     -999.250       49.717      107.547       17.097        2.398      443.651     1501.115     1680.908      215.900
    300.70        8.629        1.409        6.554      238.198      273.164      255.681        3.674        5.500     -999.250       53.046      106.856       16.659        2.402      419.253     1504.311     1672.243      215.900
    300.80        8.404        1.416        6.599      226.045      237.817      231.931        3.229        5.585     -999.250       51.260      104.978       16.526        2.440      392.838     1506.577     1661.952      215.900
    300.90        8.418        1.383        6.632      233.491      229.248      231.369        2.874        5.810     -999.250       56.237      111.244       16.277        2.512      377.770     1503.985     1652.083      215.900
    301.00        8.394        1.366        6.651      224.261      222.961      223.611        2.588        6.292     -999.250       58.449      122.563       16.558        2.488      377.922     1495.721     1645.572      215.900
    301.10        8.625        1.395        6.583      223.328      223.062      223.195        2.527        6.668     -999.250       62.265      126.810       17.163        2.519      388.746     1485.522     1641.080      215.900
    301.20        8.636        1.391        6.361      221.061      221.543      221.302        2.629        7.274     -999.250       62.048      130.748       17.427        2.514      401.569     1476.551     1637.636      215.900
    301.30        8.727        1.381        6.162      220.587      220.529      220.558        2.801        7.401     -999.250       63.579      126.334       17.789        2.459      412.761     1469.541     1634.781      215.900
    301.40        8.532        1.403        6.004      220.348      221.023      220.686        2.815        7.265     -999.250       64.236      119.553       18.249        2.441      422.445     1464.380     1633.367      215.900
    301.50        8.894        1.413        5.959      221.510      222.254      221.882        2.685        7.005     -999.250       62.975      111.270       17.921        2.437      431.362     1460.683     1633.388      215.900
    301.60        8.668        1.443        5.940      221.110      224.143      222.627        2.686        6.818     -999.250       61.603      111.007       16.861        2.405      439.192     1458.283     1634.224      215.900
    301.70        8.702        1.500        5.941      222.668      233.808      228.238        2.813        6.668     -999.250       59.167      109.949       16.874        2.435      443.671     1455.692     1634.074      215.900
    301.80        8.569        1.487        6.019      224.873      229.271      227.072        2.960        6.514     -999.250       62.401      112.288       17.137        2.423      442.254     1453.965     1632.049      215.900
    301.90        8.182        1.477        6.198      221.254      224.606      222.930        2.984        6.426     -999.250       63.374      103.708       16.764        2.423      433.060     1453.709     1627.948      215.900
    302.00        8.215        1.480        6.417      221.681      221.312      221.496        2.891        6.368     -999.250       64.102       99.379       15.177        2.433      420.069     1455.782     1623.131      215.900
    302.10        7.949        1.451        6.561      219.966      220.882      220.424        2.868        6.429     -999.250       63.591      100.106       15.586        2.423      410.843     1457.056     1619.550      215.900
    302.20        8.102        1.432        6.701      216.743      219.264      218.004        2.965        6.544     -999.250       64.848      104.942       17.094        2.421      413.291     1456.175     1619.345      215.900
    302.30        8.420        1.441        6.778      216.033      218.529      217.281        3.069        6.630     -999.250       64.141      111.365       18.230        2.426      426.724     1452.900     1623.187      215.900
    302.40        8.601        1.421        6.865      214.656      217.817      216.237        3.047        6.695     -999.250       63.038      109.166       17.995        2.389      444.272     1450.330     1628.943      215.900
    302.50        8.713        1.378        6.962      215.022      217.745      216.384        2.952        6.705     -999.250       59.914      109.623       17.171        2.358      456.852     1450.520     1634.746      215.900
    302.60        8.924        1.383        7.033      216.243      221.145      218.694        2.876        6.731     -999.250       52.695      103.857       16.303        2.347      462.006     1453.728     1639.112      215.900
    302.70        8.899        1.387        7.119      213.601      218.260      215.931        2.834        6.837     -999.250       50.440      111.416       15.511        2.330      462.636     1458.754     1643.552      215.900
    302.80        9.064        1.360        7.265      213.902      217.676      215.789        2.710        6.944     -999.250       53.411      112.114       14.609        2.316      464.393     1462.720     1647.703      215.900
    302.90        8.986        1.403        7.448      213.356      218.302      215.829        2.512        7.015     -999.250       63.895      106.560       14.706        2.302      469.593     1464.083     1651.575      215.900
    303.00        9.016        1.392        7.701      216.188      218.509      217.348        2.164        7.022     -999.250       68.474      106.067       14.775        2.310      477.426     1462.846     1653.883      215.900
    303.10        8.657        1.388        7.831      217.197      218.465      217.831        1.957        7.060     -999.250       68.623      114.849       13.064        2.264      487.178     1462.506     1656.888      215.900
    303.20        8.533        1.419        7.877      220.435      220.624      220.530        1.947        7.075     -999.250       63.366      135.826       11.196        2.230      500.851     1464.358     1663.551      215.900
    303.30        8.390        1.414        7.669      244.714      233.292      239.003        2.007        6.964     -999.250       63.097      133.158       10.418        2.186      519.248     1468.323     1675.770      215.900
    303.40        8.201        1.443        7.220      311.083      283.377      297.230        1.964        6.456     -999.250       69.424      128.375        9.909        2.123      536.122     1474.513     1690.969      215.900
