~Version information                                                          
  VERS.                            1.20: CWLS LAS  -  VERSION 1.20            
  WRAP.                             NO : One line per depth step              
~Well information                                                             
# MNEM.UNIT         DATA TYPE  INFORMATION                                    
# ====.================================: ===================                  
  STRT.M                        13.000 : First depth in file                  
  STOP.M                       939.000 : Last  depth in file                  
  STEP.M                          .100 : Depth increment                      
  NULL.                       -999.250 : Null  values                         
  WN  .                            WELL: 314
  FN  .                           FIELD: KARATUBE
  DATE.                        LOG DATE: 03.12.2004
~Curve information                                                            
# MNEM.UNIT                   API CODE   CURVE DESCRIPTION                    
# ====.================================:====================                  
  DEPT.M                               : Depth curve                          
  GR  .UR/H                            : Gamma-ray log
  NGLD.UE                              : Neutron-gamma log
  GZ3B.OHMM                            : App.resistivity by lateral N0.5M2.0A                                     
  C1  .MM                              : Caliper, diameter 1
  C2  .MM                              : Caliper, diameter 2
  CALI.MM                              : Caliper
  LL3 .OHMM                            : Appar.resist.laterolog,3 electrodes
  GZ3 .OHMM                            : App.resistivity by lateral A2.0M0.5N
  MLL .OHMM                            : Microlaterolog sonde
  CILR.MMHO                            : Conduct. by sonde 7I1.6,reactive signal
  CILA.MMHO                            : Conduct. by sonde 7I1.6,active signal
  SP  .MV                              : Spontaneous potential
  RHOB.G/C3                            : Bulk density by gamma-gamma log    
  DTP .US/M                            : Interval travel time (P-wave)  
  T1  .US                              : Travel time 1 
  T2  .US                              : Travel time 2
  BSC .MM                              : Bit size
~Parameter information block                                                  
# MNEM.UNIT                     VALUE       DESCRIPTION                       
# ====.================================:====================                  
  BS  .MM                       215.90 : Bit Size                             
  DFD .G/C3                       1.14 : Drilling Fluid Density
  DFV .S                         39.00 : Drilling Fluid Viscosity             
  RMS .OHMM                        .00 : Mud Sample Resistivity               
~Other information                                                            
# ------------------- REMARKS AREA ------------------------                   
# ==========================================================                  
~ASCII Log Data                                                               
# ...
    776.00        7.664        1.695        2.849      287.215      411.356      349.285        1.306        2.706        1.439      134.948      123.193       75.447        1.898      350.256     1294.527     1434.424      215.900
    776.10        7.392        1.677        2.909      250.754      365.056      307.905        1.368        2.370         .766      132.888      119.864       77.426        1.866      335.412     1300.597     1434.581      215.900
    776.20        7.336        1.695        2.989      285.968      415.216      350.592        1.536        2.244        1.476      120.904      137.249       77.436        1.905      321.393     1301.935     1430.548      215.900
    776.30        7.509        1.705        3.143      298.501      443.764      371.133        1.807        2.234        1.593      110.810      135.417       75.243        1.949      307.417     1299.096     1422.169      215.900
    776.40        7.229        1.727        3.333      286.214      449.794      368.004        2.058        2.259        1.528      111.330      123.067       74.392        1.988      294.131     1292.451     1409.668      215.900
    776.50        7.457        1.774        3.805      240.031      308.815      274.423        2.125        2.367        1.430      106.118      120.132       74.664        1.972      283.991     1282.636     1395.301      215.900
    776.60        7.660        1.766        4.191      224.284      228.206      226.245        2.083        2.529        1.158      112.077      124.126       76.298        1.975      280.042     1270.731     1381.640      215.900
    776.70        7.851        1.771        4.619      225.170      248.743      236.956        2.072        2.784        1.679      112.349      124.996       75.542        2.200      283.523     1257.875     1370.352      215.900
    776.80        7.877        1.719        4.957      226.528      254.919      240.723        2.002        3.170         .997      108.666      130.252       71.692        2.333      292.570     1244.568     1361.410      215.900
    776.90        7.976        1.702        5.080      225.214      232.468      228.841        1.882        3.410         .918      104.081      128.776       69.656        2.387      303.829     1233.296     1355.058      215.900
    777.00        8.291        1.595        5.042      232.314      259.980      246.147        1.780        3.604        1.480      108.324      146.366       68.990        2.363      313.962     1225.372     1351.364      215.900
    777.10        8.499        1.618        4.880      235.409      229.382      232.395        1.655        3.695        1.962      115.021      138.366       69.445        2.345      321.985     1221.249     1350.247      215.900
    777.20        8.871        1.682        4.662      242.706      250.389      246.548        1.484        3.751         .994      114.015      142.416       69.926        2.274      328.866     1219.481     1350.874      215.900
    777.30        9.002        1.639        4.391      227.641      257.581      242.611        1.310        3.811        1.009      127.911      159.750       71.309        2.248      336.202     1218.669     1352.917      215.900
    777.40        8.559        1.658        4.175      231.567      276.891      254.229        1.241        3.859        1.221      137.686      171.504       70.637        2.132      344.361     1218.458     1356.257      215.900
    777.50        7.957        1.641        3.836      247.044      362.093      304.569        1.210        3.805        1.273      138.455      166.116       69.127        2.105      352.495     1219.398     1360.585      215.900
    777.60        7.060        1.665        3.558      265.253      394.003      329.628        1.161        3.643        1.159      141.161      164.582       68.311        2.026      360.277     1222.176     1366.181      215.900
    777.70        6.834        1.656        3.297      269.496      434.632      352.064        1.118        3.461        1.152      143.654      177.079       67.201        1.927      368.957     1226.470     1373.611      215.900
    777.80        6.821        1.640        3.059      262.525      452.973      357.749        1.123        3.192        1.625      141.905      165.417       65.320        1.876      379.337     1231.708     1383.311      215.900
    777.90        6.782        1.636        2.968      281.259      496.697      388.978        1.140        2.937        1.408      135.702      158.882       64.736        1.779      387.883     1238.126     1394.585      215.900
    778.00        6.828        1.671        2.937      286.953      554.781      420.867        1.146        2.743        1.226      131.790      144.307       65.428        1.732      389.127     1248.325     1405.725      215.900
    778.10        6.869        1.684        2.957      302.712      547.619      425.165        1.153        2.621        1.333      128.543      143.913       66.046        1.714      381.370     1261.871     1414.966      215.900
    778.20        6.763        1.665        2.977      315.533      532.536      424.034        1.156        2.488        1.434      132.646      147.161       67.006        1.720      369.255     1273.324     1420.473      215.900
    778.30        6.758        1.661        3.031      321.790      508.477      415.133        1.156        2.387        1.576      139.076      152.466       69.036        1.701      359.427     1278.659     1421.519      215.900
    778.40        7.080        1.636        3.109      324.671      483.201      403.936        1.156        2.399        1.547      139.224      158.835       71.769        1.723      353.749     1277.563     1418.868      215.900
    778.50        7.230        1.611        3.170      316.953      488.994      402.974        1.166        2.490        1.461      153.060      172.156       75.102        1.711      350.716     1274.807     1415.141      215.900
    778.60        7.028        1.615        3.159      272.038      505.203      388.620        1.237        2.527        1.357      146.618      170.130       76.435        1.713      347.276     1273.347     1412.568      215.900
    778.70        6.927        1.643        3.138      276.659      499.291      387.975        1.333        2.504        1.311      125.058      163.814       76.321        1.689      340.772     1273.494     1410.671      215.900
    778.80        6.907        1.636        3.157      295.578      519.428      407.503        1.509        2.458        1.403      114.413      163.572       75.318        1.697      329.537     1274.186     1406.716      215.900
    778.90        7.184        1.593        3.199      302.549      500.847      401.698        1.582        2.476        1.547      107.063      152.193       75.804        1.705      314.081     1274.143     1399.884      215.900
    779.00        7.064        1.625        3.363      236.339      460.911      348.625        1.676        2.650        1.601       98.657      135.088       75.055        1.736      299.253     1273.919     1392.545      215.900
    779.10        7.117        1.594        3.680      246.182      440.267      343.224        1.511        2.914        1.329      102.740      140.251       74.527        1.833      291.711     1273.998     1388.738      215.900
    779.20        7.120        1.603        4.058      228.288      350.604      289.446        1.401        3.388        1.337      113.928      149.430       75.444        1.919      295.775     1273.359     1390.047      215.900
    779.30        7.109        1.604        4.222      223.199      327.469      275.334        1.286        3.834        1.324      121.133      154.779       76.361        1.973      310.495     1272.208     1395.710      215.900
    779.40        6.716        1.551        4.257      225.319      364.471      294.895        1.197        4.050        1.362      133.851      157.846       76.322        2.058      330.308     1271.595     1403.998      215.900
