~Version information                                                          
  VERS.                            1.20: CWLS LAS  -  VERSION 1.20            
  WRAP.                             NO : One line per depth step              
~Well information                                                             
# MNEM.UNIT         DATA TYPE  INFORMATION                                    
# ====.================================: ===================                  
  STRT.M                        13.000 : First depth in file                  
  STOP.M                       939.000 : Last  depth in file                  
  STEP.M                          .100 : Depth increment                      
  NULL.                       -999.250 : Null  values                         
  WN  .                            WELL: 314
  FN  .                           FIELD: KARATUBE
  DATE.                        LOG DATE: 03.12.2004
~Curve information                                                            
# MNEM.UNIT                   API CODE   CURVE DESCRIPTION                    
# ====.================================:====================                  
  DEPT.M                               : Depth curve                          
  GR  .UR/H                            : Gamma-ray log
  NGLD.UE                              : Neutron-gamma log
  GZ3B.OHMM                            : App.resistivity by lateral N0.5M2.0A                                     
  C1  .MM                              : Caliper, diameter 1
  C2  .MM                              : Caliper, diameter 2
  CALI.MM                              : Caliper
  LL3 .OHMM                            : Appar.resist.laterolog,3 electrodes
  GZ3 .OHMM                            : App.resistivity by lateral A2.0M0.5N
  MLL .OHMM                            : Microlaterolog sonde
  CILR.MMHO                            : Conduct. by sonde 7I1.6,reactive signal
  CILA.MMHO                            : Conduct. by sonde 7I1.6,active signal
  SP  .MV                              : Spontaneous potential
  RHOB.G/C3                            : Bulk density by gamma-gamma log    
  DTP .US/M                            : Interval travel time (P-wave)  
  T1  .US                              : Travel time 1 
  T2  .US                              : Travel time 2
  BSC .MM                              : Bit size
~Parameter information block                                                  
# MNEM.UNIT                     VALUE       DESCRIPTION                       
# ====.================================:====================                  
  BS  .MM                       215.90 : Bit Size                             
  DFD .G/C3                       1.14 : Drilling Fluid Density
  DFV .S                         39.00 : Drilling Fluid Viscosity             
  RMS .OHMM                        .00 : Mud Sample Resistivity               
~Other information                                                            
# ------------------- REMARKS AREA ------------------------                   
# ==========================================================                  
~ASCII Log Data                                                               
# ...
    671.00        9.164        1.559       10.821      214.617      214.469      214.543        3.905        5.773        1.508       32.852       83.488       42.363        2.462      393.404     1381.654     1538.919      215.900
    671.10        9.069        1.538       10.868      216.607      214.922      215.765        3.942        5.877        1.515       32.937       85.386       45.213        2.443      394.543     1381.480     1539.135      215.900
    671.20        9.152        1.509       10.904      215.091      215.772      215.432        3.990        5.974        1.447       32.109       82.984       49.612        2.412      396.792     1381.387     1539.918      215.900
    671.30        9.424        1.460       10.932      214.298      214.517      214.407        4.072        6.071        1.442       32.870       85.626       51.729        2.421      399.968     1381.317     1541.281      215.900
    671.40        9.471        1.508       10.963      215.274      209.376      212.325        4.156        6.193        1.559       31.297       83.389       52.355        2.383      403.398     1381.462     1542.927      215.900
    671.50        9.421        1.515       11.011      213.089      209.856      211.473        4.140        6.290        1.588       32.215       84.479       50.774        2.364      405.951     1382.124     1544.772      215.900
    671.60        9.103        1.504       11.085      213.974      210.042      212.008        4.078        6.418        1.445       31.168       84.187       49.505        2.313      407.183     1383.348     1546.374      215.900
    671.70        8.392        1.488       11.190      213.388      214.514      213.951        4.026        6.512        1.474       31.749       82.218       48.362        2.324      407.361     1384.567     1547.511      215.900
    671.80        8.149        1.463       11.298      214.536      216.151      215.344        3.957        6.644        1.464       30.496       86.678       48.250        2.339      407.488     1385.343     1548.205      215.900
    671.90        8.075        1.479       11.415      215.277      216.673      215.975        3.871        6.773        1.398       31.488       83.336       47.604        2.321      408.286     1385.812     1548.992      215.900
    672.00        7.612        1.487       11.515      215.143      217.179      216.161        3.790        6.917        1.295       30.853       86.692       47.092        2.338      409.656     1386.450     1550.352      215.900
    672.10        7.526        1.488       11.646      214.913      218.939      216.926        3.758        7.057        1.276       29.896       84.195       46.799        2.351      411.004     1387.572     1552.078      215.900
    672.20        7.377        1.485       11.731      214.932      218.913      216.923        3.802        7.171        1.390       29.646       85.557       50.366        2.332      411.499     1388.878     1553.676      215.900
    672.30        7.627        1.501       11.822      215.019      218.771      216.895        3.875        7.240        1.472       26.762       82.046       51.874        2.321      410.980     1390.072     1554.568      215.900
    672.40        7.537        1.497       11.980      213.427      218.212      215.819        3.937        7.325        1.485       28.036       81.359       52.300        2.329      409.617     1390.962     1554.846      215.900
    672.50        7.262        1.500       12.171      215.593      218.525      217.059        3.954        7.382        1.499       26.409       81.049       52.549        2.312      408.062     1391.604     1554.766      215.900
    672.60        7.471        1.470       12.430      214.048      217.383      215.715        3.935        7.431        1.661       25.939       79.644       52.774        2.306      406.670     1391.915     1554.544      215.900
    672.70        7.584        1.480       12.700      213.802      217.413      215.607        3.818        7.483        1.881       25.962       82.439       54.197        2.315      405.646     1391.852     1554.066      215.900
    672.80        7.929        1.460       12.990      214.306      217.497      215.902        3.683        7.557        1.803       23.774       79.406       54.907        2.327      405.188     1391.512     1553.444      215.900
    672.90        7.938        1.475       13.261      215.122      217.562      216.342        3.558        7.687        1.680       25.366       83.991       54.219        2.348      406.048     1391.201     1553.282      215.900
    673.00        8.032        1.467       13.439      214.918      217.400      216.159        3.479        7.780        1.609       23.301       81.104       52.251        2.372      409.036     1391.272     1554.518      215.900
    673.10        8.100        1.511       13.660      216.622      217.309      216.965        3.397        7.926        1.561       22.729       82.917       50.006        2.367      414.423     1391.924     1557.440      215.900
    673.20        7.842        1.554       13.879      215.409      217.407      216.408        3.285        7.996        1.669       22.342       83.445       47.060        2.332      421.162     1393.074     1561.619      215.900
    673.30        7.673        1.486       14.193      212.336      216.984      214.660        3.204        8.040        1.689       20.577       82.008       45.059        2.332      427.712     1394.472     1565.804      215.900
    673.40        7.715        1.544       14.558      214.009      216.081      215.045        3.178        8.067        1.746       21.545       81.463       44.471        2.323      432.535     1396.144     1569.518      215.900
    673.50        7.506        1.562       14.934      213.940      216.492      215.216        3.327        8.054        1.698       18.053       77.344       45.143        2.308      435.443     1398.625     1572.959      215.900
    673.60        7.340        1.573       15.621      213.342      217.609      215.475        3.501        7.972        1.673       20.432       73.030       45.767        2.295      437.138     1402.322     1577.143      215.900
    673.70        7.310        1.571       16.351      215.201      217.258      216.230        4.109        7.863        1.875       16.607       64.123       45.476        2.318      438.916     1406.829     1582.237      215.900
    673.80        7.011        1.524       17.127      214.219      216.936      215.578        4.537        7.766        1.998       17.503       59.882       45.011        2.327      441.245     1411.177     1587.646      215.900
    673.90        6.940        1.529       18.206      213.426      216.359      214.893        5.133        7.649        1.969       15.656       50.679       45.240        2.306      443.438     1414.977     1592.594      215.900
    674.00        7.064        1.523       19.244      213.613      217.115      215.364        5.652        7.607        1.880       15.410       47.610       45.115        2.314      444.155     1418.785     1596.826      215.900
    674.10        6.782        1.543       20.186      213.818      214.400      214.109        6.056        7.601        1.803       16.734       42.195       44.053        2.305      442.760     1423.157     1600.486      215.900
    674.20        6.590        1.573       20.853      212.585      215.510      214.047        6.742        7.635        1.835       13.574       40.326       41.626        2.309      440.357     1427.655     1603.598      215.900
    674.30        6.392        1.545       21.487      217.683      216.966      217.324        7.257        7.705        2.007       15.692       37.440       40.500        2.297      438.149     1431.297     1606.454      215.900
    674.40        6.570        1.557       21.991      215.609      216.735      216.172        7.629        7.826        2.074       13.759       38.786       40.762        2.302      437.572     1434.814     1609.495      215.900
