~Version information                                                          
  VERS.                            1.20: CWLS LAS  -  VERSION 1.20            
  WRAP.                             NO : One line per depth step              
~Well information                                                             
# MNEM.UNIT         DATA TYPE  INFORMATION                                    
# ====.================================: ===================                  
  STRT.M                        13.000 : First depth in file                  
  STOP.M                       939.000 : Last  depth in file                  
  STEP.M                          .100 : Depth increment                      
  NULL.                       -999.250 : Null  values                         
  WN  .                            WELL: 314
  FN  .                           FIELD: KARATUBE
  DATE.                        LOG DATE: 03.12.2004
~Curve information                                                            
# MNEM.UNIT                   API CODE   CURVE DESCRIPTION                    
# ====.================================:====================                  
  DEPT.M                               : Depth curve                          
  GR  .UR/H                            : Gamma-ray log
  NGLD.UE                              : Neutron-gamma log
  GZ3B.OHMM                            : App.resistivity by lateral N0.5M2.0A                                     
  C1  .MM                              : Caliper, diameter 1
  C2  .MM                              : Caliper, diameter 2
  CALI.MM                              : Caliper
  LL3 .OHMM                            : Appar.resist.laterolog,3 electrodes
  GZ3 .OHMM                            : App.resistivity by lateral A2.0M0.5N
  MLL .OHMM                            : Microlaterolog sonde
  CILR.MMHO                            : Conduct. by sonde 7I1.6,reactive signal
  CILA.MMHO                            : Conduct. by sonde 7I1.6,active signal
  SP  .MV                              : Spontaneous potential
  RHOB.G/C3                            : Bulk density by gamma-gamma log    
  DTP .US/M                            : Interval travel time (P-wave)  
  T1  .US                              : Travel time 1 
  T2  .US                              : Travel time 2
  BSC .MM                              : Bit size
~Parameter information block                                                  
# MNEM.UNIT                     VALUE       DESCRIPTION                       
# ====.================================:====================                  
  BS  .MM                       215.90 : Bit Size                             
  DFD .G/C3                       1.14 : Drilling Fluid Density
  DFV .S                         39.00 : Drilling Fluid Viscosity             
  RMS .OHMM                        .00 : Mud Sample Resistivity               
~Other information                                                            
# ------------------- REMARKS AREA ------------------------                   
# ==========================================================                  
~ASCII Log Data                                                               
# ...
    195.00        8.196        1.274        7.245      281.349      311.884      296.616        2.561        6.905     -999.250       65.313      123.869       94.845        2.193      552.760     1786.794     2008.208      215.900
    195.10        8.080        1.337        7.183      279.716      314.878      297.297        2.530        6.932     -999.250       65.544      127.587       96.749        2.214      551.137     1789.930     2010.459      215.900
    195.20        7.858        1.330        7.070      289.209      332.232      310.720        2.523        6.965     -999.250       64.994      129.363       98.147        2.213      549.159     1793.796     2013.217      215.900
    195.30        7.868        1.346        6.946      303.815      361.250      332.532        2.524        6.929     -999.250       65.744      130.967       99.322        2.191      548.319     1796.686     2015.727      215.900
    195.40        7.551        1.354        6.840      300.985      344.504      322.744        2.523        6.869     -999.250       65.604      130.927       99.180        2.213      548.800     1798.404     2017.925      215.900
    195.50        7.421        1.323        6.783      291.014      321.057      306.035        2.521        6.746     -999.250       64.739      130.402       98.238        2.228      549.742     1799.428     2019.425      215.900
    195.60        7.508        1.358        6.757      283.830      342.194      313.012        2.537        6.577     -999.250       63.228      130.246       97.597        2.224      549.939     1800.218     2020.391      215.900
    195.70        7.459        1.390        6.771      298.031      340.919      319.475        2.572        6.430     -999.250       63.225      127.504       97.157        2.198      549.207     1800.974     2020.732      215.900
    195.80        7.648        1.399        6.862      307.823      328.151      317.987        2.579        6.389     -999.250       61.552      123.123       97.453        2.198      547.588     1801.644     2020.763      215.900
    195.90        7.561        1.399        6.992      286.587      318.134      302.361        2.575        6.392     -999.250       60.975      124.233       97.443        2.218      545.776     1802.275     2020.504      215.900
    196.00        7.601        1.388        7.143      278.809      329.521      304.165        2.563        6.442     -999.250       61.623      124.502       96.896        2.225      544.177     1802.680     2020.263      215.900
    196.10        7.903        1.366        7.372      255.282      314.107      284.695        2.544        6.513     -999.250       61.978      123.566       96.488        2.212      543.000     1802.849     2020.048      215.900
    196.20        7.928        1.364        7.561      280.963      322.011      301.487        2.507        6.575     -999.250       63.011      125.092       96.387        2.254      541.734     1803.217     2020.032      215.900
    196.30        8.153        1.360        7.733      291.179      309.447      300.313        2.480        6.793     -999.250       63.848      132.312       95.730        2.233      539.862     1804.341     2020.406      215.900
    196.40        8.183        1.365        7.775      321.451      293.220      307.335        2.486        6.860     -999.250       63.362      134.099       95.049        2.244      537.594     1806.355     2021.309      215.900
    196.50        8.176        1.296        7.728      332.948      303.715      318.332        2.515        6.861     -999.250       61.376      133.514       96.576        2.235      535.764     1808.667     2022.761      215.900
    196.60        8.104        1.275        7.600      319.459      307.154      313.306        2.538        6.670     -999.250       63.894      132.877       98.958        2.218      535.175     1810.435     2024.305      215.900
    196.70        8.004        1.279        7.506      291.582      314.927      303.255        2.566        6.534     -999.250       62.611      131.939       99.504        2.208      535.886     1811.385     2025.633      215.900
    196.80        8.017        1.311        7.440      286.137      317.203      301.670        2.598        6.429     -999.250       60.382      130.520       98.786        2.205      537.150     1811.876     2026.823      215.900
    196.90        8.047        1.329        7.420      284.996      326.698      305.847        2.619        6.394     -999.250       58.199      130.444       97.764        2.223      537.951     1812.387     2027.774      215.900
    197.00        7.963        1.282        7.477      280.627      331.979      306.303        2.608        6.395     -999.250       58.402      129.219       98.260        2.229      537.160     1813.138     2028.346      215.900
    197.10        8.034        1.277        7.584      259.518      321.818      290.668        2.598        6.471     -999.250       60.365      128.590       98.051        2.233      534.403     1813.979     2027.976      215.900
    197.20        8.505        1.280        7.611      268.537      282.955      275.746        2.594        6.528     -999.250       60.238      129.850       97.112        2.228      530.385     1814.981     2027.060      215.900
    197.30        8.336        1.315        7.591      300.364      284.011      292.188        2.592        6.582     -999.250       57.198      131.460       94.643        2.243      526.781     1815.873     2026.259      215.900
    197.40        8.379        1.333        7.562      294.902      302.994      298.948        2.611        6.604     -999.250       55.981      130.133       93.410        2.237      525.105     1816.318     2025.989      215.900
    197.50        8.469        1.360        7.490      288.971      315.627      302.299        2.634        6.600     -999.250       54.061      130.598       92.453        2.234      525.846     1815.924     2025.993      215.900
    197.60        8.601        1.302        7.432      291.264      307.127      299.195        2.674        6.546     -999.250       56.073      130.368       91.473        2.235      528.313     1814.515     2025.790      215.900
    197.70        8.321        1.326        7.379      298.496      300.417      299.456        2.695        6.448     -999.250       59.345      125.040       91.052        2.210      531.562     1812.327     2024.959      215.900
    197.80        8.320        1.362        7.331      285.351      295.012      290.182        2.679        6.333     -999.250       57.506      123.516       90.673        2.220      534.443     1809.459     2023.426      215.900
    197.90        8.390        1.364        7.299      282.917      301.743      292.330        2.632        6.234     -999.250       58.650      127.900       86.748        2.226      536.733     1806.764     2021.497      215.900
    198.00        8.284        1.293        7.277      270.533      279.778      275.155        2.670        6.212     -999.250       60.629      130.042       85.653        2.217      538.377     1804.520     2019.900      215.900
    198.10        8.383        1.270        7.220      273.126      280.869      276.997        2.816        6.166     -999.250       58.477      126.425       84.398        2.228      539.694     1803.051     2018.989      215.900
    198.20        8.310        1.231        7.174      286.191      286.869      286.530        2.973        6.109     -999.250       54.207      120.568       83.281        2.235      539.783     1802.122     2018.436      215.900
    198.30        8.451        1.220        7.174      277.623      286.866      282.245        3.169        6.059     -999.250       50.206      116.663       82.534        2.215      537.397     1801.600     2017.087      215.900
    198.40        8.672        1.226        7.228      268.676      256.684      262.680        3.322        6.077     -999.250       51.522      114.044       82.880        2.264      531.020     1801.367     2014.442      215.900
