~Version information                                                          
  VERS.                            1.20: CWLS LAS  -  VERSION 1.20            
  WRAP.                             NO : One line per depth step              
~Well information                                                             
# MNEM.UNIT         DATA TYPE  INFORMATION                                    
# ====.================================: ===================                  
  STRT.M                        13.000 : First depth in file                  
  STOP.M                       939.000 : Last  depth in file                  
  STEP.M                          .100 : Depth increment                      
  NULL.                       -999.250 : Null  values                         
  WN  .                            WELL: 314
  FN  .                           FIELD: KARATUBE
  DATE.                        LOG DATE: 03.12.2004
~Curve information                                                            
# MNEM.UNIT                   API CODE   CURVE DESCRIPTION                    
# ====.================================:====================                  
  DEPT.M                               : Depth curve                          
  GR  .UR/H                            : Gamma-ray log
  NGLD.UE                              : Neutron-gamma log
  GZ3B.OHMM                            : App.resistivity by lateral N0.5M2.0A                                     
  C1  .MM                              : Caliper, diameter 1
  C2  .MM                              : Caliper, diameter 2
  CALI.MM                              : Caliper
  LL3 .OHMM                            : Appar.resist.laterolog,3 electrodes
  GZ3 .OHMM                            : App.resistivity by lateral A2.0M0.5N
  MLL .OHMM                            : Microlaterolog sonde
  CILR.MMHO                            : Conduct. by sonde 7I1.6,reactive signal
  CILA.MMHO                            : Conduct. by sonde 7I1.6,active signal
  SP  .MV                              : Spontaneous potential
  RHOB.G/C3                            : Bulk density by gamma-gamma log    
  DTP .US/M                            : Interval travel time (P-wave)  
  T1  .US                              : Travel time 1 
  T2  .US                              : Travel time 2
  BSC .MM                              : Bit size
~Parameter information block                                                  
# MNEM.UNIT                     VALUE       DESCRIPTION                       
# ====.================================:====================                  
  BS  .MM                       215.90 : Bit Size                             
  DFD .G/C3                       1.14 : Drilling Fluid Density
  DFV .S                         39.00 : Drilling Fluid Viscosity             
  RMS .OHMM                        .00 : Mud Sample Resistivity               
~Other information                                                            
# ------------------- REMARKS AREA ------------------------                   
# ==========================================================                  
~ASCII Log Data                                                               
# ...
    352.50       10.118        1.295        6.678      217.011      223.475      220.243        2.735        7.414     -999.250       66.889      125.383       80.062        2.416      451.321     1511.512     1692.581      215.900
    352.60       10.180        1.307        6.676      217.498      220.633      219.065        2.703        7.348     -999.250       65.578      121.295       81.034        2.445      447.377     1507.858     1688.207      215.900
    352.70       10.268        1.324        6.669      221.223      223.038      222.131        2.683        7.224     -999.250       65.781      123.102       82.188        2.458      436.375     1508.646     1684.080      215.900
    352.80       10.354        1.300        6.653      224.413      222.262      223.337        2.671        7.122     -999.250       61.682      120.493       84.895        2.447      418.011     1512.561     1680.427      215.900
    352.90       10.125        1.325        6.632      219.792      217.740      218.766        2.652        7.077     -999.250       64.329      119.893       87.311        2.434      398.776     1517.882     1676.192      215.900
    353.00        9.865        1.358        6.599      222.095      219.418      220.756        2.583        7.036     -999.250       61.807      123.707       88.170        2.448      383.678     1520.821     1673.177      215.900
    353.10        9.599        1.370        6.542      221.297      217.414      219.356        2.395        6.959     -999.250       65.252      129.411       88.634        2.446      378.800     1520.541     1670.289      215.900
    353.20        9.927        1.355        6.463      226.588      217.877      222.232        2.236        6.839     -999.250       66.105      136.979       89.039        2.443      386.149     1515.001     1667.456      215.900
    353.30        9.830        1.379        6.302      235.676      220.628      228.152        2.123        6.678     -999.250       69.162      134.553       89.935        2.451      405.232     1504.063     1665.238      215.900
    353.40        9.656        1.363        6.158      239.897      228.612      234.255        2.093        6.470     -999.250       70.747      137.877       92.637        2.427      431.443     1492.452     1665.103      215.900
    353.50        9.736        1.352        5.786      220.204      266.060      243.132        2.106        6.122     -999.250       70.407      132.599       93.721        2.408      454.495     1483.244     1667.150      215.900
    353.60        9.888        1.315        5.536      218.835      282.582      250.708        2.179        5.668     -999.250       68.693      136.164       93.488        2.400      468.202     1480.593     1669.430      215.900
    353.70       10.559        1.370        5.346      223.418      285.821      254.620        2.241        5.326     -999.250       66.436      132.144       92.438        2.385      469.325     1482.025     1671.124      215.900
    353.80       10.830        1.412        5.251      214.705      274.063      244.384        2.330        5.094     -999.250       66.582      130.893       90.845        2.392      461.863     1487.699     1672.953      215.900
    353.90       10.875        1.388        5.272      216.691      238.193      227.442        2.362        4.876     -999.250       64.713      126.164       89.509        2.374      450.968     1496.016     1675.898      215.900
    354.00       11.093        1.358        5.380      216.901      221.092      218.996        2.383        4.664     -999.250       67.370      126.335       88.091        2.406      441.691     1503.833     1679.859      215.900
    354.10       11.282        1.372        5.559      214.920      215.608      215.264        2.453        4.723     -999.250       65.152      124.218       87.641        2.419      436.510     1508.339     1682.461      215.900
    354.20       11.747        1.364        5.683      214.008      218.114      216.061        2.535        4.795     -999.250       66.370      127.138       87.780        2.425      433.539     1509.514     1683.179      215.900
    354.30       11.692        1.418        5.823      224.310      221.419      222.865        2.654        4.961     -999.250       63.251      125.557       87.617        2.427      428.537     1509.692     1682.153      215.900
    354.40       11.491        1.447        5.888      231.366      223.710      227.538        2.719        5.063     -999.250       66.413      124.315       87.249        2.438      418.307     1512.409     1680.528      215.900
    354.50       11.803        1.410        5.933      242.221      220.578      231.399        2.748        5.204     -999.250       65.281      123.645       87.459        2.469      404.552     1517.106     1678.494      215.900
    354.60       11.440        1.392        5.959      229.182      213.054      221.118        2.713        5.286     -999.250       64.992      121.838       88.540        2.460      393.199     1522.372     1678.326      215.900
    354.70       11.860        1.368        5.974      224.532      221.069      222.801        2.695        5.360     -999.250       65.488      128.048       88.702        2.471      389.207     1525.840     1680.336      215.900
    354.80       12.168        1.397        5.986      233.912      219.465      226.688        2.679        5.499     -999.250       67.417      127.603       89.177        2.497      393.181     1527.860     1684.458      215.900
    354.90       11.971        1.446        5.994      233.364      217.717      225.541        2.642        5.634     -999.250       67.004      129.475       89.604        2.493      402.217     1528.550     1689.275      215.900
    355.00       11.973        1.415        6.004      223.968      215.736      219.852        2.560        5.747     -999.250       66.295      129.830       88.618        2.493      412.624     1528.962     1694.300      215.900
    355.10       11.949        1.408        5.991      224.212      212.280      218.246        2.518        5.819     -999.250       69.786      134.616       87.067        2.489      421.474     1529.672     1698.758      215.900
    355.20       12.195        1.378        5.971      220.823      214.338      217.581        2.482        5.885     -999.250       68.901      134.995       85.767        2.470      427.746     1530.651     1701.995      215.900
    355.30       11.988        1.334        5.948      223.318      216.971      220.145        2.422        5.952     -999.250       71.097      136.745       86.353        2.458      432.920     1532.054     1704.918      215.900
    355.40       11.873        1.322        5.932      219.705      216.423      218.064        2.380        5.945     -999.250       68.998      136.739       87.173        2.444      438.596     1534.979     1710.275      215.900
    355.50       12.054        1.296        5.917      231.514      216.910      224.212        2.364        5.922     -999.250       71.985      135.863       85.257        2.454      444.678     1540.583     1718.737      215.900
    355.60       11.975        1.275        5.915      223.786      213.115      218.451        2.387        5.897     -999.250       69.505      136.831       82.991        2.455      450.684     1548.456     1728.619      215.900
    355.70       11.931        1.289        5.944      218.258      218.995      218.627        2.398        5.879     -999.250       70.714      137.291       81.657        2.464      454.970     1554.917     1737.419      215.900
    355.80       11.985        1.310        5.981      209.421      217.259      213.340        2.391        5.778     -999.250       69.677      139.248       79.545        2.463      458.432     1560.393     1743.691      215.900
    355.90       11.832        1.328        6.013      214.113      216.290      215.202        2.393        5.679     -999.250       70.563      135.272       79.789        2.460      459.408     1563.152     1747.471      215.900
