~Version information                                                          
  VERS.                            1.20: CWLS LAS  -  VERSION 1.20            
  WRAP.                             NO : One line per depth step              
~Well information                                                             
# MNEM.UNIT         DATA TYPE  INFORMATION                                    
# ====.================================: ===================                  
  STRT.M                        13.000 : First depth in file                  
  STOP.M                       939.000 : Last  depth in file                  
  STEP.M                          .100 : Depth increment                      
  NULL.                       -999.250 : Null  values                         
  WN  .                            WELL: 314
  FN  .                           FIELD: KARATUBE
  DATE.                        LOG DATE: 03.12.2004
~Curve information                                                            
# MNEM.UNIT                   API CODE   CURVE DESCRIPTION                    
# ====.================================:====================                  
  DEPT.M                               : Depth curve                          
  GR  .UR/H                            : Gamma-ray log
  NGLD.UE                              : Neutron-gamma log
  GZ3B.OHMM                            : App.resistivity by lateral N0.5M2.0A                                     
  C1  .MM                              : Caliper, diameter 1
  C2  .MM                              : Caliper, diameter 2
  CALI.MM                              : Caliper
  LL3 .OHMM                            : Appar.resist.laterolog,3 electrodes
  GZ3 .OHMM                            : App.resistivity by lateral A2.0M0.5N
  MLL .OHMM                            : Microlaterolog sonde
  CILR.MMHO                            : Conduct. by sonde 7I1.6,reactive signal
  CILA.MMHO                            : Conduct. by sonde 7I1.6,active signal
  SP  .MV                              : Spontaneous potential
  RHOB.G/C3                            : Bulk density by gamma-gamma log    
  DTP .US/M                            : Interval travel time (P-wave)  
  T1  .US                              : Travel time 1 
  T2  .US                              : Travel time 2
  BSC .MM                              : Bit size
~Parameter information block                                                  
# MNEM.UNIT                     VALUE       DESCRIPTION                       
# ====.================================:====================                  
  BS  .MM                       215.90 : Bit Size                             
  DFD .G/C3                       1.14 : Drilling Fluid Density
  DFV .S                         39.00 : Drilling Fluid Viscosity             
  RMS .OHMM                        .00 : Mud Sample Resistivity               
~Other information                                                            
# ------------------- REMARKS AREA ------------------------                   
# ==========================================================                  
~ASCII Log Data                                                               
# ...
    723.50        5.692        1.718        4.863      218.989      229.421      224.205        2.099        4.298        2.194      103.691      145.715       59.489        2.582      337.608     1272.509     1408.343      215.900
    723.60        5.899        1.766        4.899      219.418      224.916      222.167        2.227        4.274        2.136      103.732      142.642       61.629        2.583      335.589     1271.012     1405.847      215.900
    723.70        6.084        1.811        4.984      219.068      230.171      224.620        2.451        4.114        2.307      103.990      140.659       62.820        2.583      329.391     1268.373     1400.411      215.900
    723.80        5.990        1.811        5.094      220.540      224.022      222.281        2.700        4.071        2.726      101.463      140.555       63.156        2.573      320.709     1266.291     1394.688      215.900
    723.90        5.981        1.830        5.226      216.861      223.666      220.263        2.782        4.084        2.815       99.865      140.686       62.358        2.608      311.280     1265.000     1389.420      215.900
    724.00        5.860        1.855        5.377      221.729      220.369      221.049        2.730        4.131        3.120       98.596      133.311       60.444        2.613      302.631     1263.717     1384.436      215.900
    724.10        5.787        1.842        5.418      221.304      222.065      221.684        2.546        4.200        2.559       93.463      142.284       60.538        2.648      296.710     1261.133     1379.153      215.900
    724.20        5.748        1.783        5.416      223.219      222.476      222.848        2.360        4.299        2.314       93.717      156.794       62.684        2.638      295.156     1257.405     1374.718      215.900
    724.30        5.844        1.773        5.355      221.901      222.860      222.380        2.198        4.430        2.279      102.299      159.953       64.611        2.670      298.731     1253.168     1372.023      215.900
    724.40        6.072        1.715        5.237      218.267      229.729      223.998        1.917        4.536        2.042      108.236      152.078       65.546        2.661      307.438     1249.216     1371.525      215.900
    724.50        5.968        1.687        5.090      219.887      233.301      226.594        1.549        4.633         .564      115.727      157.515       65.531        2.637      320.990     1246.073     1373.837      215.900
    724.60        6.462        1.665        4.954      218.388      225.942      222.165        1.461        4.704         .902      114.592      171.764       66.786        2.611      337.821     1243.934     1379.047      215.900
    724.70        6.477        1.651        4.763      220.926      223.408      222.167        1.557        4.749        1.256      111.741      174.510       69.345        2.614      353.785     1243.311     1385.820      215.900
    724.80        6.660        1.638        4.611      225.517      223.458      224.487        1.731        4.665        1.520      109.106      168.790       70.455        2.606      362.988     1244.680     1391.602      215.900
    724.90        6.804        1.630        4.477      228.380      250.385      239.383        1.826        4.478        1.658      108.129      148.606       72.758        2.594      362.543     1248.939     1395.091      215.900
    725.00        7.018        1.607        4.474      221.500      251.801      236.650        1.875        4.260        1.600      104.162      142.363       76.141        2.592      354.006     1254.587     1396.563      215.900
    725.10        6.962        1.674        4.534      220.920      254.057      237.488        1.980        4.053        1.666      105.289      143.497       77.207        2.602      341.886     1258.524     1395.205      215.900
    725.20        7.101        1.673        4.631      219.884      231.623      225.753        2.163        3.826        2.227       99.533      149.026       77.761        2.639      329.804     1258.354     1389.959      215.900
    725.30        6.768        1.673        4.737      220.027      223.824      221.926        2.277        3.720        2.181       98.070      147.527       78.505        2.630      319.394     1253.885     1381.363      215.900
    725.40        6.681        1.735        4.928      223.976      232.803      228.390        2.257        3.741        1.885      101.967      145.776       78.658        2.642      312.331     1248.972     1373.165      215.900
    725.50        6.422        1.757        5.098      218.760      231.863      225.311        2.213        3.888        2.068      102.433      138.236       74.778        2.600      309.266     1245.039     1368.165      215.900
    725.60        6.580        1.783        5.190      219.228      229.563      224.396        2.180        3.978        1.714      100.095      138.836       71.678        2.628      310.374     1242.404     1366.207      215.900
    725.70        6.554        1.726        5.245      221.484      229.444      225.464        2.219        4.051        2.133       95.854      140.692       69.883        2.664      313.438     1239.208     1364.731      215.900
    725.80        6.404        1.757        5.262      218.936      223.089      221.013        2.334        4.125        2.422      100.688      143.473       71.406        2.647      315.690     1235.232     1362.035      215.900
    725.90        6.281        1.783        5.238      220.980      229.997      225.489        2.355        4.206        2.355      100.053      141.858       72.794        2.649      315.814     1231.803     1358.305      215.900
    726.00        6.205        1.774        5.186      221.153      233.089      227.121        2.270        4.263        1.878      101.226      141.157       75.598        2.661      314.740     1229.244     1354.916      215.900
    726.10        6.104        1.786        5.151      221.174      225.503      223.339        2.207        4.287        1.938       94.916      152.652       75.824        2.627      315.025     1227.213     1352.728      215.900
    726.20        6.099        1.759        5.082      219.987      234.136      227.061        2.153        4.353        1.939      101.375      154.557       75.558        2.643      318.031     1224.928     1351.772      215.900
    726.30        6.263        1.719        5.009      218.436      240.966      229.701        2.021        4.416        1.960      103.831      151.589       75.348        2.630      323.543     1222.722     1352.001      215.900
    726.40        6.498        1.754        4.917      223.749      248.912      236.331        1.843        4.479        1.428      106.817      145.569       74.360        2.608      330.647     1221.596     1353.723      215.900
    726.50        6.532        1.746        4.792      222.079      247.418      234.748        1.693        4.565        1.104      108.501      152.154       75.021        2.614      338.032     1222.184     1357.555      215.900
    726.60        6.653        1.722        4.631      221.264      258.154      239.709        1.802        4.593        1.827      104.551      155.540       75.055        2.629      344.045     1224.622     1362.761      215.900
    726.70        6.559        1.739        4.435      225.178      271.275      248.227        1.963        4.572        1.841       97.770      159.073       74.435        2.625      345.733     1229.020     1368.364      215.900
    726.80        6.823        1.723        4.363      239.015      273.002      256.008        1.965        4.509        1.693       97.029      158.516       73.839        2.643      342.115     1235.398     1372.796      215.900
    726.90        7.044        1.710        4.424      222.325      231.659      226.992        1.889        4.431        1.709      105.087      151.595       72.794        2.630      335.410     1242.593     1376.390      215.900
