~Version information                                                          
  VERS.                            1.20: CWLS LAS  -  VERSION 1.20            
  WRAP.                             NO : One line per depth step              
~Well information                                                             
# MNEM.UNIT         DATA TYPE  INFORMATION                                    
# ====.================================: ===================                  
  STRT.M                        13.000 : First depth in file                  
  STOP.M                       939.000 : Last  depth in file                  
  STEP.M                          .100 : Depth increment                      
  NULL.                       -999.250 : Null  values                         
  WN  .                            WELL: 314
  FN  .                           FIELD: KARATUBE
  DATE.                        LOG DATE: 03.12.2004
~Curve information                                                            
# MNEM.UNIT                   API CODE   CURVE DESCRIPTION                    
# ====.================================:====================                  
  DEPT.M                               : Depth curve                          
  GR  .UR/H                            : Gamma-ray log
  NGLD.UE                              : Neutron-gamma log
  GZ3B.OHMM                            : App.resistivity by lateral N0.5M2.0A                                     
  C1  .MM                              : Caliper, diameter 1
  C2  .MM                              : Caliper, diameter 2
  CALI.MM                              : Caliper
  LL3 .OHMM                            : Appar.resist.laterolog,3 electrodes
  GZ3 .OHMM                            : App.resistivity by lateral A2.0M0.5N
  MLL .OHMM                            : Microlaterolog sonde
  CILR.MMHO                            : Conduct. by sonde 7I1.6,reactive signal
  CILA.MMHO                            : Conduct. by sonde 7I1.6,active signal
  SP  .MV                              : Spontaneous potential
  RHOB.G/C3                            : Bulk density by gamma-gamma log    
  DTP .US/M                            : Interval travel time (P-wave)  
  T1  .US                              : Travel time 1 
  T2  .US                              : Travel time 2
  BSC .MM                              : Bit size
~Parameter information block                                                  
# MNEM.UNIT                     VALUE       DESCRIPTION                       
# ====.================================:====================                  
  BS  .MM                       215.90 : Bit Size                             
  DFD .G/C3                       1.14 : Drilling Fluid Density
  DFV .S                         39.00 : Drilling Fluid Viscosity             
  RMS .OHMM                        .00 : Mud Sample Resistivity               
~Other information                                                            
# ------------------- REMARKS AREA ------------------------                   
# ==========================================================                  
~ASCII Log Data                                                               
# ...
    405.00        9.085        1.464        6.114      220.086      216.310      218.198        2.211        5.135     -999.250       86.479      140.593       93.572        2.427      423.937     1537.325     1706.591      215.900
    405.10        9.009        1.465        6.340      218.992      218.292      218.642        2.100        5.520     -999.250       89.378      147.719       94.040        2.447      417.764     1529.901     1695.564      215.900
    405.20        8.939        1.440        6.548      220.877      218.698      219.788        2.075        5.870     -999.250       88.403      147.878       94.555        2.500      419.641     1520.633     1687.020      215.900
    405.30        9.054        1.402        6.602      221.120      216.267      218.693        2.042        6.131     -999.250       93.411      145.858       95.627        2.531      429.586     1510.318     1681.836      215.900
    405.40        9.210        1.391        6.429      220.116      215.890      218.003        2.002        6.263     -999.250       92.284      147.891       97.474        2.528      442.120     1501.579     1679.178      215.900
    405.50        9.712        1.425        6.189      219.456      216.210      217.833        2.013        6.176     -999.250       91.473      145.037       97.613        2.489      451.499     1496.327     1677.753      215.900
    405.60        9.687        1.352        5.788      219.506      214.643      217.075        2.083        5.849     -999.250       89.034      148.316       97.096        2.470      455.823     1494.096     1676.868      215.900
    405.70        9.778        1.362        5.513      217.367      214.062      215.714        2.168        5.483     -999.250       89.698      144.905       96.578        2.461      456.811     1493.174     1675.963      215.900
    405.80        9.592        1.377        5.257      218.217      212.341      215.279        2.165        5.265     -999.250       93.626      144.998       96.390        2.450      455.625     1492.316     1674.928      215.900
    405.90        9.481        1.378        5.111      223.697      212.377      218.037        2.091        5.075     -999.250       90.697      147.285       96.657        2.444      452.784     1491.771     1673.120      215.900
    406.00        9.434        1.399        5.008      220.011      211.491      215.751        2.049        4.779     -999.250       93.645      148.265       95.894        2.428      448.743     1491.782     1671.163      215.900
    406.10        9.618        1.443        4.948      218.942      214.248      216.595        2.023        4.681     -999.250       92.174      151.047       93.688        2.453      446.782     1491.965     1669.728      215.900
    406.20        9.953        1.458        4.909      219.059      213.363      216.211        1.963        4.526     -999.250       96.044      147.994       91.767        2.442      449.554     1491.164     1670.159      215.900
    406.30        9.930        1.450        4.900      217.638      215.907      216.773        1.921        4.373     -999.250       95.784      151.076       90.959        2.459      457.567     1489.068     1671.773      215.900
    406.40       10.391        1.411        4.926      221.272      216.435      218.854        1.968        4.350     -999.250       93.233      148.879       90.481        2.455      467.213     1486.565     1673.946      215.900
    406.50        9.995        1.425        4.960      222.588      217.249      219.918        2.013        4.501     -999.250       93.365      147.213       90.813        2.466      474.289     1485.252     1675.821      215.900
    406.60        9.890        1.415        5.049      219.723      216.053      217.888        2.109        4.533     -999.250       89.733      144.252       91.457        2.467      476.436     1485.584     1676.781      215.900
    406.70        9.985        1.380        5.141      217.094      215.263      216.179        2.102        4.466     -999.250       90.339      143.025       91.511        2.472      474.019     1487.028     1676.985      215.900
    406.80        9.958        1.356        5.238      215.454      216.649      216.052        2.109        4.229     -999.250       86.738      147.052       91.703        2.454      469.140     1488.941     1676.611      215.900
    406.90       10.153        1.377        5.312      213.185      217.870      215.527        2.126        4.102     -999.250       88.986      141.673       92.354        2.462      463.292     1490.905     1676.247      215.900
    407.00       10.329        1.371        5.350      209.760      216.647      213.203        2.079        4.008     -999.250       88.050      143.864       91.879        2.458      457.738     1492.416     1675.356      215.900
    407.10       10.178        1.383        5.361      209.511      215.789      212.650        1.993        3.980     -999.250       88.552      142.210       91.425        2.459      453.228     1492.724     1673.727      215.900
    407.20       10.064        1.363        5.322      206.735      216.585      211.660        1.972        4.101     -999.250       88.893      146.644       91.089        2.446      450.712     1491.740     1671.670      215.900
    407.30        9.766        1.378        5.179      208.839      215.945      212.392        2.012        4.207     -999.250       83.934      150.474       89.903        2.447      450.357     1490.045     1669.966      215.900
    407.40        9.587        1.365        5.008      212.480      214.644      213.562        2.065        4.266     -999.250       85.404      149.660       88.378        2.447      451.798     1489.445     1670.022      215.900
    407.50        9.505        1.361        4.884      211.280      214.064      212.672        2.047        4.365     -999.250       83.775      150.341       87.275        2.456      454.448     1491.553     1673.212      215.900
    407.60        9.507        1.385        4.855      212.473      212.465      212.469        1.984        4.360     -999.250       87.282      147.270       85.554        2.447      457.904     1496.386     1679.486      215.900
    407.70        9.620        1.351        4.875      216.945      211.192      214.068        1.948        4.422     -999.250       86.097      150.956       83.755        2.444      461.402     1502.097     1686.822      215.900
    407.80        9.774        1.337        4.944      219.724      213.071      216.398        1.956        4.448     -999.250       86.917      148.035       82.232        2.437      463.959     1506.409     1692.266      215.900
    407.90        9.938        1.329        5.022      217.300      208.141      212.720        1.975        4.568     -999.250       87.407      151.637       81.590        2.455      464.996     1508.981     1695.151      215.900
    408.00        9.836        1.333        5.104      218.391      213.066      215.729        1.956        4.444     -999.250       86.322      148.234       81.012        2.493      464.963     1510.369     1696.338      215.900
    408.10        9.634        1.370        5.219      216.494      203.267      209.880        1.932        4.486     -999.250       87.754      148.649       80.303        2.490      464.623     1511.236     1697.054      215.900
    408.20        9.619        1.388        5.293      217.042      208.322      212.682        1.928        4.534     -999.250       84.805      148.370       79.485        2.505      464.143     1511.960     1697.721      215.900
    408.30        9.790        1.383        5.346      220.224      214.154      217.189        1.936        4.479     -999.250       88.360      143.835       79.493        2.483      463.246     1512.925     1698.318      215.900
    408.40        9.986        1.350        5.398      219.404      214.555      216.980        1.976        4.465     -999.250       84.737      141.440       80.964        2.464      461.684     1514.556     1699.298      215.900
