~Version
 VERS              .         3.0                           : CWLS LOG ASCII STANDARD - VERSION 3.0
 WRAP              .         NO                            : ONE LINE PER DEPTH STEP
 DLM               .         SPACE                         : DELIMITING CHARACTER(SPACE TAB OR COMMA)
~Well Information
#_______________________________________________________________________________
#
#PARAMETER_NAME    .UNIT     VALUE                         : DESCRIPTION
#_______________________________________________________________________________
STRT               .M        0.8                           : First reference value
STOP               .M        916                           : Last reference value
STEP               .M        0.1                           : Step increment
NULL               .         -9999                         : Missing value
COMP               .         ICPetroleum                   : Company
WELL               .         315                           : Well name
FLD                .         Karatobe                      : Field
LOC                .                                       : Location
SRVC               .         KF GIS "Kazpromgeophysika"    : Service Company
CTRY               .         KZ                            : Country
DATE               .         10-11/12/04                   : Service Date
LATI               .         0                             : Latitude
LONG               .         0                             : Longitude
GDAT               .         WGS 84                        : Geodetic Datum
CNTY               .         Kyzyl-Orda                    : 
COORDIN            .                                       : Grid System
COUNTRY            .         Kazakhstan                    : 
COUNTRY            .         Kazakhstan                    : 
EREF               .m        143.9                         : 
KB                 .         143.1                         : KB Elevation
ORIGINALWELLNAME   .         315                           : 
PROV               .                                       : Province
RWS                .         -999                          : Def_Rw
UWI                .         _                             : 
WST                .         -999                          : Def_Rwt
X                  .km       466109.31                     : 
XCOORD             .                                       : X or East-West Coordinate
Y                  .km       5307574.09                    : 
YCOORD             .                                       : Y or North-South Coordinate
~Parameter Information Block
#_______________________________________________________________________________
#
#PARAMETER_NAME    .UNIT     VALUE                         : DESCRIPTION
#_______________________________________________________________________________
SET                .         Las                           : 
BS                 .MM       215.90                        : Bit Size
DFD                .G/C3     1.14                          : Drilling Fluid Density
DFV                .S        50.00                         : Drilling Fluid Viscosity
RMS                .OHMM     .00                           : Mud Sample Resistivity
TLFamily_DEPT      .         Measured Depth                : 
TLFamily_PHI_FINAL .         Porosity                      : 
TLFamily_SW_AR     .         Water Saturation              : 
TLFamily_VSH_FINAL .         Shale Volume                  : 
~Curve Information
#_______________________________________________________________________________
#
#LOGNAME           .UNIT     LOG_ID                        : DESCRIPTION
#_______________________________________________________________________________
DEPT               .M                                      : Depth curve {F}
PHI_FINAL          .m3/m3                                  : Porosity {F}
SW_AR              .m3/m3                                  :  {F}
VSH_FINAL          .unitless                               : Vshale {F}
~Ascii
# ...
198.7      0.1710456  1          0.8057987 
198.8      0.1685773  1          0.8017597 
198.9      0.1954148  1          0.7359037 
199        0.1761132  1          0.7933921 
199.1      0.1485214  1          0.8778118 
199.2      0.1806069  1          0.8229929 
199.3      0.2053359  1          0.7602331 
199.4      0.190091   1          0.7992926 
199.5      0.2037172  1          0.7619021 
199.6      0.1747856  1          0.8392349 
199.7      0.1544273  1          0.8880587 
199.8      0.1812671  1          0.8269085 
199.9      0.1934126  1          0.7873257 
200        0.2151247  1          0.7137367 
200.1      0.2087096  1          0.7298023 
200.2      0.2053233  1          0.7554156 
200.3      0.1868793  1          0.7852553 
200.4      0.2034692  1          0.7393399 
200.5      0.2037652  1          0.7250103 
200.6      0.2062404  1          0.7191295 
200.7      0.2414968  0.9244092  0.631323  
200.8      0.2629797  0.8520188  0.58481   
200.9      0.2719837  0.8191014  0.5752652 
201        0.2051509  1          0.7194601 
201.1      0.1926776  1          0.7470195 
201.2      0.141609   1          0.8683412 
201.3      0.1834868  1          0.7723053 
201.4      0.2079784  1          0.7081496 
201.5      0.2067675  1          0.7463691 
201.6      0.2202707  1          0.6997713 
201.7      0.2248918  0.9934934  0.656966  
201.8      0.2127691  1          0.7309701 
201.9      0.2310656  0.9536492  0.6825265 
202        0.2118648  1          0.7374244 
202.1      0.2036603  1          0.7712859 
202.2      0.1799759  1          0.8332521 
202.3      0.1475487  1          0.8721827 
202.4      0.1432414  1          0.8940849 
202.5      0.1608377  1          0.8717861 
202.6      0.1687376  1          0.9182458 
202.7      0.1713716  1          0.879326  
202.8      0.1720364  1          0.8496168 
202.9      0.1738571  1          0.8384608 
203        0.1991192  1          0.7731323 
203.1      0.2122352  0.9992534  0.7467159 
203.2      0.2385831  0.8735993  0.6970791 
203.3      0.2602063  0.8149944  0.6632497 
203.4      0.2652582  0.8182777  0.6266848 
203.5      0.2097181  1          0.7565886 
203.6      0.2232195  0.9777482  0.6900617 
203.7      0.2091722  0.9919596  0.6384163 
203.8      0.1922094  1          0.6529234 
203.9      0.178827   1          0.6826533 
204        0.1577347  1          0.7439533 
204.1      0.1682556  1          0.7286267 
204.2      0.1416552  1          0.7918672 
204.3      0.1310458  1          0.899835  
204.4      0.1269602  1          0.8850346 
204.5      0.1492497  1          0.8161308 
204.6      0.1547908  1          0.812064  
204.7      0.1249944  1          0.9114604 
204.8      0.1666471  1          0.8067855 
204.9      0.1275966  1          0.9102588 
205        0.1801026  1          0.7815771 
205.1      0.1328334  1          0.8893467 
205.2      0.132724   1          0.8887606 
205.3      0.1306754  1          0.8700052 
205.4      0.1344151  1          0.8608534 
205.5      0.1331351  1          0.892365  
205.6      0.1275242  1          0.9174168 
205.7      0.1335464  1          0.9239166 
205.8      0.1013021  1          1         
205.9      0.1500822  1          0.8778493 
206        0.1679343  1          0.7839423 
206.1      0.1567545  1          0.7712507 
206.2      0.1696978  1          0.6877831 
206.3      0.1553579  1          0.6658346 
206.4      0.1936725  1          0.5381686 
206.5      0.1865601  0.9686405  0.5228716 
206.6      0.2128632  0.7701099  0.4894359 
206.7      0.2504449  0.6295456  0.401872  
206.8      0.2641155  0.587801   0.3713617 
206.9      0.2656874  0.5739307  0.3686265 
207        0.2879792  0.536653   0.3494607 
207.1      0.2983098  0.5289605  0.3618064 
207.2      0.299725   0.5723842  0.3954571 
207.3      0.3229503  0.5782175  0.3566431 
207.4      0.3445164  0.5886385  0.2972715 
207.5      0.3440702  0.6074529  0.2782967 
207.6      0.3579026  0.5921012  0.2251311 
207.7      0.3558531  0.5900578  0.2219674 
207.8      0.3535851  0.5847885  0.2176538 
207.9      0.3648293  0.5619815  0.1750422 
208        0.3510315  0.5301202  0.1873573 
208.1      0.3676844  0.4771075  0.1581484 
208.2      0.3853759  0.4845418  0.167386  
208.3      0.3909447  0.5165392  0.1777935 
208.4      0.3860255  0.5439425  0.1930376 
208.5      0.3949023  0.5359303  0.1884977 
208.6      0.383815   0.5456775  0.2194024 
208.7      0.3775859  0.5630912  0.2348177 
208.8      0.3667554  0.5740659  0.2442708 
208.9      0.3802167  0.5508521  0.2126187 
209        0.3865362  0.542186   0.1942796 
209.1      0.3973126  0.5344335  0.2008533 
209.2      0.3945034  0.5415487  0.21956   
209.3      0.3907641  0.5493056  0.2415258 
209.4      0.3940311  0.5490967  0.2354381 
209.5      0.3948224  0.5480557  0.2185135 
209.6      0.3793698  0.565758   0.2291857 
209.7      0.3720268  0.5761563  0.2189208 
209.8      0.3671267  0.5874164  0.2209063 
209.9      0.3591575  0.6027812  0.2239855 
210        0.3524602  0.6167529  0.2471631 
210.1      0.368826   0.5887384  0.2336922 
210.2      0.3570027  0.5987362  0.2846432 
210.3      0.3766499  0.5625825  0.2778895 
210.4      0.3628205  0.5835561  0.305122  
210.5      0.3604391  0.5930895  0.3138345 
210.6      0.3770162  0.568941   0.2805925 
210.7      0.3777705  0.5650617  0.265489  
210.8      0.3840445  0.5532278  0.2531151 
210.9      0.3908909  0.5367541  0.2378982 
211        0.391245   0.5273684  0.2352339 
211.1      0.3937999  0.5159248  0.230744  
211.2      0.3817007  0.528495   0.2360349 
211.3      0.3747112  0.5426464  0.2453752 
211.4      0.3723052  0.552783   0.2412499 
211.5      0.3595854  0.5706776  0.2755237 
211.6      0.3646298  0.5611287  0.2497886 
211.7      0.3555009  0.5747496  0.2567236 
211.8      0.3583548  0.5695512  0.2723189 
211.9      0.3743154  0.5487099  0.2336679 
212        0.3896669  0.5306133  0.1909581 
212.1      0.4023385  0.5140644  0.1592645 
212.2      0.3998343  0.5163149  0.1581082 
212.3      0.3951883  0.5217213  0.1762807 
212.4      0.4068185  0.5088384  0.1391428 
212.5      0.3969902  0.5198132  0.1379979 
212.6      0.3916333  0.5177873  0.1464333 
212.7      0.3844473  0.5156564  0.1579056 
212.8      0.3778865  0.5238715  0.169258  
212.9      0.3711419  0.5481998  0.178472  
213        0.378506   0.549659   0.1650066 
213.1      0.3737659  0.5640264  0.1729611 
213.2      0.3870008  0.5470831  0.1417895 
213.3      0.3887826  0.5461084  0.1480951 
213.4      0.3891927  0.5474164  0.1410502 
213.5      0.3920566  0.5430423  0.1325302 
213.6      0.3844065  0.5530348  0.1271083 
213.7      0.3787818  0.56042    0.1350362 
213.8      0.372718   0.5688869  0.1453932 
213.9      0.381741   0.5600376  0.1336425 
214        0.3724778  0.577494   0.1520511 
214.1      0.3702316  0.5808078  0.1607243 
214.2      0.3743721  0.5727414  0.1642492 
214.3      0.3701423  0.5788509  0.1659703 
214.4      0.3670566  0.5884288  0.171749  
214.5      0.3572871  0.607829   0.1756333 
214.6      0.365933   0.5928046  0.1730968 
214.7      0.3792568  0.5729232  0.1657812 
214.8      0.3733629  0.5815572  0.1697713 
214.9      0.3669231  0.5904564  0.1780694 
215        0.3653139  0.5889384  0.1939982 
215.1      0.3678084  0.5792117  0.1885124 
215.2      0.3664593  0.5847564  0.1962207 
215.3      0.371814   0.5799223  0.1907984 
215.4      0.3806236  0.5681705  0.1672748 
215.5      0.3724554  0.5813367  0.1811961 
215.6      0.3769192  0.5754706  0.1641244 
215.7      0.3644938  0.5866039  0.1899422 
215.8      0.3655891  0.5835755  0.1853762 
215.9      0.3540615  0.609952   0.2121386 
216        0.3544113  0.6091251  0.2143016 
216.1      0.3593309  0.5941644  0.1961822 
216.2      0.3552436  0.5968603  0.1984487 
216.3      0.3628828  0.5833824  0.19245   
216.4      0.3645303  0.5794775  0.1836537 
216.5      0.3609357  0.5858042  0.1714437 
216.6      0.3762808  0.5675663  0.139844  
216.7      0.3755781  0.5722679  0.1447419 
216.8      0.3778408  0.5683163  0.1337271 
