~Version
 VERS              .         3.0                           : CWLS LOG ASCII STANDARD - VERSION 3.0
 WRAP              .         NO                            : ONE LINE PER DEPTH STEP
 DLM               .         SPACE                         : DELIMITING CHARACTER(SPACE TAB OR COMMA)
~Well Information
#_______________________________________________________________________________
#
#PARAMETER_NAME    .UNIT     VALUE                         : DESCRIPTION
#_______________________________________________________________________________
STRT               .M        0.8                           : First reference value
STOP               .M        916                           : Last reference value
STEP               .M        0.1                           : Step increment
NULL               .         -9999                         : Missing value
COMP               .         ICPetroleum                   : Company
WELL               .         315                           : Well name
FLD                .         Karatobe                      : Field
LOC                .                                       : Location
SRVC               .         KF GIS "Kazpromgeophysika"    : Service Company
CTRY               .         KZ                            : Country
DATE               .         10-11/12/04                   : Service Date
LATI               .         0                             : Latitude
LONG               .         0                             : Longitude
GDAT               .         WGS 84                        : Geodetic Datum
CNTY               .         Kyzyl-Orda                    : 
COORDIN            .                                       : Grid System
COUNTRY            .         Kazakhstan                    : 
COUNTRY            .         Kazakhstan                    : 
EREF               .m        143.9                         : 
KB                 .         143.1                         : KB Elevation
ORIGINALWELLNAME   .         315                           : 
PROV               .                                       : Province
RWS                .         -999                          : Def_Rw
UWI                .         _                             : 
WST                .         -999                          : Def_Rwt
X                  .km       466109.31                     : 
XCOORD             .                                       : X or East-West Coordinate
Y                  .km       5307574.09                    : 
YCOORD             .                                       : Y or North-South Coordinate
~Parameter Information Block
#_______________________________________________________________________________
#
#PARAMETER_NAME    .UNIT     VALUE                         : DESCRIPTION
#_______________________________________________________________________________
SET                .         Las                           : 
BS                 .MM       215.90                        : Bit Size
DFD                .G/C3     1.14                          : Drilling Fluid Density
DFV                .S        50.00                         : Drilling Fluid Viscosity
RMS                .OHMM     .00                           : Mud Sample Resistivity
TLFamily_DEPT      .         Measured Depth                : 
TLFamily_PHI_FINAL .         Porosity                      : 
TLFamily_SW_AR     .         Water Saturation              : 
TLFamily_VSH_FINAL .         Shale Volume                  : 
~Curve Information
#_______________________________________________________________________________
#
#LOGNAME           .UNIT     LOG_ID                        : DESCRIPTION
#_______________________________________________________________________________
DEPT               .M                                      : Depth curve {F}
PHI_FINAL          .m3/m3                                  : Porosity {F}
SW_AR              .m3/m3                                  :  {F}
VSH_FINAL          .unitless                               : Vshale {F}
~Ascii
# ...
398.9      0.02745594 1          1         
399        0.02719599 1          1         
399.1      0.02687893 1          1         
399.2      0.02849437 1          1         
399.3      0.03245528 1          1         
399.4      0.02851669 1          1         
399.5      0.02758421 1          1         
399.6      0.02899237 1          1         
399.7      0.02799659 1          0.9932662 
399.8      0.05054096 1          0.9129735 
399.9      0.03153446 1          0.9515309 
400        0.05791603 1          0.8612009 
400.1      0.0521897  1          0.8849208 
400.2      0.01710165 1          0.9980878 
400.3      0.01991438 1          1         
400.4      0.02194024 1          1         
400.5      0.0230762  1          1         
400.6      0.02451293 1          1         
400.7      0.02738052 1          1         
400.8      0.03143713 1          1         
400.9      0.02765198 1          1         
401        0.02371853 1          1         
401.1      0.02303527 1          1         
401.2      0.02405028 1          1         
401.3      0.03919997 1          1         
401.4      0.045306   1          1         
401.5      0.05161117 1          1         
401.6      0.0461536  1          1         
401.7      0.04934907 1          1         
401.8      0.04507314 1          1         
401.9      0.05352211 1          1         
402        0.04774001 1          1         
402.1      0.04525399 1          1         
402.2      0.04165526 1          0.9789167 
402.3      0.0683321  1          0.8896151 
402.4      0.02141199 1          1         
402.5      0.01888527 1          1         
402.6      0.02089208 1          1         
402.7      0.01980985 1          1         
402.8      0.01876348 1          1         
402.9      0.02259452 1          1         
403        0.02619177 1          1         
403.1      0.02524949 1          1         
403.2      0.03076347 1          1         
403.3      0.03482222 1          1         
403.4      0.03634844 1          1         
403.5      0.04169071 1          1         
403.6      0.04030689 1          1         
403.7      0.03547316 1          1         
403.8      0.03935614 1          1         
403.9      0.03211489 1          1         
404        0.0213953  1          1         
404.1      0.01599012 1          1         
404.2      0.02340425 1          0.9633048 
404.3      0.01799289 1          0.9923932 
404.4      0.02615924 1          0.9703402 
404.5      0.1034052  1          0.7845331 
404.6      0.1155739  1          0.7647585 
404.7      0.09660564 1          0.8169451 
404.8      0.0644543  1          0.8905111 
404.9      0.02025637 1          1         
405        0.0563918  1          0.8904909 
405.1      0.07614844 1          0.8430371 
405.2      0.07289612 1          0.84381   
405.3      0.05215932 1          0.9158378 
405.4      0.0652455  1          0.8822986 
405.5      0.06385967 1          0.9014714 
405.6      0.02991641 1          1         
405.7      0.04417257 1          0.9562226 
405.8      0.1175913  1          0.7727757 
405.9      0.1485289  1          0.6884489 
406        0.1279577  1          0.7444778 
406.1      0.1492279  1          0.6934028 
406.2      0.1719117  1          0.6435302 
406.3      0.1536162  1          0.7105641 
406.4      0.1316652  1          0.7439263 
406.5      0.1888767  1          0.6017051 
406.6      0.1990168  1          0.5701345 
406.7      0.228917   1          0.4768758 
406.8      0.243891   1          0.4278995 
406.9      0.2506235  1          0.4244109 
407        0.2414427  1          0.4350238 
407.1      0.2192     1          0.5001743 
407.2      0.1969663  1          0.5496893 
407.3      0.2232022  1          0.4826473 
407.4      0.1942601  1          0.5516313 
407.5      0.1661432  1          0.6294949 
407.6      0.1240375  1          0.7166297 
407.7      0.1317612  1          0.6960899 
407.8      0.1333938  1          0.6988462 
407.9      0.1091709  1          0.7547044 
408        0.09969345 1          0.7785223 
408.1      0.09217011 1          0.7906086 
408.2      0.1097534  1          0.7431161 
408.3      0.09991024 1          0.7544252 
408.4      0.08712198 1          0.7764953 
408.5      0.0786998  1          0.7806873 
408.6      0.08272881 1          0.7624748 
408.7      0.08220341 1          0.7728941 
408.8      0.06356677 1          0.8315371 
408.9      0.06365318 1          0.817374  
409        0.1101169  1          0.6941904 
409.1      0.09101691 1          0.7485498 
409.2      0.1185351  1          0.6887437 
409.3      0.1193409  1          0.6956394 
409.4      0.08300903 1          0.7673085 
409.5      0.09845147 1          0.7136106 
409.6      0.07458304 1          0.7690204 
409.7      0.09179917 1          0.7281741 
409.8      0.09902557 1          0.7134871 
409.9      0.1399027  1          0.6171513 
410        0.1536444  1          0.590115  
410.1      0.179883   1          0.5163055 
410.2      0.1640636  1          0.5549847 
410.3      0.1672296  1          0.5678493 
410.4      0.1761488  1          0.5616741 
410.5      0.1805481  1          0.5615785 
410.6      0.1637397  1          0.6199211 
410.7      0.1720484  1          0.6209912 
410.8      0.1439685  1          0.6940134 
410.9      0.1161679  1          0.751077  
411        0.08717649 1          0.8171347 
411.1      0.1113648  1          0.7549996 
411.2      0.1291401  1          0.7092762 
411.3      0.09579746 1          0.8002479 
411.4      0.1213069  1          0.756546  
411.5      0.06084749 1          0.9224659 
411.6      0.06806832 1          0.9085769 
411.7      0.03831571 1          0.9657691 
411.8      0.03804195 1          0.9283364 
411.9      0.04032768 1          0.9113679 
412        0.02091966 1          0.9704703 
412.1      0.02656415 1          0.9798406 
412.2      0.03252571 1          0.9874991 
412.3      0.04557299 1          0.9649689 
412.4      0.04171917 1          0.9935704 
412.5      0.03304257 1          1         
412.6      0.03372265 1          0.9619436 
412.7      0.01969562 1          0.9893793 
412.8      0.0543351  1          0.8467502 
412.9      0.06347772 1          0.8118011 
413        0.1259271  1          0.6513982 
413.1      0.1640703  1          0.551632  
413.2      0.1747408  1          0.547941  
413.3      0.1914244  1          0.4862868 
413.4      0.1872157  1          0.4603525 
413.5      0.1752342  1          0.4595526 
413.6      0.1596794  1          0.4161393 
413.7      0.1237129  1          0.3958053 
413.8      0.09839749 1          0.3216373 
413.9      0.06190846 1          0.2973254 
414        0.05236318 1          0.2353243 
414.1      0.04148436 1          0.2173084 
414.2      0.02699162 1          0.2060538 
414.3      0.02463251 1          0.2055452 
414.4      0.02642338 1          0.2237156 
414.5      0.04199841 1          0.2393441 
414.6      0.07938781 1          0.2748493 
414.7      0.1122732  1          0.3231173 
414.8      0.1353479  1          0.4362729 
414.9      0.1503994  1          0.5214414 
415        0.128255   1          0.6775135 
415.1      0.1120837  1          0.769985  
415.2      0.1428311  1          0.6962963 
415.3      0.1741384  1          0.6181282 
415.4      0.16135    1          0.6367616 
415.5      0.1633917  1          0.6361693 
415.6      0.1563716  1          0.6496298 
415.7      0.1401488  1          0.691003  
415.8      0.1169537  1          0.7630319 
415.9      0.09323129 1          0.8258371 
416        0.08805274 1          0.830242  
416.1      0.07568661 1          0.8501117 
416.2      0.04764403 1          0.9423686 
416.3      0.04030418 1          0.9535367 
416.4      0.0353687  1          0.9492065 
416.5      0.06276368 1          0.8689549 
416.6      0.05319677 1          0.8608813 
416.7      0.03974054 1          0.8531895 
416.8      0.04310992 1          0.829896  
416.9      0.02856348 1          0.8781759 
417        0.04834398 1          0.8247235 
