~Version
 VERS              .         3.0                           : CWLS LOG ASCII STANDARD - VERSION 3.0
 WRAP              .         NO                            : ONE LINE PER DEPTH STEP
 DLM               .         SPACE                         : DELIMITING CHARACTER(SPACE TAB OR COMMA)
~Well Information
#_______________________________________________________________________________
#
#PARAMETER_NAME    .UNIT     VALUE                         : DESCRIPTION
#_______________________________________________________________________________
STRT               .M        0.8                           : First reference value
STOP               .M        916                           : Last reference value
STEP               .M        0.1                           : Step increment
NULL               .         -9999                         : Missing value
COMP               .         ICPetroleum                   : Company
WELL               .         315                           : Well name
FLD                .         Karatobe                      : Field
LOC                .                                       : Location
SRVC               .         KF GIS "Kazpromgeophysika"    : Service Company
CTRY               .         KZ                            : Country
DATE               .         10-11/12/04                   : Service Date
LATI               .         0                             : Latitude
LONG               .         0                             : Longitude
GDAT               .         WGS 84                        : Geodetic Datum
CNTY               .         Kyzyl-Orda                    : 
COORDIN            .                                       : Grid System
COUNTRY            .         Kazakhstan                    : 
COUNTRY            .         Kazakhstan                    : 
EREF               .m        143.9                         : 
KB                 .         143.1                         : KB Elevation
ORIGINALWELLNAME   .         315                           : 
PROV               .                                       : Province
RWS                .         -999                          : Def_Rw
UWI                .         _                             : 
WST                .         -999                          : Def_Rwt
X                  .km       466109.31                     : 
XCOORD             .                                       : X or East-West Coordinate
Y                  .km       5307574.09                    : 
YCOORD             .                                       : Y or North-South Coordinate
~Parameter Information Block
#_______________________________________________________________________________
#
#PARAMETER_NAME    .UNIT     VALUE                         : DESCRIPTION
#_______________________________________________________________________________
SET                .         Las                           : 
BS                 .MM       215.90                        : Bit Size
DFD                .G/C3     1.14                          : Drilling Fluid Density
DFV                .S        50.00                         : Drilling Fluid Viscosity
RMS                .OHMM     .00                           : Mud Sample Resistivity
TLFamily_DEPT      .         Measured Depth                : 
TLFamily_PHI_FINAL .         Porosity                      : 
TLFamily_SW_AR     .         Water Saturation              : 
TLFamily_VSH_FINAL .         Shale Volume                  : 
~Curve Information
#_______________________________________________________________________________
#
#LOGNAME           .UNIT     LOG_ID                        : DESCRIPTION
#_______________________________________________________________________________
DEPT               .M                                      : Depth curve {F}
PHI_FINAL          .m3/m3                                  : Porosity {F}
SW_AR              .m3/m3                                  :  {F}
VSH_FINAL          .unitless                               : Vshale {F}
~Ascii
# ...
635.5      0.2585779  1          0.2996139 
635.6      0.2657675  1          0.2848692 
635.7      0.2549071  1          0.3150645 
635.8      0.2492381  1          0.3183665 
635.9      0.2367096  1          0.3395748 
636        0.227345   1          0.3532671 
636.1      0.2122622  1          0.3761818 
636.2      0.2183887  1          0.3531771 
636.3      0.2134845  1          0.3622745 
636.4      0.2053928  1          0.3866035 
636.5      0.2060358  1          0.399721  
636.6      0.2155164  1          0.3821941 
636.7      0.2262645  1          0.3675066 
636.8      0.2525804  1          0.3019038 
636.9      0.262152   1          0.2829487 
637        0.2831177  1          0.2251992 
637.1      0.3012154  1          0.1774671 
637.2      0.2993425  1          0.1764753 
637.3      0.3052584  1          0.1685847 
637.4      0.3173994  1          0.1627679 
637.5      0.3165433  1          0.1692027 
637.6      0.3234028  1          0.1588743 
637.7      0.3130844  1          0.1753403 
637.8      0.3012353  1          0.191578  
637.9      0.2886447  1          0.2183091 
638        0.2503574  1          0.3050219 
638.1      0.2030489  1          0.4320048 
638.2      0.1301759  1          0.6282125 
638.3      0.07013404 1          0.7828217 
638.4      0.001170097 1          1         
638.5      0.001182374 1          1         
638.6      0          1          1         
638.7      0          1          1         
638.8      0.00188636 1          1         
638.9      0.001659106 1          1         
639        0.002871211 1          1         
639.1      0.001734856 1          1         
639.2      0.00188636 1          1         
639.3      0.003931831 1          1         
639.4      0.005138281 1          1         
639.5      0.009842916 1          1         
639.6      0.01664057 1          1         
639.7      0.02350016 1          1         
639.8      0.03481083 1          1         
639.9      0.05693324 1          0.9349161 
640        0.0832319  1          0.8943292 
640.1      0.131661   1          0.7996338 
640.2      0.1413403  1          0.8097096 
640.3      0.1407743  1          0.8008983 
640.4      0.1242191  1          0.8517129 
640.5      0.06567131 1          0.9738954 
640.6      0.05264205 1          1         
640.7      0.04171267 1          1         
640.8      0.03040528 1          1         
640.9      0.03296877 1          1         
641        0.02726236 1          1         
641.1      0.02203984 1          1         
641.2      0.02123952 1          1         
641.3      0.01407838 1          1         
641.4      0.007865828 1          1         
641.5      0.004155321 1          1         
641.6      0.002778898 1          1         
641.7      0.005513932 1          1         
641.8      0.002315811 1          1         
641.9      0.005204964 1          1         
642        0.006307612 1          1         
642.1      0.003368295 1          1         
642.2      0.001764453 1          1         
642.3      0.002851538 1          1         
642.4      0.005209119 1          1         
642.5      0.004595216 1          1         
642.6      0.009168439 1          1         
642.7      0.003792209 1          1         
642.8      0.006244014 1          1         
642.9      0.01354089 1          1         
643        0.01705566 1          1         
643.1      0.02218418 1          1         
643.2      0.02363182 1          1         
643.3      0.01711704 1          1         
643.4      0.0160628  1          1         
643.5      0.01635976 1          1         
643.6      0.01084688 1          1         
643.7      0.008922815 1          1         
643.8      0.006119268 1          1         
643.9      0.009086575 1          1         
644        0.008579232 1          1         
644.1      0.01883215 1          1         
644.2      0.02778549 1          1         
644.3      0.02561575 1          1         
644.4      0.02637674 1          1         
644.5      0.03432278 1          0.9615639 
644.6      0.01515491 1          0.9954755 
644.7      0.02516967 1          0.936102  
644.8      0.0283892  1          0.9012114 
644.9      0.04523594 1          0.8513137 
645        0.06255358 1          0.8019202 
645.1      0.100446   1          0.7127781 
645.2      0.1248129  1          0.6498492 
645.3      0.1408415  1          0.6083449 
645.4      0.151018   1          0.5647265 
645.5      0.1242185  1          0.6270306 
645.6      0.1347388  1          0.6108508 
645.7      0.1210307  1          0.648937  
645.8      0.1096865  1          0.6842583 
645.9      0.09044918 1          0.7408655 
646        0.09387545 1          0.7398054 
646.1      0.05337875 1          0.8630903 
646.2      0.03937056 1          0.8946199 
646.3      0.003340642 1          1         
646.4      0.0001439371 1          1         
646.5      0          1          1         
646.6      0.002492431 1          1         
646.7      0.002795457 1          1         
646.8      0.00181061 1          1         
646.9      0.002795457 1          1         
647        0.00449772 1          1         
647.1      0.00517685 1          1         
647.2      0.008408064 1          1         
647.3      0.006378624 1          1         
647.4      0.01121376 1          0.9688128 
647.5      0.01764023 1          0.9677456 
647.6      0.01668607 1          0.9591977 
647.7      0.05825085 1          0.8370911 
647.8      0.05049346 1          0.8448846 
647.9      0.07366284 1          0.7939075 
648        0.06457292 1          0.8156172 
648.1      0.0391486  1          0.8809851 
648.2      0.02806697 1          0.9119308 
648.3      0.04312664 1          0.8705497 
648.4      0.06093235 1          0.8140624 
648.5      0.05039156 1          0.8632013 
648.6      0.07077299 1          0.7967815 
648.7      0.1179637  1          0.6775085 
648.8      0.1105053  1          0.6976718 
648.9      0.1455105  1          0.6256651 
649        0.196341   1          0.508448  
649.1      0.2238476  1          0.4413208 
649.2      0.2380956  1          0.3870303 
649.3      0.2568965  1          0.3558209 
649.4      0.2372034  1          0.4080757 
649.5      0.2061799  1          0.4849069 
649.6      0.1499216  1          0.6248077 
649.7      0.09373416 1          0.8126102 
649.8      0.06345865 1          0.9174708 
649.9      0.04127017 1          0.9895445 
650        0.05188284 1          0.947328  
650.1      0.07118528 1          0.8696036 
650.2      0.08516698 1          0.8160542 
650.3      0.07704446 1          0.8424993 
650.4      0.04619813 1          0.8995668 
650.5      0.008509535 1          0.976359  
650.6      0.0003164336 1          1         
650.7      0.0001446307 1          1         
650.8      0          1          1         
650.9      0.002703548 1          1         
651        0.009857878 1          0.9501475 
651.1      0.009004207 1          0.9356362 
651.2      0.003274801 1          0.9518932 
651.3      0          1          1         
651.4      0          1          1         
651.5      0.002005731 1          1         
651.6      0.0020312  1          1         
651.7      0          1          1         
651.8      0          1          1         
651.9      0          1          1         
652        0          1          1         
652.1      0.0005356831 1          1         
652.2      0.003262251 1          1         
652.3      0.004598186 1          1         
652.4      0.004758216 1          1         
652.5      0.00304182 1          1         
652.6      0.0006204859 1          1         
652.7      0          1          1         
652.8      0          1          1         
652.9      0          1          0.9627972 
653        0.01753357 1          0.8509737 
653.1      0.008294809 1          0.925287  
653.2      0.002823563 1          0.9428207 
653.3      0.02382629 1          0.8468381 
653.4      0.01741701 1          0.8689628 
653.5      0.001733701 1          0.945859  
