~Version
 VERS              .         3.0                           : CWLS LOG ASCII STANDARD - VERSION 3.0
 WRAP              .         NO                            : ONE LINE PER DEPTH STEP
 DLM               .         SPACE                         : DELIMITING CHARACTER(SPACE TAB OR COMMA)
~Well Information
#_______________________________________________________________________________
#
#PARAMETER_NAME    .UNIT     VALUE                         : DESCRIPTION
#_______________________________________________________________________________
STRT               .M        0.8                           : First reference value
STOP               .M        916                           : Last reference value
STEP               .M        0.1                           : Step increment
NULL               .         -9999                         : Missing value
COMP               .         ICPetroleum                   : Company
WELL               .         315                           : Well name
FLD                .         Karatobe                      : Field
LOC                .                                       : Location
SRVC               .         KF GIS "Kazpromgeophysika"    : Service Company
CTRY               .         KZ                            : Country
DATE               .         10-11/12/04                   : Service Date
LATI               .         0                             : Latitude
LONG               .         0                             : Longitude
GDAT               .         WGS 84                        : Geodetic Datum
CNTY               .         Kyzyl-Orda                    : 
COORDIN            .                                       : Grid System
COUNTRY            .         Kazakhstan                    : 
COUNTRY            .         Kazakhstan                    : 
EREF               .m        143.9                         : 
KB                 .         143.1                         : KB Elevation
ORIGINALWELLNAME   .         315                           : 
PROV               .                                       : Province
RWS                .         -999                          : Def_Rw
UWI                .         _                             : 
WST                .         -999                          : Def_Rwt
X                  .km       466109.31                     : 
XCOORD             .                                       : X or East-West Coordinate
Y                  .km       5307574.09                    : 
YCOORD             .                                       : Y or North-South Coordinate
~Parameter Information Block
#_______________________________________________________________________________
#
#PARAMETER_NAME    .UNIT     VALUE                         : DESCRIPTION
#_______________________________________________________________________________
SET                .         Las                           : 
BS                 .MM       215.90                        : Bit Size
DFD                .G/C3     1.14                          : Drilling Fluid Density
DFV                .S        50.00                         : Drilling Fluid Viscosity
RMS                .OHMM     .00                           : Mud Sample Resistivity
TLFamily_DEPT      .         Measured Depth                : 
TLFamily_PHI_FINAL .         Porosity                      : 
TLFamily_SW_AR     .         Water Saturation              : 
TLFamily_VSH_FINAL .         Shale Volume                  : 
~Curve Information
#_______________________________________________________________________________
#
#LOGNAME           .UNIT     LOG_ID                        : DESCRIPTION
#_______________________________________________________________________________
DEPT               .M                                      : Depth curve {F}
PHI_FINAL          .m3/m3                                  : Porosity {F}
SW_AR              .m3/m3                                  :  {F}
VSH_FINAL          .unitless                               : Vshale {F}
~Ascii
# ...
344.3      0.07100132 1          1         
344.4      0.06338631 1          1         
344.5      0.06096172 1          0.9819366 
344.6      0.09799358 1          0.8872712 
344.7      0.09862367 1          0.8867489 
344.8      0.1453518  1          0.763439  
344.9      0.1973654  1          0.6265284 
345        0.193874   1          0.6324281 
345.1      0.2304948  1          0.5432504 
345.2      0.2312382  1          0.5363638 
345.3      0.2441905  1          0.5220599 
345.4      0.2647521  0.9488614  0.4759432 
345.5      0.2238019  1          0.5797898 
345.6      0.2310198  1          0.568136  
345.7      0.1845563  1          0.6834027 
345.8      0.1754868  1          0.704578  
345.9      0.1638342  1          0.7505915 
346        0.1763786  1          0.7492746 
346.1      0.1810311  1          0.7704574 
346.2      0.1627057  1          0.8026972 
346.3      0.09309951 1          0.9586523 
346.4      0.05768553 1          1         
346.5      0.04718994 1          1         
346.6      0.04198835 1          1         
346.7      0.04451638 1          1         
346.8      0.04263656 1          1         
346.9      0.03888359 1          1         
347        0.02086108 1          1         
347.1      0.00623817 1          1         
347.2      0          1          1         
347.3      0          1          1         
347.4      0          1          1         
347.5      0          1          1         
347.6      0.002828388 1          1         
347.7      0.01667862 1          1         
347.8      0.02394804 1          1         
347.9      0.02105662 1          1         
348        0.01518034 1          1         
348.1      0.01841376 1          1         
348.2      0.01700461 1          1         
348.3      0.01566097 1          1         
348.4      0.01471246 1          1         
348.5      0.01442513 1          1         
348.6      0.01693292 1          1         
348.7      0.01916979 1          1         
348.8      0.02084312 1          1         
348.9      0.01689576 1          1         
349        0.03230904 1          0.9288644 
349.1      0.02104802 1          0.9552718 
349.2      0.06736983 1          0.8271585 
349.3      0.09344427 1          0.7846156 
349.4      0.1182193  1          0.7478468 
349.5      0.135313   1          0.7445045 
349.6      0.1919422  1          0.6328391 
349.7      0.1972425  1          0.6788042 
349.8      0.210731   1          0.7058478 
349.9      0.2338376  1          0.6901133 
350        0.2737359  0.9321404  0.5974051 
350.1      0.2806029  0.9265183  0.5861837 
350.2      0.2806147  0.9452635  0.5860782 
350.3      0.2775392  0.9582031  0.5782823 
350.4      0.3095538  0.8731133  0.4945448 
350.5      0.3291644  0.8213452  0.3927566 
350.6      0.3124197  0.8559622  0.4045027 
350.7      0.301234   0.892825   0.4257192 
350.8      0.3021908  0.8943846  0.4236935 
350.9      0.2648725  1          0.4898928 
351        0.278675   0.9708886  0.4477068 
351.1      0.2496272  1          0.4887241 
351.2      0.1987077  1          0.580828  
351.3      0.1771774  1          0.5945771 
351.4      0.1310373  1          0.6849296 
351.5      0.1105856  1          0.6980845 
351.6      0.1388299  1          0.598774  
351.7      0.137525   1          0.5441816 
351.8      0.1165871  1          0.5589644 
351.9      0.1178718  1          0.5437709 
352        0.1066083  1          0.5846518 
352.1      0.1235559  1          0.5738882 
352.2      0.1396819  1          0.550538  
352.3      0.1518364  1          0.5808439 
352.4      0.1439758  1          0.6231377 
352.5      0.1295813  1          0.6520042 
352.6      0.1270271  1          0.6567836 
352.7      0.14489    1          0.6260122 
352.8      0.144205   1          0.6386548 
352.9      0.1419251  1          0.656159  
353        0.1471455  1          0.6550041 
353.1      0.1345523  1          0.688656  
353.2      0.1579766  1          0.6178026 
353.3      0.1541747  1          0.6380669 
353.4      0.1535794  1          0.6321762 
353.5      0.141824   1          0.6679224 
353.6      0.1525996  1          0.6470954 
353.7      0.1545492  1          0.6305801 
353.8      0.1573805  1          0.6344648 
353.9      0.1550935  1          0.6391268 
354        0.1115941  1          0.7332166 
354.1      0.07541408 1          0.7992008 
354.2      0.03134741 1          0.8958218 
354.3      0.02119482 1          0.9272493 
354.4      0.01563832 1          0.9567718 
354.5      0.06097431 1          0.844694  
354.6      0.06258984 1          0.8536403 
354.7      0.03879001 1          0.9360528 
354.8      0.03540394 1          0.9440767 
354.9      0.03284539 1          0.9518004 
355        0.03050788 1          0.9709273 
355.1      0.03946814 1          0.9758887 
355.2      0.03868565 1          1         
355.3      0.0479191  1          1         
355.4      0.05321399 1          1         
355.5      0.05277426 1          1         
355.6      0.05113241 1          1         
355.7      0.04277568 1          1         
355.8      0.04882694 1          1         
355.9      0.05784135 1          1         
356        0.05239175 1          1         
356.1      0.04483811 1          1         
356.2      0.0367391  1          1         
356.3      0.03142946 1          1         
356.4      0.02645299 1          1         
356.5      0.04645827 1          0.9483048 
356.6      0.03505837 1          1         
356.7      0.04556538 1          0.9822653 
356.8      0.08175897 1          0.8907732 
356.9      0.04280744 1          1         
357        0.03623752 1          1         
357.1      0.03084274 1          1         
357.2      0.01831785 1          1         
357.3      0.01025471 1          1         
357.4      0.004894269 1          1         
357.5      0.001962132 1          1         
357.6      0.004469732 1          1         
357.7      0.01132956 1          1         
357.8      0.01812951 1          1         
357.9      0.02440679 1          1         
358        0.0316122  1          1         
358.1      0.03561581 1          1         
358.2      0.0330162  1          1         
358.3      0.03977706 1          1         
358.4      0.04124351 1          1         
358.5      0.05130081 1          1         
358.6      0.05223903 1          1         
358.7      0.05968486 1          1         
358.8      0.05610061 1          1         
358.9      0.05423948 1          1         
359        0.04637235 1          1         
359.1      0.04158506 1          1         
359.2      0.03812879 1          1         
359.3      0.02189011 1          1         
359.4      0.01570515 1          1         
359.5      0.007324046 1          1         
359.6      0.002234871 1          1         
359.7      0          1          1         
359.8      0          1          1         
359.9      0          1          1         
360        0          1          1         
360.1      0          1          1         
360.2      0.0008896977 1          1         
360.3      0.003320953 1          1         
360.4      0.005617314 1          1         
360.5      0.006837975 1          1         
360.6      0.006467407 1          1         
360.7      0.02382573 1          0.9422937 
360.8      0.01283586 1          0.9820586 
360.9      0.03122029 1          0.9231987 
361        0.04487116 1          0.8889828 
361.1      0.02629421 1          0.9458034 
361.2      0.01433332 1          1         
361.3      0.01381259 1          1         
361.4      0.01522792 1          1         
361.5      0.02533894 1          1         
361.6      0.02708653 1          1         
361.7      0.02143369 1          1         
361.8      0.01919897 1          1         
361.9      0.01497255 1          1         
362        0.01184464 1          1         
362.1      0.008747217 1          1         
362.2      0.007728949 1          1         
362.3      0.007225423 1          1         
362.4      0.005333409 1          1         
