~Version
 VERS              .         3.0                           : CWLS LOG ASCII STANDARD - VERSION 3.0
 WRAP              .         NO                            : ONE LINE PER DEPTH STEP
 DLM               .         SPACE                         : DELIMITING CHARACTER(SPACE TAB OR COMMA)
~Well Information
#_______________________________________________________________________________
#
#PARAMETER_NAME    .UNIT     VALUE                         : DESCRIPTION
#_______________________________________________________________________________
STRT               .M        0.8                           : First reference value
STOP               .M        916                           : Last reference value
STEP               .M        0.1                           : Step increment
NULL               .         -9999                         : Missing value
COMP               .         ICPetroleum                   : Company
WELL               .         315                           : Well name
FLD                .         Karatobe                      : Field
LOC                .                                       : Location
SRVC               .         KF GIS "Kazpromgeophysika"    : Service Company
CTRY               .         KZ                            : Country
DATE               .         10-11/12/04                   : Service Date
LATI               .         0                             : Latitude
LONG               .         0                             : Longitude
GDAT               .         WGS 84                        : Geodetic Datum
CNTY               .         Kyzyl-Orda                    : 
COORDIN            .                                       : Grid System
COUNTRY            .         Kazakhstan                    : 
COUNTRY            .         Kazakhstan                    : 
EREF               .m        143.9                         : 
KB                 .         143.1                         : KB Elevation
ORIGINALWELLNAME   .         315                           : 
PROV               .                                       : Province
RWS                .         -999                          : Def_Rw
UWI                .         _                             : 
WST                .         -999                          : Def_Rwt
X                  .km       466109.31                     : 
XCOORD             .                                       : X or East-West Coordinate
Y                  .km       5307574.09                    : 
YCOORD             .                                       : Y or North-South Coordinate
~Parameter Information Block
#_______________________________________________________________________________
#
#PARAMETER_NAME    .UNIT     VALUE                         : DESCRIPTION
#_______________________________________________________________________________
SET                .         Las                           : 
BS                 .MM       215.90                        : Bit Size
DFD                .G/C3     1.14                          : Drilling Fluid Density
DFV                .S        50.00                         : Drilling Fluid Viscosity
RMS                .OHMM     .00                           : Mud Sample Resistivity
TLFamily_DEPT      .         Measured Depth                : 
TLFamily_PHI_FINAL .         Porosity                      : 
TLFamily_SW_AR     .         Water Saturation              : 
TLFamily_VSH_FINAL .         Shale Volume                  : 
~Curve Information
#_______________________________________________________________________________
#
#LOGNAME           .UNIT     LOG_ID                        : DESCRIPTION
#_______________________________________________________________________________
DEPT               .M                                      : Depth curve {F}
PHI_FINAL          .m3/m3                                  : Porosity {F}
SW_AR              .m3/m3                                  :  {F}
VSH_FINAL          .unitless                               : Vshale {F}
~Ascii
# ...
835.6      0.1384335  1          0.06912633
835.7      0.1242739  1          0.07926866
835.8      0.1184316  1          0.07513275
835.9      0.1314165  1          0.08098392
836        0.1258808  1          0.09180544
836.1      0.1424569  1          0.09344674
836.2      0.1468269  1          0.1125886 
836.3      0.1491543  1          0.1106756 
836.4      0.1470471  1          0.1298401 
836.5      0.1450087  1          0.1507707 
836.6      0.1267069  1          0.1389966 
836.7      0.09961808 1          0.1090987 
836.8      0.09443565 1          0.1007189 
836.9      0.1327359  1          0.08449797
837        0.1219787  1          0.07507224
837.1      0.1037741  1          0.07223847
837.2      0.07708405 1          0.07652696
837.3      0.08760501 1          0.06823308
837.4      0.1029876  1          0.07859676
837.5      0.116041   1          0.08923014
837.6      0.130231   1          0.08301472
837.7      0.1308038  1          0.09306741
837.8      0.1479468  1          0.09123877
837.9      0.1551751  1          0.1002045 
838        0.1581687  1          0.1060268 
838.1      0.1585154  1          0.1008476 
838.2      0.1703564  1          0.1025887 
838.3      0.1782819  0.9859233  0.09764184
838.4      0.1693935  1          0.111862  
838.5      0.1636323  1          0.1194504 
838.6      0.1597379  1          0.1266914 
838.7      0.1509671  1          0.1425123 
838.8      0.1435201  1          0.1598315 
838.9      0.1369204  1          0.1602707 
839        0.129815   1          0.1724289 
839.1      0.1254889  1          0.1751378 
839.2      0.1469323  1          0.1542301 
839.3      0.1464892  1          0.1417366 
839.4      0.1360156  1          0.1393469 
839.5      0.137531   1          0.1281946 
839.6      0.1441272  1          0.1397678 
839.7      0.163435   1          0.148121  
839.8      0.1327866  1          0.1623255 
839.9      0.1507666  1          0.1471935 
840        0.1660959  1          0.1530742 
840.1      0.1386988  1          0.1582245 
840.2      0.1543094  1          0.143148  
840.3      0.1471715  1          0.1394171 
840.4      0.1475107  1          0.1482639 
840.5      0.1493748  1          0.143926  
840.6      0.1526099  1          0.1389265 
840.7      0.1477384  1          0.1514894 
840.8      0.1355763  1          0.1568409 
840.9      0.1241244  1          0.1517771 
841        0.1319598  1          0.1391367 
841.1      0.1340652  1          0.1399783 
841.2      0.130524   1          0.1420185 
841.3      0.1376961  1          0.1516332 
841.4      0.1294643  1          0.1476214 
841.5      0.1300467  1          0.1576415 
841.6      0.1327001  1          0.1626197 
841.7      0.1233604  1          0.1543747 
841.8      0.1169     1          0.1503401 
841.9      0.1353467  1          0.1476214 
842        0.134189   1          0.1395573 
842.1      0.1332471  1          0.1367602 
842.2      0.1390269  1          0.1371089 
842.3      0.1491318  1          0.122752  
842.4      0.1432061  1          0.1368997 
842.5      0.1376039  1          0.1379469 
842.6      0.131378   1          0.1191149 
842.7      0.1226189  1          0.1268961 
842.8      0.1171698  1          0.1314226 
842.9      0.1016797  1          0.142089  
843        0.1105526  1          0.1279209 
843.1      0.1169375  1          0.1287425 
843.2      0.1131061  1          0.1271692 
843.3      0.1181143  1          0.1222113 
843.4      0.1023768  1          0.119719  
843.5      0.09972721 1          0.1207277 
843.6      0.09943928 1          0.1157066 
843.7      0.09550645 1          0.1310781 
843.8      0.1031617  1          0.1490503 
843.9      0.1110177  1          0.1503401 
844        0.1100914  1          0.1514894 
844.1      0.0970099  1          0.1839665 
844.2      0.1047994  1          0.1774822 
844.3      0.1075157  1          0.1922469 
844.4      0.1107404  1          0.2032828 
844.5      0.1031417  1          0.2051181 
844.6      0.09302403 1          0.2069595 
844.7      0.09628434 1          0.1953765 
844.8      0.1037852  1          0.1709302 
844.9      0.1094849  1          0.1495515 
845        0.1164594  1          0.1498381 
845.1      0.1052154  1          0.1440676 
845.2      0.0874906  1          0.1563322 
845.3      0.077478   1          0.1543747 
845.4      0.07439789 1          0.1448471 
845.5      0.06449195 1          0.1305275 
845.6      0.07576034 1          0.1102151 
845.7      0.08661978 1          0.08929279
845.8      0.06534893 1          0.08561391
845.9      0.07468715 1          0.07386396
846        0.08119913 1          0.04772303
846.1      0.08765057 1          0.02778799
846.2      0.08352472 1          0.0258161 
846.3      0.07845207 1          0.02306312
846.4      0.09449393 1          0.02064557
846.5      0.09117033 1          0.01012217
846.6      0.0934706  1          0         
846.7      0.09052949 1          0         
846.8      0.09876475 1          0         
846.9      0.09666666 1          0.003133303
847        0.0955872  1          0.008803833
847.1      0.08949079 1          0.003531609
847.2      0.08405881 1          0         
847.3      0.07405884 1          0         
847.4      0.07111774 1          0         
847.5      0.07464703 1          0         
847.6      0.07523537 1          0         
847.7      0.07582356 1          0         
847.8      0.08935297 1          0         
847.9      0.09050298 1          0.002089992
848        0.09534877 1          0.009614506
848.1      0.08722878 1          0.02122218
848.2      0.0910202  1          0.02033145
848.3      0.09516429 1          0.02624151
848.4      0.082058   1          0.02080272
848.5      0.072939   1          0.01482834
848.6      0.06769064 1          0.01017298
848.7      0.06746452 1          0         
848.8      0.05775023 1          0         
848.9      0.04336861 1          0         
849        0.02893906 1          0         
849.1      0.02534264 1          0         
849.2      0.03507291 1          0         
849.3      0.0504056  1          0         
849.4      0.06293704 1          0         
849.5      0.06879115 1          0         
849.6      0.07637959 1          0         
849.7      0.08475724 1          0         
849.8      0.09330067 1          0         
849.9      0.09294326 1          0.00422981
850        0.09092331 1          0.01103786
850.1      0.08992954 1          0.01881722
850.2      0.09351091 1          0.0414011 
850.3      0.1046422  1          0.0400168 
850.4      0.10332    1          0.06651178
850.5      0.1247814  1          0.08954336
850.6      0.1234873  1          0.101943  
850.7      0.1149095  1          0.1151078 
850.8      0.1125147  1          0.1132502 
850.9      0.1038574  1          0.09668475
851        0.1056226  1          0.08006415
851.1      0.09388117 1          0.07374331
851.2      0.1019826  1          0.0508958 
851.3      0.1074966  1          0.04178963
851.4      0.103941   1          0.01840064
851.5      0.1097947  1          0.01710208
851.6      0.1008133  1          0.01256949
851.7      0.09623159 1          0.000210387
851.8      0.08951249 1          0         
851.9      0.09629167 0.9446238  0         
852        0.09229422 0.9418721  0         
852.1      0.06288233 1          0         
852.2      0.08876478 0.9005895  0         
852.3      0.1064118  0.7335085  0         
852.4      0.1058236  0.7937655  0         
852.5      0.1111176  0.8068057  0         
852.6      0.1058236  1          0         
852.7      0.1200247  1          0.009715981
852.8      0.1085321  1          0.01679114
852.9      0.1097815  1          0.02454284
853        0.06931157 1          0.01814055
853.1      0.09839161 0.9678168  0         
853.2      0.08650944 1          0         
853.3      0.08125672 1          0         
853.4      0.08155444 1          0         
853.5      0.08347062 1          0         
853.6      0.08941857 1          0         
853.7      0.09485914 0.9814422  0         
