~Version
 VERS              .         3.0                           : CWLS LOG ASCII STANDARD - VERSION 3.0
 WRAP              .         NO                            : ONE LINE PER DEPTH STEP
 DLM               .         SPACE                         : DELIMITING CHARACTER(SPACE TAB OR COMMA)
~Well Information
#_______________________________________________________________________________
#
#PARAMETER_NAME    .UNIT     VALUE                         : DESCRIPTION
#_______________________________________________________________________________
STRT               .M        0.8                           : First reference value
STOP               .M        916                           : Last reference value
STEP               .M        0.1                           : Step increment
NULL               .         -9999                         : Missing value
COMP               .         ICPetroleum                   : Company
WELL               .         315                           : Well name
FLD                .         Karatobe                      : Field
LOC                .                                       : Location
SRVC               .         KF GIS "Kazpromgeophysika"    : Service Company
CTRY               .         KZ                            : Country
DATE               .         10-11/12/04                   : Service Date
LATI               .         0                             : Latitude
LONG               .         0                             : Longitude
GDAT               .         WGS 84                        : Geodetic Datum
CNTY               .         Kyzyl-Orda                    : 
COORDIN            .                                       : Grid System
COUNTRY            .         Kazakhstan                    : 
COUNTRY            .         Kazakhstan                    : 
EREF               .m        143.9                         : 
KB                 .         143.1                         : KB Elevation
ORIGINALWELLNAME   .         315                           : 
PROV               .                                       : Province
RWS                .         -999                          : Def_Rw
UWI                .         _                             : 
WST                .         -999                          : Def_Rwt
X                  .km       466109.31                     : 
XCOORD             .                                       : X or East-West Coordinate
Y                  .km       5307574.09                    : 
YCOORD             .                                       : Y or North-South Coordinate
~Parameter Information Block
#_______________________________________________________________________________
#
#PARAMETER_NAME    .UNIT     VALUE                         : DESCRIPTION
#_______________________________________________________________________________
SET                .         Las                           : 
BS                 .MM       215.90                        : Bit Size
DFD                .G/C3     1.14                          : Drilling Fluid Density
DFV                .S        50.00                         : Drilling Fluid Viscosity
RMS                .OHMM     .00                           : Mud Sample Resistivity
TLFamily_DEPT      .         Measured Depth                : 
TLFamily_PHI_FINAL .         Porosity                      : 
TLFamily_SW_AR     .         Water Saturation              : 
TLFamily_VSH_FINAL .         Shale Volume                  : 
~Curve Information
#_______________________________________________________________________________
#
#LOGNAME           .UNIT     LOG_ID                        : DESCRIPTION
#_______________________________________________________________________________
DEPT               .M                                      : Depth curve {F}
PHI_FINAL          .m3/m3                                  : Porosity {F}
SW_AR              .m3/m3                                  :  {F}
VSH_FINAL          .unitless                               : Vshale {F}
~Ascii
# ...
144.1      0.06668286 -9999      0.03153952
144.2      0.06450652 -9999      0.03139372
144.3      0.06629907 -9999      0.02904156
144.4      0.06853571 -9999      0.01867209
144.5      0.06883696 -9999      0.01716301
144.6      0.06772131 -9999      0.02279902
144.7      0.06283659 -9999      0.04398045
144.8      0.06412888 -9999      0.03998449
144.9      0.06688796 -9999      0.03665959
145        0.06493225 -9999      0.04146369
145.1      0.06518449 -9999      0.03694981
145.2      0.06967637 -9999      0.03409582
145.3      0.07169832 -9999      0.02540234
145.4      0.06888232 -9999      0.03197229
145.5      0.06921281 -9999      0.0334558 
145.6      0.06700671 -9999      0.0383803 
145.7      0.06881666 -9999      0.03139194
145.8      0.06653742 -9999      0.02834864
145.9      0.06926152 -9999      0.02325239
146        0.06897118 -9999      0.02815842
146.1      0.0685052  -9999      0.03076448
146.2      0.06862227 -9999      0.02819868
146.3      0.07050679 -9999      0.02258497
146.4      0.07253202 -9999      0.01897256
146.5      0.07222582 -9999      0.01812958
146.6      0.07191093 -9999      0.02523422
146.7      0.06566361 -9999      0.03778361
146.8      0.06669802 -9999      0.03653588
146.9      0.06597158 -9999      0.03442296
147        0.07067226 -9999      0.02937847
147.1      0.06794903 -9999      0.03882176
147.2      0.06547716 -9999      0.04219101
147.3      0.06385087 -9999      0.04948909
147.4      0.06593471 -9999      0.03982153
147.5      0.06318925 -9999      0.03700417
147.6      0.06543431 -9999      0.03024699
147.7      0.06440359 -9999      0.03975786
147.8      0.06396106 -9999      0.0442517 
147.9      0.06552317 -9999      0.04679845
148        0.06867384 -9999      0.04230972
148.1      0.06534059 -9999      0.0537868 
148.2      0.06913216 -9999      0.03345718
148.3      0.06942673 -9999      0.03932687
148.4      0.06673856 -9999      0.05008701
148.5      0.06853178 -9999      0.04569893
148.6      0.06941298 -9999      0.03489611
148.7      0.07142149 -9999      0.02928048
148.8      0.06776539 -9999      0.0358181 
148.9      0.0641917  -9999      0.04026558
149        0.06345966 -9999      0.03654921
149.1      0.06459856 -9999      0.03768678
149.2      0.06377599 -9999      0.04471046
149.3      0.06320059 -9999      0.054848  
149.4      0.06440394 -9999      0.05598525
149.5      0.06322704 -9999      0.05375812
149.6      0.06841818 -9999      0.04395469
149.7      0.07335257 -9999      0.05642597
149.8      0.07957043 -9999      0.06761154
149.9      0.084502   -9999      0.07253268
150        0.08699181 -9999      0.05491827
150.1      0.08926536 -9999      0.03205292
150.2      0.0857043  -9999      0.01599937
150.3      0.07853308 -9999      0.01640726
150.4      0.07480612 -9999      0.02257942
150.5      0.08110756 -9999      0.02227262
150.6      0.2082614  -9999      0.02616314
150.7      0.3683485  -9999      0.01948256
150.8      0.5100919  -9999      0.02366485
150.9      0.6012601  -9999      0.02656117
151        0.7548512  -9999      0.01981552
151.1      0.9466525  -9999      0.02265072
151.2      1          -9999      0.02182386
151.3      1          -9999      0.03306101
151.4      1          -9999      0.067546  
151.5      1          1          0.09445595
151.6      1          0.4641286  0.1369593 
151.7      1          0.3123284  0.1710762 
151.8      1          0.2648362  0.1826158 
151.9      1          0.2196974  0.1761011 
152        1          0.2101624  0.2075237 
152.1      1          0.215634   0.2315379 
152.2      1          0.2161818  0.2578131 
152.3      1          0.2125594  0.280991  
152.4      1          0.2089551  0.3087955 
152.5      0.9769714  0.2126483  0.2890808 
152.6      0.9384354  0.2233707  0.2896447 
152.7      0.9015092  0.2338021  0.2827531 
152.8      0.8095564  0.2543609  0.3111684 
152.9      0.7135899  0.2761858  0.3183197 
153        0.636974   0.302323   0.3299972 
153.1      0.6111882  0.3096178  0.3553408 
153.2      0.5862724  0.3214472  0.3856949 
153.3      0.5944446  0.3158223  0.3639558 
153.4      0.598339   0.3125578  0.3613213 
153.5      0.6128467  0.3057107  0.3360361 
153.6      0.5967605  0.310116   0.3432806 
153.7      0.5741413  0.316361   0.3718502 
153.8      0.5780327  0.3123437  0.3457951 
153.9      0.5673331  0.3202631  0.3630049 
154        0.5674332  0.3198977  0.3793778 
154.1      0.5441879  0.3298962  0.4258094 
154.2      0.5285796  0.3394617  0.4403724 
154.3      0.5041504  0.3580374  0.4491856 
154.4      0.4344178  0.4175849  0.5194598 
154.5      0.4161163  0.437391   0.4861247 
154.6      0.3848606  0.4700674  0.5217295 
154.7      0.4008597  0.4527566  0.5015796 
154.8      0.3885935  0.4697317  0.5195317 
154.9      0.401198   0.4589112  0.5057171 
155        0.3567588  0.5206754  0.5891832 
155.1      0.3229022  0.5755549  0.6608641 
155.2      0.2606229  0.7051075  0.7771776 
155.3      0.2819632  0.6511614  0.7332709 
155.4      0.2900081  0.6253089  0.7347836 
155.5      0.2924018  0.6150506  0.7619369 
155.6      0.3362738  0.5305618  0.7028421 
155.7      0.3183028  0.5518179  0.7403522 
155.8      0.2812883  0.6129305  0.8088274 
155.9      0.3274357  0.5275899  0.7193257 
156        0.3281012  0.5262317  0.7188352 
156.1      0.2640104  0.6472522  0.8174616 
156.2      0.2462282  0.6922964  0.8318034 
156.3      0.2551031  0.6705039  0.7837192 
156.4      0.2767243  0.6214861  0.7165493 
156.5      0.2549014  0.6711326  0.7529667 
156.6      0.2400743  0.7060162  0.7838913 
156.7      0.1299328  1          1         
156.8      0.1307132  1          1         
156.9      0.1201134  1          1         
157        0.1176675  1          1         
157.1      0.116439   1          1         
157.2      0.1161743  1          1         
157.3      0.1012265  1          1         
157.4      0.09189803 1          1         
157.5      0.08396906 1          1         
157.6      0.07576792 1          1         
157.7      0.07926005 1          1         
157.8      0.08929784 1          1         
157.9      0.105439   1          1         
158        0.1092618  1          1         
158.1      0.1109447  1          1         
158.2      0.1063156  1          1         
158.3      0.1426666  1          0.935135  
158.4      0.1314137  1          0.9671093 
158.5      0.1045634  1          1         
158.6      0.1005446  1          1         
158.7      0.1017276  1          1         
158.8      0.1001788  1          1         
158.9      0.1026314  1          1         
159        0.1036402  1          1         
159.1      0.1264841  1          0.9680435 
159.2      0.1057424  1          1         
159.3      0.1081615  1          1         
159.4      0.1297761  1          0.9686281 
159.5      0.1556895  1          0.9216844 
159.6      0.2127268  0.7839236  0.8163606 
159.7      0.2291628  0.7398534  0.7975959 
159.8      0.2484538  0.6917928  0.7490645 
159.9      0.2761973  0.6281607  0.7028943 
160        0.3253675  0.5374579  0.6526405 
160.1      0.4064692  0.432239   0.5577628 
160.2      0.4374523  0.3971999  0.5642337 
160.3      0.4645594  0.3713888  0.5517929 
160.4      0.4837958  0.3678799  0.5773687 
160.5      0.510687   0.3674676  0.5552093 
160.6      0.5218771  0.3786736  0.5792905 
160.7      0.5582366  0.3663917  0.5352034 
160.8      0.5737222  0.3724829  0.5363589 
160.9      0.6305552  0.3415902  0.4340768 
161        0.6209096  0.3348278  0.4509643 
161.1      0.628042   0.3214657  0.4430769 
161.2      0.6384534  0.3180383  0.4121133 
161.3      0.6161841  0.3337527  0.4002402 
161.4      0.5711265  0.3650991  0.4190885 
161.5      0.5540663  0.3827106  0.4052504 
161.6      0.5120144  0.4143791  0.4772484 
161.7      0.5186076  0.4072067  0.4470928 
161.8      0.4624807  0.4522218  0.5212787 
161.9      0.4080772  0.5045103  0.6038638 
162        0.3845885  0.5241596  0.6309096 
162.1      0.3763289  0.5220798  0.7254697 
162.2      0.362749   0.5314386  0.8129305 
