~Version
 VERS              .         3.0                           : CWLS LOG ASCII STANDARD - VERSION 3.0
 WRAP              .         NO                            : ONE LINE PER DEPTH STEP
 DLM               .         SPACE                         : DELIMITING CHARACTER(SPACE TAB OR COMMA)
~Well Information
#_______________________________________________________________________________
#
#PARAMETER_NAME    .UNIT     VALUE                         : DESCRIPTION
#_______________________________________________________________________________
STRT               .M        0.8                           : First reference value
STOP               .M        916                           : Last reference value
STEP               .M        0.1                           : Step increment
NULL               .         -9999                         : Missing value
COMP               .         ICPetroleum                   : Company
WELL               .         315                           : Well name
FLD                .         Karatobe                      : Field
LOC                .                                       : Location
SRVC               .         KF GIS "Kazpromgeophysika"    : Service Company
CTRY               .         KZ                            : Country
DATE               .         10-11/12/04                   : Service Date
LATI               .         0                             : Latitude
LONG               .         0                             : Longitude
GDAT               .         WGS 84                        : Geodetic Datum
CNTY               .         Kyzyl-Orda                    : 
COORDIN            .                                       : Grid System
COUNTRY            .         Kazakhstan                    : 
COUNTRY            .         Kazakhstan                    : 
EREF               .m        143.9                         : 
KB                 .         143.1                         : KB Elevation
ORIGINALWELLNAME   .         315                           : 
PROV               .                                       : Province
RWS                .         -999                          : Def_Rw
UWI                .         _                             : 
WST                .         -999                          : Def_Rwt
X                  .km       466109.31                     : 
XCOORD             .                                       : X or East-West Coordinate
Y                  .km       5307574.09                    : 
YCOORD             .                                       : Y or North-South Coordinate
~Parameter Information Block
#_______________________________________________________________________________
#
#PARAMETER_NAME    .UNIT     VALUE                         : DESCRIPTION
#_______________________________________________________________________________
SET                .         Las                           : 
BS                 .MM       215.90                        : Bit Size
DFD                .G/C3     1.14                          : Drilling Fluid Density
DFV                .S        50.00                         : Drilling Fluid Viscosity
RMS                .OHMM     .00                           : Mud Sample Resistivity
TLFamily_DEPT      .         Measured Depth                : 
TLFamily_PHI_FINAL .         Porosity                      : 
TLFamily_SW_AR     .         Water Saturation              : 
TLFamily_VSH_FINAL .         Shale Volume                  : 
~Curve Information
#_______________________________________________________________________________
#
#LOGNAME           .UNIT     LOG_ID                        : DESCRIPTION
#_______________________________________________________________________________
DEPT               .M                                      : Depth curve {F}
PHI_FINAL          .m3/m3                                  : Porosity {F}
SW_AR              .m3/m3                                  :  {F}
VSH_FINAL          .unitless                               : Vshale {F}
~Ascii
# ...
235.1      0.2600195  0.8858277  0.5416268 
235.2      0.2476962  0.9265528  0.5609927 
235.3      0.2394783  0.9414855  0.5488904 
235.4      0.2289226  0.9811014  0.5697284 
235.5      0.250218   0.8562491  0.4957713 
235.6      0.2216164  0.9110563  0.5566183 
235.7      0.211019   0.9513084  0.594906  
235.8      0.1786477  1          0.6915735 
235.9      0.2237355  0.9690776  0.6263157 
236        0.2401645  0.9003835  0.6338463 
236.1      0.2229968  0.9786717  0.6828774 
236.2      0.1972445  1          0.7425012 
236.3      0.1960704  1          0.6956207 
236.4      0.1770127  1          0.718185  
236.5      0.1850795  1          0.6652004 
236.6      0.2143172  0.9847188  0.6032526 
236.7      0.1868668  1          0.6920688 
236.8      0.210217   0.9243933  0.6109458 
236.9      0.2272727  0.874882   0.5984395 
237        0.237504   0.8885019  0.5936379 
237.1      0.1784582  1          0.7257656 
237.2      0.1321718  1          0.8552055 
237.3      0.1096274  1          0.9055616 
237.4      0.1625043  1          0.7662542 
237.5      0.160231   1          0.7583216 
237.6      0.1728959  1          0.7340301 
237.7      0.1589452  1          0.7468026 
237.8      0.1286428  1          0.8455068 
237.9      0.143694   1          0.8029545 
238        0.1758766  1          0.7145672 
238.1      0.1733936  1          0.7171706 
238.2      0.1980526  1          0.6620396 
238.3      0.1876617  1          0.6630463 
238.4      0.1629469  1          0.734673  
238.5      0.187472   1          0.7113873 
238.6      0.1940522  1          0.7051837 
238.7      0.1665235  1          0.7699936 
238.8      0.1409922  1          0.8465    
238.9      0.1026463  1          0.9294665 
239        0.06260271 1          1         
239.1      0.06887711 1          0.9529412 
239.2      0.06814437 1          0.9397349 
239.3      0.05403028 1          0.986317  
239.4      0.1430912  1          0.8146668 
239.5      0.139236   1          0.8279752 
239.6      0.1983519  1          0.6667196 
239.7      0.2042479  1          0.6651521 
239.8      0.1489927  1          0.796644  
239.9      0.1515639  1          0.8179096 
240        0.1385267  1          0.8535435 
240.1      0.1435298  1          0.8451617 
240.2      0.1179477  1          0.9372312 
240.3      0.1375609  1          0.8898139 
240.4      0.1178044  1          0.9407133 
240.5      0.1164947  1          0.9330986 
240.6      0.1089196  1          0.9509001 
240.7      0.1367786  1          0.8882831 
240.8      0.1364292  1          0.8959072 
240.9      0.1286443  1          0.9088799 
241        0.1322737  1          0.886952  
241.1      0.1251063  1          0.9187505 
241.2      0.1221486  1          0.9269946 
241.3      0.138704   1          0.8808274 
241.4      0.1536791  1          0.8287363 
241.5      0.09962511 1          0.9387777 
241.6      0.0877314  1          1         
241.7      0.09250973 1          1         
241.8      0.09548528 1          0.9999628 
241.9      0.1038048  1          0.9695843 
242        0.0933582  1          1         
242.1      0.07823627 1          1         
242.2      0.1239281  1          0.8931295 
242.3      0.08105609 1          0.9992322 
242.4      0.09814382 1          0.9446921 
242.5      0.08297978 1          0.9634648 
242.6      0.1086202  1          0.8968129 
242.7      0.1174781  1          0.8181182 
242.8      0.1139617  1          0.8043028 
242.9      0.1463841  1          0.7324336 
243        0.1613715  1          0.7190227 
243.1      0.177481   1          0.689171  
243.2      0.2046036  1          0.6489053 
243.3      0.1949236  1          0.6906553 
243.4      0.2086868  1          0.7270239 
243.5      0.2216364  1          0.6807055 
243.6      0.2341234  1          0.6593338 
243.7      0.2470335  0.9854837  0.6145014 
243.8      0.2809716  0.8810401  0.5157924 
243.9      0.2558109  0.9711171  0.606596  
244        0.2396032  1          0.6313424 
244.1      0.250933   0.9747259  0.6060935 
244.2      0.2468948  0.9929007  0.6267509 
244.3      0.2266279  1          0.6720785 
244.4      0.2183543  1          0.6484506 
244.5      0.1942404  1          0.7025979 
244.6      0.173217   1          0.7540234 
244.7      0.2042096  1          0.6606927 
244.8      0.2425009  0.96766    0.5892002 
244.9      0.2672107  0.84584    0.5250531 
245        0.2931061  0.7201365  0.449119  
245.1      0.3027838  0.5903284  0.4085401 
245.2      0.3160365  0.5144022  0.3581159 
245.3      0.318554   0.5237979  0.3076333 
245.4      0.3142658  0.5604829  0.2894397 
245.5      0.3104802  0.5667238  0.2559888 
245.6      0.2831028  0.5587168  0.2460385 
245.7      0.2540534  0.533152   0.2321572 
245.8      0.2412537  0.4458196  0.2413663 
245.9      0.2351713  0.4709619  0.2750457 
246        0.2576398  0.5869105  0.2745945 
246.1      0.2561169  0.7276403  0.3401645 
246.2      0.2633186  0.7579025  0.4158433 
246.3      0.2747661  0.7508796  0.4309804 
246.4      0.2691114  0.7666101  0.484519  
246.5      0.2832541  0.7271684  0.4968607 
246.6      0.3028894  0.6880513  0.4557529 
246.7      0.2983043  0.702674   0.4383453 
246.8      0.2895814  0.7246466  0.4848087 
246.9      0.2971033  0.7075692  0.467508  
247        0.2910901  0.7198197  0.4750048 
247.1      0.2828386  0.7278907  0.4776808 
247.2      0.3083062  0.6625446  0.4185295 
247.3      0.3015634  0.6720616  0.4236263 
247.4      0.2831535  0.7079387  0.403003  
247.5      0.2747575  0.7468475  0.3921626 
247.6      0.2465904  0.8470901  0.3986361 
247.7      0.2305743  0.9154131  0.4136126 
247.8      0.2388471  0.871015   0.3692503 
247.9      0.2328472  0.8719358  0.3404345 
248        0.2517043  0.7871042  0.2365417 
248.1      0.2508576  0.7748213  0.1967465 
248.2      0.238924   0.7446948  0.1748908 
248.3      0.2346222  0.6042698  0.1274692 
248.4      0.2411471  0.4642475  0.1138522 
248.5      0.2741581  0.3224794  0.08074176
248.6      0.3069784  0.2847837  0.06882162
248.7      0.3445074  0.2563456  0.06003278
248.8      0.3645114  0.2209844  0.05685975
248.9      0.3803657  0.2019403  0.05516593
249        0.3923825  0.1974386  0.07076244
249.1      0.4175417  0.1899194  0.08180878
249.2      0.416813   0.2080072  0.1107782 
249.3      0.4026672  0.289514   0.1596411 
249.4      0.3831055  0.3796753  0.1835495 
249.5      0.3334115  0.5701411  0.2982622 
249.6      0.2681066  0.7685107  0.4610713 
249.7      0.2388829  0.8873937  0.5417391 
249.8      0.2273274  1          0.6097592 
249.9      0.2230285  1          0.6298873 
250        0.2072921  1          0.6760587 
250.1      0.2343008  1          0.6018289 
250.2      0.2249566  1          0.5855538 
250.3      0.2412653  0.9961996  0.5240899 
250.4      0.2447889  0.9793165  0.4859022 
250.5      0.239415   0.9599808  0.5250436 
250.6      0.25411    0.8795785  0.5155727 
250.7      0.2761     0.7727168  0.509834  
250.8      0.3061107  0.7552932  0.462131  
250.9      0.3095658  0.7954872  0.4950098 
251        0.3119853  0.8071378  0.4868749 
251.1      0.3086808  0.7738802  0.5043147 
251.2      0.3295411  0.7028013  0.4682302 
251.3      0.3133828  0.793125   0.5076954 
251.4      0.2812764  0.9272484  0.579155  
251.5      0.2090234  1          0.7647476 
251.6      0.1585844  1          0.8905656 
251.7      0.1515615  1          0.9022335 
251.8      0.150304   1          0.8864975 
251.9      0.1410607  1          0.9111996 
252        0.1254251  1          0.9280729 
252.1      0.1796025  1          0.7558101 
252.2      0.1810453  1          0.7223717 
252.3      0.1857211  1          0.6893942 
252.4      0.2044896  1          0.6294585 
252.5      0.2025544  1          0.6094053 
252.6      0.1639512  1          0.6639791 
252.7      0.1542185  1          0.6446042 
252.8      0.1393453  1          0.6739486 
252.9      0.1135786  1          0.736683  
253        0.04040832 1          0.9127468 
253.1      0.1304936  1          0.6827499 
253.2      0.1077109  1          0.7356047 
