~Version
 VERS              .         3.0                           : CWLS LOG ASCII STANDARD - VERSION 3.0
 WRAP              .         NO                            : ONE LINE PER DEPTH STEP
 DLM               .         SPACE                         : DELIMITING CHARACTER(SPACE TAB OR COMMA)
~Well Information
#_______________________________________________________________________________
#
#PARAMETER_NAME    .UNIT     VALUE                         : DESCRIPTION
#_______________________________________________________________________________
STRT               .M        0.8                           : First reference value
STOP               .M        916                           : Last reference value
STEP               .M        0.1                           : Step increment
NULL               .         -9999                         : Missing value
COMP               .         ICPetroleum                   : Company
WELL               .         315                           : Well name
FLD                .         Karatobe                      : Field
LOC                .                                       : Location
SRVC               .         KF GIS "Kazpromgeophysika"    : Service Company
CTRY               .         KZ                            : Country
DATE               .         10-11/12/04                   : Service Date
LATI               .         0                             : Latitude
LONG               .         0                             : Longitude
GDAT               .         WGS 84                        : Geodetic Datum
CNTY               .         Kyzyl-Orda                    : 
COORDIN            .                                       : Grid System
COUNTRY            .         Kazakhstan                    : 
COUNTRY            .         Kazakhstan                    : 
EREF               .m        143.9                         : 
KB                 .         143.1                         : KB Elevation
ORIGINALWELLNAME   .         315                           : 
PROV               .                                       : Province
RWS                .         -999                          : Def_Rw
UWI                .         _                             : 
WST                .         -999                          : Def_Rwt
X                  .km       466109.31                     : 
XCOORD             .                                       : X or East-West Coordinate
Y                  .km       5307574.09                    : 
YCOORD             .                                       : Y or North-South Coordinate
~Parameter Information Block
#_______________________________________________________________________________
#
#PARAMETER_NAME    .UNIT     VALUE                         : DESCRIPTION
#_______________________________________________________________________________
SET                .         Las                           : 
BS                 .MM       215.90                        : Bit Size
DFD                .G/C3     1.14                          : Drilling Fluid Density
DFV                .S        50.00                         : Drilling Fluid Viscosity
RMS                .OHMM     .00                           : Mud Sample Resistivity
TLFamily_DEPT      .         Measured Depth                : 
TLFamily_PHI_FINAL .         Porosity                      : 
TLFamily_SW_AR     .         Water Saturation              : 
TLFamily_VSH_FINAL .         Shale Volume                  : 
~Curve Information
#_______________________________________________________________________________
#
#LOGNAME           .UNIT     LOG_ID                        : DESCRIPTION
#_______________________________________________________________________________
DEPT               .M                                      : Depth curve {F}
PHI_FINAL          .m3/m3                                  : Porosity {F}
SW_AR              .m3/m3                                  :  {F}
VSH_FINAL          .unitless                               : Vshale {F}
~Ascii
# ...
544.5      0.001204386 1          0.9469725 
544.6      0          1          0.964573  
544.7      0          1          1         
544.8      0.0002482384 1          1         
544.9      0          1          1         
545        0.005263303 1          0.9881338 
545.1      0.01201429 1          0.9743029 
545.2      0.007439748 1          1         
545.3      0.007854138 1          0.9879202 
545.4      0.02862311 1          0.9157239 
545.5      0.05027496 1          0.8382207 
545.6      0.06693842 1          0.8049368 
545.7      0.1100634  1          0.7085116 
545.8      0.1297507  1          0.6493436 
545.9      0.1279599  1          0.6559758 
546        0.1139161  1          0.6741354 
546.1      0.1308199  1          0.6274557 
546.2      0.1327574  1          0.6422528 
546.3      0.1409082  1          0.6158587 
546.4      0.1278103  1          0.6339051 
546.5      0.1450394  1          0.5742972 
546.6      0.1415826  1          0.5970566 
546.7      0.137641   1          0.6182432 
546.8      0.09846336 1          0.7009775 
546.9      0.1101446  1          0.6724534 
547        0.1108238  1          0.6746516 
547.1      0.0890431  1          0.7163228 
547.2      0.1437061  1          0.5811244 
547.3      0.1347441  1          0.5893896 
547.4      0.141359   1          0.5979639 
547.5      0.1553115  1          0.552137  
547.6      0.1764067  1          0.5029316 
547.7      0.2027392  1          0.4324339 
547.8      0.19493    1          0.4704853 
547.9      0.20558    1          0.4408641 
548        0.2156482  1          0.4239901 
548.1      0.2158682  1          0.4281194 
548.2      0.2002715  1          0.4526205 
548.3      0.2079037  1          0.4016027 
548.4      0.1873275  1          0.3968437 
548.5      0.1588855  1          0.4460974 
548.6      0.1390366  1          0.4808235 
548.7      0.1529009  1          0.4729055 
548.8      0.1616437  1          0.5122791 
548.9      0.1788669  1          0.5354958 
549        0.1680631  1          0.5708715 
549.1      0.1450015  1          0.6436789 
549.2      0.1343328  1          0.6845267 
549.3      0.1028491  1          0.7665979 
549.4      0.1017652  1          0.7895438 
549.5      0.08753638 1          0.8366075 
549.6      0.1207245  1          0.757205  
549.7      0.1693904  1          0.6386496 
549.8      0.2307423  1          0.4922767 
549.9      0.2703922  1          0.4067817 
550        0.2886618  1          0.3521601 
550.1      0.3325306  0.8951442  0.2971001 
550.2      0.3640014  0.7766512  0.2627309 
550.3      0.3993458  0.6670923  0.2534588 
550.4      0.4136387  0.634163   0.2357825 
550.5      0.3942758  0.6809512  0.2407407 
550.6      0.3419099  0.8259491  0.2837323 
550.7      0.2933991  0.9856504  0.3446116 
550.8      0.2176588  1          0.4455851 
550.9      0.1622506  1          0.555447  
551        0.09032563 1          0.7177727 
551.1      0.07766027 1          0.7540196 
551.2      0.008408954 1          1         
551.3      0.01442194 1          1         
551.4      0.01401852 1          1         
551.5      0.01185444 1          1         
551.6      0.01085881 1          1         
551.7      0.0110938  1          1         
551.8      0.01803846 1          1         
551.9      0.02181375 1          1         
552        0.03466875 1          0.9476864 
552.1      0.03270489 1          0.972247  
552.2      0.06270717 1          0.8871536 
552.3      0.1136326  1          0.7730682 
552.4      0.1713966  1          0.6393983 
552.5      0.2503419  1          0.4478738 
552.6      0.2678521  1          0.3706229 
552.7      0.255899   1          0.372922  
552.8      0.2581491  1          0.3501807 
552.9      0.258334   1          0.3430843 
553        0.2528355  1          0.3524621 
553.1      0.2588842  1          0.3407983 
553.2      0.2374903  1          0.4057964 
553.3      0.2379114  1          0.42713   
553.4      0.2266854  1          0.4442416 
553.5      0.2348519  1          0.4268538 
553.6      0.219993   1          0.4372741 
553.7      0.2145579  1          0.4434101 
553.8      0.1980567  1          0.4727522 
553.9      0.1837028  1          0.518519  
554        0.1692783  1          0.5551302 
554.1      0.1637403  1          0.5837645 
554.2      0.1221838  1          0.7012576 
554.3      0.1090491  1          0.7356871 
554.4      0.09980828 1          0.7579826 
554.5      0.05870767 1          0.8632479 
554.6      0.04885355 1          0.8993861 
554.7      0.01016487 1          1         
554.8      0.004273735 1          1         
554.9      0.004136725 1          1         
555        0.004606382 1          1         
555.1      0.002934681 1          1         
555.2      0.001806242 1          1         
555.3      0.0006282899 1          1         
555.4      0          1          1         
555.5      0          1          1         
555.6      0.002871211 1          1         
555.7      0.003401528 1          1         
555.8      0.005619783 1          1         
555.9      0.007880903 1          1         
556        0.008462183 1          1         
556.1      0.01421429 1          1         
556.2      0.05466515 1          0.8748183 
556.3      0.1192938  1          0.7219356 
556.4      0.1236345  1          0.7385809 
556.5      0.1590223  1          0.7119972 
556.6      0.2015713  1          0.6416812 
556.7      0.2079539  1          0.6442191 
556.8      0.191851   1          0.6608349 
556.9      0.1565044  1          0.6981564 
557        0.09658999 1          0.8008432 
557.1      0.07590624 1          0.7948345 
557.2      0.04405898 1          0.8515176 
557.3      0.05675228 1          0.8068816 
557.4      0.09779939 1          0.6905218 
557.5      0.09475923 1          0.7069864 
557.6      0.1288128  1          0.6243995 
557.7      0.1768908  1          0.5132172 
557.8      0.168456   1          0.5202248 
557.9      0.1640186  1          0.5323252 
558        0.1531897  1          0.5618156 
558.1      0.1428368  1          0.5864014 
558.2      0.1618745  1          0.5483128 
558.3      0.1651066  1          0.5372398 
558.4      0.1755701  1          0.5026649 
558.5      0.2058747  1          0.4276932 
558.6      0.2064336  1          0.4260891 
558.7      0.1808278  1          0.4938209 
558.8      0.1889571  1          0.4721641 
558.9      0.1939836  1          0.455219  
559        0.187964   1          0.4668433 
559.1      0.2027419  1          0.4479696 
559.2      0.1932442  1          0.4779673 
559.3      0.1877665  1          0.4835266 
559.4      0.1896896  1          0.4757948 
559.5      0.1993547  1          0.4512571 
559.6      0.1964782  1          0.4598271 
559.7      0.1699041  1          0.5100688 
559.8      0.1733169  1          0.4966902 
559.9      0.1781754  1          0.4945165 
560        0.2030474  1          0.4424416 
560.1      0.1915439  1          0.467928  
560.2      0.2020194  1          0.4477448 
560.3      0.2092987  1          0.4141238 
560.4      0.2238329  1          0.3868798 
560.5      0.2114679  1          0.4295753 
560.6      0.2118882  1          0.4251939 
560.7      0.1903997  1          0.4880326 
560.8      0.2048384  1          0.4559262 
560.9      0.2068743  1          0.464729  
561        0.2025854  1          0.4842052 
561.1      0.1751216  1          0.5424848 
561.2      0.1492846  1          0.5916923 
561.3      0.1395941  1          0.6267356 
561.4      0.146515   1          0.6107334 
561.5      0.1216135  1          0.6652941 
561.6      0.09804829 1          0.7093971 
561.7      0.08441097 1          0.7520466 
561.8      0.0852408  1          0.7585052 
561.9      0.1137671  1          0.6922401 
562        0.1388871  1          0.6333616 
562.1      0.1664429  1          0.5692357 
562.2      0.1656871  1          0.5788719 
562.3      0.1763471  1          0.5655256 
562.4      0.1771031  1          0.5640694 
562.5      0.1568168  1          0.6187328 
562.6      0.1622636  1          0.5944841 
