~Version
 VERS              .         3.0                           : CWLS LOG ASCII STANDARD - VERSION 3.0
 WRAP              .         NO                            : ONE LINE PER DEPTH STEP
 DLM               .         SPACE                         : DELIMITING CHARACTER(SPACE TAB OR COMMA)
~Well Information
#_______________________________________________________________________________
#
#PARAMETER_NAME    .UNIT     VALUE                         : DESCRIPTION
#_______________________________________________________________________________
STRT               .M        0.8                           : First reference value
STOP               .M        916                           : Last reference value
STEP               .M        0.1                           : Step increment
NULL               .         -9999                         : Missing value
COMP               .         ICPetroleum                   : Company
WELL               .         315                           : Well name
FLD                .         Karatobe                      : Field
LOC                .                                       : Location
SRVC               .         KF GIS "Kazpromgeophysika"    : Service Company
CTRY               .         KZ                            : Country
DATE               .         10-11/12/04                   : Service Date
LATI               .         0                             : Latitude
LONG               .         0                             : Longitude
GDAT               .         WGS 84                        : Geodetic Datum
CNTY               .         Kyzyl-Orda                    : 
COORDIN            .                                       : Grid System
COUNTRY            .         Kazakhstan                    : 
COUNTRY            .         Kazakhstan                    : 
EREF               .m        143.9                         : 
KB                 .         143.1                         : KB Elevation
ORIGINALWELLNAME   .         315                           : 
PROV               .                                       : Province
RWS                .         -999                          : Def_Rw
UWI                .         _                             : 
WST                .         -999                          : Def_Rwt
X                  .km       466109.31                     : 
XCOORD             .                                       : X or East-West Coordinate
Y                  .km       5307574.09                    : 
YCOORD             .                                       : Y or North-South Coordinate
~Parameter Information Block
#_______________________________________________________________________________
#
#PARAMETER_NAME    .UNIT     VALUE                         : DESCRIPTION
#_______________________________________________________________________________
SET                .         Las                           : 
BS                 .MM       215.90                        : Bit Size
DFD                .G/C3     1.14                          : Drilling Fluid Density
DFV                .S        50.00                         : Drilling Fluid Viscosity
RMS                .OHMM     .00                           : Mud Sample Resistivity
TLFamily_DEPT      .         Measured Depth                : 
TLFamily_PHI_FINAL .         Porosity                      : 
TLFamily_SW_AR     .         Water Saturation              : 
TLFamily_VSH_FINAL .         Shale Volume                  : 
~Curve Information
#_______________________________________________________________________________
#
#LOGNAME           .UNIT     LOG_ID                        : DESCRIPTION
#_______________________________________________________________________________
DEPT               .M                                      : Depth curve {F}
PHI_FINAL          .m3/m3                                  : Porosity {F}
SW_AR              .m3/m3                                  :  {F}
VSH_FINAL          .unitless                               : Vshale {F}
~Ascii
# ...
289.7      0.3110791  0.6325132  0.2338328 
289.8      0.3284381  0.6176488  0.2353149 
289.9      0.3352876  0.6083244  0.2510853 
290        0.34404    0.6028715  0.2582374 
290.1      0.3474055  0.6026559  0.2633731 
290.2      0.3396767  0.6148008  0.2845522 
290.3      0.335549   0.6198964  0.2751873 
290.4      0.3272977  0.6322521  0.2700564 
290.5      0.3431371  0.6030298  0.2364818 
290.6      0.3542216  0.5982449  0.2003286 
290.7      0.3359677  0.6217151  0.226606  
290.8      0.340856   0.5999901  0.2282821 
290.9      0.3494925  0.579253   0.2152825 
291        0.3644122  0.5586836  0.1806678 
291.1      0.3611712  0.5665702  0.1730201 
291.2      0.3580735  0.5725905  0.186485  
291.3      0.3641666  0.5598863  0.1767571 
291.4      0.3563481  0.5627493  0.1985557 
291.5      0.3442522  0.5696595  0.1983222 
291.6      0.3327724  0.581466   0.1986046 
291.7      0.326222   0.6121659  0.2158072 
291.8      0.3264296  0.6318568  0.2166544 
291.9      0.329645   0.6347651  0.2201592 
292        0.3205253  0.6534991  0.2549891 
292.1      0.3122926  0.6713191  0.2838665 
292.2      0.3178345  0.663833   0.2643305 
292.3      0.3131325  0.676865   0.2525325 
292.4      0.3038058  0.6955481  0.2682189 
292.5      0.3080216  0.6831695  0.2550494 
292.6      0.3035907  0.6930692  0.2582469 
292.7      0.2969954  0.7122908  0.2806655 
292.8      0.3142703  0.6799001  0.2652413 
292.9      0.3159938  0.6740412  0.2568855 
293        0.3089797  0.6820941  0.2649074 
293.1      0.302313   0.6813051  0.2697428 
293.2      0.3018668  0.653746   0.2743827 
293.3      0.3199403  0.5960317  0.2641532 
293.4      0.3429125  0.5788435  0.250901  
293.5      0.3371613  0.6090147  0.2842044 
293.6      0.3485474  0.6043387  0.2655635 
293.7      0.339084   0.623733   0.2842525 
293.8      0.3432639  0.6153749  0.2554287 
293.9      0.3402645  0.6140409  0.2716202 
294        0.3308875  0.6263369  0.2787886 
294.1      0.3343075  0.6130628  0.2755836 
294.2      0.324926   0.6238046  0.2986917 
294.3      0.3148542  0.6425835  0.3176758 
294.4      0.3079279  0.6713087  0.3250215 
294.5      0.2960013  0.706887   0.3468791 
294.6      0.2597618  0.8013569  0.4010803 
294.7      0.2423818  0.8551453  0.4348961 
294.8      0.240487   0.8610508  0.4525401 
294.9      0.2215609  0.9338907  0.4922493 
295        0.1654587  1          0.628823  
295.1      0.1473226  1          0.6611683 
295.2      0.08255914 1          0.8364508 
295.3      0.0331482  1          1         
295.4      0.04026052 1          1         
295.5      0.05456116 1          1         
295.6      0.06332713 1          1         
295.7      0.05367358 1          1         
295.8      0.05319751 1          1         
295.9      0.05634756 1          1         
296        0.07306908 1          1         
296.1      0.07616    1          1         
296.2      0.07927917 1          1         
296.3      0.08322337 1          1         
296.4      0.07861115 1          1         
296.5      0.07909676 1          1         
296.6      0.07805691 1          1         
296.7      0.0764904  1          1         
296.8      0.06629366 1          1         
296.9      0.06162635 1          1         
297        0.03856055 1          1         
297.1      0.02458435 1          1         
297.2      0.02377142 1          1         
297.3      0.02271156 1          1         
297.4      0.02051314 1          1         
297.5      0.02676689 1          1         
297.6      0.02767076 1          1         
297.7      0.02520511 1          1         
297.8      0.03255915 1          1         
297.9      0.03035224 1          1         
298        0.03357537 1          1         
298.1      0.02896928 1          1         
298.2      0.02471371 1          1         
298.3      0.01830901 1          1         
298.4      0.01033798 1          1         
298.5      0.003612755 1          1         
298.6      0.002751641 1          1         
298.7      0.004139789 1          1         
298.8      0.01398028 1          1         
298.9      0.02289299 1          1         
299        0.04425959 1          1         
299.1      0.06306954 1          1         
299.2      0.07627073 1          1         
299.3      0.07196178 1          1         
299.4      0.09789348 1          0.9064032 
299.5      0.06670541 1          1         
299.6      0.06350957 1          0.9889461 
299.7      0.06762226 1          0.9632688 
299.8      0.06816256 1          0.9460528 
299.9      0.03883573 1          1         
300        0.02826227 1          1         
300.1      0.07799498 1          0.8283153 
300.2      0.1138416  1          0.7040613 
300.3      0.09040584 1          0.7529563 
300.4      0.1168509  1          0.6879033 
300.5      0.14085    1          0.6318149 
300.6      0.1366706  1          0.644028  
300.7      0.151808   1          0.5945875 
300.8      0.1403295  1          0.6340578 
300.9      0.1583425  1          0.5855466 
301        0.1910124  1          0.5102234 
301.1      0.1834285  1          0.5406792 
301.2      0.2246565  1          0.4592613 
301.3      0.1994466  1          0.5001072 
301.4      0.1865648  1          0.536765  
301.5      0.1598029  1          0.5812557 
301.6      0.1279766  1          0.6496888 
301.7      0.07801885 1          0.7569273 
301.8      0.06256643 1          0.7923263 
301.9      0.03497079 1          0.8640298 
302        0.03737146 1          0.856304  
302.1      0.04443707 1          0.8331891 
302.2      0.03450313 1          0.8498219 
302.3      0.06043173 1          0.7541854 
302.4      0.07083248 1          0.7183037 
302.5      0.09085297 1          0.6676912 
302.6      0.08023714 1          0.7107728 
302.7      0.06498123 1          0.7532751 
302.8      0.07548355 1          0.7247493 
302.9      0.0757685  1          0.712951  
303        0.09459241 1          0.6662266 
303.1      0.1068799  1          0.6263638 
303.2      0.1279583  1          0.5920523 
303.3      0.1332209  1          0.6008266 
303.4      0.1302202  1          0.5977397 
303.5      0.1497946  1          0.5848928 
303.6      0.1422583  1          0.6239684 
303.7      0.160694   1          0.6021147 
303.8      0.1674059  1          0.6064934 
303.9      0.1849797  1          0.5813136 
304        0.1757701  1          0.6194021 
304.1      0.1592696  1          0.6648088 
304.2      0.1286052  1          0.7312651 
304.3      0.1076016  1          0.7845142 
304.4      0.07844303 1          0.8677769 
304.5      0.1046368  1          0.8094201 
304.6      0.131398   1          0.7507108 
304.7      0.1423641  1          0.721146  
304.8      0.1333974  1          0.7369123 
304.9      0.1172948  1          0.7779185 
305        0.1304701  1          0.7455878 
305.1      0.1120885  1          0.7670538 
305.2      0.1256648  1          0.7301075 
305.3      0.1248516  1          0.7412452 
305.4      0.1459002  1          0.718692  
305.5      0.1300399  1          0.7923928 
305.6      0.1091971  1          0.8431704 
305.7      0.08226398 1          0.9242637 
305.8      0.06352887 1          0.985378  
305.9      0.05732252 1          1         
306        0.07794125 1          0.9619734 
306.1      0.07274663 1          0.9523413 
306.2      0.1060383  1          0.8628059 
306.3      0.09787183 1          0.9100444 
306.4      0.07262212 1          0.9930311 
306.5      0.07426097 1          1         
306.6      0.09278588 1          0.9755877 
306.7      0.05774605 1          1         
306.8      0.0434282  1          1         
306.9      0.03066886 1          0.9507102 
307        0.01428174 1          1         
307.1      0.00941164 1          1         
307.2      0.01231994 1          1         
307.3      0.01913944 1          0.9806442 
307.4      0.01078489 1          1         
307.5      0.0152576  1          1         
307.6      0.01617744 1          1         
307.7      0.01658254 1          1         
307.8      0.02486765 1          0.9665876 
