~Version
 VERS              .         3.0                           : CWLS LOG ASCII STANDARD - VERSION 3.0
 WRAP              .         NO                            : ONE LINE PER DEPTH STEP
 DLM               .         SPACE                         : DELIMITING CHARACTER(SPACE TAB OR COMMA)
~Well Information
#_______________________________________________________________________________
#
#PARAMETER_NAME    .UNIT     VALUE                         : DESCRIPTION
#_______________________________________________________________________________
STRT               .M        0.8                           : First reference value
STOP               .M        916                           : Last reference value
STEP               .M        0.1                           : Step increment
NULL               .         -9999                         : Missing value
COMP               .         ICPetroleum                   : Company
WELL               .         315                           : Well name
FLD                .         Karatobe                      : Field
LOC                .                                       : Location
SRVC               .         KF GIS "Kazpromgeophysika"    : Service Company
CTRY               .         KZ                            : Country
DATE               .         10-11/12/04                   : Service Date
LATI               .         0                             : Latitude
LONG               .         0                             : Longitude
GDAT               .         WGS 84                        : Geodetic Datum
CNTY               .         Kyzyl-Orda                    : 
COORDIN            .                                       : Grid System
COUNTRY            .         Kazakhstan                    : 
COUNTRY            .         Kazakhstan                    : 
EREF               .m        143.9                         : 
KB                 .         143.1                         : KB Elevation
ORIGINALWELLNAME   .         315                           : 
PROV               .                                       : Province
RWS                .         -999                          : Def_Rw
UWI                .         _                             : 
WST                .         -999                          : Def_Rwt
X                  .km       466109.31                     : 
XCOORD             .                                       : X or East-West Coordinate
Y                  .km       5307574.09                    : 
YCOORD             .                                       : Y or North-South Coordinate
~Parameter Information Block
#_______________________________________________________________________________
#
#PARAMETER_NAME    .UNIT     VALUE                         : DESCRIPTION
#_______________________________________________________________________________
SET                .         Las                           : 
BS                 .MM       215.90                        : Bit Size
DFD                .G/C3     1.14                          : Drilling Fluid Density
DFV                .S        50.00                         : Drilling Fluid Viscosity
RMS                .OHMM     .00                           : Mud Sample Resistivity
TLFamily_DEPT      .         Measured Depth                : 
TLFamily_PHI_FINAL .         Porosity                      : 
TLFamily_SW_AR     .         Water Saturation              : 
TLFamily_VSH_FINAL .         Shale Volume                  : 
~Curve Information
#_______________________________________________________________________________
#
#LOGNAME           .UNIT     LOG_ID                        : DESCRIPTION
#_______________________________________________________________________________
DEPT               .M                                      : Depth curve {F}
PHI_FINAL          .m3/m3                                  : Porosity {F}
SW_AR              .m3/m3                                  :  {F}
VSH_FINAL          .unitless                               : Vshale {F}
~Ascii
# ...
690        0.3758039  0.4104472  0.05653621
690.1      0.3733324  0.4604731  0.0704065 
690.2      0.3716194  0.4987322  0.07500196
690.3      0.3729582  0.512497   0.08000693
690.4      0.3765064  0.5057834  0.07981866
690.5      0.3723961  0.4945714  0.07733498
690.6      0.3772442  0.4727957  0.06948303
690.7      0.3717725  0.478343   0.06495604
690.8      0.3726854  0.4750549  0.06445692
690.9      0.3733948  0.4605272  0.06277663
691        0.3678717  0.4642571  0.06560171
691.1      0.3731393  0.4644649  0.05613893
691.2      0.3712662  0.484242   0.05687315
691.3      0.3621223  0.5101812  0.06830156
691.4      0.362567   0.5249159  0.06804341
691.5      0.3605336  0.5491986  0.06661411
691.6      0.3603185  0.5537643  0.07225572
691.7      0.3628532  0.5385078  0.07350907
691.8      0.3696726  0.516747   0.05967973
691.9      0.3679262  0.5160191  0.06881753
692        0.368163   0.5271716  0.07171445
692.1      0.373083   0.5353706  0.06804746
692.2      0.3759704  0.5410625  0.06009883
692.3      0.3812286  0.5392241  0.05091852
692.4      0.3842388  0.5346136  0.04647816
692.5      0.3853232  0.524246   0.04770615
692.6      0.3893966  0.5186731  0.05098155
692.7      0.3864392  0.5224271  0.05165075
692.8      0.3909451  0.509859   0.04179357
692.9      0.3904448  0.4927993  0.03752325
693        0.3893104  0.4694413  0.03378897
693.1      0.3853089  0.4660906  0.03255794
693.2      0.3863572  0.4801599  0.03013723
693.3      0.3893867  0.4856514  0.02829275
693.4      0.3895334  0.4821224  0.03306668
693.5      0.3899721  0.4784749  0.03400469
693.6      0.3907442  0.487038   0.03085509
693.7      0.3894085  0.5086521  0.03390225
693.8      0.3891016  0.529709   0.04252901
693.9      0.3847196  0.5661863  0.04481629
694        0.3872506  0.5891874  0.04109934
694.1      0.3843778  0.6160726  0.04126906
694.2      0.3832293  0.6422498  0.04473529
694.3      0.3840155  0.6518682  0.05155083
694.4      0.3832275  0.6679876  0.04935732
694.5      0.3857754  0.6838176  0.04629778
694.6      0.3837988  0.706961   0.05153914
694.7      0.3868144  0.719884   0.04748271
694.8      0.3897803  0.7242994  0.04400727
694.9      0.3857438  0.7301308  0.04599684
695        0.3916125  0.7085369  0.04431894
695.1      0.3949062  0.6856577  0.04652899
695.2      0.4000839  0.6540791  0.0446668 
695.3      0.403154   0.6633099  0.04346273
695.4      0.4055576  0.7281663  0.0419572 
695.5      0.4011426  0.8775701  0.04377305
695.6      0.3893013  1          0.04806862
695.7      0.3861681  1          0.05172075
695.8      0.3826248  1          0.05482163
695.9      0.3801548  1          0.04610616
696        0.3822764  1          0.04542303
696.1      0.3758208  1          0.05374123
696.2      0.3778598  1          0.05488147
696.3      0.3687382  1          0.06421895
696.4      0.3672167  1          0.0742749 
696.5      0.3601986  1          0.08883924
696.6      0.359421   1          0.09196196
696.7      0.3633444  1          0.08669028
696.8      0.3595022  1          0.07517055
696.9      0.3529588  1          0.06599806
697        0.3404526  1          0.06179203
697.1      0.3359404  1          0.05979108
697.2      0.3449308  1          0.06413265
697.3      0.3523439  1          0.05229531
697.4      0.3548951  1          0.0522538 
697.5      0.363754   1          0.03959165
697.6      0.3748942  1          0.03076898
697.7      0.3764775  1          0.02130065
697.8      0.3771069  1          0.002407938
697.9      0.3703432  1          0         
698        0.3647766  1          0         
698.1      0.3548689  1          0         
698.2      0.3509557  1          0         
698.3      0.356944   1          0         
698.4      0.3488594  1          0.002383371
698.5      0.3428003  1          0.00468772
698.6      0.3258719  1          0.007028988
698.7      0.3069191  1          0.0200499 
698.8      0.3012148  1          0.02858707
698.9      0.2971373  1          0.03840142
699        0.2855362  1          0.04289028
699.1      0.2838233  1          0.04571123
699.2      0.2864944  1          0.04750483
699.3      0.2889983  1          0.0363544 
699.4      0.2907537  1          0.03582349
699.5      0.2949104  1          0.04720511
699.6      0.2955512  1          0.06214897
699.7      0.2869892  1          0.06466036
699.8      0.302384   1          0.05242163
699.9      0.3162421  1          0.03040492
700        0.3323482  1          0.01183813
700.1      0.3503776  1          0         
700.2      0.3540171  1          0         
700.3      0.3628572  1          0         
700.4      0.3652501  1          0         
700.5      0.3646477  1          0         
700.6      0.3639487  1          0         
700.7      0.3696544  1          0         
700.8      0.3722156  1          0         
700.9      0.3717563  1          0         
701        0.3670799  1          0         
701.1      0.3667301  1          0         
701.2      0.3627708  1          0         
701.3      0.3587502  1          0         
701.4      0.3580734  1          0         
701.5      0.3560772  1          0         
701.6      0.3592978  1          0         
701.7      0.3616857  1          0         
701.8      0.3600736  1          0         
701.9      0.3605832  1          0.0009253095
702        0.3533483  1          0.006665939
702.1      0.3619175  1          0.003976323
702.2      0.3540609  1          0.0097962 
702.3      0.352749   1          0.01142792
702.4      0.3438062  1          0.01794051
702.5      0.3303475  1          0.03231175
702.6      0.3054782  1          0.0489459 
702.7      0.2856628  1          0.07037742
702.8      0.2707306  1          0.08245226
702.9      0.2568576  1          0.1068352 
703        0.1338095  1          0.2528477 
703.1      0.1133996  1          0.2502417 
703.2      0.1204095  1          0.2324076 
703.3      0.1300066  1          0.2357779 
703.4      0.1491842  1          0.2385736 
703.5      0.1526007  1          0.2469576 
703.6      0.157339   1          0.2528477 
703.7      0.1610432  1          0.2702531 
703.8      0.1411562  1          0.2718691 
703.9      0.1519111  1          0.2473024 
704        0.1475709  1          0.2260593 
704.1      0.1361921  1          0.2227469 
704.2      0.1387392  1          0.2220868 
704.3      0.1282541  1          0.231736  
704.4      0.1278591  1          0.2170793 
704.5      0.1336014  1          0.2375554 
704.6      0.1346051  1          0.2661429 
704.7      0.1190147  1          0.2711503 
704.8      0.1329627  1          0.2257271 
704.9      0.130512   1          0.2260593 
705        0.09830552 1          0.2475612 
705.1      0.0872284  1          0.2272233 
705.2      0.08399983 1          0.2362006 
705.3      0.09252232 1          0.2292245 
705.4      0.09544972 1          0.2352711 
705.5      0.1036691  1          0.2233251 
705.6      0.1065202  1          0.1996312 
705.7      0.1064963  1          0.2117126 
705.8      0.09622093 1          0.2246491 
705.9      0.1121763  1          0.2244007 
706        0.09792755 1          0.2128465 
706.1      0.07636476 1          0.2041597 
706.2      0.06154351 1          0.214552  
706.3      0.06531377 1          0.2177334 
706.4      0.07468751 1          0.2358624 
706.5      0.08126418 1          0.2595018 
706.6      0.0678554  1          0.2930915 
706.7      0.1013544  1          0.2791952 
706.8      0.1070463  1          0.2898425 
706.9      0.1146425  1          0.2680158 
707        0.1113856  1          0.2610889 
707.1      0.1055999  1          0.2527606 
707.2      0.1014873  1          0.2387435 
707.3      0.100243   1          0.2269737 
707.4      0.1027136  1          0.2385736 
707.5      0.09809569 1          0.2402747 
707.6      0.09001005 1          0.259766  
707.7      0.1144912  1          0.2405303 
707.8      0.1190226  1          0.2631231 
707.9      0.1126314  1          0.2548535 
708        0.1226276  1          0.2568662 
708.1      0.1424788  1          0.2193722 
