~Version
 VERS              .         3.0                           : CWLS LOG ASCII STANDARD - VERSION 3.0
 WRAP              .         NO                            : ONE LINE PER DEPTH STEP
 DLM               .         SPACE                         : DELIMITING CHARACTER(SPACE TAB OR COMMA)
~Well Information
#_______________________________________________________________________________
#
#PARAMETER_NAME    .UNIT     VALUE                         : DESCRIPTION
#_______________________________________________________________________________
STRT               .M        0.8                           : First reference value
STOP               .M        916                           : Last reference value
STEP               .M        0.1                           : Step increment
NULL               .         -9999                         : Missing value
COMP               .         ICPetroleum                   : Company
WELL               .         315                           : Well name
FLD                .         Karatobe                      : Field
LOC                .                                       : Location
SRVC               .         KF GIS "Kazpromgeophysika"    : Service Company
CTRY               .         KZ                            : Country
DATE               .         10-11/12/04                   : Service Date
LATI               .         0                             : Latitude
LONG               .         0                             : Longitude
GDAT               .         WGS 84                        : Geodetic Datum
CNTY               .         Kyzyl-Orda                    : 
COORDIN            .                                       : Grid System
COUNTRY            .         Kazakhstan                    : 
COUNTRY            .         Kazakhstan                    : 
EREF               .m        143.9                         : 
KB                 .         143.1                         : KB Elevation
ORIGINALWELLNAME   .         315                           : 
PROV               .                                       : Province
RWS                .         -999                          : Def_Rw
UWI                .         _                             : 
WST                .         -999                          : Def_Rwt
X                  .km       466109.31                     : 
XCOORD             .                                       : X or East-West Coordinate
Y                  .km       5307574.09                    : 
YCOORD             .                                       : Y or North-South Coordinate
~Parameter Information Block
#_______________________________________________________________________________
#
#PARAMETER_NAME    .UNIT     VALUE                         : DESCRIPTION
#_______________________________________________________________________________
SET                .         Las                           : 
BS                 .MM       215.90                        : Bit Size
DFD                .G/C3     1.14                          : Drilling Fluid Density
DFV                .S        50.00                         : Drilling Fluid Viscosity
RMS                .OHMM     .00                           : Mud Sample Resistivity
TLFamily_DEPT      .         Measured Depth                : 
TLFamily_PHI_FINAL .         Porosity                      : 
TLFamily_SW_AR     .         Water Saturation              : 
TLFamily_VSH_FINAL .         Shale Volume                  : 
~Curve Information
#_______________________________________________________________________________
#
#LOGNAME           .UNIT     LOG_ID                        : DESCRIPTION
#_______________________________________________________________________________
DEPT               .M                                      : Depth curve {F}
PHI_FINAL          .m3/m3                                  : Porosity {F}
SW_AR              .m3/m3                                  :  {F}
VSH_FINAL          .unitless                               : Vshale {F}
~Ascii
# ...
799.2      0.08243163 1          0.3455326 
799.3      0.09499825 1          0.3388059 
799.4      0.1011354  1          0.3219396 
799.5      0.09467479 1          0.3399056 
799.6      0.09240415 1          0.3856259 
799.7      0.112687   1          0.3846644 
799.8      0.08628607 1          0.4404273 
799.9      0.1084665  1          0.4750139 
800        0.1044812  1          0.480564  
800.1      0.09038187 1          0.4645017 
800.2      0.1071702  1          0.4854214 
800.3      0.08124353 1          0.4735722 
800.4      0.07297405 1          0.5156884 
800.5      0.08345108 1          0.5240666 
800.6      0.07114514 1          0.5019067 
800.7      0.05861943 1          0.526494  
800.8      0.04839695 1          0.4872505 
800.9      0.05706267 1          0.485787  
801        0.0468923  1          0.4508541 
801.1      0.03051257 1          0.4300261 
801.2      0.03029007 1          0.3842377 
801.3      0.02367876 1          0.376492  
801.4      0.0615676  1          0.3400057 
801.5      0.0685964  1          0.3585725 
801.6      0.04227601 1          0.3540619 
801.7      0.04299464 1          0.3436182 
801.8      0.06054821 1          0.3459364 
801.9      0.04374515 1          0.358984  
802        0.00644911 1          0.3843443 
802.1      0.007977137 1          0.3598078 
802.2      0.02393463 1          0.3377079 
802.3      0.05849921 1          0.3045501 
802.4      0.09390444 1          0.2942093 
802.5      0.1228087  1          0.2946757 
802.6      0.1366399  1          0.338706  
802.7      0.1413447  1          0.3732282 
802.8      0.130534   1          0.3999846 
802.9      0.1452148  1          0.3960698 
803        0.1132662  1          0.4346949 
803.1      0.1084776  1          0.4649764 
803.2      0.09168239 1          0.4800799 
803.3      0.1263726  1          0.4721332 
803.4      0.1140216  1          0.4541267 
803.5      0.07784393 1          0.4471308 
803.6      0.08748511 1          0.3983509 
803.7      0.05071393 1          0.4033726 
803.8      0.098173   1          0.3940122 
803.9      0.1061597  1          0.4008574 
804        0.0833749  1          0.4203255 
804.1      0.0720435  1          0.3828521 
804.2      0.09244307 1          0.3554938 
804.3      0.1097028  1          0.3368109 
804.4      0.1014869  1          0.3467445 
804.5      0.1151076  1          0.3264344 
804.6      0.1141878  1          0.3615616 
804.7      0.0970238  1          0.3519194 
804.8      0.08515272 1          0.3242808 
804.9      0.1008642  1          0.3308615 
805        0.09270251 1          0.3366116 
805.1      0.09313662 1          0.3331358 
805.2      0.07974478 1          0.3486679 
805.3      0.07008316 1          0.3355173 
805.4      0.0595426  1          0.3313553 
805.5      0.07025102 1          0.3469467 
805.6      0.07205243 1          0.3348219 
805.7      0.07768296 1          0.329678  
805.8      0.06879213 1          0.3279068 
805.9      0.07207653 1          0.3047397 
806        0.07409124 1          0.2958898 
806.1      0.07863934 1          0.2864263 
806.2      0.06809926 1          0.3102625 
806.3      0.06610363 1          0.3470479 
806.4      0.08171778 1          0.3539597 
806.5      0.09527207 1          0.3698749 
806.6      0.08472618 1          0.4017313 
806.7      0.09763894 1          0.4478275 
806.8      0.07932834 1          0.5300835 
806.9      0.06527818 1          0.5258545 
807        0.0540319  1          0.5180919 
807.1      0.05236057 1          0.5277741 
807.2      0.0434436  1          0.5180919 
807.3      0.02830926 1          0.5435486 
807.4      0.02504349 1          0.5486522 
807.5      0.02625859 1          0.548521  
807.6      0.01144763 1          0.5021554 
807.7      0.01293774 1          0.4878611 
807.8      0.04651513 1          0.4576484 
807.9      0.07220726 1          0.4362957 
808        0.06930746 1          0.4501547 
808.1      0.06856909 1          0.428665  
808.2      0.08452326 1          0.4004208 
808.3      0.06931166 1          0.3688303 
808.4      0.0432843  1          0.3618715 
808.5      0.04213903 1          0.3400057 
808.6      0.05157508 1          0.3103582 
808.7      0.05683048 1          0.3018074 
808.8      0.06335896 1          0.288363  
808.9      0.04709133 1          0.32389   
809        0.04711612 1          0.3306642 
809.1      0.04318761 1          0.3794529 
809.2      0.04119875 1          0.4257244 
809.3      0.009416923 1          0.5017826 
809.4      0.02344989 1          0.5440707 
809.5      0.02681122 1          0.5066421 
809.6      0.04834944 1          0.481412  
809.7      0.02988433 1          0.4471308 
809.8      0.01448283 1          0.4046882 
809.9      0.009210486 1          0.4084288 
810        0.01581842 1          0.4256115 
810.1      0.03909226 1          0.4249347 
810.2      0.04639075 1          0.4550643 
810.3      0.05820334 1          0.4859089 
810.4      0.05475209 1          0.505643  
810.5      0.06290988 1          0.5019067 
810.6      0.06094915 1          0.5165731 
810.7      0.1028418  1          0.4521382 
810.8      0.1024534  1          0.4294587 
810.9      0.1197288  1          0.4527225 
811        0.1185004  1          0.4468987 
811.1      0.08013089 1          0.4673549 
811.2      0.1019729  1          0.4730922 
811.3      0.09683917 1          0.4685468 
811.4      0.1165744  1          0.421447  
811.5      0.135867   1          0.3918525 
811.6      0.1276506  1          0.381788  
811.7      0.1073748  1          0.3807257 
811.8      0.1178865  1          0.3949861 
811.9      0.08901317 1          0.3971552 
812        0.08832617 1          0.3834912 
812.1      0.09374048 1          0.3650826 
812.2      0.08835202 1          0.4014034 
812.3      0.1029843  1          0.3776537 
812.4      0.08647913 1          0.3797709 
812.5      0.07126732 1          0.3834912 
812.6      0.07890367 1          0.3955278 
812.7      0.08652304 1          0.4016219 
812.8      0.07546085 1          0.4412332 
812.9      0.08285733 1          0.4100852 
813        0.08156458 1          0.4304803 
813.1      0.0950174  1          0.426741  
813.2      0.09244022 1          0.4315033 
813.3      0.08813997 1          0.434124  
813.4      0.07350092 1          0.4498052 
813.5      0.07344098 1          0.4119668 
813.6      0.0511775  1          0.4198774 
813.7      0.05147558 1          0.4166362 
813.8      0.07073665 1          0.4218962 
813.9      0.09266312 1          0.3667458 
814        0.09393658 1          0.356416  
814.1      0.08837657 1          0.3633199 
814.2      0.09585455 1          0.3818944 
814.3      0.09402336 1          0.4221209 
814.4      0.09275372 1          0.4204376 
814.5      0.09065435 1          0.3815755 
814.6      0.0599122  1          0.4280987 
814.7      0.06111684 1          0.4440029 
814.8      0.06586115 1          0.4278722 
814.9      0.0760721  1          0.3971552 
815        0.09098201 1          0.378394  
815.1      0.0738398  1          0.3826391 
815.2      0.08705855 1          0.3558011 
815.3      0.0712596  1          0.3435175 
815.4      0.09766167 1          0.3317505 
815.5      0.08691421 1          0.3502918 
815.6      0.09966509 1          0.3529388 
815.7      0.09768976 1          0.3476549 
815.8      0.1016585  1          0.3581612 
815.9      0.1005567  1          0.3379074 
816        0.1020264  1          0.3369104 
816.1      0.09737074 1          0.3327397 
816.2      0.08792755 1          0.3028463 
816.3      0.1192811  1          0.2082444 
816.4      0.1133799  1          0.1743085 
816.5      0.1301094  1          0.1294282 
816.6      0.1347725  1          0.1155735 
816.7      0.1449645  1          0.1049211 
816.8      0.1532047  0.9653339  0.09490396
816.9      0.1644177  0.8611446  0.07877989
817        0.1548945  0.9122238  0.06115868
817.1      0.1559117  0.8911735  0.05970074
817.2      0.1474921  0.9354748  0.05032727
817.3      0.1399285  0.9875778  0.05004334
