~Version
 VERS              .         3.0                           : CWLS LOG ASCII STANDARD - VERSION 3.0
 WRAP              .         NO                            : ONE LINE PER DEPTH STEP
 DLM               .         SPACE                         : DELIMITING CHARACTER(SPACE TAB OR COMMA)
~Well Information
#_______________________________________________________________________________
#
#PARAMETER_NAME    .UNIT     VALUE                         : DESCRIPTION
#_______________________________________________________________________________
STRT               .M        0.8                           : First reference value
STOP               .M        916                           : Last reference value
STEP               .M        0.1                           : Step increment
NULL               .         -9999                         : Missing value
COMP               .         ICPetroleum                   : Company
WELL               .         315                           : Well name
FLD                .         Karatobe                      : Field
LOC                .                                       : Location
SRVC               .         KF GIS "Kazpromgeophysika"    : Service Company
CTRY               .         KZ                            : Country
DATE               .         10-11/12/04                   : Service Date
LATI               .         0                             : Latitude
LONG               .         0                             : Longitude
GDAT               .         WGS 84                        : Geodetic Datum
CNTY               .         Kyzyl-Orda                    : 
COORDIN            .                                       : Grid System
COUNTRY            .         Kazakhstan                    : 
COUNTRY            .         Kazakhstan                    : 
EREF               .m        143.9                         : 
KB                 .         143.1                         : KB Elevation
ORIGINALWELLNAME   .         315                           : 
PROV               .                                       : Province
RWS                .         -999                          : Def_Rw
UWI                .         _                             : 
WST                .         -999                          : Def_Rwt
X                  .km       466109.31                     : 
XCOORD             .                                       : X or East-West Coordinate
Y                  .km       5307574.09                    : 
YCOORD             .                                       : Y or North-South Coordinate
~Parameter Information Block
#_______________________________________________________________________________
#
#PARAMETER_NAME    .UNIT     VALUE                         : DESCRIPTION
#_______________________________________________________________________________
SET                .         Las                           : 
BS                 .MM       215.90                        : Bit Size
DFD                .G/C3     1.14                          : Drilling Fluid Density
DFV                .S        50.00                         : Drilling Fluid Viscosity
RMS                .OHMM     .00                           : Mud Sample Resistivity
TLFamily_DEPT      .         Measured Depth                : 
TLFamily_PHI_FINAL .         Porosity                      : 
TLFamily_SW_AR     .         Water Saturation              : 
TLFamily_VSH_FINAL .         Shale Volume                  : 
~Curve Information
#_______________________________________________________________________________
#
#LOGNAME           .UNIT     LOG_ID                        : DESCRIPTION
#_______________________________________________________________________________
DEPT               .M                                      : Depth curve {F}
PHI_FINAL          .m3/m3                                  : Porosity {F}
SW_AR              .m3/m3                                  :  {F}
VSH_FINAL          .unitless                               : Vshale {F}
~Ascii
# ...
599.1      0.1932802  1          0.5048388 
599.2      0.2082535  1          0.4658932 
599.3      0.2235891  1          0.4456516 
599.4      0.2194915  1          0.4703114 
599.5      0.2033701  1          0.5115176 
599.6      0.2087603  1          0.4805498 
599.7      0.2116022  1          0.4570583 
599.8      0.2082251  1          0.4630776 
599.9      0.2266302  1          0.4294786 
600        0.201222   1          0.4938871 
600.1      0.1776825  1          0.5460333 
600.2      0.1987016  1          0.4873211 
600.3      0.2037034  1          0.4736347 
600.4      0.1825476  1          0.5380555 
600.5      0.1881002  1          0.5229716 
600.6      0.2251953  1          0.4330021 
600.7      0.2308444  1          0.4191439 
600.8      0.2310944  1          0.4154019 
600.9      0.2351477  1          0.4187334 
601        0.2308641  1          0.4321553 
601.1      0.236744   1          0.4268121 
601.2      0.2393403  1          0.406592  
601.3      0.2544398  1          0.3692469 
601.4      0.2532391  1          0.3717358 
601.5      0.2588674  1          0.3628028 
601.6      0.2495235  1          0.3867443 
601.7      0.2375831  1          0.4329514 
601.8      0.2589595  1          0.3856739 
601.9      0.2647357  1          0.3797268 
602        0.2639853  1          0.3825458 
602.1      0.269223   1          0.3640942 
602.2      0.2784105  1          0.3382387 
602.3      0.2737668  1          0.3264596 
602.4      0.2646242  1          0.3517545 
602.5      0.2674012  1          0.3423434 
602.6      0.2582412  1          0.3807366 
602.7      0.2670345  1          0.351234  
602.8      0.2896661  1          0.2928879 
602.9      0.2851835  1          0.3184589 
603        0.3007716  1          0.3006362 
603.1      0.298302   1          0.3122849 
603.2      0.3003951  1          0.3169242 
603.3      0.2938682  1          0.3299142 
603.4      0.2898264  1          0.3290229 
603.5      0.2992781  1          0.3033938 
603.6      0.3000784  1          0.2988375 
603.7      0.304086   1          0.3016179 
603.8      0.3048906  1          0.3214144 
603.9      0.3110538  1          0.3031296 
604        0.3091284  1          0.3106578 
604.1      0.3204253  1          0.2752738 
604.2      0.3152971  1          0.2733498 
604.3      0.3031239  1          0.2980185 
604.4      0.301051   1          0.2958598 
604.5      0.3078336  1          0.274615  
604.6      0.3068243  1          0.2668884 
604.7      0.3106982  1          0.2513745 
604.8      0.3114862  1          0.245308  
604.9      0.3089777  1          0.2488683 
605        0.3124952  1          0.2384733 
605.1      0.3155963  1          0.2331069 
605.2      0.3045794  1          0.2488784 
605.3      0.2920945  1          0.2613639 
605.4      0.2738139  1          0.2889917 
605.5      0.2606482  1          0.3134389 
605.6      0.2470155  1          0.3446083 
605.7      0.2266359  1          0.3929494 
605.8      0.2165216  1          0.4311137 
605.9      0.2269224  1          0.4292459 
606        0.2420315  1          0.4167069 
606.1      0.2468417  1          0.3937178 
606.2      0.290725   1          0.2910084 
606.3      0.3112342  1          0.2534616 
606.4      0.3224533  1          0.22552   
606.5      0.3355005  1          0.1984109 
606.6      0.3360001  1          0.194452  
606.7      0.3423596  1          0.1650032 
606.8      0.3402227  1          0.1676939 
606.9      0.3481618  1          0.1590723 
607        0.335306   1          0.1834366 
607.1      0.3312651  1          0.2035291 
607.2      0.31801    1          0.2333803 
607.3      0.3185247  1          0.2360569 
607.4      0.3320958  1          0.2196181 
607.5      0.3344566  1          0.2124006 
607.6      0.3225805  1          0.2284851 
607.7      0.3172475  1          0.2273646 
607.8      0.3126276  1          0.2289816 
607.9      0.3130509  1          0.2170202 
608        0.3090107  1          0.2208032 
608.1      0.3080301  1          0.222655  
608.2      0.3178304  1          0.19763   
608.3      0.3248257  1          0.1786924 
608.4      0.3174837  1          0.1909209 
608.5      0.3257192  1          0.1687951 
608.6      0.3262049  1          0.1597885 
608.7      0.3303064  1          0.1554692 
608.8      0.3287686  1          0.1572072 
608.9      0.3275026  1          0.1757568 
609        0.3332432  1          0.1716006 
609.1      0.3469003  1          0.1540122 
609.2      0.3481956  1          0.1529569 
609.3      0.3511264  1          0.1498503 
609.4      0.3484187  1          0.1435092 
609.5      0.3509386  1          0.1388965 
609.6      0.3418289  1          0.1561655 
609.7      0.342182   1          0.1394547 
609.8      0.3477613  1          0.1379471 
609.9      0.3421698  1          0.153956  
610        0.3420684  1          0.1529015 
610.1      0.3470035  1          0.1466144 
610.2      0.3478745  1          0.1508755 
610.3      0.344645   1          0.1553546 
610.4      0.3466556  1          0.1484603 
610.5      0.3436743  1          0.1612578 
610.6      0.3490496  1          0.1488373 
610.7      0.3516862  1          0.1472663 
610.8      0.3515982  1          0.1508522 
610.9      0.3397097  1          0.1682986 
611        0.3425936  1          0.1526081 
611.1      0.3421068  1          0.1594487 
611.2      0.3441909  1          0.1552816 
611.3      0.3402265  1          0.1608391 
611.4      0.3394204  1          0.1654325 
611.5      0.3363159  1          0.1642548 
611.6      0.3431842  1          0.1590124 
611.7      0.3461047  1          0.1356313 
611.8      0.3398737  1          0.1571459 
611.9      0.341251   1          0.1564983 
612        0.3374197  1          0.1604381 
612.1      0.333469   1          0.1785847 
612.2      0.3404037  1          0.1563103 
612.3      0.3429303  1          0.1584033 
612.4      0.343888   1          0.1567687 
612.5      0.3467228  1          0.1556334 
612.6      0.3522453  1          0.1457107 
612.7      0.3483283  1          0.1509723 
612.8      0.347472   1          0.1541946 
612.9      0.3460333  1          0.1642335 
613        0.3428601  1          0.158572  
613.1      0.3423913  1          0.1537318 
613.2      0.3438973  1          0.1548955 
613.3      0.340358   1          0.1488387 
613.4      0.3266289  1          0.1721495 
613.5      0.327069   1          0.1649998 
613.6      0.3213059  1          0.1724865 
613.7      0.3268379  1          0.1648207 
613.8      0.3208358  1          0.1710359 
613.9      0.3215627  1          0.1629831 
614        0.3292717  1          0.1460411 
614.1      0.3309606  1          0.1437626 
614.2      0.3275468  1          0.1519758 
614.3      0.3359624  1          0.1427426 
614.4      0.3288121  1          0.1576406 
614.5      0.3308067  1          0.153237  
614.6      0.326642   1          0.1580304 
614.7      0.32281    1          0.1688073 
614.8      0.3242081  1          0.1715995 
614.9      0.3260706  1          0.1531059 
615        0.3276229  1          0.1487193 
615.1      0.3200992  1          0.1580198 
615.2      0.3253009  1          0.161191  
615.3      0.3227873  1          0.148742  
615.4      0.3246146  1          0.144903  
615.5      0.3312915  1          0.1338557 
615.6      0.3362635  1          0.1169418 
615.7      0.3399365  1          0.1150721 
615.8      0.3383199  1          0.1124771 
615.9      0.3414357  1          0.1085698 
616        0.3412487  1          0.1144049 
616.1      0.3333673  1          0.1299527 
616.2      0.3292403  1          0.1356698 
616.3      0.3203848  1          0.1579666 
616.4      0.3172327  1          0.1520488 
616.5      0.3116326  1          0.167247  
616.6      0.3115644  1          0.1698713 
616.7      0.3062319  1          0.183484  
616.8      0.3088384  1          0.1922325 
616.9      0.3094205  1          0.1914904 
617        0.3122159  1          0.1993449 
617.1      0.3042832  1          0.2318562 
617.2      0.2853277  1          0.2483124 
