~Version
 VERS              .         3.0                           : CWLS LOG ASCII STANDARD - VERSION 3.0
 WRAP              .         NO                            : ONE LINE PER DEPTH STEP
 DLM               .         SPACE                         : DELIMITING CHARACTER(SPACE TAB OR COMMA)
~Well Information
#_______________________________________________________________________________
#
#PARAMETER_NAME    .UNIT     VALUE                         : DESCRIPTION
#_______________________________________________________________________________
STRT               .M        0.8                           : First reference value
STOP               .M        916                           : Last reference value
STEP               .M        0.1                           : Step increment
NULL               .         -9999                         : Missing value
COMP               .         ICPetroleum                   : Company
WELL               .         315                           : Well name
FLD                .         Karatobe                      : Field
LOC                .                                       : Location
SRVC               .         KF GIS "Kazpromgeophysika"    : Service Company
CTRY               .         KZ                            : Country
DATE               .         10-11/12/04                   : Service Date
LATI               .         0                             : Latitude
LONG               .         0                             : Longitude
GDAT               .         WGS 84                        : Geodetic Datum
CNTY               .         Kyzyl-Orda                    : 
COORDIN            .                                       : Grid System
COUNTRY            .         Kazakhstan                    : 
COUNTRY            .         Kazakhstan                    : 
EREF               .m        143.9                         : 
KB                 .         143.1                         : KB Elevation
ORIGINALWELLNAME   .         315                           : 
PROV               .                                       : Province
RWS                .         -999                          : Def_Rw
UWI                .         _                             : 
WST                .         -999                          : Def_Rwt
X                  .km       466109.31                     : 
XCOORD             .                                       : X or East-West Coordinate
Y                  .km       5307574.09                    : 
YCOORD             .                                       : Y or North-South Coordinate
~Parameter Information Block
#_______________________________________________________________________________
#
#PARAMETER_NAME    .UNIT     VALUE                         : DESCRIPTION
#_______________________________________________________________________________
SET                .         Las                           : 
BS                 .MM       215.90                        : Bit Size
DFD                .G/C3     1.14                          : Drilling Fluid Density
DFV                .S        50.00                         : Drilling Fluid Viscosity
RMS                .OHMM     .00                           : Mud Sample Resistivity
TLFamily_DEPT      .         Measured Depth                : 
TLFamily_PHI_FINAL .         Porosity                      : 
TLFamily_SW_AR     .         Water Saturation              : 
TLFamily_VSH_FINAL .         Shale Volume                  : 
~Curve Information
#_______________________________________________________________________________
#
#LOGNAME           .UNIT     LOG_ID                        : DESCRIPTION
#_______________________________________________________________________________
DEPT               .M                                      : Depth curve {F}
PHI_FINAL          .m3/m3                                  : Porosity {F}
SW_AR              .m3/m3                                  :  {F}
VSH_FINAL          .unitless                               : Vshale {F}
~Ascii
# ...
744.6      0.1105896  1          0.2617956 
744.7      0.1273133  1          0.2529348 
744.8      0.1207662  1          0.2891948 
744.9      0.1203083  1          0.3027518 
745        0.1124829  1          0.2993585 
745.1      0.1373149  1          0.3049293 
745.2      0.1480066  1          0.3205777 
745.3      0.1432245  1          0.3108366 
745.4      0.1335485  1          0.305119  
745.5      0.1128002  1          0.3022795 
745.6      0.1044252  1          0.2827544 
745.7      0.1243229  1          0.2891023 
745.8      0.1104668  1          0.290213  
745.9      0.1226016  1          0.2849549 
746        0.124204   1          0.2855063 
746.1      0.1211087  1          0.2740306 
746.2      0.1302769  1          0.2728588 
746.3      0.1042165  1          0.2934638 
746.4      0.09997652 1          0.3098801 
746.5      0.09657644 1          0.28744   
746.6      0.08036424 1          0.2805617 
746.7      0.1099159  1          0.2880859 
746.8      0.1254049  1          0.2394235 
746.9      0.1283961  1          0.2392534 
747        0.1284513  1          0.2110656 
747.1      0.1283129  1          0.2195363 
747.2      0.1220197  1          0.2349335 
747.3      0.1313891  1          0.2230772 
747.4      0.1542799  1          0.2332483 
747.5      0.155193   1          0.230144  
747.6      0.1467607  1          0.2308138 
747.7      0.1359548  1          0.2415538 
747.8      0.1566759  1          0.2351022 
747.9      0.1464771  1          0.2357779 
748        0.1451452  1          0.2183065 
748.1      0.1482324  1          0.24181   
748.2      0.1441864  1          0.2635662 
748.3      0.1463328  1          0.2462686 
748.4      0.1484366  1          0.2551156 
748.5      0.1425361  1          0.2611772 
748.6      0.11937    1          0.2599422 
748.7      0.1247352  1          0.2681051 
748.8      0.1101575  1          0.2992645 
748.9      0.09821225 1          0.3058784 
749        0.1078485  1          0.3431153 
749.1      0.1059845  1          0.3474525 
749.2      0.1189599  1          0.3773367 
749.3      0.114502   1          0.3724933 
749.4      0.09209786 1          0.3906674 
749.5      0.1020749  1          0.3827456 
749.6      0.09219508 1          0.3620782 
749.7      0.08996693 1          0.3023739 
749.8      0.08850093 1          0.2880859 
749.9      0.1013856  1          0.2610889 
750        0.08749391 1          0.266321  
750.1      0.08621977 1          0.2806529 
750.2      0.08314107 1          0.2831206 
750.3      0.09661491 1          0.2733093 
750.4      0.09203365 1          0.2588858 
750.5      0.08774242 1          0.2754759 
750.6      0.0884569  1          0.2850467 
750.7      0.10301    1          0.2635662 
750.8      0.1127766  1          0.2403599 
750.9      0.1322286  1          0.228223  
751        0.1568138  1          0.2146333 
751.1      0.1552666  1          0.1978937 
751.2      0.1385905  1          0.1945923 
751.3      0.1381571  1          0.180066  
751.4      0.1214118  1          0.1910003 
751.5      0.1435127  1          0.191857  
751.6      0.1666699  1          0.1831227 
751.7      0.1682739  1          0.1816685 
751.8      0.1685503  1          0.1727291 
751.9      0.165855   1          0.1758929 
752        0.168232   1          0.161811  
752.1      0.1787163  1          0.1661643 
752.2      0.1809584  1          0.1685416 
752.3      0.1753613  1          0.1655718 
752.4      0.1565645  1          0.1734806 
752.5      0.142703   1          0.1746099 
752.6      0.1340619  1          0.1899896 
752.7      0.1412179  1          0.1836594 
752.8      0.1396953  1          0.1748361 
752.9      0.1532531  1          0.1827396 
753        0.1420299  1          0.2008985 
753.1      0.1284819  1          0.2189621 
753.2      0.1345325  1          0.2283898 
753.3      0.1266402  1          0.2272233 
753.4      0.1172345  1          0.2492026 
753.5      0.1210182  1          0.2483381 
753.6      0.1295847  1          0.2412124 
753.7      0.1302231  1          0.2410418 
753.8      0.1446997  1          0.2238213 
753.9      0.1318593  1          0.2254782 
754        0.129766   1          0.234596  
754.1      0.1104036  1          0.256428  
754.2      0.1032445  1          0.2627688 
754.3      0.1059678  1          0.2715096 
754.4      0.109884   1          0.2681944 
754.5      0.1303234  1          0.2407007 
754.6      0.1303283  1          0.2486838 
754.7      0.1205602  1          0.2418954 
754.8      0.118848   1          0.251717  
754.9      0.1130093  1          0.2315682 
755        0.136265   1          0.2224992 
755.1      0.1202612  1          0.222912  
755.2      0.1204132  1          0.2303951 
755.3      0.118819   1          0.2178153 
755.4      0.1283371  1          0.2194542 
755.5      0.1228771  1          0.216018  
755.6      0.1375301  1          0.1861976 
755.7      0.1544327  1          0.1727291 
755.8      0.1822663  1          0.1680949 
755.9      0.1760549  1          0.1752133 
756        0.1466241  1          0.1872782 
756.1      0.1524259  1          0.1995521 
756.2      0.1617738  1          0.195769  
756.3      0.1680229  1          0.2205222 
756.4      0.1640323  1          0.2340902 
756.5      0.1657286  1          0.2423227 
756.6      0.1587306  1          0.2361161 
756.7      0.1558216  1          0.2580068 
756.8      0.1526938  1          0.2686414 
756.9      0.1372369  1          0.2891948 
757        0.1290691  1          0.3249653 
757.1      0.1185569  1          0.3407066 
757.2      0.1144039  1          0.3448267 
757.3      0.08791004 1          0.3629058 
757.4      0.09665451 1          0.3491749 
757.5      0.1010612  1          0.3394055 
757.6      0.08581842 1          0.3398055 
757.7      0.08654594 1          0.3155441 
757.8      0.09974591 1          0.3306642 
757.9      0.09741008 1          0.338606  
758        0.09140355 1          0.3450283 
758.1      0.08873123 1          0.336114  
758.2      0.07966836 1          0.3449275 
758.3      0.07333155 1          0.3606325 
758.4      0.08087921 1          0.3368109 
758.5      0.08449294 1          0.334524  
758.6      0.08333354 1          0.3124659 
758.7      0.07801483 1          0.3105495 
758.8      0.09625167 1          0.2965446 
758.9      0.1142685  1          0.2772873 
759        0.1285615  1          0.2566908 
759.1      0.143072   1          0.2353555 
759.2      0.1510569  1          0.2442065 
759.3      0.150728   1          0.2233251 
759.4      0.1387482  1          0.2280562 
759.5      0.1315356  1          0.2425792 
759.6      0.1333146  1          0.2405303 
759.7      0.1186935  1          0.2542423 
759.8      0.1281935  1          0.2599422 
759.9      0.1054427  1          0.275295  
760        0.1111067  1          0.2840371 
760.1      0.1348713  1          0.2592377 
760.2      0.144627   1          0.2500684 
760.3      0.1410211  1          0.2503284 
760.4      0.1315613  1          0.2324917 
760.5      0.1352583  1          0.2339218 
760.6      0.1323667  1          0.2337533 
760.7      0.1201208  1          0.2273898 
760.8      0.119089   1          0.2248977 
760.9      0.09651858 1          0.2407007 
761        0.0760958  1          0.2488567 
761.1      0.08378374 1          0.2305625 
761.2      0.09331274 1          0.251717  
761.3      0.1277097  1          0.2503284 
761.4      0.114645   1          0.2580068 
761.5      0.1184524  1          0.2590617 
761.6      0.1227179  1          0.2605594 
761.7      0.1211347  1          0.2599422 
761.8      0.1054156  1          0.2973874 
761.9      0.09427683 1          0.3252589 
762        0.09837346 1          0.3133302 
762.1      0.09197755 1          0.2990765 
762.2      0.1039034  1          0.3241831 
762.3      0.1242065  1          0.3094979 
762.4      0.1138695  1          0.3466435 
762.5      0.102677   1          0.3506983 
762.6      0.08922525 1          0.3264344 
762.7      0.1001661  1          0.2952358 
