~Version
 VERS              .         3.0                           : CWLS LOG ASCII STANDARD - VERSION 3.0
 WRAP              .         NO                            : ONE LINE PER DEPTH STEP
 DLM               .         SPACE                         : DELIMITING CHARACTER(SPACE TAB OR COMMA)
~Well Information
#_______________________________________________________________________________
#
#PARAMETER_NAME    .UNIT     VALUE                         : DESCRIPTION
#_______________________________________________________________________________
STRT               .M        0.8                           : First reference value
STOP               .M        916                           : Last reference value
STEP               .M        0.1                           : Step increment
NULL               .         -9999                         : Missing value
COMP               .         ICPetroleum                   : Company
WELL               .         315                           : Well name
FLD                .         Karatobe                      : Field
LOC                .                                       : Location
SRVC               .         KF GIS "Kazpromgeophysika"    : Service Company
CTRY               .         KZ                            : Country
DATE               .         10-11/12/04                   : Service Date
LATI               .         0                             : Latitude
LONG               .         0                             : Longitude
GDAT               .         WGS 84                        : Geodetic Datum
CNTY               .         Kyzyl-Orda                    : 
COORDIN            .                                       : Grid System
COUNTRY            .         Kazakhstan                    : 
COUNTRY            .         Kazakhstan                    : 
EREF               .m        143.9                         : 
KB                 .         143.1                         : KB Elevation
ORIGINALWELLNAME   .         315                           : 
PROV               .                                       : Province
RWS                .         -999                          : Def_Rw
UWI                .         _                             : 
WST                .         -999                          : Def_Rwt
X                  .km       466109.31                     : 
XCOORD             .                                       : X or East-West Coordinate
Y                  .km       5307574.09                    : 
YCOORD             .                                       : Y or North-South Coordinate
~Parameter Information Block
#_______________________________________________________________________________
#
#PARAMETER_NAME    .UNIT     VALUE                         : DESCRIPTION
#_______________________________________________________________________________
SET                .         Las                           : 
BS                 .MM       215.90                        : Bit Size
DFD                .G/C3     1.14                          : Drilling Fluid Density
DFV                .S        50.00                         : Drilling Fluid Viscosity
RMS                .OHMM     .00                           : Mud Sample Resistivity
TLFamily_DEPT      .         Measured Depth                : 
TLFamily_PHI_FINAL .         Porosity                      : 
TLFamily_SW_AR     .         Water Saturation              : 
TLFamily_VSH_FINAL .         Shale Volume                  : 
~Curve Information
#_______________________________________________________________________________
#
#LOGNAME           .UNIT     LOG_ID                        : DESCRIPTION
#_______________________________________________________________________________
DEPT               .M                                      : Depth curve {F}
PHI_FINAL          .m3/m3                                  : Porosity {F}
SW_AR              .m3/m3                                  :  {F}
VSH_FINAL          .unitless                               : Vshale {F}
~Ascii
# ...
890.2      0.1087777  1          0.1843505 
890.3      0.1001294  1          0.1981302 
890.4      0.10053    1          0.205998  
890.5      0.09069908 1          0.2097741 
890.6      0.08004174 1          0.2189621 
890.7      0.06542518 1          0.2324917 
890.8      0.07989147 1          0.1982881 
890.9      0.07273774 1          0.2111465 
891        0.07031652 1          0.2267241 
891.1      0.09109417 1          0.20408   
891.2      0.09666102 1          0.1791526 
891.3      0.08849787 1          0.1489073 
891.4      0.06899153 1          0.1352289 
891.5      0.09448718 1          0.110544  
891.6      0.08749825 1          0.1163062 
891.7      0.106964   1          0.1201223 
891.8      0.09692377 1          0.1402592 
891.9      0.09412446 1          0.1517771 
892        0.09753276 1          0.1401889 
892.1      0.09524444 1          0.1559691 
892.2      0.1077793  1          0.1573502 
892.3      0.09672494 1          0.1666834 
892.4      0.09776711 1          0.1738568 
892.5      0.1119326  1          0.1712296 
892.6      0.1040234  1          0.1861205 
892.7      0.09837341 1          0.1773307 
892.8      0.1137019  1          0.1892134 
892.9      0.1077341  1          0.1855042 
893        0.1245514  1          0.1623255 
893.1      0.10752    1          0.1561869 
893.2      0.08603416 1          0.1459834 
893.3      0.0542568  1          0.1580787 
893.4      0.04869943 1          0.1284684 
893.5      0.08637925 1          0.08611085
893.6      0.08188467 1          0.06139245
893.7      0.09360179 0.8871241  0.0475538 
893.8      0.09848002 0.8689309  0.03896819
893.9      0.1036788  0.9886947  0.04329206
894        0.09254364 1          0.06515193
894.1      0.1022212  1          0.08024793
894.2      0.09951514 1          0.1134488 
894.3      0.100355   1          0.1205932 
894.4      0.08814172 1          0.1341184 
894.5      0.07706851 1          0.1317673 
894.6      0.09073    1          0.1373183 
894.7      0.09582976 1          0.1139791 
894.8      0.08569279 1          0.1184446 
894.9      0.07907205 1          0.1229549 
895        0.07017104 1          0.1432186 
895.1      0.06424481 1          0.1353679 
895.2      0.08126575 1          0.1294968 
895.3      0.1006136  1          0.1137139 
895.4      0.09126273 1          0.1088364 
895.5      0.001629491 1          0.1296341 
895.6      0          1          0.1370392 
895.7      0          1          0.1548091 
895.8      0          1          0.1626197 
895.9      0          1          0.1688395 
896        0          1          0.1802947 
896.1      0          1          0.1899119 
896.2      0          1          0.1763465 
896.3      0          1          0.1861976 
896.4      0          1          0.1827396 
896.5      0.01347789 1          0.1823568 
896.6      0.1006753  1          0.1855042 
896.7      0.08082354 1          0.1910003 
896.8      0.08717465 1          0.2174063 
896.9      0.07364693 1          0.2314005 
897        0.0537327  1          0.2531089 
897.1      0.04242174 1          0.2755663 
897.2      0.0465555  1          0.2915113 
897.3      0.04418246 1          0.2735796 
897.4      0.04509419 1          0.2824799 
897.5      0.06162209 1          0.2362852 
897.6      0.05808492 1          0.2303114 
897.7      0.07426228 1          0.2113082 
897.8      0.06480309 1          0.2114699 
897.9      0.08926962 1          0.1882836 
898        0.09099365 1          0.1444218 
898.1      0.1011455  1          0.1319053 
898.2      0.09739009 1          0.1286739 
898.3      0.07327809 1          0.1126547 
898.4      0.1103679  1          0.1061571 
898.5      0.07485428 1          0.1092955 
898.6      0.06002906 1          0.1057013 
898.7      0.0657864  1          0.1281262 
898.8      0.05906783 1          0.1369694 
898.9      0.02805897 1          0.1403997 
899        0.04080651 1          0.151058  
899.1      0.02108677 1          0.1621049 
899.2      0.00960908 1          0.2091294 
899.3      0          1          0.2487702 
899.4      0.005070082 1          0.2765621 
899.5      0          1          0.3012414 
899.6      0          1          0.351614  
899.7      0          1          0.3730181 
899.8      0          1          0.4071065 
899.9      0          1          0.4406574 
900        0          1          0.4863965 
900.1      0          1          0.5460312 
900.2      0          1          0.6139619 
900.3      0          1          0.7172223 
900.4      0          1          0.7925438 
900.5      0          1          0.9729965 
900.6      0          1          1         
900.7      0          1          1         
900.8      0          1          1         
900.9      0          1          1         
901        0          1          1         
901.1      0          1          1         
901.2      0          1          1         
901.3      0          1          1         
901.4      0          1          1         
901.5      0          1          1         
901.6      0          1          1         
901.7      0          1          1         
901.8      0          1          0.7013881 
901.9      0          1          0.374069  
902        0          1          0.08648394
902.1      0          1          0.0161701 
902.2      0          1          0         
902.3      0          1          0         
902.4      0          1          0         
902.5      0          1          0         
902.6      0          1          0         
902.7      0          1          0         
902.8      0          1          0         
902.9      0          1          0         
903        0          1          0         
903.1      0          1          0         
903.2      0          1          0         
903.3      0          1          0         
903.4      0          1          0         
903.5      0          1          0         
903.6      0          1          0         
903.7      0          1          0         
903.8      0          1          0         
903.9      0          1          0         
904        0          1          0         
904.1      0          1          0         
904.2      0          1          0         
904.3      0          1          0         
904.4      0          1          0         
904.5      0          1          0         
904.6      0          1          0         
904.7      0          1          0         
904.8      0          1          0         
904.9      0          1          0.003282609
905        0          1          0.02359087
905.1      0          1          0.03154857
905.2      0          1          0.05484175
905.3      0          1          0.06034156
905.4      0          1          0.07464892
905.5      0          1          0.07683068
905.6      0          1          0.07786503
905.7      0          1          0.07368302
905.8      0          1          0.07768232
905.9      0          1          0.07044006
906        0          1          0.0712783 
906.1      0          1          0.0618019 
906.2      0          1          0.06362031
906.3      0          1          0.05755294
906.4      0          1          0.06468003
906.5      0          1          0.0719982 
906.6      0          1          0.08067711
906.7      0          1          0.06787633
906.8      0          1          0.06990211
906.9      0          1          0.08289136
907        -9999      -9999      0.02007117
907.1      -9999      -9999      0.01679293
907.2      -9999      -9999      0.0212448 
907.3      -9999      -9999      0.01654517
907.4      -9999      -9999      0.01887873
907.5      -9999      -9999      0.01777819
907.6      -9999      -9999      0.01539533
907.7      -9999      -9999      0.01639417
907.8      -9999      -9999      0.01678609
907.9      -9999      -9999      0.01646581
908        -9999      -9999      0.009442336
908.1      -9999      -9999      0.006835794
908.2      -9999      -9999      0.003852239
908.3      -9999      -9999      0.002450519
