~Version
 VERS              .         3.0                           : CWLS LOG ASCII STANDARD - VERSION 3.0
 WRAP              .         NO                            : ONE LINE PER DEPTH STEP
 DLM               .         SPACE                         : DELIMITING CHARACTER(SPACE TAB OR COMMA)
~Well Information
#_______________________________________________________________________________
#
#PARAMETER_NAME    .UNIT     VALUE                         : DESCRIPTION
#_______________________________________________________________________________
STRT               .M        0.8                           : First reference value
STOP               .M        916                           : Last reference value
STEP               .M        0.1                           : Step increment
NULL               .         -9999                         : Missing value
COMP               .         ICPetroleum                   : Company
WELL               .         315                           : Well name
FLD                .         Karatobe                      : Field
LOC                .                                       : Location
SRVC               .         KF GIS "Kazpromgeophysika"    : Service Company
CTRY               .         KZ                            : Country
DATE               .         10-11/12/04                   : Service Date
LATI               .         0                             : Latitude
LONG               .         0                             : Longitude
GDAT               .         WGS 84                        : Geodetic Datum
CNTY               .         Kyzyl-Orda                    : 
COORDIN            .                                       : Grid System
COUNTRY            .         Kazakhstan                    : 
COUNTRY            .         Kazakhstan                    : 
EREF               .m        143.9                         : 
KB                 .         143.1                         : KB Elevation
ORIGINALWELLNAME   .         315                           : 
PROV               .                                       : Province
RWS                .         -999                          : Def_Rw
UWI                .         _                             : 
WST                .         -999                          : Def_Rwt
X                  .km       466109.31                     : 
XCOORD             .                                       : X or East-West Coordinate
Y                  .km       5307574.09                    : 
YCOORD             .                                       : Y or North-South Coordinate
~Parameter Information Block
#_______________________________________________________________________________
#
#PARAMETER_NAME    .UNIT     VALUE                         : DESCRIPTION
#_______________________________________________________________________________
SET                .         Las                           : 
BS                 .MM       215.90                        : Bit Size
DFD                .G/C3     1.14                          : Drilling Fluid Density
DFV                .S        50.00                         : Drilling Fluid Viscosity
RMS                .OHMM     .00                           : Mud Sample Resistivity
TLFamily_DEPT      .         Measured Depth                : 
TLFamily_PHI_FINAL .         Porosity                      : 
TLFamily_SW_AR     .         Water Saturation              : 
TLFamily_VSH_FINAL .         Shale Volume                  : 
~Curve Information
#_______________________________________________________________________________
#
#LOGNAME           .UNIT     LOG_ID                        : DESCRIPTION
#_______________________________________________________________________________
DEPT               .M                                      : Depth curve {F}
PHI_FINAL          .m3/m3                                  : Porosity {F}
SW_AR              .m3/m3                                  :  {F}
VSH_FINAL          .unitless                               : Vshale {F}
~Ascii
# ...
435.3      0.2674281  0.7059522  0.4752754 
435.4      0.2393837  0.7629988  0.5046173 
435.5      0.2479924  0.7155481  0.4701855 
435.6      0.2678932  0.6518536  0.4269194 
435.7      0.2477397  0.6948757  0.4805105 
435.8      0.2426718  0.6877533  0.4892175 
435.9      0.2549125  0.6280578  0.4576522 
436        0.2709673  0.5833982  0.3948218 
436.1      0.2679649  0.5872946  0.4033277 
436.2      0.2885788  0.5344824  0.3448458 
436.3      0.2741696  0.5606714  0.3701501 
436.4      0.2758342  0.5606294  0.3797368 
436.5      0.2878535  0.5411187  0.3550918 
436.6      0.2683756  0.6012364  0.3947803 
436.7      0.2755862  0.6222069  0.3791114 
436.8      0.2561667  0.7608095  0.4246277 
436.9      0.2316234  0.9055123  0.484051  
437        0.2196791  0.9797572  0.5149975 
437.1      0.22324    0.9582375  0.5139315 
437.2      0.2209193  0.9560454  0.5382766 
437.3      0.2156259  0.9824138  0.5505635 
437.4      0.2295901  0.944284   0.5099655 
437.5      0.2445376  0.9072013  0.4850798 
437.6      0.2409167  0.9448904  0.4913861 
437.7      0.2492326  0.9194987  0.4604543 
437.8      0.2632416  0.8628041  0.4221471 
437.9      0.2823946  0.7948992  0.3828562 
438        0.2801027  0.8325992  0.4048896 
438.1      0.2623513  0.9297821  0.4532489 
438.2      0.2886608  0.8770412  0.3979243 
438.3      0.284398   0.9118595  0.4261548 
438.4      0.2963082  0.8672184  0.4227556 
438.5      0.3292685  0.7878342  0.371335  
438.6      0.3309156  0.8135684  0.3762313 
438.7      0.3296118  0.8439696  0.3734691 
438.8      0.3224977  0.854816   0.3832622 
438.9      0.3214187  0.8473669  0.371564  
439        0.3266761  0.813718   0.3571153 
439.1      0.3313844  0.7908214  0.3464994 
439.2      0.3450438  0.7425559  0.3286398 
439.3      0.3417731  0.736395   0.3445706 
439.4      0.3508857  0.7130921  0.314602  
439.5      0.3559004  0.7042357  0.3322996 
439.6      0.3496016  0.7257006  0.3499287 
439.7      0.3651204  0.7191935  0.3410189 
439.8      0.3553878  0.7378109  0.3630957 
439.9      0.3524337  0.7764847  0.3665694 
440        0.3516381  0.7969491  0.389971  
440.1      0.3573437  0.8269455  0.3811501 
440.2      0.3756212  0.8102443  0.3562043 
440.3      0.3582434  0.8283165  0.4086202 
440.4      0.3550373  0.8157663  0.4262865 
440.5      0.3646625  0.817627   0.4072084 
440.6      0.3745776  0.8173557  0.378137  
440.7      0.4154196  0.7333342  0.3069319 
440.8      0.4404888  0.6674907  0.2491173 
440.9      0.4788592  0.6112909  0.1426704 
441        0.4849477  0.6017238  0.09702027
441.1      0.4722201  0.5851873  0.1121961 
441.2      0.4339095  0.6244406  0.1290656 
441.3      0.3973782  0.6464545  0.1870972 
441.4      0.350848   0.723674   0.2737452 
441.5      0.3224677  0.8006781  0.3317631 
441.6      0.2997167  0.8780444  0.3815205 
441.7      0.2905717  0.931412   0.3745138 
441.8      0.2552023  1          0.4648161 
441.9      0.2438724  1          0.4887694 
442        0.204725   1          0.5801767 
442.1      0.1423471  1          0.6922536 
442.2      0.1228104  1          0.7627167 
442.3      0.1024024  1          0.8332474 
442.4      0.06454749 1          0.965125  
442.5      0.05769487 1          1         
442.6      0.06147253 1          1         
442.7      0.06362545 1          1         
442.8      0.05567785 1          1         
442.9      0.04635804 1          1         
443        0.04601993 1          1         
443.1      0.08095363 1          0.8913761 
443.2      0.1316151  1          0.72324   
443.3      0.1320893  1          0.6877539 
443.4      0.1381123  1          0.6596463 
443.5      0.1065187  1          0.6614786 
443.6      0.104865   1          0.6473652 
443.7      0.1026883  1          0.6443906 
443.8      0.1244655  1          0.594421  
443.9      0.1576252  1          0.5164914 
444        0.171646   1          0.4793552 
444.1      0.1466619  1          0.5440063 
444.2      0.1603446  1          0.5135021 
444.3      0.1445809  1          0.5844638 
444.4      0.1200237  1          0.6927408 
444.5      0.1788805  1          0.5383418 
444.6      0.2028254  1          0.5042677 
444.7      0.2027409  1          0.4952295 
444.8      0.2251993  1          0.4534332 
444.9      0.2148085  1          0.4916784 
445        0.2367959  1          0.4555765 
445.1      0.2379701  0.9984328  0.4661745 
445.2      0.2512977  0.9289547  0.4552587 
445.3      0.267959   0.8348333  0.4378775 
445.4      0.2979208  0.7240925  0.4103013 
445.5      0.3126055  0.7026941  0.4433904 
445.6      0.3066644  0.8130146  0.4947068 
445.7      0.3196753  0.8717304  0.5003194 
445.8      0.2897837  1          0.6019785 
445.9      0.2529761  1          0.6726674 
446        0.2420817  1          0.6844938 
446.1      0.2615768  1          0.5985484 
446.2      0.2356934  1          0.6494706 
446.3      0.2075962  1          0.6993188 
446.4      0.1370679  1          0.862985  
446.5      0.1516205  1          0.8164212 
446.6      0.1047814  1          0.9146978 
446.7      0.1256524  1          0.8396202 
446.8      0.1715019  1          0.6958979 
446.9      0.1757807  1          0.6563712 
447        0.1323809  1          0.7152177 
447.1      0.1489769  1          0.6448872 
447.2      0.08466263 1          0.7836749 
447.3      0.01272605 1          1         
447.4      0.01884788 1          1         
447.5      0.02094999 1          1         
447.6      0.01596042 1          1         
447.7      0.02554226 1          0.9775211 
447.8      0.05275828 1          0.8882158 
447.9      0.05126156 1          0.8972806 
448        0.08253432 1          0.8176824 
448.1      0.08151895 1          0.815477  
448.2      0.08331877 1          0.8206174 
448.3      0.05599687 1          0.8924543 
448.4      0.1231098  1          0.739045  
448.5      0.07158142 1          0.8788486 
448.6      0.1212053  1          0.7492999 
448.7      0.1475122  1          0.6971256 
448.8      0.197354   1          0.5820253 
448.9      0.2381709  1          0.5030935 
449        0.273403   0.9684246  0.4137179 
449.1      0.2930184  0.9728155  0.3659092 
449.2      0.3205221  0.9214144  0.309566  
449.3      0.3392158  0.9055021  0.2604129 
449.4      0.3287488  0.94121    0.2992526 
449.5      0.3006711  1          0.3558603 
449.6      0.2444057  1          0.4850478 
449.7      0.2164827  1          0.554845  
449.8      0.1240586  1          0.7746421 
449.9      0.04428034 1          0.9730094 
450        0.0305303  1          1         
450.1      0.02812132 1          1         
450.2      0.03122916 1          1         
450.3      0.0452968  1          1         
450.4      0.05817794 1          1         
450.5      0.05695923 1          1         
450.6      0.05498001 1          1         
450.7      0.05739784 1          1         
450.8      0.06191887 1          1         
450.9      0.06708802 1          0.9957812 
451        0.1244088  1          0.8601762 
451.1      0.1358561  1          0.8758052 
451.2      0.2066424  1          0.7068174 
451.3      0.2347348  1          0.6138941 
451.4      0.2315513  1          0.5610055 
451.5      0.2576186  0.9831606  0.4374456 
451.6      0.2180963  1          0.4807576 
451.7      0.1581668  1          0.5818067 
451.8      0.1211435  1          0.6733825 
451.9      0.1198206  1          0.6659184 
452        0.1062238  1          0.6930897 
452.1      0.09240994 1          0.7320433 
452.2      0.05825766 1          0.8334702 
452.3      0.0159837  1          0.9791562 
452.4      0.01505398 1          0.9713933 
452.5      0.0298044  1          0.9508308 
452.6      0.05590925 1          0.8868102 
452.7      0.07579543 1          0.8392742 
452.8      0.1051058  1          0.7861246 
452.9      0.09100761 1          0.8431699 
453        0.09292454 1          0.853612  
453.1      0.07678822 1          0.9215841 
453.2      0.0706408  1          0.9729767 
453.3      0.09171152 1          0.937358  
453.4      0.1473613  1          0.8189256 
