~Version
 VERS              .         3.0                           : CWLS LOG ASCII STANDARD - VERSION 3.0
 WRAP              .         NO                            : ONE LINE PER DEPTH STEP
 DLM               .         SPACE                         : DELIMITING CHARACTER(SPACE TAB OR COMMA)
~Well Information
#_______________________________________________________________________________
#
#PARAMETER_NAME    .UNIT     VALUE                         : DESCRIPTION
#_______________________________________________________________________________
STRT               .M        0.8                           : First reference value
STOP               .M        916                           : Last reference value
STEP               .M        0.1                           : Step increment
NULL               .         -9999                         : Missing value
COMP               .         ICPetroleum                   : Company
WELL               .         315                           : Well name
FLD                .         Karatobe                      : Field
LOC                .                                       : Location
SRVC               .         KF GIS "Kazpromgeophysika"    : Service Company
CTRY               .         KZ                            : Country
DATE               .         10-11/12/04                   : Service Date
LATI               .         0                             : Latitude
LONG               .         0                             : Longitude
GDAT               .         WGS 84                        : Geodetic Datum
CNTY               .         Kyzyl-Orda                    : 
COORDIN            .                                       : Grid System
COUNTRY            .         Kazakhstan                    : 
COUNTRY            .         Kazakhstan                    : 
EREF               .m        143.9                         : 
KB                 .         143.1                         : KB Elevation
ORIGINALWELLNAME   .         315                           : 
PROV               .                                       : Province
RWS                .         -999                          : Def_Rw
UWI                .         _                             : 
WST                .         -999                          : Def_Rwt
X                  .km       466109.31                     : 
XCOORD             .                                       : X or East-West Coordinate
Y                  .km       5307574.09                    : 
YCOORD             .                                       : Y or North-South Coordinate
~Parameter Information Block
#_______________________________________________________________________________
#
#PARAMETER_NAME    .UNIT     VALUE                         : DESCRIPTION
#_______________________________________________________________________________
SET                .         Las                           : 
BS                 .MM       215.90                        : Bit Size
DFD                .G/C3     1.14                          : Drilling Fluid Density
DFV                .S        50.00                         : Drilling Fluid Viscosity
RMS                .OHMM     .00                           : Mud Sample Resistivity
TLFamily_DEPT      .         Measured Depth                : 
TLFamily_PHI_FINAL .         Porosity                      : 
TLFamily_SW_AR     .         Water Saturation              : 
TLFamily_VSH_FINAL .         Shale Volume                  : 
~Curve Information
#_______________________________________________________________________________
#
#LOGNAME           .UNIT     LOG_ID                        : DESCRIPTION
#_______________________________________________________________________________
DEPT               .M                                      : Depth curve {F}
PHI_FINAL          .m3/m3                                  : Porosity {F}
SW_AR              .m3/m3                                  :  {F}
VSH_FINAL          .unitless                               : Vshale {F}
~Ascii
# ...
489.9      0.2710007  0.9942692  0.3893417 
490        0.2577828  1          0.3986579 
490.1      0.2673003  1          0.3610702 
490.2      0.242562   1          0.3964105 
490.3      0.2350122  1          0.4135134 
490.4      0.2083912  1          0.4645182 
490.5      0.1997566  1          0.4826075 
490.6      0.1651804  1          0.5601603 
490.7      0.1443598  1          0.604306  
490.8      0.1150046  1          0.6727155 
490.9      0.09344269 1          0.7207429 
491        0.131621   1          0.6220847 
491.1      0.09429024 1          0.7421558 
491.2      0.05275413 1          0.8525524 
491.3      0.06482411 1          0.8406246 
491.4      0.05285149 1          0.8780606 
491.5      0.05406732 1          0.903174  
491.6      0.04461651 1          0.9581881 
491.7      0.07916065 1          0.8953789 
491.8      0.07003    1          0.9444074 
491.9      0.05226244 1          0.9989637 
492        0.05816492 1          1         
492.1      0.07174154 1          0.9612486 
492.2      0.08308648 1          0.9205733 
492.3      0.1312633  1          0.8084081 
492.4      0.1320501  1          0.8153423 
492.5      0.1490692  1          0.7711283 
492.6      0.1189456  1          0.8187518 
492.7      0.132353   1          0.7325737 
492.8      0.08964488 1          0.7777714 
492.9      0.06936383 1          0.7913541 
493        0.06797131 1          0.7718005 
493.1      0.09556395 1          0.6923373 
493.2      0.1506155  1          0.584092  
493.3      0.1744712  1          0.5555161 
493.4      0.2124748  1          0.47922   
493.5      0.2274143  1          0.4525996 
493.6      0.2282448  1          0.4555879 
493.7      0.2376947  1          0.4180688 
493.8      0.2443175  1          0.4078179 
493.9      0.2656673  1          0.3498804 
494        0.2677806  1          0.3257646 
494.1      0.2708295  1          0.3085242 
494.2      0.291272   0.9478393  0.2644016 
494.3      0.2918197  0.9528564  0.2758603 
494.4      0.285504   0.9866556  0.2986298 
494.5      0.2968699  0.9597226  0.278634  
494.6      0.2965928  0.971311   0.2704649 
494.7      0.294957   0.9942683  0.2786758 
494.8      0.3054655  0.9780512  0.2779548 
494.9      0.311405   0.9874597  0.2776906 
495        0.30268    1          0.2958706 
495.1      0.2919481  1          0.3018614 
495.2      0.3008259  0.9771441  0.2707023 
495.3      0.2875078  0.9981281  0.2880578 
495.4      0.2965172  0.9571445  0.2728729 
495.5      0.30884    0.9222943  0.2497978 
495.6      0.3192968  0.901455   0.241057  
495.7      0.3138217  0.9232749  0.2642229 
495.8      0.3099675  0.9527597  0.265837  
495.9      0.3199551  0.960638   0.2305039 
496        0.3144202  1          0.2499557 
496.1      0.3169978  1          0.2292623 
496.2      0.3064095  1          0.2484252 
496.3      0.3009841  1          0.259559  
496.4      0.3150273  1          0.2323461 
496.5      0.3083168  1          0.2410935 
496.6      0.3116996  1          0.2472567 
496.7      0.3104759  1          0.2582407 
496.8      0.2991371  1          0.2675918 
496.9      0.2889859  1          0.28524   
497        0.2809935  1          0.2970021 
497.1      0.2934562  1          0.2600515 
497.2      0.2852727  1          0.2740367 
497.3      0.276052   1          0.2973637 
497.4      0.2856345  1          0.2776999 
497.5      0.2818474  1          0.2859459 
497.6      0.275283   1          0.3054863 
497.7      0.2598337  1          0.3340021 
497.8      0.2516583  1          0.3467684 
497.9      0.2265618  1          0.4077081 
498        0.1814799  1          0.5099878 
498.1      0.1583513  1          0.5811517 
498.2      0.09783773 1          0.7486429 
498.3      0.08374149 1          0.7948296 
498.4      0.06050045 1          0.8394958 
498.5      0.06577548 1          0.8017677 
498.6      0.09336292 1          0.7369374 
498.7      0.1189136  1          0.6747138 
498.8      0.1158086  1          0.6810719 
498.9      0.1306937  1          0.6468453 
499        0.1351297  1          0.6557579 
499.1      0.1449632  1          0.6579783 
499.2      0.1388979  1          0.7215975 
499.3      0.1271199  1          0.7524583 
499.4      0.1600031  1          0.7035643 
499.5      0.1355415  1          0.7545669 
499.6      0.1459514  1          0.7050593 
499.7      0.1551474  1          0.6742924 
499.8      0.1304221  1          0.7011071 
499.9      0.1216642  1          0.681249  
500        0.1310311  1          0.6275412 
500.1      0.1091388  1          0.6631934 
500.2      0.1379028  1          0.5888434 
500.3      0.1207927  1          0.6050094 
500.4      0.09434938 1          0.6804335 
500.5      0.1181417  1          0.6382837 
500.6      0.1474976  1          0.6019058 
500.7      0.1578299  1          0.5902709 
500.8      0.1390045  1          0.6162964 
500.9      0.1264388  1          0.6485986 
501        0.1143687  1          0.6638365 
501.1      0.1077376  1          0.6616144 
501.2      0.1092718  1          0.6508093 
501.3      0.1276486  1          0.5958615 
501.4      0.1496611  1          0.5541863 
501.5      0.1625497  1          0.5332116 
501.6      0.1338534  1          0.6137335 
501.7      0.1532239  1          0.5461598 
501.8      0.1395722  1          0.5812375 
501.9      0.1507112  1          0.5371512 
502        0.1584172  1          0.5372615 
502.1      0.1364567  1          0.5859846 
502.2      0.1422188  1          0.5649889 
502.3      0.1608269  1          0.5244703 
502.4      0.1666334  1          0.5134171 
502.5      0.1699848  1          0.5082991 
502.6      0.2007528  1          0.47413   
502.7      0.2272456  1          0.4407864 
502.8      0.2453746  0.9757227  0.4535458 
502.9      0.2678832  0.9194919  0.4286219 
503        0.2466067  1          0.504205  
503.1      0.2537876  0.9836413  0.4718504 
503.2      0.2478645  1          0.503865  
503.3      0.2396062  1          0.5386978 
503.4      0.2426637  1          0.5279678 
503.5      0.2494965  1          0.4941299 
503.6      0.2784764  0.8982132  0.4579071 
503.7      0.2865525  0.8721049  0.4510881 
503.8      0.2777176  0.9044785  0.4567522 
503.9      0.2806553  0.9084232  0.4388551 
504        0.2757573  0.9300749  0.4179237 
504.1      0.2657366  0.9733042  0.4288299 
504.2      0.2470826  1          0.4883751 
504.3      0.2359003  1          0.4935244 
504.4      0.2283109  1          0.4825177 
504.5      0.2074954  1          0.5268695 
504.6      0.176537   1          0.5746927 
504.7      0.188969   1          0.5086121 
504.8      0.1950875  1          0.4969555 
504.9      0.1720705  1          0.5545106 
505        0.2024034  1          0.4764329 
505.1      0.2147543  1          0.443995  
505.2      0.2275048  1          0.4115769 
505.3      0.2274906  1          0.4009296 
505.4      0.1983587  1          0.4681352 
505.5      0.1897256  1          0.4736228 
505.6      0.1833855  1          0.4925432 
505.7      0.1806787  1          0.4982713 
505.8      0.1905013  1          0.4772596 
505.9      0.1969765  1          0.461601  
506        0.1917656  1          0.4566034 
506.1      0.1690741  1          0.5242216 
506.2      0.1504241  1          0.5656552 
506.3      0.1525096  1          0.557685  
506.4      0.13914    1          0.5829834 
506.5      0.1174781  1          0.6295285 
506.6      0.120093   1          0.6285324 
506.7      0.09826414 1          0.6897874 
506.8      0.1211739  1          0.6415987 
506.9      0.09715237 1          0.6983178 
507        0.08014832 1          0.7453351 
507.1      0.08681511 1          0.7504119 
507.2      0.1425404  1          0.601471  
507.3      0.1916628  1          0.4800438 
507.4      0.2037799  1          0.4393666 
507.5      0.2064407  1          0.4477113 
507.6      0.2103493  1          0.4070694 
507.7      0.1921573  1          0.4517485 
507.8      0.2005388  1          0.4485097 
507.9      0.1951286  1          0.4801361 
508        0.1844003  1          0.5095441 
