~Version information                                                          
  VERS.                            1.20: CWLS LAS  -  VERSION 1.20            
  WRAP.                             NO : One line per depth step              
~Well information                                                             
# MNEM.UNIT         DATA TYPE  INFORMATION                                    
# ====.================================: ===================                  
  STRT.M                          .800 : First depth in file                  
  STOP.M                       916.000 : Last  depth in file                  
  STEP.M                          .100 : Depth increment                      
  NULL.                       -999.250 : Null  values                         
  WN  .                            WELL: 315
  FN  .                           FIELD: KARATUBE
  DATE.                        LOG DATE: 09.09.04
~Curve information                                                            
# MNEM.UNIT                   API CODE   CURVE DESCRIPTION                    
# ====.================================:====================                  
  DEPT.M                               : Depth curve                          
  GR  .UR/H                            : Gamma ray log
  NGLD.UE                              : Neutron-gamma log
  GZ3 .OHMM                            : App.resistivity by lateral A2.0M0.5N   
  GZ3B.OHMM                            : App.resistivity by lateral N0.5M2.0A
  LL3 .OHMM                            : Appar.resist.laterolog,3 electrodes
  MLL .OHMM                            : Microlaterolog sonde
  CILR.MMHO                            : Conduct. by sonde 7I1.6,reactive signal
  CILA.MMHO                            : Conduct. by sonde 7I1.6,active signal
  C1  .MM                              : Caliper, diameter 1
  C2  .MM                              : Caliper, diameter 2
  CALI.MM                              : Caliper
  RHOB.G/C3                            : Bulk density by gamma-gamma log
  SP  .MV                              : Spontaneous potential
  BSC .MM                              : Bit size
  DTP .US/M                            : Interval travel time (P-wave)
  T1  .US                              : Travel time 1
  T2  .US                              : Travel time 2
~Parameter information block                                                  
# MNEM.UNIT                     VALUE       DESCRIPTION                       
# ====.================================:====================                  
  BS  .MM                       215.90 : Bit Size                             
  DFD .G/C3                       1.14 : Drilling Fluid Density
  DFV .S                         50.00 : Drilling Fluid Viscosity             
  RMS .OHMM                        .00 : Mud Sample Resistivity               
~Other information                                                            
# ------------------- REMARKS AREA ------------------------                   
# ==========================================================                  
~ASCII Log Data                                                               
# ...
    655.30       11.031        1.350        2.133        5.963        2.312         .984       88.457      164.038      213.695      208.180      210.938        2.338      -70.010      215.900      388.044     1470.543     1626.037
    655.40       11.365        1.340        2.122        6.151        2.349        1.070       83.262      158.709      214.154      208.019      211.087        2.327      -70.082      215.900      390.740     1470.224     1626.580
    655.50       11.178        1.330        2.125        6.345        2.404        1.163       78.100      152.669      214.472      207.275      210.874        2.306      -71.122      215.900      393.883     1470.235     1627.891
    655.60       10.751        1.310        2.137        6.576        2.504        1.208       71.591      141.366      213.226      204.434      208.830        2.299      -70.680      215.900      397.805     1470.653     1629.981
    655.70       10.771        1.307        2.158        6.731        2.573        1.220       67.432      136.090      212.458      203.778      208.118        2.276      -68.453      215.900      403.277     1470.766     1632.061
    655.80       10.791        1.318        2.165        6.999        2.668        1.234       62.251      133.235      211.431      204.178      207.805        2.247      -64.823      215.900      408.636     1470.781     1634.261
    655.90       10.668        1.348        2.198        7.208        2.725        1.230       60.448      131.960      210.998      204.870      207.934        2.251      -60.938      215.900      414.195     1470.744     1635.923
    656.00       10.716        1.376        2.240        7.409        2.726        1.333       59.465      130.150      212.473      203.811      208.142        2.279      -56.218      215.900      416.007     1470.437     1636.625
    656.10       10.376        1.394        2.293        7.749        2.688        1.465       57.516      127.440      212.494      204.265      208.380        2.296      -53.526      215.900      416.209     1469.893     1636.001
    656.20       10.399        1.402        2.331        8.047        2.657        1.480       56.209      124.717      214.120      207.573      210.847        2.296      -50.136      215.900      413.594     1469.076     1634.532
    656.30       10.449        1.413        2.351        8.414        2.596        1.388       50.882      119.754      213.199      209.334      211.266        2.311      -49.342      215.900      411.121     1468.778     1633.498
    656.40       10.088        1.383        2.387        9.004        2.665        1.410       48.699      113.090      211.207      210.839      211.023        2.332      -51.661      215.900      410.690     1469.102     1632.959
    656.50       10.211        1.406        2.424        9.533        2.867        1.773       46.036      104.537      214.918      212.661      213.789        2.352      -54.058      215.900      407.120     1470.056     1632.788
    656.60        9.606        1.478        2.490       10.284        3.155        2.055       43.214       93.505      215.285      213.037      214.161        2.387      -54.369      215.900      402.682     1471.353     1631.132
    656.70        9.570        1.573        2.617       10.894        3.329        2.465       41.544       86.186      215.509      212.952      214.231        2.436      -53.069      215.900      388.536     1473.443     1627.738
    656.80        9.680        1.617        2.806       11.269        4.524        5.112       38.730       76.654      214.030      213.588      213.809        2.480      -52.597      215.900      366.006     1475.884     1620.960
    656.90        8.927        1.639        3.079       11.259        6.401        7.613       37.530       73.498      215.913      215.391      215.652        2.471      -53.509      215.900      333.509     1475.126     1610.952
    657.00        8.355        1.673        3.291       10.982        7.652        8.251       37.244       73.119      217.308      215.795      216.551        2.479      -56.246      215.900      319.189     1469.230     1597.474
    657.10        8.265        1.671        3.575       10.212       10.024        7.024       38.772       73.497      218.204      215.086      216.645        2.468      -58.861      215.900      309.127     1454.957     1583.687
    657.20        8.324        1.677        3.890        9.177       10.520        4.882       40.141       75.204      218.914      214.675      216.795        2.444      -60.554      215.900      337.158     1435.826     1571.821
    657.30        8.395        1.588        4.134        8.203        8.847        2.527       43.768       83.225      218.831      214.078      216.454        2.440      -60.795      215.900      373.660     1411.048     1562.137
    657.40        8.742        1.484        4.457        7.285        6.384        2.010       47.277       88.465      219.598      213.767      216.682        2.438      -61.368      215.900      422.377     1385.425     1551.219
    657.50        9.057        1.474        4.638        6.805        5.082        1.981       49.572       93.465      219.421      213.875      216.648        2.414      -63.869      215.900      447.393     1359.208     1534.666
    657.60        8.888        1.481        4.851        6.374        4.623        2.050       51.162       99.083      217.950      214.437      216.193        2.373      -60.215      215.900      446.160     1336.166     1513.445
    657.70        8.935        1.477        4.995        6.060        4.507        1.959       53.924      101.388      217.846      214.038      215.942        2.359      -54.428      215.900      436.031     1317.078     1491.071
    657.80        8.915        1.458        5.091        5.832        4.651        2.089       56.559      103.938      216.157      213.279      214.718        2.319      -46.581      215.900      422.761     1303.717     1473.669
    657.90        8.850        1.462        5.262        5.621        4.690        2.137       61.282      105.609      215.138      213.208      214.173        2.290      -41.106      215.900      415.840     1294.739     1461.658
    658.00        8.837        1.432        5.381        5.471        4.287        2.063       65.813      108.070      218.124      212.264      215.194        2.277      -37.734      215.900      413.294     1289.097     1454.555
    658.10        8.772        1.420        5.495        5.313        4.070        2.064       69.685      109.699      215.827      212.578      214.202        2.250      -37.922      215.900      411.801     1285.393     1450.500
    658.20        9.063        1.413        5.584        5.197        4.122        2.107       73.206      110.202      213.613      212.114      212.864        2.211      -41.367      215.900      413.213     1283.917     1449.655
    658.30        9.220        1.391        5.641        5.105        4.191        1.915       76.572      110.565      213.191      212.196      212.693        2.216      -47.161      215.900      418.016     1283.750     1450.956
    658.40        8.964        1.395        5.745        5.031        4.267        1.910       79.506      110.720      211.851      212.661      212.257        2.205      -49.923      215.900      422.819     1284.202     1453.329
    658.50        8.828        1.423        5.863        4.978        4.450        2.059       82.215      111.832      215.297      212.501      213.899        2.194      -53.670      215.900      427.622     1284.654     1455.702
    658.60        8.823        1.421        6.113        4.935        4.607        2.028       85.578      113.162      214.616      211.841      213.229        2.198      -56.251      215.900      432.424     1285.106     1458.074
    658.70        9.155        1.376        6.470        4.912        4.645        1.992       87.758      114.755      212.406      211.268      211.837        2.192      -59.590      215.900      437.226     1285.558     1460.448
