~Version information                                                          
  VERS.                            1.20: CWLS LAS  -  VERSION 1.20            
  WRAP.                             NO : One line per depth step              
~Well information                                                             
# MNEM.UNIT         DATA TYPE  INFORMATION                                    
# ====.================================: ===================                  
  STRT.M                          .800 : First depth in file                  
  STOP.M                       916.000 : Last  depth in file                  
  STEP.M                          .100 : Depth increment                      
  NULL.                       -999.250 : Null  values                         
  WN  .                            WELL: 315
  FN  .                           FIELD: KARATUBE
  DATE.                        LOG DATE: 09.09.04
~Curve information                                                            
# MNEM.UNIT                   API CODE   CURVE DESCRIPTION                    
# ====.================================:====================                  
  DEPT.M                               : Depth curve                          
  GR  .UR/H                            : Gamma ray log
  NGLD.UE                              : Neutron-gamma log
  GZ3 .OHMM                            : App.resistivity by lateral A2.0M0.5N   
  GZ3B.OHMM                            : App.resistivity by lateral N0.5M2.0A
  LL3 .OHMM                            : Appar.resist.laterolog,3 electrodes
  MLL .OHMM                            : Microlaterolog sonde
  CILR.MMHO                            : Conduct. by sonde 7I1.6,reactive signal
  CILA.MMHO                            : Conduct. by sonde 7I1.6,active signal
  C1  .MM                              : Caliper, diameter 1
  C2  .MM                              : Caliper, diameter 2
  CALI.MM                              : Caliper
  RHOB.G/C3                            : Bulk density by gamma-gamma log
  SP  .MV                              : Spontaneous potential
  BSC .MM                              : Bit size
  DTP .US/M                            : Interval travel time (P-wave)
  T1  .US                              : Travel time 1
  T2  .US                              : Travel time 2
~Parameter information block                                                  
# MNEM.UNIT                     VALUE       DESCRIPTION                       
# ====.================================:====================                  
  BS  .MM                       215.90 : Bit Size                             
  DFD .G/C3                       1.14 : Drilling Fluid Density
  DFV .S                         50.00 : Drilling Fluid Viscosity             
  RMS .OHMM                        .00 : Mud Sample Resistivity               
~Other information                                                            
# ------------------- REMARKS AREA ------------------------                   
# ==========================================================                  
~ASCII Log Data                                                               
# ...
    550.30        7.680        1.084        2.531        3.541        2.854        2.321      118.451      151.883      208.836      207.461      208.149        1.862      -79.271      215.900      476.492     1486.507     1675.925
    550.40        7.503        1.094        2.564        3.520        2.940        2.278      117.638      151.752      209.546      208.527      209.036        1.883      -80.114      215.900      496.327     1492.158     1687.417
    550.50        7.554        1.132        2.797        3.439        2.813        2.423      118.397      153.079      208.191      208.839      208.515        1.953      -78.503      215.900      491.615     1500.202     1694.749
    550.60        7.964        1.176        2.874        3.326        2.548        2.028      119.129      156.116      210.338      209.745      210.042        2.091      -76.550      215.900      471.166     1507.983     1696.582
    550.70        8.469        1.217        2.944        3.204        2.414        1.478      120.968      158.163      210.806      208.583      209.695        2.150      -75.838      215.900      451.701     1514.594     1694.873
    550.80        9.166        1.289        2.991        3.076        2.644        2.011      122.860      159.094      213.924      208.982      211.453        2.248      -75.078      215.900      429.236     1519.338     1692.369
    550.90        9.787        1.326        3.006        2.972        2.940        2.279      124.854      159.986      212.354      209.563      210.959        2.256      -70.500      215.900      416.790     1523.420     1690.702
    551.00       10.532        1.355        3.027        2.889        2.965        2.184      127.611      160.333      213.396      207.627      210.511        2.246      -66.550      215.900      408.596     1526.460     1692.051
    551.10       10.678        1.378        3.063        2.826        2.866        2.051      130.284      160.999      213.394      208.483      210.939        2.262      -64.109      215.900      416.546     1528.395     1695.565
    551.20       11.570        1.341        3.107        2.798        2.550        1.887      134.680      163.076      212.815      209.841      211.328        2.261      -61.968      215.900      428.642     1528.656     1700.598
    551.30       12.020        1.347        3.146        2.737        2.481        1.735      138.166      164.912      211.622      210.515      211.069        2.253      -63.204      215.900      444.370     1528.025     1704.388
    551.40       12.557        1.320        3.167        2.713        2.349        1.638      141.376      165.910      216.103      211.296      213.699        2.283      -62.193      215.900      449.713     1527.427     1706.463
    551.50       12.569        1.327        3.175        2.700        2.324        1.389      145.458      166.018      220.187      213.222      216.705        2.292      -61.812      215.900      448.676     1528.096     1706.417
    551.60       12.549        1.328        3.173        2.705        2.329        1.406      148.525      165.565      218.454      218.306      218.380        2.278      -62.208      215.900      439.026     1529.889     1705.652
    551.70       12.418        1.322        3.177        2.721        2.343        1.362      153.491      163.962      228.992      224.293      226.643        2.251      -59.576      215.900      430.512     1531.530     1704.555
    551.80       11.974        1.257        3.180        2.746        2.330        1.352      156.372      163.133      247.762      214.922      231.342        2.236      -54.623      215.900      428.159     1531.341     1702.998
    551.90       11.902        1.245        3.182        2.767        2.256        1.311      158.942      161.938      249.208      215.361      232.284        2.218      -49.206      215.900      428.758     1528.965     1700.639
    552.00       11.367        1.290        3.190        2.822        2.206        1.093      161.568      160.375      243.654      215.408      229.531        2.209      -44.908      215.900      430.636     1525.894     1697.933
    552.10       11.445        1.276        3.208        2.881        2.287        1.287      162.620      158.639      233.527      215.802      224.665        2.169      -38.514      215.900      430.898     1523.655     1696.282
    552.20       11.169        1.272        3.229        2.936        2.395        1.580      165.101      157.725      231.634      219.796      225.715        2.158      -34.245      215.900      433.177     1522.790     1696.321
    552.30       10.758        1.266        3.274        2.983        2.570        1.676      167.264      158.626      220.955      213.678      217.317        2.105      -32.511      215.900      437.409     1522.743     1697.699
    552.40       10.200        1.240        3.333        2.995        2.703        1.737      172.000      161.636      210.804      213.082      211.943        2.112      -33.802      215.900      441.587     1522.571     1698.962
    552.50        9.187        1.224        3.428        2.963        2.734        2.022      178.630      166.703      208.131      209.931      209.031        2.114      -36.703      215.900      443.937     1521.682     1698.004
    552.60        8.670        1.247        3.473        2.942        2.621        1.782      182.947      170.503      208.328      210.814      209.571        2.164      -38.318      215.900      436.888     1520.022     1694.531
    552.70        8.687        1.254        3.479        2.737        2.416        1.542      188.696      176.843      208.033      211.194      209.613        2.205      -42.923      215.900      427.986     1517.348     1688.447
    552.80        8.519        1.255        3.413        2.573        2.277        1.293      193.721      181.642      208.148      210.231      209.190        2.206      -49.358      215.900      418.372     1513.504     1681.813
    552.90        8.465        1.264        3.298        2.466        2.255        1.166      197.484      185.899      207.809      209.777      208.793        2.204      -56.292      215.900      415.957     1507.983     1674.853
    553.00        8.537        1.280        3.147        2.359        2.169        1.113      197.682      188.548      207.577      209.670      208.624        2.210      -63.463      215.900      417.194     1501.907     1669.261
    553.10        8.448        1.304        2.997        2.300        2.095        1.076      198.306      191.885      206.965      208.909      207.937        2.200      -67.676      215.900      422.003     1496.518     1665.336
    553.20        8.918        1.298        2.868        2.268        1.966        1.000      197.316      194.682      206.489      208.812      207.651        2.198      -66.033      215.900      426.946     1493.309     1664.021
    553.30        9.059        1.263        2.753        2.267        1.927         .930      195.711      195.818      207.388      208.945      208.167        2.183      -63.196      215.900      431.389     1493.064     1665.177
    553.40        9.168        1.299        2.680        2.272        1.919         .932      192.499      198.287      208.086      208.344      208.215        2.191      -60.308      215.900      432.513     1495.904     1668.745
    553.50        9.058        1.295        2.570        2.259        1.906         .883      190.286      201.134      207.351      208.244      207.797        2.182      -58.168      215.900      432.399     1500.912     1673.623
    553.60        9.125        1.382        2.478        2.244        1.802         .725      187.682      203.472      207.385      207.744      207.564        2.186      -56.269      215.900      430.414     1506.057     1678.326
    553.70        9.164        1.406        2.399        2.237        1.786         .691      183.891      204.392      206.344      207.032      206.688        2.188      -55.028      215.900      429.202     1509.934     1681.665
