~Version information                                                          
  VERS.                            1.20: CWLS LAS  -  VERSION 1.20            
  WRAP.                             NO : One line per depth step              
~Well information                                                             
# MNEM.UNIT         DATA TYPE  INFORMATION                                    
# ====.================================: ===================                  
  STRT.M                          .800 : First depth in file                  
  STOP.M                       916.000 : Last  depth in file                  
  STEP.M                          .100 : Depth increment                      
  NULL.                       -999.250 : Null  values                         
  WN  .                            WELL: 315
  FN  .                           FIELD: KARATUBE
  DATE.                        LOG DATE: 09.09.04
~Curve information                                                            
# MNEM.UNIT                   API CODE   CURVE DESCRIPTION                    
# ====.================================:====================                  
  DEPT.M                               : Depth curve                          
  GR  .UR/H                            : Gamma ray log
  NGLD.UE                              : Neutron-gamma log
  GZ3 .OHMM                            : App.resistivity by lateral A2.0M0.5N   
  GZ3B.OHMM                            : App.resistivity by lateral N0.5M2.0A
  LL3 .OHMM                            : Appar.resist.laterolog,3 electrodes
  MLL .OHMM                            : Microlaterolog sonde
  CILR.MMHO                            : Conduct. by sonde 7I1.6,reactive signal
  CILA.MMHO                            : Conduct. by sonde 7I1.6,active signal
  C1  .MM                              : Caliper, diameter 1
  C2  .MM                              : Caliper, diameter 2
  CALI.MM                              : Caliper
  RHOB.G/C3                            : Bulk density by gamma-gamma log
  SP  .MV                              : Spontaneous potential
  BSC .MM                              : Bit size
  DTP .US/M                            : Interval travel time (P-wave)
  T1  .US                              : Travel time 1
  T2  .US                              : Travel time 2
~Parameter information block                                                  
# MNEM.UNIT                     VALUE       DESCRIPTION                       
# ====.================================:====================                  
  BS  .MM                       215.90 : Bit Size                             
  DFD .G/C3                       1.14 : Drilling Fluid Density
  DFV .S                         50.00 : Drilling Fluid Viscosity             
  RMS .OHMM                        .00 : Mud Sample Resistivity               
~Other information                                                            
# ------------------- REMARKS AREA ------------------------                   
# ==========================================================                  
~ASCII Log Data                                                               
# ...
    396.30       10.439        1.247        4.241        4.142        2.889        1.400       92.812      143.983      254.573      237.851      246.212        2.275       20.399      215.900      434.041     1608.137     1782.125
    396.40       10.246        1.248        4.249        4.094        2.874        1.460       92.912      145.350      226.450      236.738      231.594        2.275       21.333      215.900      434.474     1606.711     1780.706
    396.50       10.137        1.266        4.248        4.059        2.767        1.116       93.521      146.121      217.927      236.830      227.379        2.277       21.327      215.900      436.444     1604.743     1779.382
    396.60       10.320        1.298        4.251        4.023        2.792        1.359       94.355      145.938      226.819      237.011      231.915        2.304       21.239      215.900      438.872     1603.747     1779.187
    396.70       10.262        1.334        4.251        3.985        2.814        1.158       95.085      146.159      231.467      226.123      228.795        2.293       21.690      215.900      440.485     1604.108     1780.316
    396.80       10.338        1.366        4.247        3.940        2.792         .913       95.684      146.929      231.667      219.079      225.373        2.301       23.669      215.900      442.204     1605.777     1782.471
    396.90       10.235        1.310        4.263        3.914        2.794         .847       96.325      147.647      234.577      221.194      227.885        2.289       25.721      215.900      442.512     1607.730     1784.661
    397.00       10.239        1.311        4.276        3.891        2.761         .862       98.568      148.010      234.326      226.885      230.605        2.293       28.031      215.900      442.273     1609.274     1785.850
    397.10       10.252        1.306        4.263        3.841        2.728         .971       99.600      147.887      231.759      237.232      234.495        2.283       27.787      215.900      439.537     1610.040     1785.606
    397.20       10.566        1.291        4.246        3.790        2.692        1.128      100.692      149.545      233.342      244.494      238.918        2.256       25.425      215.900      434.939     1610.161     1783.970
    397.30       10.431        1.312        4.178        3.729        2.629        1.204      102.867      152.814      237.968      249.648      243.808        2.246       24.322      215.900      429.095     1609.548     1781.791
    397.40       10.342        1.338        4.138        3.689        2.638        1.238      103.294      153.867      242.353      250.035      246.194        2.249       22.975      215.900      427.783     1608.311     1779.823
    397.50       10.385        1.319        4.109        3.664        2.663        1.407      103.732      154.811      238.598      240.948      239.773        2.229       21.555      215.900      429.463     1605.947     1778.700
    397.60       10.554        1.328        4.091        3.648        2.743        1.277      104.560      155.632      230.738      236.530      233.634        2.204       19.107      215.900      438.403     1602.502     1777.863
    397.70       10.489        1.347        4.096        3.652        2.728        1.072      105.987      155.763      214.244      216.973      215.608        2.206       18.345      215.900      447.345     1598.040     1776.492
    397.80       10.456        1.424        4.132        3.674        2.858        1.155      107.286      155.243      211.779      210.672      211.225        2.217       18.887      215.900      452.644     1593.933     1774.031
    397.90       10.787        1.458        4.168        3.748        2.807        1.133      107.836      156.438      211.377      210.084      210.730        2.248       19.913      215.900      450.753     1591.223     1771.186
    398.00       10.595        1.413        4.179        3.797        2.645        1.085      108.739      157.499      211.635      210.071      210.853        2.267       21.324      215.900      446.328     1589.945     1769.018
    398.10       10.689        1.339        4.183        3.854        2.545        1.072      108.676      157.382      211.588      209.812      210.700        2.280       21.219      215.900      445.973     1589.438     1768.084
    398.20       11.166        1.307        4.193        3.895        2.573        1.105      108.149      156.532      212.638      210.411      211.525        2.272       21.774      215.900      447.548     1589.064     1767.991
    398.30       10.828        1.292        4.185        3.915        2.633        1.046      107.219      155.884      213.258      211.803      212.531        2.278       22.869      215.900      448.435     1589.173     1768.363
    398.40       10.591        1.300        4.135        3.898        2.662        1.099      106.912      155.852      213.106      212.170      212.638        2.274       22.522      215.900      447.942     1589.799     1768.891
    398.50       10.503        1.265        4.071        3.853        2.599        1.196      107.272      156.255      213.491      211.453      212.472        2.263       23.280      215.900      446.815     1590.886     1769.666
    398.60       10.650        1.245        3.985        3.795        2.681        1.304      108.068      157.066      213.130      211.540      212.335        2.247       24.420      215.900      446.089     1591.954     1770.727
    398.70       10.905        1.262        3.930        3.749        2.732        1.370      109.276      158.974      212.175      211.631      211.903        2.240       25.747      215.900      447.892     1592.633     1772.291
    398.80       11.481        1.300        3.854        3.707        2.702        1.221      110.380      161.846      211.977      210.851      211.414        2.233       25.684      215.900      453.450     1592.788     1774.485
    398.90       11.302        1.321        3.798        3.682        2.561        1.090      110.762      163.803      212.814      210.191      211.503        2.208       27.542      215.900      461.387     1592.372     1776.668
    399.00       10.959        1.346        3.742        3.650        2.549        1.065      111.542      164.609      213.234      209.700      211.467        2.208       29.724      215.900      467.384     1591.803     1778.302
    399.10       10.863        1.366        3.666        3.629        2.572        1.099      112.495      164.967      213.837      210.208      212.023        2.207       32.879      215.900      469.968     1591.247     1778.906
    399.20       11.066        1.337        3.624        3.630        2.534        1.095      113.092      165.235      212.488      209.417      210.953        2.215       34.148      215.900      470.092     1590.625     1778.601
    399.30       11.011        1.314        3.574        3.650        2.381        1.047      113.363      165.182      212.167      209.397      210.782        2.200       32.724      215.900      469.765     1589.640     1777.094
    399.40       10.772        1.307        3.552        3.679        2.290         .951      113.371      164.230      211.790      209.533      210.662        2.231       29.724      215.900      466.055     1588.241     1774.626
    399.50       11.007        1.294        3.550        3.718        2.284         .954      111.914      162.045      214.859      211.251      213.055        2.239       27.311      215.900      462.074     1586.691     1771.339
    399.60       11.031        1.275        3.554        3.744        2.321        1.001      111.980      159.333      215.123      213.093      214.108        2.227       24.409      215.900      456.732     1584.896     1767.920
    399.70       10.668        1.307        3.547        3.739        2.468        1.070      110.631      156.813      215.400      213.772      214.586        2.209       24.390      215.900      453.877     1582.319     1763.985
