~Version information                                                          
  VERS.                            1.20: CWLS LAS  -  VERSION 1.20            
  WRAP.                             NO : One line per depth step              
~Well information                                                             
# MNEM.UNIT         DATA TYPE  INFORMATION                                    
# ====.================================: ===================                  
  STRT.M                          .800 : First depth in file                  
  STOP.M                       916.000 : Last  depth in file                  
  STEP.M                          .100 : Depth increment                      
  NULL.                       -999.250 : Null  values                         
  WN  .                            WELL: 315
  FN  .                           FIELD: KARATUBE
  DATE.                        LOG DATE: 09.09.04
~Curve information                                                            
# MNEM.UNIT                   API CODE   CURVE DESCRIPTION                    
# ====.================================:====================                  
  DEPT.M                               : Depth curve                          
  GR  .UR/H                            : Gamma ray log
  NGLD.UE                              : Neutron-gamma log
  GZ3 .OHMM                            : App.resistivity by lateral A2.0M0.5N   
  GZ3B.OHMM                            : App.resistivity by lateral N0.5M2.0A
  LL3 .OHMM                            : Appar.resist.laterolog,3 electrodes
  MLL .OHMM                            : Microlaterolog sonde
  CILR.MMHO                            : Conduct. by sonde 7I1.6,reactive signal
  CILA.MMHO                            : Conduct. by sonde 7I1.6,active signal
  C1  .MM                              : Caliper, diameter 1
  C2  .MM                              : Caliper, diameter 2
  CALI.MM                              : Caliper
  RHOB.G/C3                            : Bulk density by gamma-gamma log
  SP  .MV                              : Spontaneous potential
  BSC .MM                              : Bit size
  DTP .US/M                            : Interval travel time (P-wave)
  T1  .US                              : Travel time 1
  T2  .US                              : Travel time 2
~Parameter information block                                                  
# MNEM.UNIT                     VALUE       DESCRIPTION                       
# ====.================================:====================                  
  BS  .MM                       215.90 : Bit Size                             
  DFD .G/C3                       1.14 : Drilling Fluid Density
  DFV .S                         50.00 : Drilling Fluid Viscosity             
  RMS .OHMM                        .00 : Mud Sample Resistivity               
~Other information                                                            
# ------------------- REMARKS AREA ------------------------                   
# ==========================================================                  
~ASCII Log Data                                                               
# ...
    809.30        8.649        1.517        3.269        3.542        2.214        2.100      137.858      167.805      207.594      211.440      209.517        2.546        1.072      215.900      334.335     1315.458     1448.146
    809.40        8.981        1.467        3.096        3.262        1.826         .867      140.238      170.289      209.454      215.498      212.476        2.501        4.340      215.900      347.555     1308.162     1445.031
    809.50        8.688        1.441        2.876        3.117        1.702         .363      139.104      168.084      217.470      218.664      218.067        2.514        3.397      215.900      344.618     1304.919     1441.005
    809.60        8.483        1.419        2.589        2.992        1.827         .470      137.774      162.944      231.132      229.728      230.430        2.490         .528      215.900      328.465     1304.197     1434.342
    809.70        8.194        1.449        2.371        2.968        2.000         .959      137.154      159.051      257.158      223.979      240.569        2.512       -4.248      215.900      303.024     1301.270     1423.443
    809.80        7.818        1.467        2.228        3.039        2.041         .819      134.283      155.320      239.243      221.802      230.522        2.506       -7.544      215.900      284.811     1293.038     1409.163
    809.90        7.852        1.501        2.267        3.155        2.191         .915      132.699      154.040      231.235      221.272      226.253        2.530      -11.500      215.900      283.098     1280.866     1395.343
    810.00        8.006        1.452        2.346        3.224        2.478        1.442      134.444      155.818      234.589      220.081      227.335        2.515      -12.809      215.900      290.658     1269.287     1386.073
    810.10        8.000        1.407        2.439        3.259        2.403        1.242      136.352      158.260      227.862      217.460      222.661        2.505      -12.959      215.900      302.139     1261.862     1382.669
    810.20        8.262        1.410        2.480        3.244        2.231        1.031      137.521      160.581      220.504      216.286      218.395        2.477      -13.273      215.900      313.249     1258.221     1384.054
    810.30        8.520        1.385        2.498        3.205        2.211        1.134      140.699      163.008      228.816      216.824      222.820        2.471      -12.683      215.900      328.369     1256.282     1387.639
    810.40        8.680        1.364        2.470        3.095        2.112         .778      141.267      165.321      224.056      216.897      220.476        2.467      -10.714      215.900      343.569     1254.220     1391.093
    810.50        8.650        1.347        2.430        2.988        2.063         .753      144.771      168.496      231.978      221.227      226.603        2.455       -7.153      215.900      354.598     1251.342     1392.816
    810.60        8.767        1.359        2.380        2.875        1.992         .895      147.545      172.495      258.533      226.638      242.586        2.451       -4.307      215.900      362.895     1248.032     1392.750
    810.70        8.237        1.368        2.342        2.786        1.902         .678      149.562      173.925      277.280      226.183      251.732        2.412        3.236      215.900      367.890     1245.443     1392.091
    810.80        8.040        1.356        2.334        2.715        1.829         .323      150.960      176.124      253.037      228.979      241.008        2.424        6.369      215.900      369.072     1245.112     1392.064
    810.90        8.242        1.262        2.350        2.679        1.823         .299      151.061      176.714      227.204      248.315      237.759        2.383        9.218      215.900      365.176     1247.360     1393.088
    811.00        8.192        1.255        2.382        2.666        1.810         .330      150.740      177.566      234.544      240.646      237.595        2.388       10.748      215.900      358.710     1251.010     1394.803
    811.10        8.366        1.263        2.460        2.686        1.808         .677      150.370      177.170      240.309      244.404      242.357        2.443       11.118      215.900      354.556     1255.020     1397.808
    811.20        8.414        1.269        2.519        2.716        1.824         .871      149.620      177.689      234.881      242.123      238.502        2.403       10.953      215.900      357.644     1259.816     1403.298
    811.30        8.376        1.268        2.570        2.747        1.846         .655      150.153      178.093      231.372      238.487      234.930        2.414       11.261      215.900      363.920     1266.606     1411.385
    811.40        7.969        1.291        2.621        2.768        1.844         .611      151.112      178.827      235.404      240.741      238.072        2.404       10.892      215.900      364.280     1275.284     1419.836
    811.50        7.700        1.284        2.644        2.770        1.842         .534      151.704      179.839      257.183      234.939      246.061        2.386       10.007      215.900      355.941     1284.128     1426.537
    811.60        7.606        1.280        2.646        2.765        1.811         .510      152.356      180.637      273.307      228.069      250.688        2.405        7.719      215.900      347.842     1292.191     1432.519
    811.70        7.596        1.286        2.628        2.760        1.774         .360      151.327      179.341      275.892      224.518      250.205        2.440        2.674      215.900      348.685     1299.797     1440.243
    811.80        7.729        1.320        2.591        2.755        1.771         .484      149.111      177.550      264.350      219.184      241.767        2.415         .591      215.900      356.827     1307.464     1450.328
    811.90        7.749        1.342        2.540        2.771        1.786         .594      146.673      175.645      250.829      212.418      231.624        2.463         .114      215.900      365.969     1313.767     1459.525
    812.00        7.622        1.352        2.517        2.813        1.859         .504      143.031      172.156      234.569      210.339      222.454        2.471         .916      215.900      370.381     1317.227     1464.149
    812.10        7.447        1.325        2.533        2.855        1.953         .556      141.176      170.505      230.813      210.863      220.838        2.471        2.392      215.900      365.557     1318.196     1463.167
    812.20        7.788        1.335        2.556        2.875        2.051         .506      138.978      170.072      230.947      216.087      223.517        2.462        2.026      215.900      351.350     1318.220     1458.986
    812.30        7.567        1.364        2.584        2.882        2.090         .531      137.661      169.502      229.498      224.767      227.133        2.449        2.945      215.900      338.832     1319.039     1455.669
    812.40        7.587        1.351        2.628        2.883        2.115         .546      137.037      169.802      222.281      223.728      223.005        2.476        5.045      215.900      334.536     1321.071     1455.550
    812.50        7.622        1.349        2.651        2.883        2.098         .552      137.663      173.638      220.120      222.055      221.088        2.500        7.573      215.900      335.224     1324.165     1458.486
    812.60        7.734        1.351        2.659        2.888        2.051         .457      139.437      175.921      221.790      217.310      219.550        2.481        9.023      215.900      337.649     1327.676     1462.782
    812.70        7.790        1.300        2.654        2.893        1.997         .411      139.588      178.399      221.300      214.265      217.783        2.465        8.375      215.900      340.416     1331.182     1467.495
