~Version information                                                          
  VERS.                            1.20: CWLS LAS  -  VERSION 1.20            
  WRAP.                             NO : One line per depth step              
~Well information                                                             
# MNEM.UNIT         DATA TYPE  INFORMATION                                    
# ====.================================: ===================                  
  STRT.M                          .800 : First depth in file                  
  STOP.M                       916.000 : Last  depth in file                  
  STEP.M                          .100 : Depth increment                      
  NULL.                       -999.250 : Null  values                         
  WN  .                            WELL: 315
  FN  .                           FIELD: KARATUBE
  DATE.                        LOG DATE: 09.09.04
~Curve information                                                            
# MNEM.UNIT                   API CODE   CURVE DESCRIPTION                    
# ====.================================:====================                  
  DEPT.M                               : Depth curve                          
  GR  .UR/H                            : Gamma ray log
  NGLD.UE                              : Neutron-gamma log
  GZ3 .OHMM                            : App.resistivity by lateral A2.0M0.5N   
  GZ3B.OHMM                            : App.resistivity by lateral N0.5M2.0A
  LL3 .OHMM                            : Appar.resist.laterolog,3 electrodes
  MLL .OHMM                            : Microlaterolog sonde
  CILR.MMHO                            : Conduct. by sonde 7I1.6,reactive signal
  CILA.MMHO                            : Conduct. by sonde 7I1.6,active signal
  C1  .MM                              : Caliper, diameter 1
  C2  .MM                              : Caliper, diameter 2
  CALI.MM                              : Caliper
  RHOB.G/C3                            : Bulk density by gamma-gamma log
  SP  .MV                              : Spontaneous potential
  BSC .MM                              : Bit size
  DTP .US/M                            : Interval travel time (P-wave)
  T1  .US                              : Travel time 1
  T2  .US                              : Travel time 2
~Parameter information block                                                  
# MNEM.UNIT                     VALUE       DESCRIPTION                       
# ====.================================:====================                  
  BS  .MM                       215.90 : Bit Size                             
  DFD .G/C3                       1.14 : Drilling Fluid Density
  DFV .S                         50.00 : Drilling Fluid Viscosity             
  RMS .OHMM                        .00 : Mud Sample Resistivity               
~Other information                                                            
# ------------------- REMARKS AREA ------------------------                   
# ==========================================================                  
~ASCII Log Data                                                               
# ...
    140.80        4.021        1.073     -999.250     -999.250     -999.250     -999.250     -999.250     -999.250      226.589      226.257      226.423     -999.250     -999.250      215.900      181.038      971.521     1044.013
    140.90        3.984        1.079     -999.250     -999.250     -999.250     -999.250     -999.250     -999.250      226.444      226.409      226.427     -999.250     -999.250      215.900      181.527      971.756     1044.318
    141.00        4.001        1.080     -999.250     -999.250     -999.250     -999.250     -999.250     -999.250      225.301      226.880      226.090     -999.250     -999.250      215.900      181.650      972.058     1044.425
    141.10        3.857        1.093     -999.250     -999.250     -999.250     -999.250     -999.250     -999.250      224.789      228.217      226.503     -999.250     -999.250      215.900      179.577      972.145     1043.990
    141.20        3.649        1.091     -999.250     -999.250     -999.250     -999.250     -999.250     -999.250      224.212      227.370      225.791     -999.250     -999.250      215.900      177.612      970.973     1042.261
    141.30        3.713        1.073     -999.250     -999.250     -999.250     -999.250     -999.250     -999.250      223.803      226.300      225.052     -999.250     -999.250      215.900      177.472      969.192     1040.494
    141.40        3.801        1.066     -999.250     -999.250     -999.250     -999.250     -999.250     -999.250      224.516      226.314      225.415     -999.250     -999.250      215.900      179.686      967.812     1039.667
    141.50        3.899        1.072     -999.250     -999.250     -999.250     -999.250     -999.250     -999.250      223.947      227.023      225.485     -999.250     -999.250      215.900      181.760      967.294     1039.781
    141.60        4.030        1.048     -999.250     -999.250     -999.250     -999.250     -999.250     -999.250      223.352      227.615      225.483     -999.250     -999.250      215.900      182.207      967.363     1040.163
    141.70        4.367        1.066     -999.250     -999.250     -999.250     -999.250     -999.250     -999.250      224.296      227.457      225.876     -999.250     -999.250      215.900      182.035      967.463     1040.223
    141.80        4.536        1.063     -999.250     -999.250     -999.250     -999.250     -999.250     -999.250      224.615      226.463      225.539     -999.250     -999.250      215.900      181.452      967.628     1040.230
    141.90        4.296        1.069     -999.250     -999.250     -999.250     -999.250     -999.250     -999.250      225.662      226.992      226.327     -999.250     -999.250      215.900      181.026      967.755     1040.320
    142.00        4.291        1.102     -999.250     -999.250     -999.250     -999.250     -999.250     -999.250      225.724      226.755      226.240     -999.250     -999.250      215.900      181.758      967.871     1040.586
    142.10        4.398        1.068     -999.250     -999.250     -999.250     -999.250     -999.250     -999.250      224.101      226.953      225.527     -999.250     -999.250      215.900      182.582      967.864     1040.777
    142.20        4.206        1.111     -999.250     -999.250     -999.250     -999.250     -999.250     -999.250      224.271      226.688      225.479     -999.250     -999.250      215.900      182.509      967.864     1040.774
    142.30        4.197        1.093     -999.250     -999.250     -999.250     -999.250     -999.250     -999.250      226.470      226.214      226.342     -999.250     -999.250      215.900      181.739      967.876     1040.640
    142.40        4.271        1.102     -999.250     -999.250     -999.250     -999.250     -999.250     -999.250      225.871      225.415      225.643     -999.250     -999.250      215.900      181.485      968.053     1040.706
    142.50        4.429        1.145     -999.250     -999.250     -999.250     -999.250     -999.250     -999.250      226.106      226.452      226.279     -999.250     -999.250      215.900      181.669      968.299     1041.002
    142.60        4.432        1.133     -999.250     -999.250     -999.250     -999.250     -999.250     -999.250      226.632      227.202      226.917     -999.250     -999.250      215.900      182.113      968.493     1041.260
    142.70        4.313        1.112     -999.250     -999.250     -999.250     -999.250     -999.250     -999.250      226.964      226.362      226.663     -999.250     -999.250      215.900      181.970      968.549     1041.339
    142.80        4.483        1.083     -999.250     -999.250     -999.250     -999.250     -999.250     -999.250      227.192      227.239      227.215     -999.250     -999.250      215.900      181.841      968.560     1041.270
    142.90        4.149        1.055     -999.250     -999.250     -999.250     -999.250     -999.250     -999.250      227.381      226.992      227.186     -999.250     -999.250      215.900      181.511      968.576     1041.162
    143.00        4.120        1.078     -999.250     -999.250     -999.250     -999.250     -999.250     -999.250      227.125      226.143      226.634     -999.250     -999.250      215.900      181.041      968.629     1041.090
    143.10        3.891        1.098     -999.250     -999.250     -999.250     -999.250     -999.250     -999.250      225.567      226.581      226.074     -999.250     -999.250      215.900      180.901      968.638     1040.905
    143.20        3.972        1.118     -999.250     -999.250     -999.250     -999.250     -999.250     -999.250      225.269      226.073      225.671     -999.250     -999.250      215.900      180.058      968.655     1040.749
    143.30        4.040        1.103     -999.250     -999.250     -999.250     -999.250     -999.250     -999.250      223.861      226.478      225.169     -999.250     -999.250      215.900      179.744      968.612     1040.635
    143.40        3.988        1.102     -999.250     -999.250     -999.250     -999.250     -999.250     -999.250      223.857      227.244      225.551     -999.250     -999.250      215.900      180.376      968.521     1040.670
    143.50        3.900        1.087     -999.250     -999.250     -999.250     -999.250     -999.250     -999.250      224.219      227.335      225.777     -999.250     -999.250      215.900      180.997      968.396     1040.810
    143.60        4.088        1.083     -999.250     -999.250     -999.250     -999.250     -999.250     -999.250      223.390      226.926      225.158     -999.250     -999.250      215.900      181.736      968.411     1040.921
    143.70        4.142        1.070     -999.250     -999.250     -999.250     -999.250     -999.250     -999.250      225.398      226.531      225.964     -999.250     -999.250      215.900      181.094      968.583     1041.108
    143.80        3.996        1.042     -999.250     -999.250     -999.250     -999.250     -999.250     -999.250      224.978      227.052      226.015     -999.250     -999.250      215.900      181.106      968.848     1041.259
    143.90        3.783        1.052     -999.250     -999.250     -999.250     -999.250     -999.250     -999.250      224.146      226.841      225.494     -999.250     -999.250      215.900      180.880      969.009     1041.400
    144.00        3.953        1.072     -999.250     -999.250     -999.250     -999.250     -999.250     -999.250      224.896      227.342      226.119     -999.250     -999.250      215.900      180.950      969.118     1041.466
    144.10        3.858        1.085     -999.250     -999.250     -999.250     -999.250     -999.250     -999.250      224.914      227.372      226.143     -999.250     -999.250      215.900      180.778      969.171     1041.518
    144.20        3.855        1.124     -999.250     -999.250     -999.250     -999.250     -999.250     -999.250      224.864      227.261      226.063     -999.250     -999.250      215.900      180.872      969.270     1041.593
