~Version information                                                          
  VERS.                            1.20: CWLS LAS  -  VERSION 1.20            
  WRAP.                             NO : One line per depth step              
~Well information                                                             
# MNEM.UNIT         DATA TYPE  INFORMATION                                    
# ====.================================: ===================                  
  STRT.M                          .800 : First depth in file                  
  STOP.M                       916.000 : Last  depth in file                  
  STEP.M                          .100 : Depth increment                      
  NULL.                       -999.250 : Null  values                         
  WN  .                            WELL: 315
  FN  .                           FIELD: KARATUBE
  DATE.                        LOG DATE: 09.09.04
~Curve information                                                            
# MNEM.UNIT                   API CODE   CURVE DESCRIPTION                    
# ====.================================:====================                  
  DEPT.M                               : Depth curve                          
  GR  .UR/H                            : Gamma ray log
  NGLD.UE                              : Neutron-gamma log
  GZ3 .OHMM                            : App.resistivity by lateral A2.0M0.5N   
  GZ3B.OHMM                            : App.resistivity by lateral N0.5M2.0A
  LL3 .OHMM                            : Appar.resist.laterolog,3 electrodes
  MLL .OHMM                            : Microlaterolog sonde
  CILR.MMHO                            : Conduct. by sonde 7I1.6,reactive signal
  CILA.MMHO                            : Conduct. by sonde 7I1.6,active signal
  C1  .MM                              : Caliper, diameter 1
  C2  .MM                              : Caliper, diameter 2
  CALI.MM                              : Caliper
  RHOB.G/C3                            : Bulk density by gamma-gamma log
  SP  .MV                              : Spontaneous potential
  BSC .MM                              : Bit size
  DTP .US/M                            : Interval travel time (P-wave)
  T1  .US                              : Travel time 1
  T2  .US                              : Travel time 2
~Parameter information block                                                  
# MNEM.UNIT                     VALUE       DESCRIPTION                       
# ====.================================:====================                  
  BS  .MM                       215.90 : Bit Size                             
  DFD .G/C3                       1.14 : Drilling Fluid Density
  DFV .S                         50.00 : Drilling Fluid Viscosity             
  RMS .OHMM                        .00 : Mud Sample Resistivity               
~Other information                                                            
# ------------------- REMARKS AREA ------------------------                   
# ==========================================================                  
~ASCII Log Data                                                               
# ...
    704.30        6.021        1.441        1.130        3.220        2.152        1.373      143.868      174.509      211.859      210.951      211.405        2.479      -54.322      215.900      381.492     1415.534     1567.848
    704.40        5.844        1.405        1.141        3.214        2.128        1.394      141.738      173.081      210.013      211.714      210.863        2.487      -55.745      215.900      380.092     1411.346     1563.339
    704.50        6.090        1.367        1.159        3.223        2.095        1.321      140.945      172.527      212.551      213.413      212.982        2.467      -57.003      215.900      378.366     1406.688     1558.177
    704.60        6.419        1.360        1.183        3.240        2.130        1.309      140.424      171.628      213.942      217.036      215.489        2.451      -58.641      215.900      377.716     1401.716     1553.575
    704.70        6.475        1.352        1.220        3.264        2.231        1.438      140.283      170.695      215.947      214.749      215.348        2.475      -59.277      215.900      382.861     1397.246     1550.430
    704.80        5.949        1.321        1.279        3.267        2.221        1.570      140.696      170.579      213.943      214.174      214.059        2.474      -58.547      215.900      388.300     1393.063     1548.200
    704.90        5.953        1.353        1.333        3.265        2.033        1.174      141.044      170.347      213.737      213.813      213.775        2.478      -56.963      215.900      392.361     1389.615     1545.444
    705.00        6.207        1.332        1.427        3.271        1.936         .826      141.005      169.912      215.537      213.939      214.738        2.522      -56.321      215.900      388.053     1387.138     1541.308
    705.10        5.967        1.320        1.536        3.276        1.938         .950      140.973      170.918      221.911      215.766      218.839        2.551      -56.206      215.900      375.863     1386.435     1536.711
    705.20        6.074        1.326        1.655        3.288        1.930        1.000      140.475      172.638      224.548      213.404      218.976        2.552      -56.066      215.900      363.145     1387.467     1532.861
    705.30        5.991        1.333        1.787        3.326        1.899         .898      140.604      173.815      218.612      214.888      216.750        2.541      -53.039      215.900      351.460     1389.570     1531.183
    705.40        6.063        1.351        1.903        3.357        2.052         .992      140.862      174.817      215.127      216.150      215.638        2.533      -48.885      215.900      347.486     1392.314     1531.879
    705.50        5.920        1.376        2.010        3.370        2.122        1.146      141.382      175.559      214.174      217.511      215.842        2.525      -45.341      215.900      347.791     1394.498     1534.696
    705.60        5.627        1.414        2.078        3.364        2.100        1.252      141.692      177.056      212.700      216.529      214.614        2.532      -43.325      215.900      356.212     1395.518     1538.071
    705.70        5.778        1.399        2.129        3.360        2.102        1.283      141.048      178.080      211.950      214.600      213.275        2.526      -42.394      215.900      365.149     1394.034     1539.833
    705.80        5.936        1.370        2.164        3.361        2.127        1.302      140.651      177.246      212.761      214.041      213.401        2.537      -41.317      215.900      372.126     1391.034     1539.132
    705.90        5.933        1.351        2.174        3.365        2.136        1.444      139.634      174.851      215.363      213.162      214.262        2.510      -40.371      215.900      373.468     1387.294     1536.479
    706.00        5.792        1.414        2.175        3.400        2.144        1.547      137.681      173.264      215.913      211.772      213.843        2.540      -41.734      215.900      373.295     1384.581     1533.269
    706.10        5.684        1.385        2.181        3.449        2.213        1.572      135.273      171.552      214.737      211.309      213.023        2.581      -43.451      215.900      368.396     1382.900     1530.345
    706.20        5.813        1.411        2.209        3.556        2.327        1.595      135.104      170.939      216.564      213.268      214.916        2.601      -43.660      215.900      364.139     1381.851     1527.758
    706.30        5.852        1.431        2.261        3.612        2.475        1.773      134.516      170.062      218.041      214.649      216.345        2.593      -42.988      215.900      361.767     1380.395     1526.038
    706.40        6.070        1.383        2.317        3.655        2.474        1.895      133.624      169.621      216.301      214.511      215.406        2.568      -43.038      215.900      366.411     1377.661     1524.300
    706.50        6.344        1.372        2.380        3.667        2.269        1.419      133.458      170.328      213.558      214.708      214.133        2.545      -45.035      215.900      371.607     1374.199     1522.343
    706.60        6.715        1.386        2.411        3.664        2.033         .896      132.514      171.689      212.937      215.853      214.395        2.551      -45.102      215.900      373.055     1370.937     1519.524
    706.70        6.564        1.342        2.421        3.661        2.005        1.079      131.150      171.791      217.629      221.275      219.452        2.501      -45.194      215.900      369.739     1369.570     1516.895
    706.80        6.680        1.382        2.410        3.670        2.059         .936      129.973      171.198      222.734      223.164      222.949        2.486      -46.903      215.900      362.145     1369.571     1514.794
    706.90        6.440        1.361        2.391        3.704        2.143        1.145      128.073      170.233      218.960      220.641      219.800        2.484      -49.575      215.900      357.288     1370.066     1513.250
    707.00        6.362        1.366        2.384        3.771        2.178        1.155      126.350      169.897      214.946      220.773      217.859        2.493      -50.552      215.900      354.448     1369.543     1511.666
    707.10        6.267        1.371        2.400        3.825        2.260        1.241      124.979      169.222      216.304      217.498      216.901        2.507      -49.006      215.900      354.186     1368.538     1510.211
    707.20        6.104        1.359        2.438        3.913        2.310        1.357      123.668      168.335      215.796      217.574      216.685        2.521      -47.168      215.900      353.907     1367.803     1509.167
    707.30        5.964        1.377        2.461        3.968        2.333        1.444      122.722      168.219      216.449      217.543      216.996        2.529      -46.232      215.900      352.128     1367.873     1509.205
    707.40        6.102        1.350        2.470        4.003        2.344        1.488      122.020      169.262      214.481      215.665      215.073        2.519      -44.463      215.900      353.959     1368.185     1510.107
    707.50        6.122        1.357        2.481        4.023        2.321        1.442      121.446      169.508      215.922      216.296      216.109        2.526      -39.716      215.900      358.329     1367.834     1511.658
    707.60        6.347        1.355        2.492        4.018        2.283        1.411      120.663      169.378      216.859      214.474      215.666        2.530      -37.121      215.900      366.394     1366.245     1512.280
    707.70        6.125        1.350        2.498        3.987        2.231        1.474      119.780      169.243      217.451      214.580      216.015        2.498      -35.232      215.900      370.547     1363.885     1511.725
