~Version information                                                          
  VERS.                            1.20: CWLS LAS  -  VERSION 1.20            
  WRAP.                             NO : One line per depth step              
~Well information                                                             
# MNEM.UNIT         DATA TYPE  INFORMATION                                    
# ====.================================: ===================                  
  STRT.M                          .800 : First depth in file                  
  STOP.M                       916.000 : Last  depth in file                  
  STEP.M                          .100 : Depth increment                      
  NULL.                       -999.250 : Null  values                         
  WN  .                            WELL: 315
  FN  .                           FIELD: KARATUBE
  DATE.                        LOG DATE: 09.09.04
~Curve information                                                            
# MNEM.UNIT                   API CODE   CURVE DESCRIPTION                    
# ====.================================:====================                  
  DEPT.M                               : Depth curve                          
  GR  .UR/H                            : Gamma ray log
  NGLD.UE                              : Neutron-gamma log
  GZ3 .OHMM                            : App.resistivity by lateral A2.0M0.5N   
  GZ3B.OHMM                            : App.resistivity by lateral N0.5M2.0A
  LL3 .OHMM                            : Appar.resist.laterolog,3 electrodes
  MLL .OHMM                            : Microlaterolog sonde
  CILR.MMHO                            : Conduct. by sonde 7I1.6,reactive signal
  CILA.MMHO                            : Conduct. by sonde 7I1.6,active signal
  C1  .MM                              : Caliper, diameter 1
  C2  .MM                              : Caliper, diameter 2
  CALI.MM                              : Caliper
  RHOB.G/C3                            : Bulk density by gamma-gamma log
  SP  .MV                              : Spontaneous potential
  BSC .MM                              : Bit size
  DTP .US/M                            : Interval travel time (P-wave)
  T1  .US                              : Travel time 1
  T2  .US                              : Travel time 2
~Parameter information block                                                  
# MNEM.UNIT                     VALUE       DESCRIPTION                       
# ====.================================:====================                  
  BS  .MM                       215.90 : Bit Size                             
  DFD .G/C3                       1.14 : Drilling Fluid Density
  DFV .S                         50.00 : Drilling Fluid Viscosity             
  RMS .OHMM                        .00 : Mud Sample Resistivity               
~Other information                                                            
# ------------------- REMARKS AREA ------------------------                   
# ==========================================================                  
~ASCII Log Data                                                               
# ...
    910.80        4.260        8.647         .102     -999.250    34217.690       29.403        -.681        2.683      116.457      155.909      136.183        2.166     -110.574      215.900     -999.250     -999.250     -999.250
    910.90        4.463        8.612         .102     -999.250    34280.140       27.543         .470        3.140      115.219      149.736      132.478        2.177     -110.252      215.900     -999.250     -999.250     -999.250
    911.00        4.247        8.637         .105     -999.250    30931.280       27.104         .681        2.567      117.335      149.158      133.246        2.186     -109.768      215.900     -999.250     -999.250     -999.250
    911.10        4.236        8.633         .104     -999.250    32248.720       26.915        -.075        2.753      117.497      151.244      134.370        2.197     -109.922      215.900     -999.250     -999.250     -999.250
    911.20        4.257        8.705         .103     -999.250    31440.910       26.621         .232        2.255      116.775      151.946      134.360        2.195     -109.527      215.900     -999.250     -999.250     -999.250
    911.30        4.462        8.633         .106     -999.250    32293.010       26.223         .563        2.635      116.436      151.919      134.178        2.197     -109.013      215.900     -999.250     -999.250     -999.250
    911.40        4.245        8.590         .109     -999.250    33871.450       25.718         .178        3.210      116.265      151.751      134.008        2.221     -108.692      215.900     -999.250     -999.250     -999.250
    911.50        4.147        8.466         .113     -999.250    32846.490       24.651        -.200        2.605      117.452      151.751      134.601        2.223     -108.286      215.900     -999.250     -999.250     -999.250
    911.60        4.091        8.513         .108     -999.250    32610.600       23.977        -.355        2.720      117.199      151.742      134.470        2.218     -108.617      215.900     -999.250     -999.250     -999.250
    911.70        3.960        8.428         .105     -999.250    33539.410       23.370         .111        3.276      117.419      151.706      134.563        2.212     -109.709      215.900     -999.250     -999.250     -999.250
    911.80        3.934        8.469         .107     -999.250    33038.340       22.278         .091        2.707      117.115      151.560      134.338        2.200     -111.433      215.900     -999.250     -999.250     -999.250
    911.90        4.136        8.422         .111     -999.250    31571.760       21.513         .267        2.736      117.026      151.193      134.110        2.178     -113.334      215.900     -999.250     -999.250     -999.250
    912.00        4.106        8.530         .105     -999.250    33402.380       20.894         .280        2.593      116.998      150.804      133.901        2.175     -114.551      215.900     -999.250     -999.250     -999.250
    912.10        4.226        8.488         .114     -999.250    32838.520       20.568         .229        2.768      117.078      150.442      133.760        2.207     -115.945      215.900     -999.250     -999.250     -999.250
    912.20        4.071        8.412         .118     -999.250    32614.960       20.071         .087        2.699      117.514      150.108      133.811        2.201     -116.438      215.900     -999.250     -999.250     -999.250
    912.30        4.374        8.460         .106     -999.250    32078.360       19.503         .067        2.842      117.325      150.006      133.666        2.195     -116.437      215.900     -999.250     -999.250     -999.250
    912.40        4.461        8.393         .120     -999.250    32122.930       18.877         .774        2.574      117.393      149.891      133.642        2.220     -117.602      215.900     -999.250     -999.250     -999.250
    912.50        4.359        8.526         .109     -999.250    33817.500       18.515         .182        2.357      117.296      149.890      133.593        2.199     -119.828      215.900     -999.250     -999.250     -999.250
    912.60        4.314        8.528         .118     -999.250    34083.380       18.484         .481        2.462      117.087      149.890      133.489        2.216     -121.859      215.900     -999.250     -999.250     -999.250
    912.70        4.177        8.469         .108     -999.250    32674.980       18.440        -.182        2.923      117.439      149.992      133.715        2.191     -122.350      215.900     -999.250     -999.250     -999.250
    912.80        4.023        8.431         .128     -999.250    33055.280       18.417         .374        2.708      117.016      149.898      133.457        2.220     -123.443      215.900     -999.250     -999.250     -999.250
    912.90        4.048        8.505         .131     -999.250    31886.780       18.376         .145        2.660      117.698      149.788      133.743        2.215     -124.078      215.900     -999.250     -999.250     -999.250
    913.00        3.997        8.461         .125     -999.250    33112.580       18.317        -.169        2.327      118.141      149.707      133.924        2.204     -124.625      215.900     -999.250     -999.250     -999.250
    913.10     -999.250        8.486         .107     -999.250    31656.730       18.288         .070        2.766      118.709      149.773      134.241        2.200     -124.130      215.900     -999.250     -999.250     -999.250
    913.20     -999.250        8.545         .132     -999.250    33269.580       18.242         .636        2.643      118.298      149.768      134.033        2.206     -123.862      215.900     -999.250     -999.250     -999.250
    913.30     -999.250        8.535         .118     -999.250    34060.020       18.187        -.129        2.929      117.772      149.697      133.735        2.230     -124.027      215.900     -999.250     -999.250     -999.250
    913.40     -999.250        8.469         .101     -999.250    30116.390       18.145         .603        2.593      117.099      149.781      133.440        2.228     -124.297      215.900     -999.250     -999.250     -999.250
    913.50     -999.250        8.430         .124     -999.250    32904.460       18.089         .332        2.527      117.266      149.888      133.577        2.236     -125.207      215.900     -999.250     -999.250     -999.250
    913.60     -999.250        8.465         .110     -999.250    31332.160       18.018         .113        3.077      117.130      149.665      133.397        2.245     -126.522      215.900     -999.250     -999.250     -999.250
    913.70     -999.250        8.375         .115     -999.250    32726.090     -999.250        -.192        2.899      117.481      149.775      133.628        2.228     -127.985      215.900     -999.250     -999.250     -999.250
    913.80     -999.250        8.374         .134     -999.250    35579.270     -999.250         .054        2.912      117.024      149.888      133.456        2.224     -124.788      215.900     -999.250     -999.250     -999.250
    913.90     -999.250        8.375         .116     -999.250    33922.970     -999.250         .247        2.562      117.334      149.788      133.561        2.238     -999.250      215.900     -999.250     -999.250     -999.250
    914.00     -999.250        8.254         .107     -999.250    32051.980     -999.250         .338        2.654      117.062      149.829      133.446        2.230     -999.250      215.900     -999.250     -999.250     -999.250
    914.10     -999.250        8.262         .128     -999.250    32297.520     -999.250         .513        2.833      116.669      149.213      132.941        2.219     -999.250      215.900     -999.250     -999.250     -999.250
    914.20     -999.250        8.359         .134     -999.250    34348.700     -999.250        -.131        2.839      116.458      149.133      132.796        2.196     -999.250      215.900     -999.250     -999.250     -999.250
