~Version information                                                          
  VERS.                            1.20: CWLS LAS  -  VERSION 1.20            
  WRAP.                             NO : One line per depth step              
~Well information                                                             
# MNEM.UNIT         DATA TYPE  INFORMATION                                    
# ====.================================: ===================                  
  STRT.M                          .800 : First depth in file                  
  STOP.M                       916.000 : Last  depth in file                  
  STEP.M                          .100 : Depth increment                      
  NULL.                       -999.250 : Null  values                         
  WN  .                            WELL: 315
  FN  .                           FIELD: KARATUBE
  DATE.                        LOG DATE: 09.09.04
~Curve information                                                            
# MNEM.UNIT                   API CODE   CURVE DESCRIPTION                    
# ====.================================:====================                  
  DEPT.M                               : Depth curve                          
  GR  .UR/H                            : Gamma ray log
  NGLD.UE                              : Neutron-gamma log
  GZ3 .OHMM                            : App.resistivity by lateral A2.0M0.5N   
  GZ3B.OHMM                            : App.resistivity by lateral N0.5M2.0A
  LL3 .OHMM                            : Appar.resist.laterolog,3 electrodes
  MLL .OHMM                            : Microlaterolog sonde
  CILR.MMHO                            : Conduct. by sonde 7I1.6,reactive signal
  CILA.MMHO                            : Conduct. by sonde 7I1.6,active signal
  C1  .MM                              : Caliper, diameter 1
  C2  .MM                              : Caliper, diameter 2
  CALI.MM                              : Caliper
  RHOB.G/C3                            : Bulk density by gamma-gamma log
  SP  .MV                              : Spontaneous potential
  BSC .MM                              : Bit size
  DTP .US/M                            : Interval travel time (P-wave)
  T1  .US                              : Travel time 1
  T2  .US                              : Travel time 2
~Parameter information block                                                  
# MNEM.UNIT                     VALUE       DESCRIPTION                       
# ====.================================:====================                  
  BS  .MM                       215.90 : Bit Size                             
  DFD .G/C3                       1.14 : Drilling Fluid Density
  DFV .S                         50.00 : Drilling Fluid Viscosity             
  RMS .OHMM                        .00 : Mud Sample Resistivity               
~Other information                                                            
# ------------------- REMARKS AREA ------------------------                   
# ==========================================================                  
~ASCII Log Data                                                               
# ...
    448.80        9.463        1.210        3.864        3.826        2.850        1.702      109.334      154.814      212.835      208.512      210.673        2.250       -2.878      215.900      468.938     1589.269     1777.093
    448.90        9.076        1.185        3.933        3.748        2.809        1.690      110.793      156.588      210.209      207.306      208.757        2.235       -2.709      215.900      475.701     1584.224     1774.375
    449.00        8.569        1.179        3.971        3.670        2.785        1.428      111.959      160.579      208.016      206.181      207.099        2.248       -6.030      215.900      481.489     1578.987     1771.634
    449.10        8.259        1.198        3.980        3.544        2.473         .914      113.431      164.155      209.556      207.012      208.284        2.240       -8.908      215.900      487.662     1574.877     1769.586
    449.20        7.848        1.169        3.907        3.418        2.349         .653      114.114      167.038      211.249      209.124      210.187        2.244      -12.438      215.900      491.166     1571.551     1767.602
    449.30        7.438        1.176        3.777        3.288        2.211         .648      114.253      169.295      211.612      211.353      211.483        2.238      -13.712      215.900      491.553     1568.462     1764.624
    449.40        7.767        1.142        3.560        3.161        2.178         .683      114.109      169.609      211.395      211.811      211.603        2.244      -13.805      215.900      488.501     1565.018     1759.901
    449.50        8.191        1.157        3.437        3.109        2.245         .698      113.853      169.334      209.566      209.986      209.776        2.243      -14.070      215.900      481.575     1562.881     1755.241
    449.60        8.983        1.148        3.336        3.087        2.138         .676      112.453      168.579      206.787      207.666      207.226        2.265      -15.290      215.900      472.623     1562.913     1752.196
    449.70        9.339        1.176        3.170        3.122        2.132         .773      111.049      167.512      204.905      206.897      205.901        2.227      -17.400      215.900      465.422     1564.890     1750.897
    449.80       10.248        1.191        3.118        3.192        2.197         .847      108.511      164.674      207.939      209.650      208.794        2.231      -18.854      215.900      457.008     1567.297     1750.034
    449.90       10.887        1.214        3.075        3.327        2.322         .797      106.571      162.382      207.882      209.866      208.874        2.210      -18.097      215.900      448.097     1569.735     1748.899
    450.00       11.505        1.236        3.071        3.445        2.472         .871      105.446      160.440      208.035      208.782      208.409        2.188      -18.082      215.900      438.630     1571.411     1748.327
    450.10       11.864        1.260        3.103        3.555        2.625        1.231      104.541      159.780      209.384      208.206      208.795        2.186      -17.541      215.900      440.145     1572.055     1748.784
    450.20       11.494        1.272        3.161        3.628        2.664        1.373      103.526      159.773      211.631      210.479      211.055        2.168      -16.994      215.900      446.690     1571.250     1750.878
    450.30       11.637        1.211        3.213        3.777        2.537        1.643      103.335      160.801      213.251      210.059      211.655        2.170      -15.592      215.900      460.369     1570.128     1753.797
    450.40       11.857        1.180        3.301        3.924        2.399        1.005      103.050      161.424      213.402      210.703      212.053        2.134      -14.574      215.900      470.458     1569.834     1757.820
    450.50       11.851        1.223        3.354        4.026        2.324         .886      102.058      160.467      211.277      209.783      210.530        2.114      -15.446      215.900      479.069     1571.658     1762.124
    450.60       11.537        1.264        3.423        4.178        2.374        1.001      101.230      159.422      212.772      212.294      212.533        2.086      -15.047      215.900      478.965     1575.288     1766.453
    450.70       11.398        1.269        3.512        4.361        2.400        1.106      101.186      158.168      212.358      213.664      213.011        2.049      -12.758      215.900      475.702     1579.942     1769.862
    450.80       11.097        1.233        3.575        4.510        2.371        1.149      100.456      156.099      212.886      212.260      212.573        2.027       -9.039      215.900      469.729     1584.464     1772.591
    450.90       10.958        1.222        3.654        4.627        2.430        1.212       98.969      153.610      215.593      209.836      212.714        1.994       -7.622      215.900      465.517     1588.875     1775.634
    451.00       10.546        1.180        3.690        4.684        2.451        1.245       97.669      152.024      216.200      208.986      212.592        1.984       -6.806      215.900      465.441     1592.604     1779.495
    451.10       10.597        1.124        3.731        4.743        2.479        1.154       95.842      149.955      214.514      209.662      212.088        1.952       -8.239      215.900      470.722     1596.466     1784.509
    451.20       10.002        1.096        3.764        4.806        2.592        1.136       94.876      148.868      215.037      212.565      213.801        1.968      -11.502      215.900      474.157     1600.381     1789.472
    451.30        9.618        1.139        3.778        4.846        2.747        1.658       94.085      147.421      216.158      218.958      217.558        1.969      -15.640      215.900      473.309     1606.341     1794.329
    451.40        9.376        1.167        3.792        4.821        3.028        1.377       94.652      147.084      210.658      213.383      212.021        2.070      -19.095      215.900      462.442     1613.576     1798.210
    451.50        8.722        1.184        3.769        4.776        2.988        1.544       95.475      148.425      208.475      214.144      211.310        2.180      -21.895      215.900      449.004     1622.010     1801.241
    451.60        8.968        1.239        3.698        4.526        2.784        1.434       96.812      149.827      209.462      209.968      209.715        2.211      -23.760      215.900      432.790     1628.264     1802.212
    451.70        9.475        1.260        3.557        4.299        2.688        1.349       97.415      150.678      207.360      210.718      209.039        2.284      -26.550      215.900      422.820     1631.352     1801.179
    451.80        9.872        1.272        3.375        4.043        2.653        1.334       98.544      152.282      207.385      209.729      208.557        2.272      -29.513      215.900      418.095     1630.474     1798.301
    451.90        9.842        1.307        3.189        3.802        2.666        1.314       98.660      152.704      209.719      210.676      210.197        2.271      -31.817      215.900      417.788     1627.208     1794.832
    452.00        9.952        1.338        3.037        3.652        2.674        1.369       97.730      152.792      208.484      210.969      209.727        2.282      -33.288      215.900      421.291     1622.189     1791.063
    452.10       10.103        1.338        2.964        3.568        2.649        1.294       97.182      152.604      208.319      211.784      210.052        2.293      -34.252      215.900      427.477     1616.185     1787.358
    452.20       10.464        1.311        2.911        3.561        2.637        1.325       98.153      152.217      206.646      210.576      208.611        2.305      -35.519      215.900      435.030     1610.354     1784.056
