~Version information                                                          
  VERS.                            1.20: CWLS LAS  -  VERSION 1.20            
  WRAP.                             NO : One line per depth step              
~Well information                                                             
# MNEM.UNIT         DATA TYPE  INFORMATION                                    
# ====.================================: ===================                  
  STRT.M                          .800 : First depth in file                  
  STOP.M                       916.000 : Last  depth in file                  
  STEP.M                          .100 : Depth increment                      
  NULL.                       -999.250 : Null  values                         
  WN  .                            WELL: 315
  FN  .                           FIELD: KARATUBE
  DATE.                        LOG DATE: 09.09.04
~Curve information                                                            
# MNEM.UNIT                   API CODE   CURVE DESCRIPTION                    
# ====.================================:====================                  
  DEPT.M                               : Depth curve                          
  GR  .UR/H                            : Gamma ray log
  NGLD.UE                              : Neutron-gamma log
  GZ3 .OHMM                            : App.resistivity by lateral A2.0M0.5N   
  GZ3B.OHMM                            : App.resistivity by lateral N0.5M2.0A
  LL3 .OHMM                            : Appar.resist.laterolog,3 electrodes
  MLL .OHMM                            : Microlaterolog sonde
  CILR.MMHO                            : Conduct. by sonde 7I1.6,reactive signal
  CILA.MMHO                            : Conduct. by sonde 7I1.6,active signal
  C1  .MM                              : Caliper, diameter 1
  C2  .MM                              : Caliper, diameter 2
  CALI.MM                              : Caliper
  RHOB.G/C3                            : Bulk density by gamma-gamma log
  SP  .MV                              : Spontaneous potential
  BSC .MM                              : Bit size
  DTP .US/M                            : Interval travel time (P-wave)
  T1  .US                              : Travel time 1
  T2  .US                              : Travel time 2
~Parameter information block                                                  
# MNEM.UNIT                     VALUE       DESCRIPTION                       
# ====.================================:====================                  
  BS  .MM                       215.90 : Bit Size                             
  DFD .G/C3                       1.14 : Drilling Fluid Density
  DFV .S                         50.00 : Drilling Fluid Viscosity             
  RMS .OHMM                        .00 : Mud Sample Resistivity               
~Other information                                                            
# ------------------- REMARKS AREA ------------------------                   
# ==========================================================                  
~ASCII Log Data                                                               
# ...
    756.80        6.447        1.507        3.116        3.151        2.871        1.798      135.645      178.389      217.177      211.650      214.413        2.419      -16.514      215.900      329.746     1276.302     1408.699
    756.90        6.673        1.463        3.218        3.151        3.027        1.899      137.447      177.109      217.165      212.191      214.678        2.435      -15.862      215.900      329.463     1277.973     1411.034
    757.00        7.049        1.432        3.305        3.094        2.722        2.064      141.015      179.237      215.934      212.031      213.982        2.431      -14.004      215.900      338.745     1279.115     1414.766
    757.10        7.208        1.388        3.312        3.034        2.111        1.348      142.283      184.020      214.740      212.026      213.383        2.441      -12.768      215.900      349.181     1280.613     1419.158
    757.20        7.249        1.344        3.302        3.025        1.451         .267      141.019      186.746      215.097      215.088      215.093        2.446      -10.776      215.900      351.153     1283.229     1422.030
    757.30        7.426        1.337        3.138        3.083        1.460         .399      137.780      184.037      218.028      225.627      221.827        2.482       -8.214      215.900      340.665     1287.178     1423.050
    757.40        7.292        1.357        2.995        3.169        1.722         .936      134.676      181.229      224.402      234.165      229.283        2.474       -4.861      215.900      327.208     1291.305     1421.952
    757.50        7.195        1.417        2.850        3.343        1.996        1.020      132.699      176.994      223.686      224.380      224.033        2.439       -2.148      215.900      311.986     1294.239     1420.060
    757.60        7.199        1.422        2.805        3.532        2.233        1.211      129.913      172.670      218.753      213.997      216.375        2.480         .215      215.900      304.456     1295.309     1417.962
    757.70        6.952        1.437        2.852        3.693        2.497        1.788      127.940      169.282      218.013      214.577      216.295        2.508        2.523      215.900      303.454     1293.780     1416.712
    757.80        7.107        1.446        2.924        3.813        2.511        1.612      127.063      168.444      217.126      214.276      215.701        2.478        4.190      215.900      314.083     1290.598     1415.703
    757.90        7.187        1.488        2.980        3.868        2.453        1.363      126.539      167.072      216.464      213.021      214.742        2.478        6.134      215.900      320.756     1286.613     1414.191
    758.00        7.251        1.495        3.034        3.984        2.565        1.428      125.755      162.806      215.537      211.718      213.627        2.485        5.784      215.900      321.998     1283.495     1411.408
    758.10        7.162        1.557        3.049        4.043        2.699        1.688      124.338      160.617      215.867      213.206      214.537        2.494        5.085      215.900      316.592     1281.098     1407.386
    758.20        7.250        1.540        3.056        4.127        2.624        1.584      122.222      160.283      214.927      212.924      213.926        2.505        7.595      215.900      308.580     1279.424     1403.229
    758.30        7.404        1.508        3.101        4.238        2.655        1.338      122.145      159.927      216.293      212.083      214.188        2.499        9.451      215.900      303.361     1278.061     1400.047
    758.40        7.169        1.482        3.151        4.291        2.973        1.720      123.780      158.726      215.852      212.370      214.111        2.507        8.314      215.900      302.957     1276.953     1399.531
    758.50        7.146        1.453        3.198        4.285        3.087        2.533      125.264      160.871      216.319      209.423      212.871        2.502        6.893      215.900      313.014     1275.696     1401.108
    758.60        6.920        1.426        3.188        4.215        2.737        2.161      127.267      164.180      216.860      211.054      213.957        2.515        6.451      215.900      324.627     1273.616     1403.138
    758.70        6.900        1.428        3.153        4.131        2.086         .948      128.664      167.492      216.293      213.577      214.935        2.525        7.172      215.900      333.767     1271.250     1403.305
    758.80        6.752        1.400        3.094        4.040        2.106         .924      129.388      168.402      218.921      215.767      217.344        2.501        6.693      215.900      332.012     1269.361     1401.747
    758.90        6.543        1.405        3.026        3.938        2.360        1.405      128.656      168.922      219.265      218.189      218.727        2.480        4.591      215.900      327.114     1269.038     1399.938
    759.00        6.312        1.445        2.910        3.821        2.432        1.792      128.380      169.247      217.551      215.082      216.317        2.466        2.419      215.900      322.628     1269.345     1399.171
    759.10        6.064        1.443        2.846        3.724        2.467        1.490      127.338      169.804      218.796      215.278      217.037        2.452        2.206      215.900      323.954     1269.592     1399.497
    759.20        6.168        1.456        2.831        3.700        2.669        1.983      126.834      171.071      221.149      212.288      216.718        2.434        2.546      215.900      327.708     1269.401     1400.603
    759.30        5.920        1.467        2.833        3.579        2.733        1.951      127.158      172.653      218.209      213.350      215.779        2.445        2.428      215.900      332.358     1269.689     1402.379
    759.40        5.977        1.480        2.815        3.509        2.571        1.899      127.080      174.868      216.504      210.136      213.320        2.463        -.707      215.900      335.110     1271.402     1405.147
    759.50        6.149        1.488        2.760        3.409        2.373        1.653      127.491      176.150      214.325      209.568      211.947        2.468       -1.749      215.900      335.619     1273.638     1407.445
    759.60        6.125        1.491        2.696        3.357        2.295        1.561      127.255      176.922      214.342      211.483      212.912        2.466       -1.720      215.900      332.821     1274.902     1408.013
    759.70        6.284        1.520        2.646        3.347        2.364        1.537      125.802      177.001      213.796      208.808      211.302        2.484       -2.146      215.900      329.893     1273.425     1405.283
    759.80        6.349        1.518        2.621        3.384        2.519        1.751      126.236      177.142      213.581      209.272      211.427        2.465       -2.909      215.900      326.223     1270.020     1400.781
    759.90        6.521        1.501        2.615        3.422        2.667        1.826      126.900      176.046      212.978      208.985      210.982        2.496       -5.820      215.900      324.594     1266.342     1396.275
    760.00        6.617        1.497        2.630        3.470        2.551        1.866      126.851      174.852      211.950      209.855      210.902        2.482       -7.420      215.900      323.680     1263.606     1393.446
    760.10        6.341        1.495        2.662        3.514        2.550        1.952      126.176      172.032      212.175      209.072      210.624        2.454       -7.954      215.900      325.527     1262.208     1392.281
    760.20        6.236        1.504        2.700        3.570        2.582        2.067      126.025      169.518      212.762      211.362      212.062        2.442       -8.504      215.900      326.343     1261.425     1391.815
