~Version information                                                          
  VERS.                            1.20: CWLS LAS  -  VERSION 1.20            
  WRAP.                             NO : One line per depth step              
~Well information                                                             
# MNEM.UNIT         DATA TYPE  INFORMATION                                    
# ====.================================: ===================                  
  STRT.M                          .800 : First depth in file                  
  STOP.M                       916.000 : Last  depth in file                  
  STEP.M                          .100 : Depth increment                      
  NULL.                       -999.250 : Null  values                         
  WN  .                            WELL: 315
  FN  .                           FIELD: KARATUBE
  DATE.                        LOG DATE: 09.09.04
~Curve information                                                            
# MNEM.UNIT                   API CODE   CURVE DESCRIPTION                    
# ====.================================:====================                  
  DEPT.M                               : Depth curve                          
  GR  .UR/H                            : Gamma ray log
  NGLD.UE                              : Neutron-gamma log
  GZ3 .OHMM                            : App.resistivity by lateral A2.0M0.5N   
  GZ3B.OHMM                            : App.resistivity by lateral N0.5M2.0A
  LL3 .OHMM                            : Appar.resist.laterolog,3 electrodes
  MLL .OHMM                            : Microlaterolog sonde
  CILR.MMHO                            : Conduct. by sonde 7I1.6,reactive signal
  CILA.MMHO                            : Conduct. by sonde 7I1.6,active signal
  C1  .MM                              : Caliper, diameter 1
  C2  .MM                              : Caliper, diameter 2
  CALI.MM                              : Caliper
  RHOB.G/C3                            : Bulk density by gamma-gamma log
  SP  .MV                              : Spontaneous potential
  BSC .MM                              : Bit size
  DTP .US/M                            : Interval travel time (P-wave)
  T1  .US                              : Travel time 1
  T2  .US                              : Travel time 2
~Parameter information block                                                  
# MNEM.UNIT                     VALUE       DESCRIPTION                       
# ====.================================:====================                  
  BS  .MM                       215.90 : Bit Size                             
  DFD .G/C3                       1.14 : Drilling Fluid Density
  DFV .S                         50.00 : Drilling Fluid Viscosity             
  RMS .OHMM                        .00 : Mud Sample Resistivity               
~Other information                                                            
# ------------------- REMARKS AREA ------------------------                   
# ==========================================================                  
~ASCII Log Data                                                               
# ...
    858.30        7.134        1.396        5.010        3.812        2.503         .718       95.962      160.532      228.168      216.950      222.559        2.483        6.327      215.900      326.563     1161.188     1290.737
    858.40        7.100        1.398        4.951        3.887        2.339         .773       96.858      160.724      230.302      222.071      226.186        2.505        4.801      215.900      331.159     1168.062     1298.920
    858.50        7.432        1.364        4.809        3.954        2.267         .688       95.978      159.135      225.088      222.705      223.897        2.530        3.240      215.900      323.715     1178.615     1307.224
    858.60        7.373        1.370        4.683        4.031        2.359         .608       95.310      155.299      222.214      223.580      222.897        2.529        2.480      215.900      309.687     1190.704     1313.374
    858.70        7.587        1.396        4.470        4.178        2.408         .593       94.270      151.499      221.350      221.260      221.305        2.534        1.938      215.900      286.631     1201.696     1315.734
    858.80        7.334        1.422        4.381        4.307        2.431         .633       92.399      145.155      226.762      220.788      223.775        2.555        2.267      215.900      258.968     1211.282     1314.713
    858.90        7.066        1.490        4.351        4.576        2.677         .813       90.684      141.059      230.043      223.811      226.927        2.555        2.293      215.900      230.114     1219.396     1312.831
    859.00        6.763        1.531        4.359        4.763        3.042         .953       90.377      139.144      233.502      222.132      227.817        2.603        2.477      215.900      211.700     1224.378     1310.456
    859.10        6.352        1.592        4.390        4.905        3.541        1.024       91.303      138.532      226.633      220.604      223.618        2.574        2.852      215.900      203.759     1223.862     1306.776
    859.20        5.659        1.654        4.439        5.060        3.682        1.243       92.189      138.456      215.667      217.670      216.668        2.578        3.917      215.900      206.396     1217.903     1301.741
    859.30        5.042        1.677        4.445        5.143        3.512        1.493       92.132      138.987      213.185      215.665      214.425        2.595        5.741      215.900      218.627     1209.670     1297.739
    859.40        4.723        1.674        4.429        5.210        3.341        1.548       92.090      140.873      216.628      210.797      213.712        2.621        6.775      215.900      235.498     1203.094     1296.461
    859.50        4.557        1.715        4.412        5.273        3.415        1.218       91.870      138.888      217.506      207.542      212.523        2.579        7.152      215.900      246.116     1199.642     1297.138
    859.60        4.059        1.706        4.402        5.301        4.016        1.781       90.136      134.533      218.814      204.369      211.591        2.567        7.704      215.900      249.613     1198.200     1298.070
    859.70        4.014        1.786        4.406        5.377        4.296        2.923       89.697      131.636      221.106      204.796      212.951        2.599        8.486      215.900      253.291     1196.626     1298.459
    859.80        3.887        1.823        4.424        5.365        4.082        2.746       89.880      131.517      222.623      207.848      215.236        2.554        9.243      215.900      260.847     1194.321     1298.618
    859.90        3.936        1.844        4.425        5.277        3.705        2.156       89.587      133.907      222.081      208.178      215.129        2.525        9.559      215.900      268.092     1191.596     1298.732
    860.00        3.865        1.849        4.367        5.166        3.436        1.983       90.207      136.777      223.279      210.992      217.136        2.510        9.160      215.900      274.569     1188.732     1298.443
    860.10        3.893        1.853        4.264        5.074        2.982        1.578       90.725      141.900      224.513      214.447      219.480        2.520        9.161      215.900      280.171     1185.749     1297.548
    860.20        4.068        1.812        4.085        5.040        2.908        1.310       90.501      144.527      224.142      214.222      219.182        2.537        9.836      215.900      283.751     1182.457     1295.731
    860.30        3.833        1.767        3.960        5.056        2.790        1.373       90.139      147.817      223.318      214.569      218.944        2.499       10.271      215.900      285.640     1179.034     1293.231
    860.40        3.934        1.677        3.810        5.109        2.773        1.294       88.623      149.645      221.680      217.533      219.607        2.483       10.133      215.900      287.087     1175.318     1289.921
    860.50        3.945        1.685        3.705        5.198        2.759        1.211       87.926      151.165      221.768      219.599      220.684        2.510        9.905      215.900      286.794     1171.883     1286.756
    860.60        4.171        1.715        3.619        5.349        2.704        1.089       86.259      151.309      220.645      219.838      220.241        2.494       10.340      215.900      287.665     1169.461     1284.584
    860.70        4.320        1.723        3.537        5.513        2.664         .773       84.786      152.406      219.703      217.198      218.450        2.501       10.274      215.900      288.965     1168.564     1284.321
    860.80        4.272        1.709        3.475        5.720        2.559         .810       82.674      153.874      223.853      216.583      220.218        2.510        9.881      215.900      291.543     1168.305     1284.880
    860.90        4.026        1.672        3.401        5.945        2.515         .660       80.096      154.888      224.805      216.917      220.861        2.483        9.774      215.900      293.801     1167.743     1285.026
    861.00        4.010        1.621        3.373        6.276        2.482         .632       77.163      155.159      228.015      216.594      222.304        2.489        9.706      215.900      294.275     1166.130     1283.775
    861.10        4.151        1.643        3.356        6.608        2.505         .512       72.734      152.862      224.737      215.859      220.298        2.475        9.961      215.900      294.258     1164.052     1281.686
    861.20        4.297        1.665        3.316        6.939        2.489         .662       70.725      149.760      223.716      215.189      219.453        2.504       10.495      215.900      293.724     1161.814     1279.885
    861.30        4.326        1.673        3.313        7.239        2.459         .735       68.528      147.236      219.058      214.819      216.939        2.483       11.214      215.900      297.549     1160.131     1279.347
    861.40        4.227        1.628        3.337        7.672        2.586         .864       62.303      138.335      217.727      214.947      216.337        2.540       11.796      215.900      302.847     1159.035     1280.158
    861.50        4.472        1.643        3.372        7.999        2.813        1.234       59.187      134.836      220.935      215.411      218.173        2.592       12.405      215.900      308.024     1157.914     1280.749
    861.60        4.493        1.660        3.411        8.220        3.195        1.657       55.917      128.842      223.302      217.661      220.482        2.555       12.967      215.900      310.394     1155.950     1279.526
    861.70        4.675        1.685        3.486        8.497        3.262        1.773       54.677      125.456      222.287      216.350      219.318        2.550       13.816      215.900      308.402     1152.584     1275.699
