~Version information                                                          
  VERS.                            1.20: CWLS LAS  -  VERSION 1.20            
  WRAP.                             NO : One line per depth step              
~Well information                                                             
# MNEM.UNIT         DATA TYPE  INFORMATION                                    
# ====.================================: ===================                  
  STRT.M                          .800 : First depth in file                  
  STOP.M                       916.000 : Last  depth in file                  
  STEP.M                          .100 : Depth increment                      
  NULL.                       -999.250 : Null  values                         
  WN  .                            WELL: 315
  FN  .                           FIELD: KARATUBE
  DATE.                        LOG DATE: 09.09.04
~Curve information                                                            
# MNEM.UNIT                   API CODE   CURVE DESCRIPTION                    
# ====.================================:====================                  
  DEPT.M                               : Depth curve                          
  GR  .UR/H                            : Gamma ray log
  NGLD.UE                              : Neutron-gamma log
  GZ3 .OHMM                            : App.resistivity by lateral A2.0M0.5N   
  GZ3B.OHMM                            : App.resistivity by lateral N0.5M2.0A
  LL3 .OHMM                            : Appar.resist.laterolog,3 electrodes
  MLL .OHMM                            : Microlaterolog sonde
  CILR.MMHO                            : Conduct. by sonde 7I1.6,reactive signal
  CILA.MMHO                            : Conduct. by sonde 7I1.6,active signal
  C1  .MM                              : Caliper, diameter 1
  C2  .MM                              : Caliper, diameter 2
  CALI.MM                              : Caliper
  RHOB.G/C3                            : Bulk density by gamma-gamma log
  SP  .MV                              : Spontaneous potential
  BSC .MM                              : Bit size
  DTP .US/M                            : Interval travel time (P-wave)
  T1  .US                              : Travel time 1
  T2  .US                              : Travel time 2
~Parameter information block                                                  
# MNEM.UNIT                     VALUE       DESCRIPTION                       
# ====.================================:====================                  
  BS  .MM                       215.90 : Bit Size                             
  DFD .G/C3                       1.14 : Drilling Fluid Density
  DFV .S                         50.00 : Drilling Fluid Viscosity             
  RMS .OHMM                        .00 : Mud Sample Resistivity               
~Other information                                                            
# ------------------- REMARKS AREA ------------------------                   
# ==========================================================                  
~ASCII Log Data                                                               
# ...
    347.30       14.445        1.593        6.634        8.082        7.175       22.084       64.602      113.112      215.670      212.444      214.057        2.368       36.299      215.900      357.275     1657.043     1804.185
    347.40       15.640        1.573        7.166        8.198        7.005       16.345       67.641      119.160      217.340      211.687      214.513        2.350       37.373      215.900      344.507     1646.512     1790.401
    347.50       16.107        1.573        7.691        7.862        4.239        4.872       70.472      125.406      217.684      214.696      216.190        2.347       38.679      215.900      377.385     1626.269     1780.750
    347.60       15.550        1.558        7.648        7.209        3.325        1.728       71.891      131.205      215.303      216.186      215.745        2.305       40.340      215.900      436.711     1600.617     1772.940
    347.70       13.334        1.454        7.213        6.413        3.166        1.580       74.197      139.061      216.038      216.402      216.220        2.290       38.830      215.900      478.327     1577.047     1765.105
    347.80       12.355        1.449        6.450        5.697        3.130        1.264       75.404      142.353      219.427      218.835      219.131        2.298       37.249      215.900      495.394     1563.607     1758.558
    347.90       11.529        1.395        5.821        5.153        3.027        1.047       76.542      144.939      220.192      217.436      218.814        2.302       36.072      215.900      488.417     1559.534     1754.222
    348.00       11.263        1.348        5.091        4.820        2.920         .963       77.193      146.728      218.029      210.985      214.507        2.320       35.099      215.900      476.346     1559.273     1750.855
    348.10       11.489        1.294        4.733        4.668        2.781         .980       77.443      146.639      215.780      206.860      211.320        2.305       33.398      215.900      472.111     1558.161     1747.322
    348.20       11.410        1.283        4.425        4.602        2.691        1.065       77.522      145.697      216.372      206.006      211.189        2.326       31.136      215.900      470.252     1555.211     1743.558
    348.30       11.437        1.307        4.122        4.597        2.715        1.093       77.196      144.087      213.107      206.132      209.619        2.328       31.277      215.900      470.238     1552.008     1740.058
    348.40       11.508        1.323        3.898        4.639        2.783        1.079       76.416      142.070      211.632      208.854      210.243        2.337       30.353      215.900      469.885     1549.022     1737.287
    348.50       11.375        1.339        3.705        4.722        2.859        1.073       75.828      140.100      210.115      209.067      209.591        2.356       28.885      215.900      471.863     1545.848     1734.980
    348.60       11.070        1.316        3.618        4.787        2.931        1.100       75.556      138.329      212.347      204.150      208.249        2.361       26.534      215.900      476.739     1542.359     1732.665
    348.70       11.220        1.291        3.577        4.922        2.964        1.070       75.644      137.006      212.658      204.082      208.370        2.346       25.349      215.900      478.694     1539.108     1730.404
    348.80       11.192        1.269        3.561        5.060        2.995        1.031       75.383      136.225      212.823      204.313      208.568        2.333       24.573      215.900      479.282     1536.638     1727.349
    348.90       10.625        1.295        3.569        5.141        3.029        1.014       74.938      136.384      212.700      205.222      208.961        2.335       23.163      215.900      472.354     1534.798     1723.846
    349.00       10.212        1.280        3.576        5.230        3.044        1.002       74.968      136.747      212.048      205.771      208.909        2.366       21.961      215.900      466.220     1532.606     1719.631
    349.10       10.286        1.300        3.582        5.281        3.081        1.025       74.815      134.992      211.257      206.004      208.630        2.367       19.529      215.900      464.109     1529.401     1716.274
    349.20        9.911        1.294        3.590        5.346        3.006        1.099       74.439      133.889      210.316      206.337      208.327        2.372       16.639      215.900      471.222     1525.242     1714.370
    349.30        9.775        1.246        3.625        5.364        3.108        1.279       73.564      131.429      209.392      205.932      207.662        2.383       14.942      215.900      483.130     1520.130     1714.529
    349.40        9.652        1.243        3.696        5.364        3.351        1.457       72.725      129.577      209.064      205.272      207.168        2.384       15.911      215.900      503.647     1515.705     1717.567
    349.50        9.641        1.235        3.888        5.369        3.543        1.626       71.768      129.174      210.793      207.163      208.978        2.372       17.366      215.900      527.186     1512.821     1723.843
    349.60        9.228        1.242        4.172        5.363        3.584        1.480       72.546      129.756      211.842      206.965      209.404        2.358       18.159      215.900      551.837     1513.881     1733.600
    349.70        9.406        1.169        4.466        5.319        3.380        1.175       72.895      131.772      211.953      206.792      209.372        2.347       18.141      215.900      568.872     1517.476     1745.475
    349.80        9.506        1.121        4.699        5.254        3.177        1.002       73.012      134.164      210.611      206.476      208.544        2.332       18.496      215.900      589.276     1521.806     1758.404
    349.90        9.449        1.104        4.790        5.165        3.088         .975       73.602      136.395      209.330      205.041      207.185        2.334       19.158      215.900      616.340     1525.104     1771.513
    350.00        9.085        1.126        4.794        5.039        2.967         .978       73.499      138.708      207.464      204.113      205.789        2.340       20.506      215.900      642.454     1528.842     1784.019
    350.10        9.038        1.131        4.652        4.932        2.880        1.054       73.058      140.702      207.282      202.810      205.046        2.349       20.627      215.900      655.034     1535.528     1794.634
    350.20        9.038        1.120        4.496        4.823        2.783        1.130       73.169      143.287      208.648      203.300      205.974        2.342       17.961      215.900      645.804     1545.473     1801.882
    350.30        9.005        1.124        4.301        4.756        2.768        1.155       71.999      143.426      209.210      204.485      206.848        2.315       15.382      215.900      622.233     1556.487     1805.690
    350.40        8.619        1.103        4.169        4.727        2.720        1.163       70.965      144.245      210.687      205.315      208.001        2.295       17.700      215.900      600.979     1566.059     1807.413
    350.50        8.066        1.142        4.058        4.769        2.734        1.166       69.858      143.144      212.703      207.777      210.240        2.302       18.983      215.900      586.944     1572.956     1808.785
    350.60        8.136        1.173        3.994        4.813        2.772        1.047       68.364      142.730      213.523      210.619      212.071        2.316       20.312      215.900      580.785     1578.122     1810.531
    350.70        8.258        1.181        3.929        4.886        2.736         .928       67.506      141.987      212.221      211.997      212.109        2.312       22.067      215.900      575.328     1582.501     1812.586
