~Version information                                                          
  VERS.                            1.20: CWLS LAS  -  VERSION 1.20            
  WRAP.                             NO : One line per depth step              
~Well information                                                             
# MNEM.UNIT         DATA TYPE  INFORMATION                                    
# ====.================================: ===================                  
  STRT.M                          .800 : First depth in file                  
  STOP.M                       916.000 : Last  depth in file                  
  STEP.M                          .100 : Depth increment                      
  NULL.                       -999.250 : Null  values                         
  WN  .                            WELL: 315
  FN  .                           FIELD: KARATUBE
  DATE.                        LOG DATE: 09.09.04
~Curve information                                                            
# MNEM.UNIT                   API CODE   CURVE DESCRIPTION                    
# ====.================================:====================                  
  DEPT.M                               : Depth curve                          
  GR  .UR/H                            : Gamma ray log
  NGLD.UE                              : Neutron-gamma log
  GZ3 .OHMM                            : App.resistivity by lateral A2.0M0.5N   
  GZ3B.OHMM                            : App.resistivity by lateral N0.5M2.0A
  LL3 .OHMM                            : Appar.resist.laterolog,3 electrodes
  MLL .OHMM                            : Microlaterolog sonde
  CILR.MMHO                            : Conduct. by sonde 7I1.6,reactive signal
  CILA.MMHO                            : Conduct. by sonde 7I1.6,active signal
  C1  .MM                              : Caliper, diameter 1
  C2  .MM                              : Caliper, diameter 2
  CALI.MM                              : Caliper
  RHOB.G/C3                            : Bulk density by gamma-gamma log
  SP  .MV                              : Spontaneous potential
  BSC .MM                              : Bit size
  DTP .US/M                            : Interval travel time (P-wave)
  T1  .US                              : Travel time 1
  T2  .US                              : Travel time 2
~Parameter information block                                                  
# MNEM.UNIT                     VALUE       DESCRIPTION                       
# ====.================================:====================                  
  BS  .MM                       215.90 : Bit Size                             
  DFD .G/C3                       1.14 : Drilling Fluid Density
  DFV .S                         50.00 : Drilling Fluid Viscosity             
  RMS .OHMM                        .00 : Mud Sample Resistivity               
~Other information                                                            
# ------------------- REMARKS AREA ------------------------                   
# ==========================================================                  
~ASCII Log Data                                                               
# ...
    242.30        9.813        1.155        4.923        5.735        3.589        1.752       75.562      140.340      229.185      230.561      229.873        2.226        9.751      215.900      520.031     1794.277     2002.411
    242.40        9.678        1.174        4.888        5.717        3.530        1.474       76.500      141.617      222.636      230.367      226.502        2.224       10.933      215.900      519.892     1793.878     2001.725
    242.50        9.726        1.174        4.846        5.731        3.401        1.389       77.500      143.267      219.735      231.319      225.527        2.260       10.657      215.900      518.937     1793.426     2001.021
    242.60        9.554        1.164        4.808        5.811        3.351        1.287       77.203      143.268      224.576      236.360      230.468        2.265       10.090      215.900      518.142     1792.897     2000.092
    242.70        9.335        1.174        4.775        5.922        3.354        1.437       76.170      143.500      227.120      242.748      234.934        2.348        9.199      215.900      516.885     1792.490     1999.001
    242.80        9.295        1.201        4.746        6.071        3.287        3.278       75.211      141.216      229.085      240.393      234.739        2.359       10.893      215.900      513.812     1791.887     1997.318
    242.90        9.074        1.208        4.756        6.272        3.491        4.860       73.072      138.004      225.668      233.202      229.435        2.322       13.278      215.900      510.034     1790.891     1994.918
    243.00        9.031        1.175        4.817        6.426        3.685        3.969       71.533      135.094      231.250      229.945      230.598        2.294       15.404      215.900      506.354     1789.490     1992.325
    243.10        8.932        1.159        4.914        6.556        3.720        1.641       70.345      134.704      223.053      225.395      224.224        2.283       15.942      215.900      504.881     1787.067     1990.388
    243.20        8.792        1.178        4.981        6.607        3.771        1.575       69.096      134.453      216.856      217.724      217.290        2.231       17.075      215.900      513.674     1782.946     1988.304
    243.30        8.938        1.159        5.011        6.715        3.652        1.589       67.790      134.758      215.917      216.653      216.285        2.239       18.902      215.900      521.624     1776.381     1986.005
    243.40        9.059        1.099        4.999        6.873        3.521        1.273       67.445      136.346      214.469      216.431      215.450        2.204       21.184      215.900      536.879     1769.477     1983.147
    243.50        8.905        1.153        4.969        7.021        3.228        1.138       66.152      139.725      215.715      216.998      216.357        2.188       22.711      215.900      544.023     1763.892     1981.644
    243.60        8.831        1.170        4.934        7.262        3.164        1.178       64.622      140.461      227.074      221.281      224.178        2.169       22.940      215.900      552.233     1761.308     1980.847
    243.70        8.668        1.179        4.906        7.423        3.186        1.154       63.291      138.972      239.971      228.290      234.130        2.176       22.679      215.900      550.287     1760.900     1980.570
    243.80        8.268        1.185        4.885        7.564        3.133        1.086       59.565      138.890      240.562      225.595      233.079        2.174       22.627      215.900      545.011     1761.913     1980.664
    243.90        8.639        1.153        4.854        7.705        3.087        1.120       57.905      138.517      235.203      221.219      228.211        2.160       22.237      215.900      545.336     1763.368     1981.726
    244.00        8.732        1.178        4.845        7.784        3.138        1.082       55.572      136.868      233.863      223.648      228.756        2.175       18.731      215.900      547.334     1764.145     1984.039
    244.10        8.638        1.190        4.837        7.980        3.165        1.099       53.605      134.931      233.940      226.930      230.435        2.178       15.253      215.900      556.531     1764.457     1985.887
    244.20        8.716        1.170        4.817        8.233        3.148        1.132       51.274      133.481      227.687      227.766      227.726        2.178       11.586      215.900      556.865     1764.529     1986.334
    244.30        8.879        1.178        4.813        8.508        3.157        1.145       48.981      132.016      223.824      229.114      226.469        2.170       10.399      215.900      550.141     1765.920     1985.461
    244.40        8.796        1.218        4.810        8.942        3.196        1.183       48.390      131.246      230.724      229.766      230.245        2.196        9.596      215.900      539.555     1767.863     1984.459
    244.50        8.984        1.221        4.779        9.358        3.225        1.215       47.471      130.475      226.145      229.541      227.843        2.200        8.709      215.900      534.773     1768.821     1984.659
    244.60        9.151        1.264        4.692        9.874        3.239        1.182       47.060      127.065      241.201      227.728      234.465        2.202        6.980      215.900      544.462     1767.180     1985.595
    244.70        8.841        1.314        4.636       10.531        3.291        1.332       46.879      121.014      239.764      228.507      234.135        2.230        4.603      215.900      558.872     1762.321     1986.598
    244.80        8.576        1.327        4.641       11.251        3.389        1.482       44.657      112.343      241.116      237.227      239.171        2.219        4.356      215.900      578.743     1755.160     1986.999
    244.90        8.313        1.336        4.715       12.434        3.650        1.621       43.473      105.389      230.331      241.413      235.872        2.266        4.106      215.900      601.171     1746.270     1985.766
    245.00        7.963        1.347        4.835       13.477        4.149        2.539       41.276       97.322      229.772      240.767      235.270        2.309        4.290      215.900      616.318     1736.679     1981.513
    245.10        7.755        1.355        5.024       14.401        5.582        4.107       38.247       87.712      233.910      238.476      236.193        2.337        5.476      215.900      618.767     1728.333     1972.512
    245.20        7.471        1.348        5.200       14.768        6.638        4.915       37.642       82.371      229.813      233.635      231.724        2.316        7.108      215.900      596.258     1723.273     1960.726
    245.30        7.152        1.287        5.294       14.458        6.341        3.354       37.128       80.518      217.554      217.050      217.302        2.350        6.177      215.900      565.866     1721.962     1949.155
    245.40        7.027        1.314        5.242       13.627        5.750        1.715       36.417       80.183      220.764      213.676      217.220        2.333        6.088      215.900      541.822     1722.414     1940.350
    245.50        6.780        1.332        5.102       13.016        5.754        1.704       35.278       79.989      235.657      224.366      230.012        2.365        5.923      215.900      526.825     1722.146     1931.818
    245.60        6.702        1.388        4.926       12.377        6.898        2.386       34.633       79.288      250.909      237.404      244.157        2.429        6.725      215.900      503.893     1721.378     1918.542
    245.70        6.589        1.423        4.915       12.333        9.022        5.001       34.028       79.998      261.793      246.565      254.179        2.437        6.997      215.900      448.011     1715.844     1898.684
