~Version information                                                          
  VERS.                            1.20: CWLS LAS  -  VERSION 1.20            
  WRAP.                             NO : One line per depth step              
~Well information                                                             
# MNEM.UNIT         DATA TYPE  INFORMATION                                    
# ====.================================: ===================                  
  STRT.M                          .800 : First depth in file                  
  STOP.M                       916.000 : Last  depth in file                  
  STEP.M                          .100 : Depth increment                      
  NULL.                       -999.250 : Null  values                         
  WN  .                            WELL: 315
  FN  .                           FIELD: KARATUBE
  DATE.                        LOG DATE: 09.09.04
~Curve information                                                            
# MNEM.UNIT                   API CODE   CURVE DESCRIPTION                    
# ====.================================:====================                  
  DEPT.M                               : Depth curve                          
  GR  .UR/H                            : Gamma ray log
  NGLD.UE                              : Neutron-gamma log
  GZ3 .OHMM                            : App.resistivity by lateral A2.0M0.5N   
  GZ3B.OHMM                            : App.resistivity by lateral N0.5M2.0A
  LL3 .OHMM                            : Appar.resist.laterolog,3 electrodes
  MLL .OHMM                            : Microlaterolog sonde
  CILR.MMHO                            : Conduct. by sonde 7I1.6,reactive signal
  CILA.MMHO                            : Conduct. by sonde 7I1.6,active signal
  C1  .MM                              : Caliper, diameter 1
  C2  .MM                              : Caliper, diameter 2
  CALI.MM                              : Caliper
  RHOB.G/C3                            : Bulk density by gamma-gamma log
  SP  .MV                              : Spontaneous potential
  BSC .MM                              : Bit size
  DTP .US/M                            : Interval travel time (P-wave)
  T1  .US                              : Travel time 1
  T2  .US                              : Travel time 2
~Parameter information block                                                  
# MNEM.UNIT                     VALUE       DESCRIPTION                       
# ====.================================:====================                  
  BS  .MM                       215.90 : Bit Size                             
  DFD .G/C3                       1.14 : Drilling Fluid Density
  DFV .S                         50.00 : Drilling Fluid Viscosity             
  RMS .OHMM                        .00 : Mud Sample Resistivity               
~Other information                                                            
# ------------------- REMARKS AREA ------------------------                   
# ==========================================================                  
~ASCII Log Data                                                               
# ...
    193.30        8.039        1.179       10.205        9.995        5.234        2.026       30.725       93.025      213.758      207.941      210.849        2.292      -14.613      215.900      503.990     1687.904     1890.652
    193.40        8.405        1.149       10.006       10.012        5.150        1.973       31.184       92.609      213.847      207.983      210.915        2.286      -13.945      215.900      505.418     1688.002     1889.492
    193.50        8.115        1.164        9.820       10.053        5.119        2.014       31.450       92.809      213.905      207.623      210.764        2.286      -11.936      215.900      501.763     1685.471     1885.712
    193.60        7.828        1.164        9.670       10.108        5.201        1.958       32.023       92.379      214.723      208.669      211.696        2.265       -9.265      215.900      494.628     1681.741     1878.666
    193.70        7.982        1.191        9.613       10.093        5.368        2.164       32.998       91.946      214.860      208.878      211.869        2.218       -8.654      215.900      480.544     1676.796     1870.806
    193.80        7.897        1.167        9.495        9.941        5.187        1.713       33.305       91.462      214.177      208.711      211.444        2.225       -8.757      215.900      479.901     1671.692     1864.617
    193.90        8.007        1.149        9.342        9.777        4.977        1.649       32.256       91.577      213.084      208.469      210.776        2.183       -8.747      215.900      486.494     1666.633     1861.411
    194.00        7.707        1.151        9.188        9.595        5.194        1.692       32.255       90.795      213.734      206.920      210.327        2.172       -8.341      215.900      494.441     1663.050     1860.109
    194.10        7.857        1.176        8.846        9.356        5.283        1.674       32.200       90.028      214.258      204.884      209.571        2.173       -8.957      215.900      497.005     1661.196     1859.514
    194.20        7.938        1.163        8.541        9.171        5.292        1.629       31.495       89.452      213.168      205.034      209.101        2.181       -9.160      215.900      495.942     1660.391     1858.502
    194.30        8.206        1.187        8.396        9.101        5.456        2.018       31.725       89.736      213.730      207.012      210.371        2.183       -8.405      215.900      492.886     1659.375     1856.695
    194.40        8.418        1.208        8.425        9.128        5.600        1.978       31.637       90.335      214.763      207.169      210.966        2.201       -8.062      215.900      491.073     1657.587     1854.165
    194.50        8.619        1.215        8.544        9.185        5.585        2.036       32.264       90.983      213.967      207.082      210.525        2.208       -7.882      215.900      490.381     1655.476     1851.686
    194.60        8.412        1.180        8.716        9.247        5.505        2.034       32.291       91.814      212.283      208.923      210.603        2.202       -6.489      215.900      490.122     1654.008     1850.135
    194.70        8.510        1.167        8.877        9.299        5.308        1.948       33.160       92.739      210.971      208.517      209.744        2.216       -4.815      215.900      490.445     1653.241     1849.573
    194.80        8.558        1.185        9.011        9.334        5.175        1.939       33.599       92.477      213.432      209.345      211.389        2.214       -3.009      215.900      491.926     1652.759     1849.966
    194.90        8.492        1.238        9.082        9.351        5.104        1.935       33.939       93.277      215.308      210.271      212.790        2.202       -1.161      215.900      496.677     1652.113     1850.452
    195.00        8.701        1.255        9.115        9.342        5.146        1.977       34.179       93.299      214.221      211.085      212.653        2.194        -.468      215.900      498.941     1651.374     1850.761
    195.10        8.499        1.220        9.121        9.308        5.243        2.048       34.202       93.197      213.621      211.035      212.328        2.207         .854      215.900      499.791     1650.734     1849.990
    195.20        8.397        1.241        9.113        9.269        5.395        2.009       34.897       93.195      214.427      211.812      213.120        2.230        1.367      215.900      495.693     1649.882     1849.156
    195.30        8.604        1.243        9.081        9.211        5.488        2.140       35.160       92.354      214.848      211.744      213.296        2.224         .906      215.900      499.073     1648.110     1849.063
    195.40        8.579        1.236        9.102        9.171        5.583        2.488       35.166       92.931      214.768      211.087      212.928        2.206         .221      215.900      512.376     1645.453     1851.226
    195.50        8.345        1.184        9.155        9.079        5.590        2.294       36.152       93.045      214.842      210.357      212.600        2.211        1.198      215.900      531.848     1642.166     1854.740
    195.60        8.487        1.203        9.216        8.943        5.587        2.109       36.594       94.324      214.236      210.086      212.161        2.218        2.878      215.900      550.083     1639.539     1858.595
    195.70        8.680        1.188        9.273        8.793        5.568        2.166       36.631       94.786      212.941      210.528      211.734        2.208        4.223      215.900      560.992     1637.472     1861.873
    195.80        8.800        1.167        9.292        8.509        5.498        2.353       37.425       95.277      213.551      212.842      213.196        2.192        4.115      215.900      571.937     1636.457     1864.783
    195.90        8.580        1.178        9.274        8.314        5.365        2.186       37.678       97.407      212.854      217.295      215.075        2.207        2.710      215.900      579.513     1636.117     1867.659
    196.00        8.454        1.198        9.251        8.115        5.233        1.853       38.299       98.107      211.154      233.186      222.170        2.220        1.836      215.900      585.121     1636.866     1870.536
    196.10        8.651        1.189        9.272        7.932        5.216        1.908       39.045       98.354      214.240      251.961      233.101        2.186         .891      215.900      587.893     1638.379     1873.412
    196.20        8.466        1.194        9.302        7.745        5.219        2.063       40.686       99.450      218.196      242.498      230.347        2.165        -.428      215.900      589.737     1640.331     1876.289
    196.30        8.296        1.242        9.299        7.531        5.114        2.199       41.627      101.467      220.909      232.923      226.916        2.149        -.858      215.900      592.053     1643.140     1879.166
    196.40        8.305        1.209        9.291        7.388        4.993        2.030       42.421      103.968      222.346      224.266      223.306        2.111       -1.370      215.900      588.400     1646.610     1882.042
    196.50        8.451        1.152        9.253        7.218        4.920        1.648       43.102      105.257      230.228      235.877      233.052        2.108       -1.859      215.900      585.286     1651.446     1884.919
    196.60        8.358        1.166        9.163        7.054        4.883        1.689       43.683      106.586      236.984      247.020      242.002        2.075       -2.147      215.900      577.357     1656.626     1886.668
    196.70        8.564        1.214        9.101        6.918        4.837        1.531       45.072      107.669      243.386      254.107      248.746        2.056       -2.353      215.900      562.672     1662.660     1887.279
