~Version information                                                          
  VERS.                            1.20: CWLS LAS  -  VERSION 1.20            
  WRAP.                             NO : One line per depth step              
~Well information                                                             
# MNEM.UNIT         DATA TYPE  INFORMATION                                    
# ====.================================: ===================                  
  STRT.M                          .800 : First depth in file                  
  STOP.M                       916.000 : Last  depth in file                  
  STEP.M                          .100 : Depth increment                      
  NULL.                       -999.250 : Null  values                         
  WN  .                            WELL: 315
  FN  .                           FIELD: KARATUBE
  DATE.                        LOG DATE: 09.09.04
~Curve information                                                            
# MNEM.UNIT                   API CODE   CURVE DESCRIPTION                    
# ====.================================:====================                  
  DEPT.M                               : Depth curve                          
  GR  .UR/H                            : Gamma ray log
  NGLD.UE                              : Neutron-gamma log
  GZ3 .OHMM                            : App.resistivity by lateral A2.0M0.5N   
  GZ3B.OHMM                            : App.resistivity by lateral N0.5M2.0A
  LL3 .OHMM                            : Appar.resist.laterolog,3 electrodes
  MLL .OHMM                            : Microlaterolog sonde
  CILR.MMHO                            : Conduct. by sonde 7I1.6,reactive signal
  CILA.MMHO                            : Conduct. by sonde 7I1.6,active signal
  C1  .MM                              : Caliper, diameter 1
  C2  .MM                              : Caliper, diameter 2
  CALI.MM                              : Caliper
  RHOB.G/C3                            : Bulk density by gamma-gamma log
  SP  .MV                              : Spontaneous potential
  BSC .MM                              : Bit size
  DTP .US/M                            : Interval travel time (P-wave)
  T1  .US                              : Travel time 1
  T2  .US                              : Travel time 2
~Parameter information block                                                  
# MNEM.UNIT                     VALUE       DESCRIPTION                       
# ====.================================:====================                  
  BS  .MM                       215.90 : Bit Size                             
  DFD .G/C3                       1.14 : Drilling Fluid Density
  DFV .S                         50.00 : Drilling Fluid Viscosity             
  RMS .OHMM                        .00 : Mud Sample Resistivity               
~Other information                                                            
# ------------------- REMARKS AREA ------------------------                   
# ==========================================================                  
~ASCII Log Data                                                               
# ...
    602.80        8.215        1.364        1.295        1.347        1.440         .809      299.430      177.310      203.854      211.128      207.491        2.171      -59.339      215.900      444.810     1528.195     1706.236
    602.90        8.439        1.334        1.296        1.330        1.425         .772      302.699      177.149      205.088      211.915      208.502        2.163      -57.873      215.900      447.831     1528.749     1708.171
    603.00        8.285        1.288        1.281        1.310        1.369         .748      307.153      176.298      207.270      212.106      209.688        2.162      -58.333      215.900      453.024     1529.556     1710.845
    603.10        8.387        1.318        1.258        1.292        1.300         .681      308.233      175.439      208.043      211.232      209.637        2.146      -59.594      215.900      458.808     1530.553     1713.447
    603.20        8.427        1.288        1.232        1.290        1.249         .684      306.312      173.530      208.791      210.531      209.661        2.146      -57.926      215.900      459.868     1532.137     1715.567
    603.30        8.536        1.283        1.208        1.308        1.235         .746      301.068      169.949      208.948      210.261      209.605        2.148      -56.315      215.900      457.042     1534.493     1716.914
    603.40        8.529        1.294        1.200        1.343        1.267         .774      298.312      166.330      208.374      210.919      209.647        2.142      -55.250      215.900      451.247     1537.073     1717.902
    603.50        8.311        1.301        1.215        1.386        1.375         .909      293.990      164.976      207.476      210.461      208.969        2.124      -56.064      215.900      447.935     1539.711     1719.143
    603.60        8.271        1.311        1.247        1.433        1.366         .944      290.990      165.944      206.360      210.822      208.591        2.117      -57.080      215.900      446.557     1541.515     1721.221
    603.70        8.296        1.298        1.289        1.454        1.411         .993      291.463      167.715      205.137      210.234      207.685        2.121      -56.590      215.900      453.303     1542.845     1724.691
    603.80        8.467        1.295        1.343        1.445        1.446        1.046      297.417      172.609      205.209      209.875      207.542        2.109      -56.260      215.900      463.977     1543.751     1729.083
    603.90        8.310        1.370        1.375        1.409        1.515         .913      299.564      177.046      207.410      210.519      208.964        2.110      -56.412      215.900      472.715     1545.113     1733.471
    604.00        8.376        1.380        1.368        1.366        1.397         .726      306.284      184.790      206.594      210.026      208.310        2.114      -56.138      215.900      475.993     1547.052     1736.704
    604.10        8.056        1.379        1.334        1.298        1.303         .667      310.684      188.488      204.437      211.378      207.907        2.124      -55.457      215.900      473.689     1549.933     1739.157
    604.20        8.038        1.410        1.283        1.255        1.263         .680      311.924      190.259      207.056      212.574      209.815        2.134      -55.129      215.900      469.495     1553.114     1740.892
    604.30        8.266        1.412        1.213        1.201        1.227         .691      312.472      190.335      206.182      210.274      208.228        2.129      -56.488      215.900      465.151     1556.076     1742.218
    604.40        8.247        1.383        1.162        1.180        1.221         .705      311.415      188.726      207.254      211.141      209.197        2.146      -58.575      215.900      461.415     1558.303     1742.935
    604.50        8.051        1.395        1.129        1.173        1.219         .722      306.900      186.565      208.018      211.357      209.687        2.136      -61.493      215.900      458.173     1560.166     1743.282
    604.60        7.977        1.368        1.069        1.185        1.222         .689      302.556      184.323      207.589      211.063      209.326        2.159      -62.431      215.900      453.782     1561.508     1743.367
    604.70        7.823        1.381        1.052        1.201        1.234         .737      300.687      182.185      207.907      210.175      209.041        2.159      -59.685      215.900      451.983     1562.197     1743.176
    604.80        7.761        1.395        1.056        1.230        1.270         .789      299.506      179.735      206.725      210.723      208.724        2.164      -58.318      215.900      451.579     1562.385     1743.404
    604.90        7.798        1.417        1.072        1.255        1.296         .760      298.658      178.286      207.043      210.729      208.886        2.176      -58.399      215.900      454.076     1562.499     1744.171
    605.00        7.690        1.394        1.077        1.283        1.275         .730      299.195      178.239      207.237      210.513      208.875        2.192      -59.890      215.900      456.884     1563.084     1745.511
    605.10        7.633        1.442        1.085        1.301        1.269         .803      300.305      177.741      207.066      210.623      208.844        2.177      -61.913      215.900      457.245     1564.248     1746.425
    605.20        7.799        1.458        1.093        1.307        1.286         .929      299.601      174.104      207.479      210.901      209.190        2.182      -62.914      215.900      452.196     1566.218     1746.403
    605.30        7.925        1.450        1.094        1.321        1.294         .953      296.388      170.777      208.527      211.294      209.910        2.190      -62.669      215.900      441.954     1568.421     1745.530
    605.40        8.188        1.461        1.102        1.346        1.271         .912      290.322      168.922      208.543      211.790      210.167        2.200      -64.061      215.900      434.160     1569.754     1743.399
    605.50        8.405        1.433        1.123        1.384        1.273        1.108      287.240      168.464      207.166      211.700      209.433        2.197      -68.147      215.900      426.232     1569.658     1740.684
    605.60        8.663        1.404        1.153        1.433        1.362        1.471      286.502      167.604      207.167      211.226      209.196        2.204      -70.572      215.900      422.303     1567.608     1737.020
    605.70        9.028        1.412        1.185        1.456        1.412        1.633      287.407      168.237      208.828      210.876      209.852        2.208      -70.227      215.900      422.048     1563.813     1733.658
    605.80        9.291        1.400        1.236        1.459        1.436        1.463      294.200      172.683      209.534      211.029      210.282        2.219      -69.212      215.900      429.486     1558.866     1730.677
    605.90        9.279        1.371        1.276        1.444        1.401        1.138      298.044      177.076      208.539      211.449      209.994        2.201      -69.832      215.900      437.057     1554.266     1728.868
    606.00        9.195        1.325        1.304        1.416        1.321        1.031      299.686      179.914      208.921      211.162      210.042        2.186      -70.423      215.900      442.972     1551.313     1728.042
    606.10        9.035        1.404        1.303        1.362        1.329        1.107      301.909      181.740      209.190      211.682      210.436        2.174      -68.410      215.900      445.437     1549.576     1727.969
    606.20        8.209        1.409        1.278        1.326        1.303        1.010      303.665      184.051      208.961      212.238      210.599        2.167      -65.520      215.900      449.539     1548.533     1728.211
