~Version information                                                          
  VERS.                            1.20: CWLS LAS  -  VERSION 1.20            
  WRAP.                             NO : One line per depth step              
~Well information                                                             
# MNEM.UNIT         DATA TYPE  INFORMATION                                    
# ====.================================: ===================                  
  STRT.M                          .800 : First depth in file                  
  STOP.M                       916.000 : Last  depth in file                  
  STEP.M                          .100 : Depth increment                      
  NULL.                       -999.250 : Null  values                         
  WN  .                            WELL: 315
  FN  .                           FIELD: KARATUBE
  DATE.                        LOG DATE: 09.09.04
~Curve information                                                            
# MNEM.UNIT                   API CODE   CURVE DESCRIPTION                    
# ====.================================:====================                  
  DEPT.M                               : Depth curve                          
  GR  .UR/H                            : Gamma ray log
  NGLD.UE                              : Neutron-gamma log
  GZ3 .OHMM                            : App.resistivity by lateral A2.0M0.5N   
  GZ3B.OHMM                            : App.resistivity by lateral N0.5M2.0A
  LL3 .OHMM                            : Appar.resist.laterolog,3 electrodes
  MLL .OHMM                            : Microlaterolog sonde
  CILR.MMHO                            : Conduct. by sonde 7I1.6,reactive signal
  CILA.MMHO                            : Conduct. by sonde 7I1.6,active signal
  C1  .MM                              : Caliper, diameter 1
  C2  .MM                              : Caliper, diameter 2
  CALI.MM                              : Caliper
  RHOB.G/C3                            : Bulk density by gamma-gamma log
  SP  .MV                              : Spontaneous potential
  BSC .MM                              : Bit size
  DTP .US/M                            : Interval travel time (P-wave)
  T1  .US                              : Travel time 1
  T2  .US                              : Travel time 2
~Parameter information block                                                  
# MNEM.UNIT                     VALUE       DESCRIPTION                       
# ====.================================:====================                  
  BS  .MM                       215.90 : Bit Size                             
  DFD .G/C3                       1.14 : Drilling Fluid Density
  DFV .S                         50.00 : Drilling Fluid Viscosity             
  RMS .OHMM                        .00 : Mud Sample Resistivity               
~Other information                                                            
# ------------------- REMARKS AREA ------------------------                   
# ==========================================================                  
~ASCII Log Data                                                               
# ...
    294.80        8.180        1.337        7.735        4.297        4.211        1.591       88.073      128.760      212.302      210.959      211.630        2.256       24.202      215.900      491.365     1580.710     1777.327
    294.90        8.376        1.337        7.682        4.220        4.184        1.593       91.679      133.388      211.738      211.565      211.652        2.264       23.605      215.900      487.182     1578.283     1772.673
    295.00        8.959        1.352        7.648        4.143        4.111        1.615       94.570      136.611      212.318      212.136      212.227        2.258       24.883      215.900      479.380     1575.785     1767.000
    295.10        9.081        1.353        7.613        4.053        3.865        1.495       98.720      142.521      213.984      211.481      212.732        2.256       27.103      215.900      467.555     1572.981     1760.882
    295.20        9.660        1.287        7.501        3.893        3.424        1.177      103.337      147.615      214.367      211.772      213.069        2.269       29.286      215.900      462.321     1569.531     1756.436
    295.30       10.159        1.267        7.336        3.768        3.148        1.000      105.688      152.244      212.587      211.864      212.225        2.252       31.369      215.900      471.906     1565.935     1755.889
    295.40       10.655        1.264        7.061        3.637        2.880         .954      106.982      155.308      212.929      211.539      212.234        2.260       32.967      215.900      490.435     1563.304     1758.346
    295.50       11.249        1.214        6.798        3.536        2.780         .914      106.803      155.848      216.547      211.521      214.034        2.251       33.134      215.900      500.472     1562.618     1761.446
    295.60       11.654        1.191        6.479        3.493        2.762         .931      105.760      156.585      212.271      208.464      210.368        2.227       32.539      215.900      500.307     1565.921     1764.077
    295.70       11.667        1.206        6.188        3.483        2.833        1.257      104.407      156.789      211.839      211.391      211.615        2.214       31.735      215.900      485.388     1573.653     1770.118
    295.80       11.636        1.228        6.041        3.486        3.067        1.287      103.231      157.603      209.346      213.242      211.294        2.201       29.125      215.900      487.800     1585.430     1780.720
    295.90       11.672        1.227        5.869        3.464        3.006        1.356      104.399      163.325      210.712      214.520      212.616        2.195       27.036      215.900      491.492     1595.505     1794.303
    296.00       11.600        1.217        5.671        3.413        2.717        1.328      106.366      169.078      216.306      213.958      215.132        2.172       24.351      215.900      511.696     1601.109     1803.995
    296.10       11.159        1.234        5.490        3.356        2.387         .696      108.985      178.803      221.862      218.296      220.079        2.158       21.775      215.900      518.462     1601.586     1809.335
    296.20       11.012        1.256        5.245        3.301        2.148         .514      111.494      185.845      230.850      220.745      225.798        2.155       20.325      215.900      527.964     1601.461     1811.629
    296.30       10.823        1.240        4.987        3.296        1.926         .404      113.217      188.148      239.546      220.208      229.877        2.149       18.622      215.900      529.840     1603.183     1814.860
    296.40       10.604        1.285        4.709        3.402        1.815         .358      112.763      188.657      238.787      213.891      226.339        2.136       16.520      215.900      529.773     1607.645     1819.015
    296.50       10.646        1.244        4.444        3.605        1.828         .348      108.772      185.628      230.874      209.343      220.108        2.159       15.228      215.900      525.664     1613.386     1824.111
    296.60       10.461        1.242        4.272        3.902        1.871         .427      102.721      175.045      213.898      207.803      210.850        2.168       13.720      215.900      524.998     1619.547     1829.560
    296.70       10.534        1.242        4.102        4.221        2.122         .578       96.857      163.978      201.511      207.196      204.353        2.180       11.721      215.900      524.434     1626.058     1835.207
    296.80       10.669        1.236        4.041        4.492        2.409         .648       90.798      154.337      198.978      207.678      203.328        2.226        6.992      215.900      519.186     1633.270     1839.910
    296.90       10.712        1.198        4.000        4.738        2.624         .756       84.306      144.738      196.760      208.078      202.419        2.244        4.318      215.900      506.177     1640.270     1842.816
    297.00       11.099        1.274        3.950        4.883        2.742         .924       81.846      141.209      197.285      209.573      203.429        2.270        3.575      215.900      493.734     1646.504     1843.995
    297.10       11.393        1.288        3.922        5.001        2.757        1.121       78.850      137.596      198.696      210.465      204.581        2.296        4.126      215.900      481.273     1651.367     1844.217
    297.20       11.589        1.304        3.882        5.090        2.722        1.148       76.996      135.645      202.712      208.268      205.490        2.274        4.744      215.900      471.366     1656.024     1844.462
    297.30       11.531        1.283        3.858        5.160        2.818        1.185       74.255      134.326      204.660      203.545      204.102        2.277        3.345      215.900      460.652     1660.440     1844.966
    297.40       11.565        1.262        3.841        5.243        3.002        1.460       72.725      133.614      205.394      203.554      204.474        2.288        3.175      215.900      451.922     1664.532     1847.307
    297.50       11.296        1.259        3.863        5.312        3.227        1.317       71.008      133.966      209.334      205.153      207.243        2.269        2.917      215.900      458.241     1668.115     1851.696
    297.60       11.572        1.249        3.889        5.339        3.434        1.177       70.487      133.786      208.637      202.108      205.373        2.282         .432      215.900      466.694     1671.232     1857.930
    297.70       11.505        1.264        3.889        5.331        3.327        1.145       70.929      135.232      211.083      206.125      208.604        2.295       -1.690      215.900      475.301     1673.747     1862.928
    297.80       11.428        1.240        3.877        5.308        3.064        1.074       71.365      137.051      211.150      208.056      209.603        2.278       -5.728      215.900      476.863     1674.013     1865.320
    297.90       11.375        1.249        3.833        5.279        2.935         .909       70.820      137.976      210.119      205.835      207.977        2.296       -5.935      215.900      482.635     1671.635     1865.154
    298.00       11.494        1.263        3.754        5.283        2.837         .853       69.932      138.717      210.245      204.406      207.325        2.295       -3.364      215.900      491.883     1667.587     1863.019
    298.10       11.659        1.274        3.701        5.332        2.918         .977       69.293      137.861      209.077      205.528      207.302        2.308       -2.036      215.900      491.218     1665.315     1860.156
    298.20       11.624        1.240        3.624        5.432        3.030        1.120       68.281      136.068      208.155      206.739      207.447        2.325       -2.087      215.900      478.204     1665.848     1856.713
