~Version information                                                          
  VERS.                            1.20: CWLS LAS  -  VERSION 1.20            
  WRAP.                             NO : One line per depth step              
~Well information                                                             
# MNEM.UNIT         DATA TYPE  INFORMATION                                    
# ====.================================: ===================                  
  STRT.M                          .800 : First depth in file                  
  STOP.M                       916.000 : Last  depth in file                  
  STEP.M                          .100 : Depth increment                      
  NULL.                       -999.250 : Null  values                         
  WN  .                            WELL: 315
  FN  .                           FIELD: KARATUBE
  DATE.                        LOG DATE: 09.09.04
~Curve information                                                            
# MNEM.UNIT                   API CODE   CURVE DESCRIPTION                    
# ====.================================:====================                  
  DEPT.M                               : Depth curve                          
  GR  .UR/H                            : Gamma ray log
  NGLD.UE                              : Neutron-gamma log
  GZ3 .OHMM                            : App.resistivity by lateral A2.0M0.5N   
  GZ3B.OHMM                            : App.resistivity by lateral N0.5M2.0A
  LL3 .OHMM                            : Appar.resist.laterolog,3 electrodes
  MLL .OHMM                            : Microlaterolog sonde
  CILR.MMHO                            : Conduct. by sonde 7I1.6,reactive signal
  CILA.MMHO                            : Conduct. by sonde 7I1.6,active signal
  C1  .MM                              : Caliper, diameter 1
  C2  .MM                              : Caliper, diameter 2
  CALI.MM                              : Caliper
  RHOB.G/C3                            : Bulk density by gamma-gamma log
  SP  .MV                              : Spontaneous potential
  BSC .MM                              : Bit size
  DTP .US/M                            : Interval travel time (P-wave)
  T1  .US                              : Travel time 1
  T2  .US                              : Travel time 2
~Parameter information block                                                  
# MNEM.UNIT                     VALUE       DESCRIPTION                       
# ====.================================:====================                  
  BS  .MM                       215.90 : Bit Size                             
  DFD .G/C3                       1.14 : Drilling Fluid Density
  DFV .S                         50.00 : Drilling Fluid Viscosity             
  RMS .OHMM                        .00 : Mud Sample Resistivity               
~Other information                                                            
# ------------------- REMARKS AREA ------------------------                   
# ==========================================================                  
~ASCII Log Data                                                               
# ...
    501.30        9.764        1.237        4.116        5.451        3.308        2.051       79.070      139.024      214.952      210.276      212.615        2.359      -37.687      215.900      401.680     1493.888     1654.556
    501.40        9.563        1.214        4.252        5.487        3.343        2.053       78.983      139.268      213.818      210.369      212.094        2.367      -36.083      215.900      409.851     1487.860     1651.149
    501.50        9.457        1.212        4.356        5.510        3.338        2.074       79.735      139.043      214.717      211.003      212.860        2.355      -32.526      215.900      413.137     1483.756     1648.424
    501.60        9.848        1.227        4.442        5.519        3.331        2.056       80.174      137.789      215.266      210.692      212.979        2.333      -28.101      215.900      412.020     1483.235     1647.967
    501.70        9.524        1.242        4.553        5.495        3.357        2.108       81.717      137.620      214.616      210.235      212.426        2.348      -26.673      215.900      410.331     1485.835     1650.108
    501.80        9.697        1.243        4.609        5.447        3.333        2.167       81.680      137.975      214.492      208.838      211.665        2.347      -24.521      215.900      409.694     1489.877     1653.884
    501.90        9.479        1.250        4.661        5.404        3.301        2.144       81.841      135.522      215.086      207.271      211.179        2.369      -24.010      215.900      410.022     1492.958     1657.361
    502.00        9.480        1.213        4.725        5.314        3.332        2.390       82.125      133.121      215.571      208.527      212.049        2.366      -23.861      215.900      413.305     1494.469     1659.799
    502.10        9.721        1.260        4.765        5.261        3.350        2.448       82.778      131.043      214.313      210.479      212.396        2.360      -23.351      215.900      416.642     1494.573     1660.575
    502.20        9.620        1.289        4.795        5.187        3.356        2.486       82.940      131.379      214.513      210.651      212.582        2.350      -21.356      215.900      415.072     1494.128     1659.761
    502.30        9.415        1.297        4.825        5.151        3.449        2.684       82.993      133.258      216.140      210.129      213.134        2.320      -19.452      215.900      410.528     1492.862     1657.510
    502.40        9.357        1.276        4.857        5.044        3.750        4.282       83.809      135.815      216.071      210.311      213.191        2.321      -18.703      215.900      409.253     1490.822     1655.348
    502.50        9.330        1.252        4.965        4.879        3.813        7.102       86.154      137.393      215.062      210.861      212.961        2.341      -19.741      215.900      414.163     1485.892     1654.173
    502.60        9.141        1.227        5.009        4.706        3.552        2.988       89.016      142.393      216.404      212.150      214.277        2.337      -20.862      215.900      438.689     1477.298     1654.096
    502.70        8.945        1.234        5.028        4.453        3.379        2.476       91.694      145.005      214.295      213.453      213.874        2.352      -22.993      215.900      473.130     1464.423     1654.349
    502.80        9.022        1.209        4.998        4.288        3.277        2.231       93.912      146.531      212.841      212.954      212.897        2.356      -27.741      215.900      512.614     1452.122     1654.602
    502.90        8.871        1.188        4.929        4.076        3.146        2.296       95.578      148.204      213.030      212.637      212.833        2.358      -30.421      215.900      532.866     1443.657     1654.855
    503.00        9.310        1.172        4.830        3.931        3.098        2.164       96.738      148.216      213.561      212.762      213.161        2.351      -33.139      215.900      538.505     1440.856     1655.108
    503.10        9.130        1.168        4.775        3.897        3.059        2.091       98.202      147.705      214.758      213.375      214.067        2.370      -35.848      215.900      535.515     1440.631     1655.361
    503.20        9.309        1.155        4.721        3.871        3.045        2.158       99.893      147.729      214.616      211.356      212.986        2.356      -39.834      215.900      536.454     1440.585     1655.614
    503.30        9.493        1.143        4.703        3.835        3.051        2.200      101.914      147.470      215.245      212.584      213.915        2.355      -42.454      215.900      540.748     1439.126     1655.867
    503.40        9.438        1.163        4.691        3.813        3.025        2.114      103.756      147.132      215.829      213.841      214.835        2.358      -41.933      215.900      548.355     1437.185     1656.120
    503.50        9.257        1.185        4.694        3.785        3.029        2.120      104.941      148.007      215.785      213.401      214.593        2.376      -40.401      215.900      552.915     1435.649     1657.366
    503.60        9.051        1.157        4.705        3.757        3.075        2.197      107.095      148.772      215.776      214.486      215.131        2.350      -37.485      215.900      561.606     1435.196     1660.014
    503.70        9.011        1.156        4.716        3.734        3.088        2.187      110.024      149.860      216.133      215.268      215.701        2.348      -35.476      215.900      571.619     1435.335     1663.082
    503.80        9.045        1.190        4.789        3.725        3.052        2.101      111.624      150.247      217.409      213.972      215.690        2.357      -35.505      215.900      574.873     1435.669     1664.164
    503.90        8.938        1.212        4.850        3.730        2.978        1.976      112.662      150.776      218.321      211.677      214.999        2.342      -35.352      215.900      567.216     1436.113     1662.441
    504.00        8.808        1.275        4.917        3.741        2.943        1.970      114.354      152.231      216.056      212.547      214.302        2.336      -35.675      215.900      555.371     1437.073     1659.907
    504.10        8.877        1.296        4.963        3.749        2.891        1.875      117.812      154.552      215.060      210.755      212.907        2.337      -35.566      215.900      548.671     1438.911     1658.432
    504.20        9.228        1.257        5.007        3.749        2.873        1.819      120.876      157.305      213.753      209.668      211.711        2.325      -31.639      215.900      542.361     1442.726     1658.464
    504.30        9.257        1.241        5.010        3.734        2.917        1.786      122.040      157.509      213.566      207.734      210.650        2.342      -29.621      215.900      527.008     1448.978     1659.005
    504.40        9.196        1.249        5.001        3.693        2.941        1.732      122.714      158.796      213.371      206.698      210.034        2.342      -29.205      215.900      505.824     1456.885     1659.596
    504.50        9.437        1.244        4.976        3.643        2.888        1.741      125.120      162.009      213.690      208.074      210.882        2.321      -24.104      215.900      487.500     1464.488     1659.911
    504.60        9.678        1.282        4.944        3.617        2.911        1.660      127.294      165.236      214.545      209.487      212.016        2.321      -24.902      215.900      472.349     1470.703     1659.529
    504.70        9.341        1.347        4.903        3.525        2.774        1.338      129.030      167.899      213.909      209.984      211.947        2.307      -25.847      215.900      456.339     1476.563     1658.972
