~Version
 VERS              .         3.0                           : CWLS LOG ASCII STANDARD - VERSION 3.0
 WRAP              .         NO                            : ONE LINE PER DEPTH STEP
 DLM               .         SPACE                         : DELIMITING CHARACTER(SPACE TAB OR COMMA)
~Well Information
#_______________________________________________________________________________
#
#PARAMETER_NAME    .UNIT     VALUE                         : DESCRIPTION
#_______________________________________________________________________________
STRT               .m        1.09                          : First reference value
STOP               .m        818.99                        : Last reference value
STEP               .m        0.1                           : Step increment
NULL               .         -9999                         : Missing value
COMP               .         ICPetroleum                   : Company
WELL               .         309                           : Well name
FLD                .         Karatobe                      : Field
LOC                .                                       : Location
SRVC               .                                       : Service Company
CTRY               .         KZ                            : Country
DATE               .         2022-10-26 17_52_23           : Service Date
LATI               .         0                             : Latitude
LONG               .         0                             : Longitude
GDAT               .         WGS 84                        : Geodetic Datum
API                .                                       : API NUMBER
COORDIN            .                                       : Grid System
COUNTRY            .         Kazakhstan                    : 
COUNTRY            .         Kazakhstan                    : 
EREF               .m        135.5                         : 
KB                 .         136.5                         : KB Elevation
ORIGINALWELLNAME   .         309                           : 
PROV               .                                       : PROVINCE
RWS                .         -999                          : Def_Rw
UWI                .         1_309                         : Unique Well Identifier (UWI)
WST                .         -999                          : Def_Rwt
X                  .km       466444.93                     : 
XCOORD             .                                       : X or East-West Coordinate
Y                  .km       5308441.67                    : 
YCOORD             .                                       : Y or North-South Coordinate
~Parameter Information Block
#_______________________________________________________________________________
#
#PARAMETER_NAME    .UNIT     VALUE                         : DESCRIPTION
#_______________________________________________________________________________
SET                .         Las                           : 
TLFamily_DEPT      .         Measured Depth                : 
TLFamily_PHI_FINAL .         Porosity                      : 
TLFamily_SW_AR     .         Water Saturation              : 
TLFamily_VSH_FINAL .         Shale Volume                  : 
~Curve Information
#_______________________________________________________________________________
#
#LOGNAME           .UNIT     LOG_ID                        : DESCRIPTION
#_______________________________________________________________________________
DEPT               .m                                      : DEPTH {F}
PHI_FINAL          .m3/m3                                  : Porosity {F}
SW_AR              .m3/m3                                  :  {F}
VSH_FINAL          .unitless                               : Vshale {F}
~Ascii
# ...
508.39     0.2407628  1          0.3279408 
508.49     0.2638104  1          0.281224  
508.59     0.2597661  1          0.2874984 
508.69     0.2488184  1          0.3172866 
508.79     0.2487127  1          0.331247  
508.89     0.2649008  1          0.3003151 
508.99     0.2751599  1          0.2368977 
509.09     0.2888536  1          0.2341173 
509.19     0.2827282  1          0.2508762 
509.29     0.2849402  1          0.2595612 
509.39     0.2898078  1          0.2595161 
509.49     0.2988698  1          0.231245  
509.59     0.2935723  1          0.2285154 
509.69     0.2912085  1          0.2205441 
509.79     0.2849813  1          0.2365778 
509.89     0.2896332  0.9874455  0.220471  
509.99     0.3096228  0.8936729  0.1954369 
510.09     0.3341236  0.8230499  0.1954057 
510.19     0.3639068  0.7392763  0.2051125 
510.29     0.4036002  0.6317512  0.1977459 
510.39     0.4281031  0.5530317  0.1680398 
510.49     0.3948112  0.5901237  0.2125344 
510.59     0.3141933  0.7515593  0.296121  
510.69     0.2162533  1          0.4379296 
510.79     0.1552638  1          0.5301906 
510.89     0.07961695 1          0.7240454 
510.99     0.03103309 1          0.9001167 
511.09     0.01927935 1          0.9342457 
511.19     0.03382066 1          0.8664837 
511.29     0.06904491 1          0.7733232 
511.39     0.04838274 1          0.8261734 
511.49     0.07385059 1          0.7803336 
511.59     0.07731432 1          0.7438809 
511.69     0.1375284  1          0.6132923 
511.79     0.1748753  1          0.534333  
511.89     0.2071732  1          0.4738159 
511.99     0.2688408  0.9201978  0.3700948 
512.09     0.3026644  0.8131308  0.2732678 
512.1900000000001 0.3470967  0.7319545  0.1995595 
512.29     0.3538458  0.7573904  0.1697109 
512.39     0.3237736  0.858621   0.1853231 
512.49     0.3160935  0.8783424  0.185294  
512.59     0.2919055  0.9352333  0.2273747 
512.6900000000001 0.2678277  1          0.2854034 
512.79     0.238864   1          0.3618317 
512.89     0.2499398  1          0.3933419 
512.99     0.263316   1          0.3932649 
513.09     0.3039316  0.937126   0.3286093 
513.1900000000001 0.3546788  0.7478924  0.2520224 
513.29     0.3822585  0.61852    0.2271101 
513.39     0.2841913  0.8400551  0.3614179 
513.49     0.2798762  0.8523017  0.3613491 
513.59     0.2324732  1          0.458065  
513.6900000000001 0.2074616  1          0.5321629 
513.79     0.1966687  1          0.532049  
513.89     0.1348926  1          0.5985133 
513.99     0.1297682  1          0.598381  
514.09     0.08892421 1          0.6850354 
514.1900000000001 0.03257041 1          0.8283371 
514.29     0.039523   1          0.8203661 
514.39     0.105197   1          0.6523944 
514.49     0.1068648  1          0.6522462 
514.59     0.1146409  1          0.645832  
514.6900000000001 0.08319762 1          0.7040443 
514.79     0.0422589  1          0.7741995 
514.89     0.1258468  1          0.6089337 
514.99     0.1399512  1          0.6087986 
515.09     0.1904584  1          0.509928  
515.1900000000001 0.2833151  0.9217549  0.3678309 
515.29     0.3636397  0.678726   0.2371272 
515.39     0.4136959  0.5327976  0.1844535 
515.49     0.3956502  0.5557572  0.1844247 
515.59     0.3361496  0.6976845  0.2839386 
515.6900000000001 0.2563675  0.9818395  0.3636431 
515.79     0.2172713  1          0.3830822 
515.89     0.2069662  1          0.4160013 
515.99     0.2081854  1          0.4159187 
516.09     0.1739805  1          0.4938679 
516.1900000000001 0.1548989  1          0.5452376 
516.29     0.1592233  1          0.5188414 
516.39     0.1679969  1          0.5136106 
516.49     0.1697282  1          0.5135021 
516.59     0.1423195  1          0.5777952 
516.6900000000001 0.125687   1          0.6006394 
516.79     0.1397178  1          0.5832102 
516.89     0.1345833  1          0.6003737 
516.99     0.1343497  1          0.6002409 
517.09     0.1459039  1          0.5659828 
517.1900000000001 0.1590844  1          0.5127446 
517.29     0.1829149  1          0.4828861 
517.39     0.1086531  1          0.6479778 
517.49     0.1101161  1          0.6478314 
517.59     0.1003926  1          0.6730681 
517.6900000000001 0.121203   1          0.6170136 
517.79     0.130552   1          0.5819349 
517.89     0.09416161 1          0.6790845 
517.99     0.09703007 1          0.6789289 
518.09     0.1269467  1          0.6224591 
518.1900000000001 0.144357   1          0.5701836 
518.29     0.1558786  1          0.5700595 
518.39     0.109548   1          0.678308  
518.49     0.1110627  1          0.6781527 
518.59     0.09019049 1          0.7387164 
518.6900000000001 0.05654131 1          0.8116847 
518.79     0.1001725  1          0.7040835 
518.89     0.1844819  1          0.5058701 
518.99     0.1894189  1          0.5057639 
519.09     0.1840368  1          0.5106979 
519.1900000000001 0.1912254  1          0.5005557 
519.29     0.1781811  1          0.5155638 
519.39     0.2018935  1          0.4665608 
519.49     0.2039222  1          0.4664655 
519.59     0.2276155  1          0.4045873 
519.6900000000001 0.2616576  1          0.3281215 
519.79     0.2797816  1          0.2944889 
519.89     0.2913803  1          0.2817912 
519.99     0.2916016  1          0.2817417 
520.09     0.2850582  1          0.3008146 
520.1900000000001 0.2674569  1          0.3420566 
520.29     0.2609034  1          0.3567196 
520.39     0.2438469  1          0.4039537 
520.49     0.2404515  1          0.4038746 
520.59     0.230987   1          0.4037957 
520.6900000000001 0.2303962  1          0.3834341 
520.79     0.2351914  1          0.3873467 
520.89     0.2360423  1          0.3872718 
520.99     0.232551   1          0.3871971 
521.09     0.2411804  1          0.3599353 
521.1900000000001 0.2273971  1          0.3487051 
521.29     0.2306245  1          0.3751286 
521.39     0.2258095  1          0.411507  
521.49     0.2289822  1          0.4114262 
521.59     0.232444   1          0.4241222 
521.6900000000001 0.2129057  1          0.4597391 
521.79     0.2118039  1          0.4596456 
521.89     0.2055093  1          0.4414076 
521.99     0.2005382  1          0.4413189 
522.09     0.2364689  1          0.3668406 
522.1900000000001 0.211521   1          0.3823287 
522.29     0.2044285  1          0.4322194 
522.39     0.21717    1          0.4191635 
522.49     0.2210641  1          0.4190806 
522.59     0.2526937  1          0.336949  
522.6900000000001 0.2528741  1          0.3514037 
522.79     0.221704   1          0.4145868 
522.89     0.1134613  1          0.6778227 
522.99     0.1103804  1          0.6776683 
523.09     0.1039144  1          0.7037984 
523.1900000000001 0.123164   1          0.6582301 
523.29     0.1162375  1          0.6518148 
523.39     0.03411346 1          0.8892909 
523.49     0.03416719 1          0.8890718 
523.59     0.04931021 1          0.8405836 
523.6900000000001 0.1126934  1          0.6512279 
523.79     0.1576734  1          0.5470634 
523.89     0.1490183  1          0.5577322 
523.99     0.149641   1          0.5576123 
524.09     0.1434937  1          0.5909503 
524.1900000000001 0.1360005  1          0.6200258 
524.29     0.1305858  1          0.6319181 
524.39     0.2431034  1          0.4436517 
524.49     0.260718   1          0.4435626 
524.59     0.3466575  0.8030883  0.2919878 
524.6900000000001 0.4280483  0.6010947  0.1795693 
524.79     0.465609   0.5119721  0.1404679 
524.89     0.392962   0.6351852  0.2642889 
524.99     0.3775657  0.6596599  0.2642434 
525.09     0.270391   0.9633782  0.4298177 
525.1900000000001 0.1286332  1          0.6615555 
525.29     0.09676325 1          0.7204239 
525.39     0.1177514  1          0.6303725 
525.49     0.1193706  1          0.6302329 
525.59     0.1660528  1          0.5189127 
525.6900000000001 0.1971144  1          0.4514794 
525.79     0.1997928  1          0.4424086 
525.89     0.1921643  1          0.4744182 
525.99     0.1965313  1          0.4743217 
526.09     0.2231763  1          0.3873829 
