~Version
 VERS              .         3.0                           : CWLS LOG ASCII STANDARD - VERSION 3.0
 WRAP              .         NO                            : ONE LINE PER DEPTH STEP
 DLM               .         SPACE                         : DELIMITING CHARACTER(SPACE TAB OR COMMA)
~Well Information
#_______________________________________________________________________________
#
#PARAMETER_NAME    .UNIT     VALUE                         : DESCRIPTION
#_______________________________________________________________________________
STRT               .m        1.09                          : First reference value
STOP               .m        818.99                        : Last reference value
STEP               .m        0.1                           : Step increment
NULL               .         -9999                         : Missing value
COMP               .         ICPetroleum                   : Company
WELL               .         309                           : Well name
FLD                .         Karatobe                      : Field
LOC                .                                       : Location
SRVC               .                                       : Service Company
CTRY               .         KZ                            : Country
DATE               .         2022-10-26 17_52_23           : Service Date
LATI               .         0                             : Latitude
LONG               .         0                             : Longitude
GDAT               .         WGS 84                        : Geodetic Datum
API                .                                       : API NUMBER
COORDIN            .                                       : Grid System
COUNTRY            .         Kazakhstan                    : 
COUNTRY            .         Kazakhstan                    : 
EREF               .m        135.5                         : 
KB                 .         136.5                         : KB Elevation
ORIGINALWELLNAME   .         309                           : 
PROV               .                                       : PROVINCE
RWS                .         -999                          : Def_Rw
UWI                .         1_309                         : Unique Well Identifier (UWI)
WST                .         -999                          : Def_Rwt
X                  .km       466444.93                     : 
XCOORD             .                                       : X or East-West Coordinate
Y                  .km       5308441.67                    : 
YCOORD             .                                       : Y or North-South Coordinate
~Parameter Information Block
#_______________________________________________________________________________
#
#PARAMETER_NAME    .UNIT     VALUE                         : DESCRIPTION
#_______________________________________________________________________________
SET                .         Las                           : 
TLFamily_DEPT      .         Measured Depth                : 
TLFamily_PHI_FINAL .         Porosity                      : 
TLFamily_SW_AR     .         Water Saturation              : 
TLFamily_VSH_FINAL .         Shale Volume                  : 
~Curve Information
#_______________________________________________________________________________
#
#LOGNAME           .UNIT     LOG_ID                        : DESCRIPTION
#_______________________________________________________________________________
DEPT               .m                                      : DEPTH {F}
PHI_FINAL          .m3/m3                                  : Porosity {F}
SW_AR              .m3/m3                                  :  {F}
VSH_FINAL          .unitless                               : Vshale {F}
~Ascii
# ...
271.79     0.08552806 1          0.9191051 
271.89     0.1514756  1          0.7754417 
271.99     0.1972447  1          0.6855748 
272.09     0.1663244  1          0.7289335 
272.19     0.1323451  1          0.813409  
272.29     0.1324182  1          0.8131557 
272.39     0.1666194  1          0.7463608 
272.49     0.1804232  1          0.6595904 
272.59     0.2029133  1          0.6593969 
272.69     0.2021311  1          0.6510688 
272.79     0.202097   1          0.6508788 
272.89     0.2277368  1          0.5669407 
272.99     0.2231403  1          0.5960575 
273.09     0.1573814  1          0.7725888 
273.19     0.1182527  1          0.8825269 
273.29     0.1217052  1          0.8822454 
273.39     0.1605604  1          0.7813442 
273.49     0.2274627  1          0.6179878 
273.59     0.227626   1          0.6101372 
273.69     0.2410303  1          0.602376  
273.79     0.2379978  1          0.6022044 
273.89     0.1974785  1          0.7249892 
273.99     0.09727938 1          1         
274.09     0.08532412 1          1         
274.19     0.08542896 1          1         
274.29     0.08218568 1          1         
274.39     0.07303944 1          1         
274.49     0.2134627  1          0.6557423 
274.59     0.2428929  1          0.5859592 
274.69     0.222616   1          0.6158639 
274.79     0.217414   1          0.6156873 
274.89     0.2091832  1          0.6232316 
274.99     0.2350149  0.984495   0.5027195 
275.09     0.2317388  1          0.5288998 
275.19     0.2270179  1          0.5998101 
275.29     0.230585   1          0.5996397 
275.39     0.2016129  1          0.7042413 
275.49     0.1088397  1          0.8974    
275.59     0.06983792 1          1         
275.69     0.09155191 1          0.9185857 
275.79     0.09602375 1          0.9182906 
275.89     0.1092676  1          0.9070655 
275.99     0.07884447 1          1         
276.09     0.08400653 1          1         
276.19     0.07079259 1          1         
276.29     0.06528997 1          1         
276.39     0.05341791 1          1         
276.49     0.1650602  1          0.6849042 
276.59     0.135893   1          0.7369337 
276.69     0.1291854  1          0.7277696 
276.79     0.1302048  1          0.7275512 
276.89     0.08367903 1          0.8514975 
276.99     0.1722696  1          0.6590783 
277.09     0.2066627  1          0.5818473 
277.19     0.201141   1          0.5964179 
277.29     0.1985258  1          0.5962492 
277.39     0.167555   1          0.6111305 
277.49     0.2485602  1          0.4622903 
277.59     0.2926165  0.9012303  0.4621691 
277.69     0.2683282  0.9794356  0.5318577 
277.79     0.2771391  0.9499547  0.5317122 
277.89     0.2587058  1          0.5952384 
277.99     0.2362438  1          0.6025376 
278.09     0.2633548  1          0.5448787 
278.19     0.2630463  0.996785   0.5586269 
278.29     0.2607803  1          0.5584721 
278.39     0.1866348  1          0.7419362 
278.49     0.1214577  1          0.827093  
278.59     0.1693486  1          0.6890869 
278.69     0.2167782  1          0.6013435 
278.79     0.2117406  1          0.6011733 
278.89     0.2173883  0.9828118  0.5717148 
278.99     0.2792902  0.6649218  0.3732133 
279.09     0.3057253  0.5966173  0.30836   
279.19     0.3299659  0.5290168  0.2527381 
279.29     0.3278433  0.5322562  0.2526828 
279.39     0.3506424  0.4673626  0.2049895 
279.49     0.346484   0.4925016  0.1695435 
279.59     0.3016777  0.6013011  0.1695104 
279.69     0.2445439  0.7066104  0.1694773 
279.79     0.2124285  0.8072703  0.1694442 
279.89     0.2048245  0.682593   0.1266185 
279.99     0.1501136  0.6067979  0.09686569
280.09     0.1888359  0.6259187  0.1407706 
280.19     0.2546631  0.6256293  0.1923539 
280.29     0.2842132  0.5639182  0.192315  
280.39     0.313798   0.5820883  0.204568  
280.49     0.3300745  0.5835598  0.1983145 
280.59     0.3354323  0.5886574  0.2173181 
280.69     0.3306864  0.6081156  0.2306758 
280.79     0.3268318  0.6148978  0.2306267 
280.89     0.3354791  0.5984831  0.2171818 
280.99     0.3182841  0.6320795  0.2339692 
281.09     0.3414173  0.5768192  0.2516912 
281.19     0.3722756  0.5048361  0.2304306 
281.29     0.3784657  0.497022   0.2303817 
281.39     0.3594144  0.5040491  0.2104817 
281.49     0.4197212  0.4420849  0.1634485 
281.59     0.4485556  0.4227246  0.1453054 
281.69     0.4363009  0.4449821  0.1660869 
281.79     0.4424626  0.4391181  0.1660547 
281.89     0.4635081  0.4258097  0.1660225 
281.99     0.4311047  0.4637192  0.1687194 
282.09     0.4603507  0.4337308  0.1553374 
282.19     0.4659436  0.4365259  0.1632281 
282.29     0.4668057  0.4357632  0.1631966 
282.39     0.4588338  0.460725   0.1741308 
282.49     0.4676439  0.4497887  0.1797599 
282.59     0.4092271  0.4859748  0.191425  
282.69     0.3677046  0.4775091  0.1943913 
282.79     0.3379825  0.5171397  0.194352  
282.89     0.2835182  0.4880159  0.1657016 
282.99     0.2501208  0.481544   0.1376015 
283.09     0.2283496  0.6098993  0.1399906 
283.19     0.2342213  0.6979645  0.1576182 
283.29     0.2455235  0.6675335  0.1575882 
283.39     0.2577816  0.7233027  0.2193243 
283.49     0.2515059  0.8087519  0.2127711 
283.59     0.29436    0.6903667  0.170944  
283.69     0.3147652  0.6274162  0.1447373 
283.79     0.3184157  0.6206098  0.1447103 
283.89     0.3344578  0.5783829  0.1083172 
283.99     0.3732993  0.5326509  0.08128177
284.09     0.4692057  0.4310714  0.08126862
284.19     0.4860469  0.4295892  0.06757209
284.29     0.495396   0.4219163  0.06756159
284.39     0.5032309  0.435384   0.06755108
284.49     0.485538   0.4482538  0.1233197 
284.59     0.4307488  0.4990478  0.2028153 
284.69     0.3872148  0.5996292  0.3172361 
284.79     0.3756019  0.6171521  0.3171624 
284.89     0.3826737  0.6214875  0.3930416 
284.99     0.3781375  0.6212093  0.4087093 
285.09     0.3461054  0.6777919  0.3628263 
285.19     0.3213768  0.7017903  0.283594  
285.29     0.3009797  0.7466988  0.2835301 
285.39     0.2898946  0.731853   0.2603544 
285.49     0.2154279  0.7889591  0.2996641 
285.59     0.1728979  0.9145293  0.252869  
285.69     0.1579619  0.9444436  0.205475  
285.79     0.145072   1          0.205433  
285.89     0.143013   0.9437252  0.2022785 
285.99     0.1448215  0.9235418  0.2022372 
286.09     0.1842243  0.7960168  0.2053069 
286.19     0.1880015  0.9587561  0.2313974 
286.29     0.2075545  0.8730921  0.2313484 
286.39     0.214497   1          0.2828308 
286.49     0.2229549  1          0.5668209 
286.59     0.2004178  1          0.6813976 
286.69     0.2015702  1          0.6895289 
286.79     0.2032843  1          0.6893274 
286.89     0.1584577  1          0.7868924 
286.99     0.078316   1          1         
287.09     0.06974355 1          1         
287.19     0.0531083  1          1         
287.29     0.04869701 1          1         
287.39     0.1081645  1          0.8746533 
287.49     0.08937397 1          0.9167678 
287.59     0.0869982  1          0.9494823 
287.69     0.1247887  1          0.8738335 
287.79     0.1413504  1          0.8735607 
287.89     0.1248467  1          0.862991  
287.99     0.2229613  1          0.6307373 
288.09     0.2424689  1          0.536903  
288.19     0.1894372  1          0.6151047 
288.29     0.1773909  1          0.6149312 
288.39     0.1607882  1          0.6535441 
288.49     0.1571803  1          0.6776467 
288.59     0.160176   1          0.7025322 
288.69     0.1685997  1          0.6855209 
288.79     0.1732344  1          0.6853216 
288.89     0.199986   1          0.6291282 
288.99     0.2162434  1          0.5842312 
289.09     0.166144   1          0.7015041 
289.19     0.1501607  1          0.6681104 
289.29     0.1443081  1          0.6679177 
289.39     0.1377091  1          0.659656  
289.49     0.1532632  1          0.5834219 
289.59     0.1115489  1          0.5280913 
289.69     0.07365549 1          0.5549281 
289.79     0.06364812 1          0.5547765 
289.89     0.09021743 1          0.5477756 
