~Version
 VERS              .         3.0                           : CWLS LOG ASCII STANDARD - VERSION 3.0
 WRAP              .         NO                            : ONE LINE PER DEPTH STEP
 DLM               .         SPACE                         : DELIMITING CHARACTER(SPACE TAB OR COMMA)
~Well Information
#_______________________________________________________________________________
#
#PARAMETER_NAME    .UNIT     VALUE                         : DESCRIPTION
#_______________________________________________________________________________
STRT               .m        1.09                          : First reference value
STOP               .m        818.99                        : Last reference value
STEP               .m        0.1                           : Step increment
NULL               .         -9999                         : Missing value
COMP               .         ICPetroleum                   : Company
WELL               .         309                           : Well name
FLD                .         Karatobe                      : Field
LOC                .                                       : Location
SRVC               .                                       : Service Company
CTRY               .         KZ                            : Country
DATE               .         2022-10-26 17_52_23           : Service Date
LATI               .         0                             : Latitude
LONG               .         0                             : Longitude
GDAT               .         WGS 84                        : Geodetic Datum
API                .                                       : API NUMBER
COORDIN            .                                       : Grid System
COUNTRY            .         Kazakhstan                    : 
COUNTRY            .         Kazakhstan                    : 
EREF               .m        135.5                         : 
KB                 .         136.5                         : KB Elevation
ORIGINALWELLNAME   .         309                           : 
PROV               .                                       : PROVINCE
RWS                .         -999                          : Def_Rw
UWI                .         1_309                         : Unique Well Identifier (UWI)
WST                .         -999                          : Def_Rwt
X                  .km       466444.93                     : 
XCOORD             .                                       : X or East-West Coordinate
Y                  .km       5308441.67                    : 
YCOORD             .                                       : Y or North-South Coordinate
~Parameter Information Block
#_______________________________________________________________________________
#
#PARAMETER_NAME    .UNIT     VALUE                         : DESCRIPTION
#_______________________________________________________________________________
SET                .         Las                           : 
TLFamily_DEPT      .         Measured Depth                : 
TLFamily_PHI_FINAL .         Porosity                      : 
TLFamily_SW_AR     .         Water Saturation              : 
TLFamily_VSH_FINAL .         Shale Volume                  : 
~Curve Information
#_______________________________________________________________________________
#
#LOGNAME           .UNIT     LOG_ID                        : DESCRIPTION
#_______________________________________________________________________________
DEPT               .m                                      : DEPTH {F}
PHI_FINAL          .m3/m3                                  : Porosity {F}
SW_AR              .m3/m3                                  :  {F}
VSH_FINAL          .unitless                               : Vshale {F}
~Ascii
# ...
453.79     0.1228151  1          0.602479  
453.89     0.1047857  1          0.6673961 
453.99     0.1941165  1          0.46321   
454.09     0.1895532  1          0.4631093 
454.19     0.2195983  1          0.3979228 
454.29     0.1759815  1          0.340528  
454.39     0.1501588  1          0.2607711 
454.49     0.09932621 1          0.1910325 
454.59     0.08569874 1          0.1910005 
454.69     0.06502998 1          0.2669125 
454.79     0.05712528 1          0.4018008 
454.89     0.05861606 1          0.5194522 
454.99     0.08613571 1          0.6324704 
455.09     0.1198889  1          0.6323197 
455.19     0.112249   1          0.6789806 
455.29     0.1521571  1          0.619184  
455.39     0.1440646  1          0.6254241 
455.49     0.1041458  1          0.7210013 
455.59     0.09363422 1          0.7208235 
455.69     0.09227739 1          0.7206452 
455.79     0.1226417  1          0.6248313 
455.89     0.13541    1          0.59952   
455.99     0.05476289 1          0.7497177 
456.09     0.05351084 1          0.7495307 
456.19     0.0517322  1          0.7645434 
456.29     0.1051583  1          0.6177233 
456.39     0.1513904  1          0.5122979 
456.49     0.07575233 1          0.6768423 
456.59     0.08079658 1          0.6766785 
456.69     0.04013362 1          0.7868688 
456.79     0.07169697 1          0.7557729 
456.89     0.06696569 1          0.7943675 
456.99     0.0492495  1          0.8858921 
457.09     0.05066592 1          0.8856605 
457.19     0.09400815 1          0.7325962 
457.29     0.09439293 1          0.7034589 
457.39     0.1434532  1          0.609833  
457.49     0.1447119  1          0.5911621 
457.59     0.1387448  1          0.5910248 
457.69     0.09057488 1          0.7099026 
457.79     0.03881289 1          0.8085211 
457.89     0.02134719 1          0.8751141 
457.99     0.03810176 1          0.8408943 
458.09     0.04464151 1          0.8406774 
458.19     0.007617144 1          0.9744261 
458.29     0.04788203 1          0.8570693 
458.39     0.07376312 1          0.7913526 
458.49     0.1260538  1          0.660036  
458.59     0.1184577  1          0.6598778 
458.69     0.09412937 1          0.6801068 
458.79     0.1008861  1          0.6595607 
458.89     0.0850409  1          0.6594023 
458.99     0.1177392  1          0.5891051 
459.09     0.1197167  1          0.5889686 
459.19     0.1158028  1          0.6198328 
459.29     0.104482   1          0.6521083 
459.39     0.1339657  1          0.5885584 
459.49     0.1363586  1          0.5704978 
459.59     0.1439884  1          0.5703669 
459.69     0.1102533  1          0.6853606 
459.79     0.05378116 1          0.8370072 
459.89     0.05197325 1          0.8451226 
459.99     0.07453267 1          0.8040072 
460.09     0.07178973 1          0.8038033 
460.19     0.06193233 1          0.8361478 
460.29     0.07080662 1          0.7954424 
460.39     0.1323847  1          0.6308351 
460.49     0.1334112  1          0.5810493 
460.59     0.1366529  1          0.5809155 
460.69     0.07996161 1          0.719028  
460.79     0.05765696 1          0.7944369 
460.89     0.07680464 1          0.7785743 
460.99     0.1177042  1          0.6901374 
461.09     0.11235    1          0.6899698 
461.19     0.08958407 1          0.7400825 
461.29     0.07629501 1          0.7777923 
461.39     0.06405737 1          0.7775968 
461.49     0.1496567  1          0.6102211 
461.59     0.1664533  1          0.6100783 
461.69     0.1316938  1          0.6751953 
461.79     0.07703681 1          0.8327239 
461.89     0.04015669 1          0.9461243 
461.99     0.06692502 1          0.8405701 
462.09     0.04985669 1          0.8403541 
462.19     0.08905154 1          0.7092273 
462.29     0.10498    1          0.6028835 
462.39     0.07863261 1          0.5785109 
462.49     0.03650783 1          0.5724564 
462.59     0.02325977 1          0.5723249 
462.69     0.02910109 1          0.5605165 
462.79     0.04760293 1          0.5720626 
462.89     0.06761329 1          0.5319876 
462.99     0.05554643 1          0.6596139 
463.09     0.08813404 1          0.6594561 
463.19     0.009795036 1          0.9155763 
463.29     0.007939475 1          0.9801532 
463.39     0.03547511 1          0.8885495 
463.49     0.06695177 1          0.8048546 
463.59     0.06428548 1          0.8046507 
463.69     0.05469353 1          0.8286876 
463.79     0.05836449 1          0.8533707 
463.89     0.05572689 1          0.8701186 
463.99     0.0995529  1          0.788051  
464.09     0.1019859  1          0.7878527 
464.19     0.1260652  1          0.6987247 
464.29     0.1161939  1          0.741809  
464.39     0.09749207 1          0.7342564 
464.49     0.1426338  1          0.6247678 
464.59     0.135205   1          0.6246213 
464.69     0.1456909  1          0.6056817 
464.79     0.1179976  1          0.6501775 
464.89     0.04713557 1          0.8099862 
464.99     0.08836342 1          0.740528  
465.09     0.105218   1          0.7403455 
465.19     0.1271641  1          0.6301101 
465.29     0.1085392  1          0.6693803 
465.39     0.05301181 1          0.6828335 
465.49     0.08560275 1          0.4865408 
465.59     0.05366955 1          0.4864347 
465.69     0.0884112  1          0.4516967 
465.79     0.1020407  1          0.4468291 
465.89     0.1189035  1          0.428077  
465.99     0.1559213  1          0.3365404 
466.09     0.17992    1          0.3364748 
466.19     0.1798583  1          0.3517157 
466.29     0.1739783  1          0.4277184 
466.39     0.1609724  1          0.5169902 
466.49     0.093592   1          0.7304745 
466.59     0.08453751 1          0.7302955 
466.69     0.1212162  1          0.6604527 
466.79     0.1556299  1          0.5610635 
466.89     0.1610704  1          0.5784702 
466.99     0.09567945 1          0.694001  
467.09     0.09599926 1          0.6938332 
467.19     0.09073099 1          0.6936658 
467.29     0.1063915  1          0.6865783 
467.39     0.08753084 1          0.7288641 
467.49     0.1405544  1          0.5431336 
467.59     0.1366121  1          0.5430114 
467.69     0.1051486  1          0.5953804 
467.79     0.05054112 1          0.7728862 
467.89     0.0596599  1          0.7959709 
467.99     0.05758716 1          0.787945  
468.09     0.05775908 1          0.7877474 
468.19     0.01177354 1          1         
468.29     0.001890152 1          1         
468.39     0          1          1         
468.49     0          1          1         
468.59     0          1          1         
468.69     0.00317803 1          1         
468.79     0.06644298 1          0.7049544 
468.89     0.21992    1          0.4119483 
468.99     0.2957534  0.8496813  0.3127787 
469.09     0.3030742  0.8302535  0.3127192 
469.19     0.2750543  0.9196873  0.3775652 
469.29     0.254568   0.9544591  0.381622  
469.39     0.2213109  0.9685737  0.4159604 
469.49     0.1989939  0.8618219  0.429424  
469.59     0.1939869  0.8828495  0.4293341 
469.69     0.187686   0.8721873  0.4671824 
469.79     0.1653995  0.9479176  0.4973601 
469.89     0.1485578  1          0.5077071 
469.99     0.1999186  0.7875692  0.4199143 
470.09     0.1981639  0.7941645  0.419827  
470.19     0.1851742  0.8406378  0.447401  
470.29     0.1739954  0.8484114  0.4916649 
470.39     0.1461555  1          0.5680271 
470.49     0.1635622  0.920508   0.4966007 
470.59     0.1507187  0.994543   0.4964925 
470.69     0.1635667  0.9568371  0.4760705 
470.79     0.1590025  1          0.4612058 
470.89     0.176047   1          0.3972259 
470.99     0.2331761  1          0.3222934 
471.09     0.255163   1          0.3222317 
471.19     0.2675284  0.9981015  0.3257993 
471.29     0.303776   0.8892661  0.2908663 
471.39     0.3241002  0.8353398  0.2745128 
471.49     0.305169   0.9313115  0.3442385 
471.59     0.3192707  0.8923535  0.3441711 
471.69     0.268738   1          0.4651864 
471.79     0.2500485  1          0.5324188 
471.89     0.2780531  0.9860377  0.526841  
