~Version
 VERS              .         3.0                           : CWLS LOG ASCII STANDARD - VERSION 3.0
 WRAP              .         NO                            : ONE LINE PER DEPTH STEP
 DLM               .         SPACE                         : DELIMITING CHARACTER(SPACE TAB OR COMMA)
~Well Information
#_______________________________________________________________________________
#
#PARAMETER_NAME    .UNIT     VALUE                         : DESCRIPTION
#_______________________________________________________________________________
STRT               .m        1.09                          : First reference value
STOP               .m        818.99                        : Last reference value
STEP               .m        0.1                           : Step increment
NULL               .         -9999                         : Missing value
COMP               .         ICPetroleum                   : Company
WELL               .         309                           : Well name
FLD                .         Karatobe                      : Field
LOC                .                                       : Location
SRVC               .                                       : Service Company
CTRY               .         KZ                            : Country
DATE               .         2022-10-26 17_52_23           : Service Date
LATI               .         0                             : Latitude
LONG               .         0                             : Longitude
GDAT               .         WGS 84                        : Geodetic Datum
API                .                                       : API NUMBER
COORDIN            .                                       : Grid System
COUNTRY            .         Kazakhstan                    : 
COUNTRY            .         Kazakhstan                    : 
EREF               .m        135.5                         : 
KB                 .         136.5                         : KB Elevation
ORIGINALWELLNAME   .         309                           : 
PROV               .                                       : PROVINCE
RWS                .         -999                          : Def_Rw
UWI                .         1_309                         : Unique Well Identifier (UWI)
WST                .         -999                          : Def_Rwt
X                  .km       466444.93                     : 
XCOORD             .                                       : X or East-West Coordinate
Y                  .km       5308441.67                    : 
YCOORD             .                                       : Y or North-South Coordinate
~Parameter Information Block
#_______________________________________________________________________________
#
#PARAMETER_NAME    .UNIT     VALUE                         : DESCRIPTION
#_______________________________________________________________________________
SET                .         Las                           : 
TLFamily_DEPT      .         Measured Depth                : 
TLFamily_PHI_FINAL .         Porosity                      : 
TLFamily_SW_AR     .         Water Saturation              : 
TLFamily_VSH_FINAL .         Shale Volume                  : 
~Curve Information
#_______________________________________________________________________________
#
#LOGNAME           .UNIT     LOG_ID                        : DESCRIPTION
#_______________________________________________________________________________
DEPT               .m                                      : DEPTH {F}
PHI_FINAL          .m3/m3                                  : Porosity {F}
SW_AR              .m3/m3                                  :  {F}
VSH_FINAL          .unitless                               : Vshale {F}
~Ascii
# ...
685.39     0.1333726  1          0.1704329 
685.49     0.1403373  1          0.1686432 
685.59     0.1464556  1          0.1459507 
685.6900000000001 0.1481431  1          0.1325024 
685.79     0.1433285  1          0.1292002 
685.89     0.1394254  1          0.1259215 
685.99     0.1396097  1          0.1375004 
686.09     0.1448234  1          0.1375004 
686.1900000000001 0.1670439  1          0.1459507 
686.29     0.2108735  1          0.1358285 
686.39     0.1655312  1          0.151094  
686.49     0.1219875  1          0.1831424 
686.59     0.1537988  1          0.1849841 
686.6900000000001 0.1214825  1          0.1668599 
686.79     0.1171296  1          0.147659  
686.89     0.1018451  1          0.1580384 
686.99     0.03809625 1          0.1668599 
687.09     0          1          0.161548  
687.1900000000001 0.04992649 1          0.151094  
687.29     0.09544895 1          0.1493734 
687.39     0.1169433  1          0.156293  
687.49     0.1319622  1          0.1924177 
687.59     0.1603451  1          0.2600945 
687.6900000000001 0.1699123  1          0.3365386 
687.79     0.184695   1          0.3809403 
687.89     0.159854   1          0.3886231 
687.99     0.1687721  1          0.3809403 
688.09     0.1863293  1          0.3733398 
688.1900000000001 0.1751704  1          0.3413319 
688.29     0.1579377  1          0.3413319 
688.39     0.1336767  1          0.3437415 
688.49     0.1307539  1          0.3783979 
688.59     0.157718   1          0.3658206 
688.6900000000001 0.1182501  1          0.398996  
688.79     0.1337772  1          0.3912025 
688.89     0.1180235  1          0.4068738 
688.99     0.114873   1          0.3413319 
689.09     0.1249536  1          0.3153887 
689.1900000000001 0.1480918  1          0.3039302 
689.29     0.1354695  1          0.3413319 
689.39     0.1358127  1          0.3510222 
689.49     0.1163925  1          0.3437415 
689.59     0.1267617  1          0.3247046 
689.6900000000001 0.1468964  1          0.3177052 
689.79     0.149998   1          0.3130806 
689.89     0.1518651  1          0.2994039 
689.99     0.1332323  1          0.29491   
690.09     0.1365403  1          0.301663  
690.1900000000001 0.1359334  1          0.3559197 
690.29     0.1197043  1          0.3758643 
690.39     0.1388176  1          0.3809403 
690.49     0.1716086  1          0.3039302 
690.59     0.140967   1          0.2686122 
690.6900000000001 0.1353277  1          0.2537859 
690.79     0.1368057  1          0.2707607 
690.89     0.1013668  1          0.2772528 
690.99     0.1443713  1          0.2664713 
691.09     0.1557544  1          0.2332402 
691.1900000000001 0.1401419  1          0.2134176 
691.29     0.143541   1          0.2018606 
691.39     0.1715379  1          0.21929   
691.49     0.1382405  1          0.2558812 
691.59     0.1440269  1          0.2750809 
691.6900000000001 0.147752   1          0.264338  
691.79     0.1753357  1          0.2516981 
691.89     0.1699949  1          0.2475447 
691.99     0.1312703  1          0.2537859 
692.09     0.133774   1          0.2272187 
692.1900000000001 0.1628589  1          0.1980631 
692.29     0.1076083  1          0.1740317 
692.39     0.08422112 1          0.161548  
692.49     0.1116581  1          0.1528208 
692.59     0.08091386 1          0.147659  
692.6900000000001 0.04449745 1          0.15979   
692.79     0.01303781 1          0.1849841 
692.89     0.01403011 1          0.2232401 
692.99     0.05004918 1          0.2496176 
693.09     0.08036024 1          0.292675  
693.1900000000001 0.07209394 1          0.3107807 
693.29     0.09974096 1          0.3107807 
693.39     0.123837   1          0.2558812 
693.49     0.06548819 1          0.2232401 
693.59     0          1          0.2018606 
693.6900000000001 0.03779322 1          0.2018606 
693.79     0.02275838 1          0.1942926 
693.89     0          1          0.1942926 
693.99     0          1          0.2056853 
694.09     0.01960026 1          0.2173255 
694.1900000000001 0.09277438 0.9425944  0.2134176 
694.29     0.09039634 0.9852533  0.1999584 
694.39     0.06795118 1          0.2134176 
694.49     0.07011844 1          0.2372907 
694.59     0.07591832 1          0.2664713 
694.6900000000001 0.1091764  1          0.264338  
694.79     0.09632969 1          0.2816197 
694.89     0.08953976 1          0.2750809 
694.99     0.0908027  1          0.2794324 
695.09     0.09617899 1          0.2816197 
695.1900000000001 0          1          0.2664713 
695.29     0          1          0.2496176 
695.39     0.1413451  1          0.2393268 
695.49     0.1980931  1          0.2794324 
695.59     0.1778027  1          0.3062055 
695.6900000000001 0.1566904  1          0.2971529 
695.79     0.1467618  1          0.29491   
695.89     0.1426821  1          0.3107807 
695.99     0.1668517  1          0.3177052 
696.09     0.1568859  1          0.3223631 
696.1900000000001 0.1471138  1          0.3294128 
696.29     0.1304393  1          0.368318  
696.39     0.1214448  1          0.3834922 
696.49     0.1083012  1          0.3963889 
696.59     0.05479048 1          0.4016125 
696.6900000000001 0.1031083  1          0.363332  
696.79     0.1098136  1          0.3365386 
696.89     0.1213719  1          0.2971529 
696.99     0.1135647  1          0.3062055 
697.09     0.101884   1          0.3177052 
697.1900000000001 0.09216914 1          0.3341548 
697.29     0.07061153 1          0.3658206 
697.39     0.05648115 1          0.3758643 
697.49     0.09417816 1          0.412173  
697.59     0.1108594  1          0.412173  
697.6900000000001 0.1030611  1          0.3834922 
697.79     0.1282707  1          0.3317795 
697.89     0.1419903  1          0.3177052 
697.99     0.09172644 1          0.3200299 
698.09     0.125554   1          0.3270544 
698.1900000000001 0.1447679  1          0.2994039 
698.29     0.148455   1          0.2971529 
698.39     0.1340208  1          0.2882292 
698.49     0.08720474 1          0.2994039 
698.59     0.08492558 1          0.2971529 
698.6900000000001 0.124947   1          0.3130806 
698.79     0.1371254  1          0.3317795 
698.89     0.1155084  1          0.3510222 
698.99     0.06378763 1          0.3510222 
699.09     0.08623392 1          0.3247046 
699.1900000000001 0.1078564  1          0.3062055 
699.29     0.09977614 1          0.308489  
699.39     0.1284763  1          0.3130806 
699.49     0.0880621  1          0.308489  
699.59     0.06513289 1          0.2904481 
699.6900000000001 0.06990316 1          0.2882292 
699.79     0.0770499  1          0.3039302 
699.89     0.08082929 1          0.3130806 
699.99     0.06419165 1          0.3177052 
700.09     0.05482719 1          0.3510222 
700.1900000000001 0.09803364 1          0.3758643 
700.29     0.02969408 1          0.3809403 
700.39     0.04809369 1          0.3583816 
700.49     0.04296451 1          0.3658206 
700.59     0.03129645 1          0.3834922 
700.6900000000001 0.06902044 1          0.3963889 
700.79     0.06578285 1          0.4042384 
700.89     0.05126826 1          0.4255881 
700.99     0.03807228 1          0.4644544 
701.09     0.08326936 1          0.4788145 
701.1900000000001 0.06682347 1          0.5143468 
701.29     0.04687228 1          0.5265344 
701.39     0          1          0.586872  
701.49     0.0176689  1          0.5738259 
701.59     0.1325812  1          0.5023326 
701.6900000000001 0.1702256  1          0.412173  
701.79     0.181072   1          0.3658206 
701.89     0.165906   1          0.3270544 
701.99     0.1924315  1          0.2904481 
702.09     0.2161023  1          0.2707607 
702.1900000000001 0.2141021  1          0.283815  
702.29     0.1821233  1          0.3107807 
702.39     0.1774104  1          0.3247046 
702.49     0.1932928  1          0.3247046 
702.59     0.1949546  1          0.3270544 
702.6900000000001 0.1479986  1          0.3247046 
702.79     0.1343664  1          0.3270544 
702.89     0.1665061  1          0.3317795 
702.99     0.1914252  1          0.3270544 
