~Version
 VERS              .         3.0                           : CWLS LOG ASCII STANDARD - VERSION 3.0
 WRAP              .         NO                            : ONE LINE PER DEPTH STEP
 DLM               .         SPACE                         : DELIMITING CHARACTER(SPACE TAB OR COMMA)
~Well Information
#_______________________________________________________________________________
#
#PARAMETER_NAME    .UNIT     VALUE                         : DESCRIPTION
#_______________________________________________________________________________
STRT               .m        1.09                          : First reference value
STOP               .m        818.99                        : Last reference value
STEP               .m        0.1                           : Step increment
NULL               .         -9999                         : Missing value
COMP               .         ICPetroleum                   : Company
WELL               .         309                           : Well name
FLD                .         Karatobe                      : Field
LOC                .                                       : Location
SRVC               .                                       : Service Company
CTRY               .         KZ                            : Country
DATE               .         2022-10-26 17_52_23           : Service Date
LATI               .         0                             : Latitude
LONG               .         0                             : Longitude
GDAT               .         WGS 84                        : Geodetic Datum
API                .                                       : API NUMBER
COORDIN            .                                       : Grid System
COUNTRY            .         Kazakhstan                    : 
COUNTRY            .         Kazakhstan                    : 
EREF               .m        135.5                         : 
KB                 .         136.5                         : KB Elevation
ORIGINALWELLNAME   .         309                           : 
PROV               .                                       : PROVINCE
RWS                .         -999                          : Def_Rw
UWI                .         1_309                         : Unique Well Identifier (UWI)
WST                .         -999                          : Def_Rwt
X                  .km       466444.93                     : 
XCOORD             .                                       : X or East-West Coordinate
Y                  .km       5308441.67                    : 
YCOORD             .                                       : Y or North-South Coordinate
~Parameter Information Block
#_______________________________________________________________________________
#
#PARAMETER_NAME    .UNIT     VALUE                         : DESCRIPTION
#_______________________________________________________________________________
SET                .         Las                           : 
TLFamily_DEPT      .         Measured Depth                : 
TLFamily_PHI_FINAL .         Porosity                      : 
TLFamily_SW_AR     .         Water Saturation              : 
TLFamily_VSH_FINAL .         Shale Volume                  : 
~Curve Information
#_______________________________________________________________________________
#
#LOGNAME           .UNIT     LOG_ID                        : DESCRIPTION
#_______________________________________________________________________________
DEPT               .m                                      : DEPTH {F}
PHI_FINAL          .m3/m3                                  : Porosity {F}
SW_AR              .m3/m3                                  :  {F}
VSH_FINAL          .unitless                               : Vshale {F}
~Ascii
# ...
362.79     0.2920829  0.9388618  0.2931139 
362.89     0.3019068  0.9017148  0.2507114 
362.99     0.3059023  0.897689   0.2642137 
363.09     0.3119805  0.8811365  0.2641604 
363.19     0.3025636  0.9206816  0.3004258 
363.29     0.2743478  1          0.3447053 
363.39     0.2632737  1          0.348906  
363.49     0.2495287  1          0.3753895 
363.59     0.2516376  1          0.3753055 
363.69     0.2298891  1          0.4333081 
363.79     0.2171377  1          0.4595239 
363.89     0.1861695  1          0.5281588 
363.99     0.2004933  1          0.4983945 
364.09     0.2055965  1          0.4982732 
364.19     0.2004073  1          0.5157439 
364.29     0.2141891  1          0.4980309 
364.39     0.174123   1          0.5846297 
364.49     0.2154336  1          0.527375  
364.59     0.1932053  1          0.5272446 
364.69     0.2107626  1          0.4861247 
364.79     0.2162813  1          0.4477831 
364.89     0.1933868  1          0.491569  
364.99     0.1399582  1          0.6246767 
365.09     0.1935726  1          0.6245144 
365.19     0.2050992  1          0.5768537 
365.29     0.2138106  1          0.5510203 
365.39     0.1974052  1          0.6240278 
365.49     0.1199904  1          0.8503591 
365.59     0.1511484  1          0.8501173 
365.69     0.1283751  1          0.887655  
365.79     0.1000933  1          1         
365.89     0.1027009  1          1         
365.99     0.1359733  1          0.906327  
366.09     0.1222272  1          0.9060649 
366.19     0.1433214  1          0.8579579 
366.29     0.1458365  1          0.8033648 
366.39     0.1150284  1          0.8574694 
366.49     0.06936661 1          0.8856161 
366.59     0.03511961 1          0.8853619 
366.69     0.01927128 1          0.9143336 
366.79     0.02817218 1          0.9340338 
366.89     0.0649408  1          0.8108364 
366.99     0.1626404  1          0.6720503 
367.09     0.1941674  1          0.6718721 
367.19     0.1961645  1          0.6642528 
367.29     0.2195427  1          0.5737929 
367.39     0.1728579  1          0.627807  
367.49     0.03943616 1          0.709453  
367.59     0.01591967 1          0.7092623 
367.69     0          1          0.6708055 
367.79     0          1          0.5730681 
367.89     0          1          0.5729234 
367.99     0          1          0.5411071 
368.09     0          1          0.5409728 
368.19     0          1          0.4933451 
368.29     0          1          0.5047455 
368.39     0          1          0.5919442 
368.49     0          1          0.834041  
368.59     0          1          0.8338059 
368.69     0          1          1         
368.79     0.003632578 1          1         
368.89     0.01451415 1          1         
368.99     0.03204289 1          1         
369.09     0.03382525 1          1         
369.19     0.02926619 1          1         
369.29     0.02541056 1          1         
369.39     0.02301585 1          1         
369.49     0.02451777 1          0.9571193 
369.59     0.04442767 1          0.9568393 
369.69     0.02964239 1          0.998475  
369.79     0.05266711 1          1         
369.89     0.0658468  1          1         
369.99     0.08986867 1          1         
370.09     0.117006   1          1         
370.19     0.1126461  1          1         
370.29     0.1012983  1          1         
370.39     0.07942665 1          1         
370.49     0.08245265 1          1         
370.59     0.04612759 1          1         
370.69     0.04818482 1          1         
370.79     0.03091894 1          1         
370.89     0.01721644 1          1         
370.99     0.02455564 1          1         
371.09     0.03782524 1          1         
371.19     0.04691667 1          1         
371.29     0.04556805 1          1         
371.39     0.04595453 1          1         
371.49     0.04593247 1          1         
371.59     0.03634773 1          1         
371.69     0.03264861 1          1         
371.79     0.001839239 1          1         
371.89     0          1          1         
371.99     0.005147729 1          1         
372.09     0.02127614 1          1         
372.19     0.02927593 1          1         
372.29     0.05616658 1          1         
372.39     0.05279895 1          1         
372.49     0.0523348  1          1         
372.59     0.04798317 1          1         
372.69     0.06532495 1          1         
372.79     0.0815428  1          0.968457  
372.89     0.1258579  1          0.8510007 
372.99     0.05962516 1          1         
373.09     0.06708144 1          1         
373.19     0.07381447 1          1         
373.29     0.1394294  1          0.859272  
373.39     0.2030658  1          0.6535277 
373.49     0.2414692  1          0.5976002 
373.59     0.2302844  1          0.5974483 
373.69     0.2735911  1          0.50394   
373.79     0.2726798  1          0.492383  
373.89     0.2389489  1          0.5772163 
373.99     0.2412207  1          0.6241261 
374.09     0.2346962  1          0.6239656 
374.19     0.2311636  1          0.6168872 
374.29     0.1679648  1          0.7522312 
374.39     0.08213813 1          0.8943007 
374.49     0.1245739  1          0.8025526 
374.59     0.1154624  1          0.8023306 
374.69     0.1270389  1          0.7679811 
374.79     0.07989069 1          0.8464607 
374.89     0.08316515 1          0.8371348 
374.99     0.118613   1          0.7673519 
375.09     0.1232796  1          0.7671424 
375.19     0.08591505 1          0.8274428 
375.29     0.1074926  1          0.7921388 
375.39     0.1841613  1          0.6720563 
375.49     0.214014   1          0.6357045 
375.59     0.214313   1          0.6355401 
375.69     0.1813015  1          0.7173176 
375.79     0.1473973  1          0.826059  
375.89     0.1180211  1          0.9294717 
375.99     0.09719729 1          1         
376.09     0.08187126 1          1         
376.19     0.07952999 1          1         
376.29     0.06567619 1          1         
376.39     0.04575842 1          1         
376.49     0.0689691  1          1         
376.59     0.06777277 1          1         
376.69     0.06552467 1          1         
376.79     0.05236617 1          1         
376.89     0.04052278 1          1         
376.99     0.02867268 1          1         
377.09     0.02312535 1          1         
377.19     0.01755784 1          1         
377.29     0.02631227 1          1         
377.39     0.03292992 1          1         
377.49     0.0243003  1          1         
377.59     0.04916546 1          1         
377.69     0.05296105 1          1         
377.79     0.06391072 1          1         
377.89     0.06316801 1          1         
377.99     0.0450011  1          1         
378.09     0.05293602 1          1         
378.19     0.06161813 1          1         
378.29     0.07190985 1          1         
378.39     0.07091689 1          1         
378.49     0.06382036 1          1         
378.59     0.03540791 1          1         
378.69     0.02913934 1          1         
378.79     0.02191355 1          1         
378.89     0.01551801 1          1         
378.99     0.02204968 1          1         
379.09     0.02290398 1          1         
379.19     0.02282706 1          1         
379.29     0.0183711  1          1         
379.39     0.01741354 1          0.9912612 
379.49     0.02372006 1          1         
379.59     0.02372006 1          1         
379.69     0.01468599 1          1         
379.79     0.01678816 1          1         
379.89     0.04158486 1          1         
379.99     0.04342127 1          1         
380.09     0.06324774 1          1         
380.19     0.06932838 1          1         
380.29     0.08266105 1          1         
380.39     0.07993947 1          1         
380.49     0.04131489 1          1         
380.59     0          1          1         
380.69     0          1          1         
380.79     0          1          0.8596029 
380.89     0          1          0.6480467 
