~Version
 VERS              .         3.0                           : CWLS LOG ASCII STANDARD - VERSION 3.0
 WRAP              .         NO                            : ONE LINE PER DEPTH STEP
 DLM               .         SPACE                         : DELIMITING CHARACTER(SPACE TAB OR COMMA)
~Well Information
#_______________________________________________________________________________
#
#PARAMETER_NAME    .UNIT     VALUE                         : DESCRIPTION
#_______________________________________________________________________________
STRT               .m        1.09                          : First reference value
STOP               .m        818.99                        : Last reference value
STEP               .m        0.1                           : Step increment
NULL               .         -9999                         : Missing value
COMP               .         ICPetroleum                   : Company
WELL               .         309                           : Well name
FLD                .         Karatobe                      : Field
LOC                .                                       : Location
SRVC               .                                       : Service Company
CTRY               .         KZ                            : Country
DATE               .         2022-10-26 17_52_23           : Service Date
LATI               .         0                             : Latitude
LONG               .         0                             : Longitude
GDAT               .         WGS 84                        : Geodetic Datum
API                .                                       : API NUMBER
COORDIN            .                                       : Grid System
COUNTRY            .         Kazakhstan                    : 
COUNTRY            .         Kazakhstan                    : 
EREF               .m        135.5                         : 
KB                 .         136.5                         : KB Elevation
ORIGINALWELLNAME   .         309                           : 
PROV               .                                       : PROVINCE
RWS                .         -999                          : Def_Rw
UWI                .         1_309                         : Unique Well Identifier (UWI)
WST                .         -999                          : Def_Rwt
X                  .km       466444.93                     : 
XCOORD             .                                       : X or East-West Coordinate
Y                  .km       5308441.67                    : 
YCOORD             .                                       : Y or North-South Coordinate
~Parameter Information Block
#_______________________________________________________________________________
#
#PARAMETER_NAME    .UNIT     VALUE                         : DESCRIPTION
#_______________________________________________________________________________
SET                .         Las                           : 
TLFamily_DEPT      .         Measured Depth                : 
TLFamily_PHI_FINAL .         Porosity                      : 
TLFamily_SW_AR     .         Water Saturation              : 
TLFamily_VSH_FINAL .         Shale Volume                  : 
~Curve Information
#_______________________________________________________________________________
#
#LOGNAME           .UNIT     LOG_ID                        : DESCRIPTION
#_______________________________________________________________________________
DEPT               .m                                      : DEPTH {F}
PHI_FINAL          .m3/m3                                  : Porosity {F}
SW_AR              .m3/m3                                  :  {F}
VSH_FINAL          .unitless                               : Vshale {F}
~Ascii
# ...
543.89     0.1488318  1          0.5609123 
543.99     0.1493106  1          0.5607936 
544.09     0.1487392  1          0.5769716 
544.1900000000001 0.1368403  1          0.6106799 
544.29     0.1326352  1          0.6522039 
544.39     0.1775954  1          0.5238728 
544.49     0.1769513  1          0.5237643 
544.59     0.1974417  1          0.4798367 
544.6900000000001 0.2001359  1          0.4704428 
544.79     0.1783394  1          0.5439838 
544.89     0.1460912  1          0.6040094 
544.99     0.1463284  1          0.6038789 
545.09     0.1568504  1          0.5488816 
545.1900000000001 0.1995206  1          0.4653869 
545.29     0.1908036  1          0.4885986 
545.39     0.1954638  1          0.4932769 
545.49     0.1977394  1          0.4931766 
545.59     0.2654806  0.9334719  0.3474967 
545.6900000000001 0.2766401  0.8183297  0.313062  
545.79     0.2665569  0.7793114  0.3298308 
545.89     0.2673142  0.7244562  0.3509015 
545.99     0.2679619  0.7227995  0.3508371 
546.09     0.2801732  0.6781709  0.3330997 
546.1900000000001 0.2692298  0.7042182  0.3471159 
546.29     0.2544802  0.7419258  0.3804812 
546.39     0.2629825  0.7192155  0.3615341 
546.49     0.2624818  0.7205133  0.3614672 
546.59     0.2656096  0.7073628  0.3540707 
546.6900000000001 0.2622914  0.7140675  0.3687841 
546.79     0.2762604  0.6856177  0.3292378 
546.89     0.303291   0.624707   0.2660422 
546.99     0.3041413  0.6230546  0.2659972 
547.09     0.2773932  0.6756584  0.32906   
547.1900000000001 0.2459903  0.7515745  0.3954838 
547.29     0.2514481  0.7396243  0.3797677 
547.39     0.2927778  0.6389815  0.2836494 
547.49     0.2925148  0.6395249  0.2836006 
547.59     0.3048783  0.6223288  0.265728  
547.6900000000001 0.2971962  0.6444525  0.2990467 
547.79     0.2598415  0.7370254  0.3755864 
547.89     0.2794804  0.679761   0.3389721 
547.99     0.2813949  0.6753854  0.3389106 
548.09     0.2883855  0.6312894  0.3183453 
548.1900000000001 0.2785584  0.6330206  0.3352998 
548.29     0.284427   0.6198602  0.3352393 
548.39     0.3226061  0.5424005  0.2245798 
548.49     0.3216749  0.5438856  0.2245438 
548.59     0.3172592  0.5563688  0.2245077 
548.6900000000001 0.3157867  0.5696874  0.2322235 
548.79     0.316789   0.5810924  0.237461  
548.89     0.2924549  0.6111014  0.2890429 
548.99     0.2975504  0.6011976  0.288993  
549.09     0.2926578  0.5826964  0.3177801 
549.1900000000001 0.2932462  0.5745954  0.3078734 
549.29     0.3045982  0.5576627  0.2827252 
549.39     0.2807305  0.5980943  0.3486615 
549.49     0.277821   0.6040177  0.3485978 
549.59     0.2679107  0.6615289  0.3557513 
549.6900000000001 0.283694   0.6677803  0.3207763 
549.79     0.3097697  0.6400029  0.2478681 
549.89     0.3098575  0.6560637  0.2794173 
549.99     0.3159882  0.6440166  0.2793695 
550.09     0.3211515  0.5619951  0.267505  
550.1900000000001 0.3656866  0.403213   0.1925792 
550.29     0.3660476  0.3425324  0.1685396 
550.39     0.3824742  0.309457   0.1336605 
550.49     0.3860133  0.3067725  0.133642  
550.59     0.3885866  0.3022503  0.1197299 
550.6900000000001 0.391406   0.3207132  0.1147374 
550.79     0.3877337  0.3494692  0.1335863 
550.89     0.3840652  0.3906     0.1581909 
550.99     0.3776075  0.396916   0.1581679 
551.09     0.3594006  0.4604908  0.1877908 
551.1900000000001 0.3455208  0.5257158  0.2160516 
551.29     0.3210064  0.5905883  0.2472561 
551.39     0.3178564  0.5990071  0.2669198 
551.49     0.3185292  0.59781    0.2668748 
551.59     0.3073925  0.5935558  0.2970223 
551.6900000000001 0.2989921  0.606409   0.3065245 
551.79     0.298552   0.5992894  0.3000769 
551.89     0.3311755  0.4927261  0.2182957 
551.99     0.3336257  0.4893024  0.218261  
552.09     0.3509491  0.4647403  0.1920193 
552.1900000000001 0.353669   0.4703427  0.1852481 
552.29     0.351635   0.4683772  0.213215  
552.39     0.3347589  0.4930867  0.1988396 
552.49     0.3319941  0.4969701  0.1988089 
552.59     0.3408544  0.4806584  0.1829274 
552.6900000000001 0.3478651  0.4703348  0.1785378 
552.79     0.3577814  0.4454384  0.1721032 
552.89     0.3576517  0.3999294  0.1637791 
552.99     0.3582814  0.3992645  0.1637551 
553.09     0.3444151  0.3981199  0.1699271 
553.1900000000001 0.3423528  0.39845    0.180574  
553.29     0.34227    0.4225444  0.1827343 
553.39     0.3633325  0.4056838  0.1459773 
553.49     0.3617496  0.4073628  0.1459566 
553.59     0.3540119  0.4244716  0.1595692 
553.6900000000001 0.3420479  0.4597342  0.1697765 
553.79     0.3442056  0.4637152  0.1656092 
553.89     0.3429761  0.4813243  0.1635397 
553.99     0.3444534  0.4793714  0.1635159 
554.09     0.3372794  0.4831058  0.1914333 
554.1900000000001 0.3317022  0.459152   0.202973  
554.29     0.3387176  0.4361535  0.2077035 
554.39     0.3677808  0.4005692  0.1554138 
554.49     0.366478   0.4019162  0.1553914 
554.59     0.3618367  0.410754   0.1553691 
554.6900000000001 0.3585778  0.4127763  0.1553467 
554.79     0.3586545  0.4157243  0.1553243 
554.89     0.364801   0.4258181  0.1494735 
554.99     0.3638281  0.4268952  0.1494522 
555.09     0.3549034  0.4482799  0.1673516 
555.1900000000001 0.3326412  0.5130864  0.1888597 
555.29     0.3323468  0.5499888  0.2026271 
555.39     0.3385128  0.5603421  0.1799789 
555.49     0.3373059  0.5622384  0.1799519 
555.59     0.3228506  0.5944729  0.1978609 
555.6900000000001 0.3151     0.5974594  0.2245018 
555.79     0.3380541  0.528357   0.2001255 
555.89     0.3683519  0.4819008  0.1454615 
555.99     0.370066   0.4797891  0.1454409 
556.09     0.3678144  0.4767818  0.1454204 
556.1900000000001 0.3614776  0.4789105  0.1569821 
556.29     0.3713616  0.4770432  0.1491759 
556.39     0.3558303  0.4896266  0.1491547 
556.49     0.3545923  0.4912435  0.1491334 
556.59     0.3564282  0.4708802  0.1434437 
556.6900000000001 0.3505613  0.4663616  0.149091  
556.79     0.3517111  0.4717138  0.1509901 
556.89     0.3765607  0.431645   0.1289424 
556.99     0.3788053  0.4292252  0.1289247 
557.09     0.3693692  0.4406487  0.1342093 
557.1900000000001 0.3518598  0.4760735  0.1547893 
557.29     0.3484791  0.4764284  0.1688785 
557.39     0.3449216  0.5934765  0.211514  
557.49     0.3444037  0.5943207  0.2114808 
557.59     0.3431671  0.6689977  0.2213075 
557.6900000000001 0.3467407  0.714094   0.2066062 
557.79     0.3371743  0.7638867  0.1995097 
557.89     0.3473985  0.8830045  0.1971633 
557.99     0.3459464  0.8865103  0.197133  
558.09     0.3577159  0.9177435  0.1605291 
558.1900000000001 0.3520853  1          0.1645471 
558.29     0.3276333  1          0.1993563 
558.39     0.3362747  1          0.1947175 
558.49     0.3436135  1          0.1946878 
558.59     0.3529932  1          0.1544788 
558.6900000000001 0.3638963  1          0.1411693 
558.79     0.3584592  1          0.1393134 
558.89     0.3455875  1          0.162353  
558.99     0.3409559  1          0.1623294 
559.09     0.3355892  1          0.1833306 
559.1900000000001 0.3312581  1          0.1944797 
559.29     0.312817   1          0.2060934 
559.39     0.3089491  1          0.2132793 
559.49     0.3139961  1          0.2132461 
559.59     0.3132574  1          0.2036319 
559.6900000000001 0.3213767  1          0.1943314 
559.79     0.325378   1          0.1875486 
559.89     0.3311535  1          0.1875202 
559.99     0.3329122  1          0.187492  
560.09     0.335498   1          0.1808788 
560.1900000000001 0.344295   1          0.1702333 
560.29     0.3445475  1          0.1722968 
560.39     0.3374916  1          0.2129458 
560.49     0.3349729  1          0.2129124 
560.59     0.3277064  1          0.2227601 
560.6900000000001 0.3338018  1          0.2227248 
560.79     0.3348029  1          0.2056149 
560.89     0.3256302  1          0.2103608 
560.99     0.3270596  1          0.210328  
561.09     0.3056923  1          0.2654741 
561.1900000000001 0.2926253  1          0.3014958 
561.29     0.3007689  1          0.2983013 
561.39     0.2903907  1          0.3109725 
561.49     0.2875946  1          0.3109182 
