~Version
 VERS              .         3.0                           : CWLS LOG ASCII STANDARD - VERSION 3.0
 WRAP              .         NO                            : ONE LINE PER DEPTH STEP
 DLM               .         SPACE                         : DELIMITING CHARACTER(SPACE TAB OR COMMA)
~Well Information
#_______________________________________________________________________________
#
#PARAMETER_NAME    .UNIT     VALUE                         : DESCRIPTION
#_______________________________________________________________________________
STRT               .m        1.09                          : First reference value
STOP               .m        818.99                        : Last reference value
STEP               .m        0.1                           : Step increment
NULL               .         -9999                         : Missing value
COMP               .         ICPetroleum                   : Company
WELL               .         309                           : Well name
FLD                .         Karatobe                      : Field
LOC                .                                       : Location
SRVC               .                                       : Service Company
CTRY               .         KZ                            : Country
DATE               .         2022-10-26 17_52_23           : Service Date
LATI               .         0                             : Latitude
LONG               .         0                             : Longitude
GDAT               .         WGS 84                        : Geodetic Datum
API                .                                       : API NUMBER
COORDIN            .                                       : Grid System
COUNTRY            .         Kazakhstan                    : 
COUNTRY            .         Kazakhstan                    : 
EREF               .m        135.5                         : 
KB                 .         136.5                         : KB Elevation
ORIGINALWELLNAME   .         309                           : 
PROV               .                                       : PROVINCE
RWS                .         -999                          : Def_Rw
UWI                .         1_309                         : Unique Well Identifier (UWI)
WST                .         -999                          : Def_Rwt
X                  .km       466444.93                     : 
XCOORD             .                                       : X or East-West Coordinate
Y                  .km       5308441.67                    : 
YCOORD             .                                       : Y or North-South Coordinate
~Parameter Information Block
#_______________________________________________________________________________
#
#PARAMETER_NAME    .UNIT     VALUE                         : DESCRIPTION
#_______________________________________________________________________________
SET                .         Las                           : 
TLFamily_DEPT      .         Measured Depth                : 
TLFamily_PHI_FINAL .         Porosity                      : 
TLFamily_SW_AR     .         Water Saturation              : 
TLFamily_VSH_FINAL .         Shale Volume                  : 
~Curve Information
#_______________________________________________________________________________
#
#LOGNAME           .UNIT     LOG_ID                        : DESCRIPTION
#_______________________________________________________________________________
DEPT               .m                                      : DEPTH {F}
PHI_FINAL          .m3/m3                                  : Porosity {F}
SW_AR              .m3/m3                                  :  {F}
VSH_FINAL          .unitless                               : Vshale {F}
~Ascii
# ...
180.79     0.5237622  0.568358   0.1510075 
180.89     0.5289356  0.5599484  0.1424514 
180.99     0.5404967  0.557463   0.1315402 
181.09     0.5254481  0.5731271  0.1784495 
181.19     0.5099458  0.5849245  0.2128168 
181.29     0.5155077  0.5829921  0.2019974 
181.39     0.5227107  0.5721095  0.1848712 
181.49     0.5263315  0.560532   0.1687782 
181.59     0.5278868  0.5596443  0.168741  
181.69     0.5471874  0.539133   0.1478466 
181.79     0.5582852  0.5217682  0.159509  
181.89     0.5481763  0.5369254  0.1624885 
181.99     0.5181698  0.5683325  0.1685922 
182.09     0.4747128  0.6180244  0.1812944 
182.19     0.4356409  0.6688851  0.2159861 
182.29     0.4349459  0.6592101  0.2050648 
182.39     0.4519965  0.6341865  0.1877761 
182.49     0.4756125  0.614112   0.1653225 
182.59     0.4790876  0.6191291  0.1683696 
182.69     0.4872589  0.6106547  0.1714534 
182.79     0.4906918  0.6045278  0.1652139 
182.89     0.5039581  0.590768   0.1875633 
182.99     0.4975688  0.5966211  0.1682215 
183.09     0.4931002  0.6051546  0.1620642 
183.19     0.4941006  0.6053464  0.1390088 
183.29     0.531399   0.5632573  0.1231496 
183.39     0.5557442  0.5385583  0.1282704 
183.49     0.5537319  0.5429538  0.1619232 
183.59     0.5306156  0.5601767  0.1872661 
183.69     0.5169759  0.5598153  0.2008787 
183.79     0.5203813  0.5430744  0.1741869 
183.89     0.5113823  0.5508841  0.190488  
183.99     0.5119169  0.5541631  0.1938342 
184.09     0.5062314  0.5638616  0.1937899 
184.19     0.5163934  0.5635715  0.183707  
184.29     0.5335786  0.5546657  0.1616419 
184.39     0.564643   0.5293543  0.1586134 
184.49     0.5875872  0.5115386  0.1585791 
184.59     0.6210997  0.4814842  0.1555899 
184.69     0.6364709  0.4545821  0.1526384 
184.79     0.6559902  0.4046414  0.1385457 
184.89     0.6516952  0.3885571  0.1252993 
184.99     0.625429   0.4383267  0.1252739 
185.09     0.5857961  0.5019752  0.1177033 
185.19     0.5478188  0.5465987  0.1201634 
185.29     0.5381343  0.5590795  0.1176563 
185.39     0.5525433  0.5421767  0.1151809 
185.49     0.5615602  0.539418   0.1226035 
185.59     0.5307094  0.5729349  0.1734941 
185.69     0.4934685  0.6109598  0.2178904 
185.79     0.4853216  0.5963824  0.2329977 
185.89     0.4900735  0.5688616  0.2368482 
185.99     0.4830183  0.5455187  0.2741826 
186.09     0.4535464  0.5591154  0.3109933 
186.19     0.4428344  0.562001   0.3109121 
186.29     0.4406033  0.5639864  0.2965843 
186.39     0.4415137  0.5755435  0.301197  
186.49     0.4674533  0.559494   0.2651817 
186.59     0.4790635  0.5556111  0.2364487 
186.69     0.4805177  0.55469    0.221088  
186.79     0.4801465  0.5525393  0.2064698 
186.89     0.4675649  0.5671606  0.228537  
186.99     0.464215   0.5663983  0.2401621 
187.09     0.462678   0.5708855  0.2361641 
187.19     0.4870874  0.5394011  0.2134635 
187.29     0.5174989  0.5058091  0.202705  
187.39     0.5669122  0.4640034  0.1823933 
187.49     0.5778133  0.4483113  0.2026116 
187.59     0.5791475  0.4499588  0.2169189 
187.69     0.575886   0.4482183  0.2518469 
187.79     0.5964     0.4341069  0.2517852 
187.89     0.6032129  0.42995    0.2728765 
187.99     0.5903342  0.4455365  0.2684748 
188.09     0.58766    0.4527127  0.231717  
188.19     0.6032066  0.4520004  0.1725024 
188.29     0.6205103  0.4330002  0.1693543 
188.39     0.6233308  0.4158781  0.1755743 
188.49     0.5873458  0.4420066  0.1952471 
188.59     0.5149437  0.5034297  0.2353142 
188.69     0.4682736  0.5463167  0.2471643 
188.79     0.4607496  0.5573671  0.2594521 
188.89     0.4655182  0.5499935  0.2511083 
188.99     0.4638897  0.5390969  0.2678062 
189.09     0.4441707  0.5493837  0.2898685 
189.19     0.4193949  0.5540721  0.3487493 
189.29     0.3784373  0.5620723  0.435596  
189.39     0.4043872  0.4574006  0.4291677 
189.49     0.4612901  0.4038411  0.353777  
189.59     0.4866747  0.4347231  0.3081726 
189.69     0.4568045  0.4868647  0.3129039 
189.79     0.4601853  0.4909276  0.3032617 
189.89     0.5201991  0.4594154  0.2587494 
189.99     0.6162993  0.4149766  0.2268587 
190.09     0.7067496  0.3779761  0.1911677 
190.19     0.7672902  0.3509351  0.1780488 
190.29     0.7984585  0.3328427  0.1844656 
190.39     0.8206583  0.3160986  0.2047608 
190.49     0.8285344  0.2933591  0.2460857 
190.59     0.8422531  0.2778021  0.2380871 
190.69     0.7992095  0.2936985  0.2709725 
190.79     0.716598   0.3290842  0.307216  
190.89     0.6081586  0.3861908  0.3471596 
190.99     0.5303769  0.4537475  0.3316033 
191.09     0.5102398  0.4734134  0.2579867 
191.19     0.4909105  0.4962721  0.2416823 
191.29     0.4940608  0.4903628  0.2261616 
191.39     0.4777741  0.4955716  0.2619796 
191.49     0.4702021  0.5042621  0.2836058 
191.59     0.4624456  0.5207903  0.3018588 
191.69     0.4685916  0.5198442  0.2925103 
191.79     0.4806222  0.5110336  0.270231  
191.89     0.470101   0.5139723  0.287813  
191.99     0.4488102  0.5276562  0.3207635 
192.09     0.4643475  0.5175582  0.2876672 
192.19     0.4749278  0.5096309  0.2742901 
192.29     0.4750344  0.5119475  0.2698952 
192.39     0.4226899  0.5777547  0.3617292 
192.49     0.411696   0.5964939  0.3509292 
192.59     0.3959234  0.621908   0.3561515 
192.69     0.3744123  0.6548427  0.3723933 
192.79     0.3516793  0.6819981  0.4068013 
192.89     0.3432026  0.6905138  0.431126  
192.99     0.32153    0.7396895  0.4975448 
193.09     0.3067342  0.7815348  0.5567575 
193.19     0.2820274  0.8471789  0.6219915 
193.29     0.3029616  0.7880112  0.5965281 
193.39     0.2913916  0.8204061  0.6130748 
193.49     0.3017928  0.7945983  0.5961533 
193.59     0.3168863  0.7677263  0.5637207 
193.69     0.3091418  0.7905484  0.5875733 
193.79     0.2885932  0.8476567  0.6208062 
193.89     0.26384    0.9333931  0.655677  
193.99     0.2403874  1          0.6922653 
194.09     0.2601593  0.9592595  0.6463338 
194.19     0.264073   0.9425915  0.6461259 
194.29     0.3097907  0.8095369  0.554707  
194.39     0.3264485  0.7658073  0.5242895 
194.49     0.3172498  0.780428   0.531553  
194.59     0.270485   0.9043567  0.6278148 
194.69     0.2450593  1          0.6721106 
194.79     0.1830893  1          0.7903327 
194.89     0.1700901  1          0.8115274 
194.99     0.1133845  1          0.9266946 
195.09     0.08097798 1          0.9895325 
195.19     0.07652293 1          1         
195.29     0.08528762 1          0.9888144 
195.39     0.1884661  1          0.7993641 
195.49     0.2252243  1          0.727262  
195.59     0.2722092  0.9298578  0.6258214 
195.69     0.3179469  0.7990952  0.5296253 
195.79     0.3353727  0.761521   0.5075796 
195.89     0.3432423  0.744995   0.5074282 
195.99     0.3255001  0.7851729  0.5366138 
196.09     0.2869425  0.8805411  0.5831931 
196.19     0.2846418  0.894519   0.5830119 
196.29     0.301743   0.8396299  0.5828308 
196.39     0.3075788  0.826461   0.6072974 
196.49     0.2434816  1          0.7649773 
196.59     0.1455093  1          0.9336809 
196.69     0.1168206  1          0.9968163 
196.79     0.1401198  1          1         
196.89     0.1702059  1          1         
196.99     0.1788151  1          1         
197.09     0.1582284  1          1         
197.19     0.1486112  1          1         
197.29     0.1443441  1          1         
197.39     0.1337195  1          1         
197.49     0.121812   1          1         
197.59     0.1348022  1          0.9061334 
197.69     0.2089026  1          0.7219822 
197.79     0.1992747  1          0.6837291 
197.89     0.2136081  1          0.665186  
197.99     0.235052   0.999433   0.6210806 
198.09     0.2272285  1          0.6647574 
198.19     0.1876963  1          0.7606223 
198.29     0.2035836  1          0.7603672 
198.39     0.2982694  0.881956   0.6034974 
198.49     0.3889832  0.6821234  0.4559358 
198.59     0.3967921  0.6449302  0.4689859 
198.69     0.3667618  0.6891482  0.5549607 
198.79     0.355552   0.7088859  0.6027423 
198.89     0.4033346  0.6211944  0.524544  
