~Version
 VERS              .         3.0                           : CWLS LOG ASCII STANDARD - VERSION 3.0
 WRAP              .         NO                            : ONE LINE PER DEPTH STEP
 DLM               .         SPACE                         : DELIMITING CHARACTER(SPACE TAB OR COMMA)
~Well Information
#_______________________________________________________________________________
#
#PARAMETER_NAME    .UNIT     VALUE                         : DESCRIPTION
#_______________________________________________________________________________
STRT               .m        1.09                          : First reference value
STOP               .m        818.99                        : Last reference value
STEP               .m        0.1                           : Step increment
NULL               .         -9999                         : Missing value
COMP               .         ICPetroleum                   : Company
WELL               .         309                           : Well name
FLD                .         Karatobe                      : Field
LOC                .                                       : Location
SRVC               .                                       : Service Company
CTRY               .         KZ                            : Country
DATE               .         2022-10-26 17_52_23           : Service Date
LATI               .         0                             : Latitude
LONG               .         0                             : Longitude
GDAT               .         WGS 84                        : Geodetic Datum
API                .                                       : API NUMBER
COORDIN            .                                       : Grid System
COUNTRY            .         Kazakhstan                    : 
COUNTRY            .         Kazakhstan                    : 
EREF               .m        135.5                         : 
KB                 .         136.5                         : KB Elevation
ORIGINALWELLNAME   .         309                           : 
PROV               .                                       : PROVINCE
RWS                .         -999                          : Def_Rw
UWI                .         1_309                         : Unique Well Identifier (UWI)
WST                .         -999                          : Def_Rwt
X                  .km       466444.93                     : 
XCOORD             .                                       : X or East-West Coordinate
Y                  .km       5308441.67                    : 
YCOORD             .                                       : Y or North-South Coordinate
~Parameter Information Block
#_______________________________________________________________________________
#
#PARAMETER_NAME    .UNIT     VALUE                         : DESCRIPTION
#_______________________________________________________________________________
SET                .         Las                           : 
TLFamily_DEPT      .         Measured Depth                : 
TLFamily_PHI_FINAL .         Porosity                      : 
TLFamily_SW_AR     .         Water Saturation              : 
TLFamily_VSH_FINAL .         Shale Volume                  : 
~Curve Information
#_______________________________________________________________________________
#
#LOGNAME           .UNIT     LOG_ID                        : DESCRIPTION
#_______________________________________________________________________________
DEPT               .m                                      : DEPTH {F}
PHI_FINAL          .m3/m3                                  : Porosity {F}
SW_AR              .m3/m3                                  :  {F}
VSH_FINAL          .unitless                               : Vshale {F}
~Ascii
# ...
235.39     0.1144563  1          0.8389794 
235.49     0.1030402  1          0.7870669 
235.59     0.1090102  1          0.7669857 
235.69     0.1204292  1          0.7966413 
235.79     0.1113977  1          0.8273239 
235.89     0.1190238  1          0.7662493 
235.99     0.1832647  1          0.6149611 
236.09     0.2265174  0.8983076  0.4972999 
236.19     0.2086196  0.9527256  0.553172  
236.29     0.161839   1          0.6306615 
236.39     0.1396137  1          0.5983461 
236.49     0.1620137  1          0.4770525 
236.59     0.1919591  0.881002   0.4455928 
236.69     0.2128473  0.8333157  0.4832693 
236.79     0.2381934  0.7438425  0.4766545 
236.89     0.2888807  0.6279663  0.3770803 
236.99     0.3031233  0.6355217  0.3876934 
237.09     0.3181753  0.6390948  0.4329728 
237.19     0.256133   0.8092802  0.6455233 
237.29     0.2376909  0.884167   0.7341318 
237.39     0.2169806  0.9558361  0.8230088 
237.49     0.2461206  0.8128447  0.7243289 
237.59     0.222883   0.880044   0.7428808 
237.69     0.2515122  0.7831465  0.6965131 
237.79     0.2340148  0.8265172  0.7616115 
237.89     0.2354622  0.8226954  0.7711319 
237.99     0.2203763  0.8790404  0.8318558 
238.09     0.2138649  0.9010778  0.8528513 
238.19     0.2338819  0.8151338  0.7902339 
238.29     0.2042739  0.9122229  0.8310403 
238.39     0.1843722  0.9884384  0.8737431 
238.49     0.1402     1          1         
238.59     0.1490968  1          0.9181206 
238.69     0.2101737  0.7044325  0.7033342 
238.79     0.2475539  0.5664174  0.5001994 
238.89     0.2167176  0.6133319  0.4368114 
238.99     0.1925165  0.6986693  0.4487642 
239.09     0.2273161  0.6110464  0.4075931 
239.19     0.215564   0.6194282  0.3854754 
239.29     0.209976   0.6227707  0.3907813 
239.39     0.2184151  0.6246088  0.4186516 
239.49     0.2402404  0.592025   0.4015701 
239.59     0.2508467  0.5607445  0.3850745 
239.69     0.1954831  0.6844662  0.4728377 
239.79     0.1766454  0.7533213  0.5474315 
239.89     0.2111563  0.618716   0.5121503 
239.99     0.2772763  0.4164371  0.4237606 
240.09     0.3079509  0.3314847  0.3636153 
240.19     0.3253885  0.3471413  0.3338421 
240.29     0.3362465  0.4082589  0.3060602 
240.39     0.3235268  0.5019197  0.3150052 
240.49     0.3109538  0.5787063  0.3241534 
240.59     0.3016202  0.6182603  0.3631515 
240.69     0.3042478  0.6258044  0.3479882 
240.79     0.2993808  0.6392699  0.3286019 
240.89     0.3071905  0.6156841  0.2924885 
240.99     0.3002713  0.6127155  0.3055412 
241.09     0.2708432  0.6476936  0.3730138 
241.19     0.2555318  0.6482504  0.4224045 
241.29     0.2262503  0.7212035  0.4771304 
241.39     0.2196433  0.7389919  0.4965631 
241.49     0.216747   0.7331423  0.5098405 
241.59     0.2161244  0.7201788  0.5029528 
241.69     0.2289521  0.6480778  0.4830432 
241.79     0.2498952  0.5465721  0.4514444 
241.89     0.2856233  0.4487482  0.3881428 
241.99     0.312724   0.3757645  0.3092636 
242.09     0.3290748  0.3302287  0.2708279 
242.19     0.331259   0.3071056  0.2748335 
242.29     0.3187992  0.3016584  0.3227195 
242.39     0.3137184  0.2919141  0.3367942 
242.49     0.3349239  0.2599039  0.2829109 
242.59     0.3579655  0.237224   0.2252032 
242.69     0.3607569  0.2366559  0.2216516 
242.79     0.3537471  0.2474163  0.2358489 
242.89     0.354315   0.2461301  0.2215541 
242.99     0.3692286  0.23468    0.2045991 
243.09     0.3683394  0.2317584  0.2045551 
243.19     0.3499202  0.2397009  0.2392977 
243.29     0.3575054  0.2294437  0.2319673 
243.39     0.3688503  0.2202983  0.1979337 
243.49     0.3901834  0.2073482  0.1563981 
243.59     0.3945687  0.2097767  0.1647066 
243.69     0.372062   0.2190434  0.2075896 
243.79     0.3399884  0.2273184  0.2738058 
243.89     0.3213424  0.2430604  0.2904029 
243.99     0.3317926  0.2363968  0.269631  
244.09     0.3324735  0.2298935  0.2860306 
244.19     0.3361261  0.2292226  0.2859628 
244.29     0.3473704  0.2252364  0.2694429 
244.39     0.3512118  0.2229053  0.2575281 
244.49     0.3406147  0.2274858  0.2815789 
244.59     0.334752   0.224494   0.2856924 
244.69     0.3460141  0.2170404  0.2421789 
244.79     0.3563544  0.2036406  0.2171899 
244.89     0.3462451  0.2158311  0.2347437 
244.99     0.3543174  0.2072978  0.2310913 
245.09     0.356851   0.2006257  0.2136481 
245.19     0.3747658  0.1963382  0.200388  
245.29     0.3631436  0.2060654  0.2273813 
245.39     0.3582483  0.2115842  0.2492816 
245.49     0.3364639  0.2223128  0.3111179 
245.59     0.2915272  0.2561745  0.3844421 
245.69     0.2876046  0.2636845  0.3738205 
245.79     0.3296964  0.230013   0.3154021 
245.89     0.3454221  0.2195522  0.2765369 
245.99     0.3456504  0.219415   0.2764722 
246.09     0.3632519  0.211424   0.223472  
246.19     0.3749285  0.2034206  0.1843113 
246.29     0.3699642  0.2072783  0.196718  
246.39     0.3460143  0.2249581  0.2563511 
246.49     0.3461556  0.2248713  0.2562925 
246.59     0.3389674  0.2308034  0.292799  
246.69     0.3481396  0.2195497  0.2639783 
246.79     0.327081   0.2300402  0.3101408 
246.89     0.3133785  0.2410263  0.3378158 
246.99     0.3137243  0.240775   0.3377321 
247.09     0.3649568  0.1990971  0.2445782 
247.19     0.3756508  0.1963849  0.2335441 
247.29     0.3666334  0.2080307  0.2371092 
247.39     0.3596186  0.2220503  0.2334403 
247.49     0.3588614  0.2224935  0.2333885 
247.59     0.3504138  0.2173951  0.2406059 
247.69     0.3572211  0.2169313  0.2368977 
247.79     0.3477755  0.2230524  0.2633106 
247.89     0.3445902  0.2294954  0.251653  
247.99     0.3447211  0.2294129  0.2515959 
248.09     0.3611652  0.2123153  0.219045  
248.19     0.3578537  0.2097221  0.2294589 
248.29     0.3376851  0.2191001  0.2749926 
248.39     0.3189437  0.2364628  0.3318294 
248.49     0.3176119  0.2374006  0.3317478 
248.59     0.3298194  0.2485397  0.3043769 
248.69     0.3436054  0.2272911  0.2511968 
248.79     0.3541434  0.2149644  0.2187113 
248.89     0.3569754  0.2115102  0.2186637 
248.99     0.3566355  0.2117009  0.2186161 
249.09     0.3518159  0.2315165  0.2151685 
249.19     0.3594927  0.1994785  0.1862023 
249.29     0.360485   0.1617897  0.1656299 
249.39     0.3647302  0.1600077  0.1655966 
249.49     0.3639087  0.1411233  0.1655633 
249.59     0.3952194  0.1516518  0.16553   
249.69     0.4296044  0.1598044  0.1626969 
249.79     0.4370673  0.1629665  0.1711576 
249.89     0.4562258  0.1494819  0.1544246 
249.99     0.4613971  0.1478966  0.1543941 
250.09     0.4590083  0.1364524  0.1062539 
250.19     0.4777145  0.1312305  0.1062348 
250.29     0.4577623  0.1342847  0.1337527 
250.39     0.4311973  0.1333943  0.1489604 
250.49     0.427478   0.134492   0.1489313 
250.59     0.4273247  0.132551   0.1240857 
250.69     0.4450902  0.1312303  0.09776863
250.79     0.4600967  0.1252992  0.08398674
250.89     0.4496299  0.1269505  0.09170271
250.99     0.441501   0.1291605  0.09168687
251.09     0.4244156  0.1267978  0.1103896 
251.19     0.4093536  0.1284696  0.09364174
251.29     0.4037798  0.1298234  0.06439164
251.39     0.3788701  0.1468864  0.0562801 
251.49     0.3650703  0.1521333  0.05627132
251.59     0.337919   0.267774   0.1593255 
251.69     0.281451   0.3457206  0.2312294 
251.79     0.2743162  0.3542207  0.2768121 
251.89     0.277852   0.364901   0.293382  
251.99     0.2881866  0.3525105  0.2933128 
252.09     0.2981809  0.3964638  0.264635  
252.19     0.3339404  0.3763583  0.2454871 
252.29     0.3581212  0.3579169  0.2380961 
252.39     0.3529749  0.3677652  0.2308731 
252.49     0.3536214  0.3671293  0.2308223 
252.59     0.3178696  0.4347731  0.2762987 
252.69     0.3355977  0.4105152  0.2803131 
252.79     0.3512259  0.3865469  0.2564604 
252.89     0.3413947  0.3781655  0.2564023 
252.99     0.3421883  0.3773359  0.2563441 
253.09     0.320277   0.4543311  0.2841721 
253.19     0.3224103  0.474522   0.3010527 
253.29     0.3182307  0.5135315  0.3141987 
253.39     0.3119569  0.5518205  0.3277915 
253.49     0.3121912  0.5514288  0.3277117 
