~Version
 VERS              .         3.0                           : CWLS LOG ASCII STANDARD - VERSION 3.0
 WRAP              .         NO                            : ONE LINE PER DEPTH STEP
 DLM               .         SPACE                         : DELIMITING CHARACTER(SPACE TAB OR COMMA)
~Well Information
#_______________________________________________________________________________
#
#PARAMETER_NAME    .UNIT     VALUE                         : DESCRIPTION
#_______________________________________________________________________________
STRT               .m        1.09                          : First reference value
STOP               .m        818.99                        : Last reference value
STEP               .m        0.1                           : Step increment
NULL               .         -9999                         : Missing value
COMP               .         ICPetroleum                   : Company
WELL               .         309                           : Well name
FLD                .         Karatobe                      : Field
LOC                .                                       : Location
SRVC               .                                       : Service Company
CTRY               .         KZ                            : Country
DATE               .         2022-10-26 17_52_23           : Service Date
LATI               .         0                             : Latitude
LONG               .         0                             : Longitude
GDAT               .         WGS 84                        : Geodetic Datum
API                .                                       : API NUMBER
COORDIN            .                                       : Grid System
COUNTRY            .         Kazakhstan                    : 
COUNTRY            .         Kazakhstan                    : 
EREF               .m        135.5                         : 
KB                 .         136.5                         : KB Elevation
ORIGINALWELLNAME   .         309                           : 
PROV               .                                       : PROVINCE
RWS                .         -999                          : Def_Rw
UWI                .         1_309                         : Unique Well Identifier (UWI)
WST                .         -999                          : Def_Rwt
X                  .km       466444.93                     : 
XCOORD             .                                       : X or East-West Coordinate
Y                  .km       5308441.67                    : 
YCOORD             .                                       : Y or North-South Coordinate
~Parameter Information Block
#_______________________________________________________________________________
#
#PARAMETER_NAME    .UNIT     VALUE                         : DESCRIPTION
#_______________________________________________________________________________
SET                .         Las                           : 
TLFamily_DEPT      .         Measured Depth                : 
TLFamily_PHI_FINAL .         Porosity                      : 
TLFamily_SW_AR     .         Water Saturation              : 
TLFamily_VSH_FINAL .         Shale Volume                  : 
~Curve Information
#_______________________________________________________________________________
#
#LOGNAME           .UNIT     LOG_ID                        : DESCRIPTION
#_______________________________________________________________________________
DEPT               .m                                      : DEPTH {F}
PHI_FINAL          .m3/m3                                  : Porosity {F}
SW_AR              .m3/m3                                  :  {F}
VSH_FINAL          .unitless                               : Vshale {F}
~Ascii
# ...
144.39     0.04467274 1          0.2053776 
144.49     0.04405416 1          0.2053273 
144.59     0.0460537  1          0.2015538 
144.69     0.05083844 1          0.1801606 
144.79     0.05534739 1          0.160381  
144.89     0.04800908 1          0.1835162 
144.99     0.03888076 1          0.2126596 
145.09     0.02225684 1          0.2762021 
145.19     0.02141469 1          0.2761285 
145.29     0.025634   1          0.2578791 
145.39     0.03532603 1          0.2241855 
145.49     0.04270329 1          0.2085865 
145.59     0.04362681 1          0.2085352 
145.69     0.03930542 1          0.2161496 
145.79     0.03405241 1          0.2279702 
145.89     0.02610468 1          0.2664269 
145.99     0.02007856 1          0.2946382 
146.09     0.01945812 1          0.299488  
146.19     0.03223513 1          0.2400702 
146.29     0.03420444 1          0.2317387 
146.39     0.0364232  1          0.2196739 
146.49     0.03108469 1          0.2440995 
146.59     0.03760298 1          0.2235122 
146.69     0.04224311 1          0.2117689 
146.79     0.04302418 1          0.2234003 
146.89     0.03936025 1          0.2273398 
146.99     0.03272263 1          0.2313289 
147.09     0.0397063  1          0.1825629 
147.19     0.03602405 1          0.1894877 
147.29     0.03046606 1          0.2231212 
147.39     0.03728655 1          0.200187  
147.49     0.05244883 1          0.147163  
147.59     0.06241513 1          0.1065155 
147.69     0.0572451  1          0.1299046 
147.79     0.04659008 1          0.1857166 
147.89     0.03639904 1          0.2308038 
147.99     0.02519868 1          0.2787298 
148.09     0.03489197 1          0.2226758 
148.19     0.04255095 1          0.192578  
148.29     0.045349   1          0.1752793 
148.39     0.03604168 1          0.210885  
148.49     0.01952143 1          0.2783589 
148.59     0.02718523 1          0.2513223 
148.69     0.03077198 1          0.2469648 
148.79     0.04556274 1          0.1818324 
148.89     0.03970999 1          0.2068566 
148.99     0.04055702 1          0.1957883 
149.09     0.02504966 1          0.2553406 
149.19     0.02596661 1          0.2552744 
149.29     0.02819159 1          0.2423557 
149.39     0.04412378 1          0.181576  
149.49     0.05009589 1          0.152514  
149.59     0.05607327 1          0.137761  
149.69     0.05861607 1          0.1321059 
149.79     0.06278568 1          0.1036134 
149.89     0.06908789 1          0.07477655
149.99     0.07531828 1          0.05566665
150.09     0.07526347 1          0.06876011
150.19     0.06989999 1          0.08963835
150.29     0.07351794 1          0.09643024
150.39     0.08393762 1          0.07882613
150.49     0.1028951  1          0.07067788
150.59     0.08619603 1          0.07672378
150.69     0.07087976 1          0.1082926 
150.79     0.05701837 1          0.1210011 
150.89     0.05650209 1          0.118364  
150.99     0.0735529  1          0.08949795
151.09     0.1086045  1          0.09627665
151.19     0.2221186  1          0.1106601 
151.29     0.3615791  1          0.118265  
151.39     0.4985206  1          0.09392615
151.49     0.5827487  1          0.07866127
151.59     0.599681   1          0.09618087
151.69     0.5657489  1          0.1399843 
151.79     0.5218779  1          0.205402  
151.89     0.4802415  0.8993757  0.2805085 
151.99     0.4486712  0.752505   0.3521632 
152.09     0.4400013  0.6687366  0.3750364 
152.19     0.4641034  0.5927371  0.3354991 
152.29     0.5064987  0.518001   0.2575904 
152.39     0.5390264  0.474861   0.2088321 
152.49     0.5583265  0.4647586  0.1941547 
152.59     0.5579942  0.5148398  0.2241239 
152.69     0.5336088  0.5401561  0.2990606 
152.79     0.5249137  0.5562252  0.3295999 
152.89     0.5195587  0.5609839  0.340247  
152.99     0.5540365  0.5407943  0.2704905 
153.09     0.5592886  0.5414902  0.2484324 
153.19     0.5565627  0.5354412  0.2483689 
153.29     0.5469471  0.5474228  0.2569254 
153.39     0.5558353  0.5318335  0.2357241 
153.49     0.5617744  0.5145029  0.2197121 
153.59     0.5546456  0.5054565  0.2275294 
153.69     0.5192337  0.5287335  0.2885917 
153.79     0.4884667  0.5537818  0.3393895 
153.89     0.476644   0.5660648  0.3558683 
153.99     0.5099594  0.5341128  0.2883607 
154.09     0.5383923  0.5109183  0.2272462 
154.19     0.5686499  0.4869156  0.1728986 
154.29     0.5593277  0.4916687  0.1828947 
154.39     0.55453    0.4986356  0.1968442 
154.49     0.517222   0.5216008  0.2605076 
154.59     0.5009556  0.5344451  0.2926852 
154.69     0.5018551  0.5310718  0.2784374 
154.79     0.4763122  0.5658543  0.3122818 
154.89     0.4578788  0.594893   0.3276851 
154.99     0.4708892  0.5759419  0.2923719 
155.09     0.5005435  0.5442938  0.2471675 
155.19     0.5168236  0.5310655  0.242903  
155.29     0.4673752  0.5800374  0.354458  
155.39     0.458592   0.5912808  0.3773436 
155.49     0.479161   0.5639501  0.33778   
155.59     0.5193918  0.526141   0.2731882 
155.69     0.5228209  0.5253011  0.2731166 
155.79     0.5208908  0.5168573  0.2869815 
155.89     0.5198017  0.5215036  0.2869053 
155.99     0.5222237  0.5203977  0.2729021 
156.09     0.5063889  0.5340102  0.2820526 
156.19     0.4862158  0.5555178  0.296256  
156.29     0.4717849  0.5775625  0.3212167 
156.39     0.4663892  0.5772362  0.3478122 
156.49     0.4763132  0.5664366  0.3588709 
156.59     0.5066628  0.5275753  0.3209522 
156.69     0.546407   0.4894291  0.2590318 
156.79     0.5756392  0.4648626  0.2257284 
156.89     0.5937644  0.4498162  0.2140627 
156.99     0.604037   0.4425765  0.2178299 
157.09     0.5935092  0.4505349  0.2501431 
157.19     0.5870552  0.4615785  0.2766115 
157.29     0.5714839  0.4756995  0.3203366 
157.39     0.5960187  0.4555663  0.2857656 
157.49     0.6028473  0.4465073  0.271834  
157.59     0.6263983  0.4300933  0.2252821 
157.69     0.633871   0.4318213  0.2098834 
157.79     0.6395578  0.4212959  0.2024521 
157.89     0.6346726  0.4277939  0.2097819 
157.99     0.6348226  0.4291803  0.2060196 
158.09     0.6236557  0.4379683  0.2172444 
158.19     0.5942862  0.4631949  0.2410695 
158.29     0.5652617  0.4862737  0.2623448 
158.39     0.5708377  0.48515    0.2287884 
158.49     0.5679693  0.489134   0.2327322 
158.59     0.5726259  0.4870405  0.228675  
158.69     0.5662049  0.4967744  0.2407663 
158.79     0.5874199  0.4731923  0.1947957 
158.89     0.5827289  0.4707968  0.2055742 
158.99     0.575183   0.4788385  0.2245053 
159.09     0.5817224  0.4683534  0.2364286 
159.19     0.5837414  0.4614317  0.2488108 
159.29     0.5533709  0.4796771  0.3035338 
159.39     0.5025727  0.5242831  0.3449003 
159.49     0.4716267  0.547063   0.3340466 
159.59     0.5155262  0.496507   0.2935768 
159.69     0.6136801  0.4210421  0.2702812 
159.79     0.6994777  0.3664088  0.2747356 
159.89     0.7120296  0.360752   0.2981628 
159.99     0.7187494  0.3634551  0.3179821 
160.09     0.7820884  0.3363018  0.3178955 
160.19     0.8974938  0.2921416  0.2610644 
160.29     0.938451   0.2830428  0.2654009 
160.39     0.970612   0.278361   0.2438718 
160.49     0.9557977  0.288093   0.2652639 
160.59     0.9355524  0.2963639  0.2696506 
160.69     0.8991114  0.3066581  0.3023947 
160.79     0.8739852  0.3034931  0.297447  
160.89     0.8575008  0.2941622  0.2477417 
160.99     0.8314452  0.3042889  0.1834331 
161.09     0.7588753  0.3562239  0.1158864 
161.19     0.6452616  0.430492   0.08346081
161.29     0.5025527  0.5378653  0.07320259
161.39     0.3723922  0.6961877  0.1059672 
161.49     0.3071517  0.8216965  0.1108061 
161.59     0.3102172  0.8036577  0.1183074 
161.69     0.3771524  0.647367   0.08766011
161.79     0.4151507  0.5842342  0.08336573
161.89     0.4284109  0.5651752  0.07115263
161.99     0.4400113  0.5555422  0.05983908
162.09     0.4783877  0.5397465  0.05104869
162.19     0.534515   0.4986262  0.03810346
162.29     0.5757203  0.4273365  0.05447491
162.39     0.6085752  0.4049971  0.08539312
162.49     0.6088147  0.4188102  0.1312513 
