~Version
 VERS              .         3.0                           : CWLS LOG ASCII STANDARD - VERSION 3.0
 WRAP              .         NO                            : ONE LINE PER DEPTH STEP
 DLM               .         SPACE                         : DELIMITING CHARACTER(SPACE TAB OR COMMA)
~Well Information
#_______________________________________________________________________________
#
#PARAMETER_NAME    .UNIT     VALUE                         : DESCRIPTION
#_______________________________________________________________________________
STRT               .m        1.09                          : First reference value
STOP               .m        818.99                        : Last reference value
STEP               .m        0.1                           : Step increment
NULL               .         -9999                         : Missing value
COMP               .         ICPetroleum                   : Company
WELL               .         309                           : Well name
FLD                .         Karatobe                      : Field
LOC                .                                       : Location
SRVC               .                                       : Service Company
CTRY               .         KZ                            : Country
DATE               .         2022-10-26 17_52_23           : Service Date
LATI               .         0                             : Latitude
LONG               .         0                             : Longitude
GDAT               .         WGS 84                        : Geodetic Datum
API                .                                       : API NUMBER
COORDIN            .                                       : Grid System
COUNTRY            .         Kazakhstan                    : 
COUNTRY            .         Kazakhstan                    : 
EREF               .m        135.5                         : 
KB                 .         136.5                         : KB Elevation
ORIGINALWELLNAME   .         309                           : 
PROV               .                                       : PROVINCE
RWS                .         -999                          : Def_Rw
UWI                .         1_309                         : Unique Well Identifier (UWI)
WST                .         -999                          : Def_Rwt
X                  .km       466444.93                     : 
XCOORD             .                                       : X or East-West Coordinate
Y                  .km       5308441.67                    : 
YCOORD             .                                       : Y or North-South Coordinate
~Parameter Information Block
#_______________________________________________________________________________
#
#PARAMETER_NAME    .UNIT     VALUE                         : DESCRIPTION
#_______________________________________________________________________________
SET                .         Las                           : 
TLFamily_DEPT      .         Measured Depth                : 
TLFamily_PHI_FINAL .         Porosity                      : 
TLFamily_SW_AR     .         Water Saturation              : 
TLFamily_VSH_FINAL .         Shale Volume                  : 
~Curve Information
#_______________________________________________________________________________
#
#LOGNAME           .UNIT     LOG_ID                        : DESCRIPTION
#_______________________________________________________________________________
DEPT               .m                                      : DEPTH {F}
PHI_FINAL          .m3/m3                                  : Porosity {F}
SW_AR              .m3/m3                                  :  {F}
VSH_FINAL          .unitless                               : Vshale {F}
~Ascii
# ...
720.79     0.1096527  1          0.2750809 
720.89     0.1494941  1          0.2816197 
720.99     0.1024226  1          0.301663  
721.09     0.08948141 1          0.301663  
721.1900000000001 0.1220559  1          0.29491   
721.29     0.1307341  1          0.2994039 
721.39     0.1488669  1          0.3223631 
721.49     0.1358262  1          0.3534666 
721.59     0.08731703 1          0.3510222 
721.6900000000001 0.07306866 1          0.3534666 
721.79     0.1101432  1          0.3294128 
721.89     0.1498268  1          0.308489  
721.99     0.1168308  1          0.292675  
722.09     0.0649971  1          0.29491   
722.1900000000001 0.1562272  1          0.2994039 
722.29     0.1861874  1          0.2882292 
722.39     0.1883008  1          0.2794324 
722.49     0.1690232  1          0.3177052 
722.59     0.159966   1          0.3413319 
722.6900000000001 0.1713809  1          0.3294128 
722.79     0.1999459  1          0.2707607 
722.89     0.2006843  1          0.264338  
722.99     0.1779516  1          0.29491   
723.09     0.1273439  1          0.338931  
723.1900000000001 0.1041638  1          0.3510222 
723.29     0.1224742  1          0.3294128 
723.39     0.1502862  1          0.3039302 
723.49     0.1841987  1          0.2750809 
723.59     0.2009337  1          0.2622125 
723.6900000000001 0.2161076  1          0.2537859 
723.79     0.2224427  1          0.2664713 
723.89     0.1328444  1          0.2882292 
723.99     0.09359919 1          0.301663  
724.09     0.1401459  1          0.2994039 
724.1900000000001 0.2169839  1          0.2882292 
724.29     0.214488   1          0.2794324 
724.39     0.1983709  1          0.2860181 
724.49     0.2082203  1          0.29491   
724.59     0.1882698  1          0.3200299 
724.6900000000001 0.170808   1          0.2971529 
724.79     0.1237703  1          0.2750809 
724.89     0.1312595  1          0.2496176 
724.99     0.155673   1          0.2686122 
725.09     0.1177168  1          0.301663  
725.1900000000001 0.1137781  1          0.3270544 
725.29     0.09569452 1          0.3365386 
725.39     0.1665279  1          0.3177052 
725.49     0.1862381  1          0.3130806 
725.59     0.197859   1          0.2860181 
725.6900000000001 0.1896128  1          0.29491   
725.79     0.1940675  1          0.283815  
725.89     0.1758535  1          0.2971529 
725.99     0.1603259  1          0.3062055 
726.09     0.06521776 1          0.3461598 
726.1900000000001 0.03870054 1          0.368318  
726.29     0.03236342 1          0.3758643 
726.39     0.1239712  1          0.3783979 
726.49     0.1352883  1          0.3559197 
726.59     0.1616285  1          0.3223631 
726.6900000000001 0.1884831  1          0.2794324 
726.79     0.128906   1          0.2816197 
726.89     0.1187336  1          0.3062055 
726.99     0.1432928  1          0.3247046 
727.09     0.1516631  1          0.3294128 
727.1900000000001 0.1639835  1          0.3062055 
727.29     0.1270242  1          0.2860181 
727.39     0.1115967  1          0.2664713 
727.49     0.1254317  1          0.2794324 
727.59     0.1786866  1          0.301663  
727.6900000000001 0.1627869  1          0.3510222 
727.79     0.09251995 1          0.363332  
727.89     0.138393   1          0.3365386 
727.99     0.1771438  1          0.3062055 
728.09     0.1679382  1          0.29491   
728.1900000000001 0.1124988  1          0.2994039 
728.29     0.1581385  1          0.2882292 
728.39     0.166962   1          0.2882292 
728.49     0.1494029  1          0.3039302 
728.59     0.150702   1          0.3341548 
728.6900000000001 0.09789581 1          0.3270544 
728.79     0.1337492  1          0.2971529 
728.89     0.1574377  1          0.2686122 
728.99     0.1688571  1          0.2537859 
729.09     0.1905611  1          0.2686122 
729.1900000000001 0.1864647  1          0.2772528 
729.29     0.1944348  1          0.2664713 
729.39     0.1682408  1          0.2558812 
729.49     0.2047147  1          0.2496176 
729.59     0.1408291  1          0.2750809 
729.6900000000001 0.1345378  1          0.2664713 
729.79     0.09151159 1          0.2707607 
729.89     0.0504271  1          0.2904481 
729.99     0.03259398 1          0.3130806 
730.09     0.01201338 1          0.3270544 
730.1900000000001 0.06825862 1          0.3658206 
730.29     0.09279343 1          0.4095187 
730.39     0.08396616 1          0.4337533 
730.49     0.09850119 1          0.398996  
730.59     0.07885561 1          0.3937909 
730.6900000000001 0.06651379 1          0.4337533 
730.79     0.06864864 1          0.4364945 
730.89     0.09854797 1          0.4148368 
730.99     0.1229825  1          0.3485867 
731.09     0.1522211  1          0.3270544 
731.1900000000001 0.152272   1          0.3223631 
731.29     0.1499876  1          0.3130806 
731.39     0.1486098  1          0.3270544 
731.49     0.1667578  1          0.3153887 
731.59     0.1251579  1          0.3223631 
731.6900000000001 0.1162209  1          0.3317795 
731.79     0.06402357 1          0.3485867 
731.89     0.03396158 1          0.3485867 
731.99     0.007647475 1          0.3317795 
732.09     0          1          0.3223631 
732.1900000000001 0.01859135 1          0.3177052 
732.29     0.04910747 1          0.3039302 
732.39     0.06076578 1          0.3039302 
732.49     0.04879852 1          0.2971529 
732.59     0.04642149 1          0.308489  
732.6900000000001 0.07612245 1          0.3039302 
732.79     0.0948067  1          0.3107807 
732.89     0.09725931 1          0.3153887 
732.99     0.07846779 1          0.3223631 
733.09     0.06902483 1          0.3177052 
733.1900000000001 0.06873361 1          0.3062055 
733.29     0.06738798 1          0.3107807 
733.39     0.08268251 1          0.3200299 
733.49     0.0910432  1          0.3062055 
733.59     0.1104915  1          0.272917  
733.6900000000001 0.1380385  1          0.243421  
733.79     0.1447001  1          0.2558812 
733.89     0.1591988  1          0.2537859 
733.99     0.1631648  1          0.2537859 
734.09     0.1704893  1          0.2454792 
734.1900000000001 0.1570651  1          0.2860181 
734.29     0.1499732  1          0.3317795 
734.39     0.1092701  1          0.3583816 
734.49     0.1421651  1          0.3365386 
734.59     0.1622598  1          0.3130806 
734.6900000000001 0.1751825  1          0.301663  
734.79     0.1605959  1          0.3247046 
734.89     0.1392099  1          0.3583816 
734.99     0.1072505  1          0.3559197 
735.09     0.07930386 1          0.338931  
735.1900000000001 0.09776478 1          0.3039302 
735.29     0.1031544  1          0.29491   
735.39     0.1162231  1          0.2971529 
735.49     0.1297476  1          0.3365386 
735.59     0.1613271  1          0.3413319 
735.6900000000001 0.1683505  1          0.3341548 
735.79     0.1242635  1          0.2994039 
735.89     0.171086   1          0.292675  
735.99     0.2278726  1          0.2772528 
736.09     0.2161197  1          0.272917  
736.1900000000001 0.2039391  1          0.2860181 
736.29     0.2015822  1          0.3437415 
736.39     0.1529718  1          0.3658206 
736.49     0.1458221  1          0.3758643 
736.59     0.1926328  1          0.3510222 
736.6900000000001 0.1883388  1          0.3583816 
736.79     0.1804258  1          0.3708245 
736.89     0.1527416  1          0.386053  
736.99     0.1281706  1          0.386053  
737.09     0.1487046  1          0.3583816 
737.1900000000001 0.1722959  1          0.3413319 
737.29     0.1739556  1          0.3559197 
737.39     0.1305658  1          0.3733398 
737.49     0.1167944  1          0.3708245 
737.59     0.15588    1          0.3658206 
737.6900000000001 0.1384668  1          0.3559197 
737.79     0.1147292  1          0.3658206 
737.89     0.1229354  1          0.3559197 
737.99     0.1160098  1          0.3534666 
738.09     0.1288638  1          0.3294128 
738.1900000000001 0.125874   1          0.3177052 
738.29     0.1053295  1          0.3317795 
738.39     0.03496409 1          0.3510222 
