~Version
 VERS              .         3.0                           : CWLS LOG ASCII STANDARD - VERSION 3.0
 WRAP              .         NO                            : ONE LINE PER DEPTH STEP
 DLM               .         SPACE                         : DELIMITING CHARACTER(SPACE TAB OR COMMA)
~Well Information
#_______________________________________________________________________________
#
#PARAMETER_NAME    .UNIT     VALUE                         : DESCRIPTION
#_______________________________________________________________________________
STRT               .m        1.09                          : First reference value
STOP               .m        818.99                        : Last reference value
STEP               .m        0.1                           : Step increment
NULL               .         -9999                         : Missing value
COMP               .         ICPetroleum                   : Company
WELL               .         309                           : Well name
FLD                .         Karatobe                      : Field
LOC                .                                       : Location
SRVC               .                                       : Service Company
CTRY               .         KZ                            : Country
DATE               .         2022-10-26 17_52_23           : Service Date
LATI               .         0                             : Latitude
LONG               .         0                             : Longitude
GDAT               .         WGS 84                        : Geodetic Datum
API                .                                       : API NUMBER
COORDIN            .                                       : Grid System
COUNTRY            .         Kazakhstan                    : 
COUNTRY            .         Kazakhstan                    : 
EREF               .m        135.5                         : 
KB                 .         136.5                         : KB Elevation
ORIGINALWELLNAME   .         309                           : 
PROV               .                                       : PROVINCE
RWS                .         -999                          : Def_Rw
UWI                .         1_309                         : Unique Well Identifier (UWI)
WST                .         -999                          : Def_Rwt
X                  .km       466444.93                     : 
XCOORD             .                                       : X or East-West Coordinate
Y                  .km       5308441.67                    : 
YCOORD             .                                       : Y or North-South Coordinate
~Parameter Information Block
#_______________________________________________________________________________
#
#PARAMETER_NAME    .UNIT     VALUE                         : DESCRIPTION
#_______________________________________________________________________________
SET                .         Las                           : 
TLFamily_DEPT      .         Measured Depth                : 
TLFamily_PHI_FINAL .         Porosity                      : 
TLFamily_SW_AR     .         Water Saturation              : 
TLFamily_VSH_FINAL .         Shale Volume                  : 
~Curve Information
#_______________________________________________________________________________
#
#LOGNAME           .UNIT     LOG_ID                        : DESCRIPTION
#_______________________________________________________________________________
DEPT               .m                                      : DEPTH {F}
PHI_FINAL          .m3/m3                                  : Porosity {F}
SW_AR              .m3/m3                                  :  {F}
VSH_FINAL          .unitless                               : Vshale {F}
~Ascii
# ...
809.1900000000001 0.05609728 0.6808445  0.03510132
809.29     0.05633226 0.6780044  0.03510132
809.39     0.05483365 0.6965343  0.03641178
809.49     0.05439564 0.7021431  0.03379555
809.59     0.05528238 0.6908806  0.03119804
809.6900000000001 0.05565521 0.6862523  0.03249447
809.79     0.05345571 0.7144891  0.03904678
809.89     0.05250326 0.7274505  0.04571753
809.99     0.05368747 0.7114047  0.04706609
810.09     0.05342247 0.7149337  0.04977771
810.1900000000001 0.05360076 0.7125555  0.04571753
810.29     0.05174942 0.7380473  0.04571753
810.39     0.05451042 0.7006646  0.03641178
810.49     0.05224526 0.7310427  0.03904678
810.59     0.05106648 0.7479176  0.03904678
810.6900000000001 0.04923437 0.7757492  0.04037138
810.79     0.05283228 0.7229201  0.03249447
810.89     0.05512439 0.6928606  0.02733649
810.99     0.05603861 0.6815573  0.02861906
811.09     0.053249   0.7172627  0.03510132
811.1900000000001 0.05140346 0.7430146  0.03772692
811.29     0.0473409  0.8067765  0.04037138
811.39     0.05036759 0.7582957  0.03249447
811.49     0.05248972 0.7276382  0.03119804
811.59     0.05214413 0.7324606  0.03904678
811.6900000000001 0.04633555 0.8242811  0.05525964
811.79     0.04517806 0.8453997  0.06082067
811.89     0.04772328 0.8003122  0.05664245
811.99     0.05091397 0.750158   0.05114084
812.09     0.05344969 0.7145696  0.04437381
812.1900000000001 0.05561587 0.6867378  0.03772692
812.29     0.05867624 0.6509197  0.02990625
812.39     0.05599852 0.6820452  0.03379555
812.49     0.05633793 0.6779362  0.03119804
812.59     0.05538292 0.6896263  0.03119804
812.6900000000001 0.06000168 0.6365409  0.02099207
812.79     0.05960793 0.6407456  0.0235162 
812.89     0.05835212 0.6545353  0.02605849
812.99     0.0532538  0.7171981  0.03641178
813.09     0.04944846 0.7723905  0.04170075
813.1900000000001 0.04846454 0.7880715  0.04437381
813.29     0.04810382 0.7939811  0.0430349 
813.39     0.04900354 0.7794033  0.04037138
813.49     0.05057701 0.7551557  0.03772692
813.59     0.0512551  0.7451652  0.04037138
813.6900000000001 0.0575682  0.6634482  0.03510132
813.79     0.0623564  0.6125036  0.03119804
813.89     0.06355384 0.6009632  0.03510132
813.99     0.05899635 0.6473879  0.04706609
814.09     0.05885061 0.6489911  0.04841947
814.1900000000001 0.06011422 0.6353492  0.04437381
814.29     0.06248996 0.6111945  0.03904678
814.39     0.06117823 0.6242992  0.0430349 
814.49     0.06473175 0.5900276  0.03772692
814.59     0.06812935 0.5606031  0.03119804
814.6900000000001 0.06873698 0.5556474  0.02733649
814.79     0.06607416 0.5780402  0.02733649
814.89     0.06260522 0.6100692  0.02605849
814.99     0.05896321 0.6477517  0.02605849
815.09     0.05241999 0.728606   0.03510132
815.1900000000001 0.0476776  0.801079   0.0430349 
815.29     0.04381789 0.8716422  0.04841947
815.39     0.03988906 0.9574936  0.05525964
815.49     0.03206385 1          0.07074638
815.59     0.02126851 1          0.09439056
815.6900000000001 0.01544059 1          0.1051688 
815.79     0.01072335 1          0.1146249 
815.89     0.01626038 1          0.1036125 
815.99     0.01687775 1          0.1036125 
816.09     0.01794899 1          0.1036125 
816.1900000000001 0.009943515 1          0.1210429 
816.29     0.0008387389 1          0.139174  
816.39     0          1          0.1510896 
816.49     0          1          0.1597856 
816.59     0          1          0.149369  
816.6900000000001 0          1          0.1341581 
816.79     0.006476065 1          0.1114503 
816.89     0.01185285 1          0.09897675
816.99     0.01030545 1          0.1036125 
817.09     0.007092426 1          0.1098715 
817.1900000000001 0.001161984 1          0.1210429 
817.29     0          1          0.1275535 
817.39     0          1          0.142548  
817.49     0          1          0.140858  
817.59     0          1          0.137496  
817.6900000000001 0          1          0.1210429 
817.79     0.005195601 1          0.1067308 
817.89     0.0108135  1          0.09439056
817.99     0.00949151 1          0.0959138 
818.09     0.006640274 1          0.1020617 
818.1900000000001 -9999      -9999      -9999     
818.29     -9999      -9999      -9999     
818.39     -9999      -9999      -9999     
818.49     -9999      -9999      -9999     
818.59     -9999      -9999      -9999     
818.6900000000001 -9999      -9999      -9999     
818.79     -9999      -9999      -9999     
818.89     -9999      -9999      -9999     
818.99     -9999      -9999      -9999     
