~Version
 VERS              .         3.0                           : CWLS LOG ASCII STANDARD - VERSION 3.0
 WRAP              .         NO                            : ONE LINE PER DEPTH STEP
 DLM               .         SPACE                         : DELIMITING CHARACTER(SPACE TAB OR COMMA)
~Well Information
#_______________________________________________________________________________
#
#PARAMETER_NAME    .UNIT     VALUE                         : DESCRIPTION
#_______________________________________________________________________________
STRT               .m        1.09                          : First reference value
STOP               .m        818.99                        : Last reference value
STEP               .m        0.1                           : Step increment
NULL               .         -9999                         : Missing value
COMP               .         ICPetroleum                   : Company
WELL               .         309                           : Well name
FLD                .         Karatobe                      : Field
LOC                .                                       : Location
SRVC               .                                       : Service Company
CTRY               .         KZ                            : Country
DATE               .         2022-10-26 17_52_23           : Service Date
LATI               .         0                             : Latitude
LONG               .         0                             : Longitude
GDAT               .         WGS 84                        : Geodetic Datum
API                .                                       : API NUMBER
COORDIN            .                                       : Grid System
COUNTRY            .         Kazakhstan                    : 
COUNTRY            .         Kazakhstan                    : 
EREF               .m        135.5                         : 
KB                 .         136.5                         : KB Elevation
ORIGINALWELLNAME   .         309                           : 
PROV               .                                       : PROVINCE
RWS                .         -999                          : Def_Rw
UWI                .         1_309                         : Unique Well Identifier (UWI)
WST                .         -999                          : Def_Rwt
X                  .km       466444.93                     : 
XCOORD             .                                       : X or East-West Coordinate
Y                  .km       5308441.67                    : 
YCOORD             .                                       : Y or North-South Coordinate
~Parameter Information Block
#_______________________________________________________________________________
#
#PARAMETER_NAME    .UNIT     VALUE                         : DESCRIPTION
#_______________________________________________________________________________
SET                .         Las                           : 
TLFamily_DEPT      .         Measured Depth                : 
TLFamily_PHI_FINAL .         Porosity                      : 
TLFamily_SW_AR     .         Water Saturation              : 
TLFamily_VSH_FINAL .         Shale Volume                  : 
~Curve Information
#_______________________________________________________________________________
#
#LOGNAME           .UNIT     LOG_ID                        : DESCRIPTION
#_______________________________________________________________________________
DEPT               .m                                      : DEPTH {F}
PHI_FINAL          .m3/m3                                  : Porosity {F}
SW_AR              .m3/m3                                  :  {F}
VSH_FINAL          .unitless                               : Vshale {F}
~Ascii
# ...
632.39     0.1645446  1          0.4026003 
632.49     0.1645321  1          0.4025289 
632.59     0.1534468  1          0.4100118 
632.6900000000001 0.1629886  1          0.3840083 
632.79     0.1496853  1          0.4253207 
632.89     0.1589973  1          0.4136107 
632.99     0.1598314  1          0.4135367 
633.09     0.1688324  1          0.3837401 
633.1900000000001 0.1584743  1          0.4329153 
633.29     0.1372556  1          0.4828789 
633.39     0.1507969  1          0.3981611 
633.49     0.1484407  1          0.3980907 
633.59     0.1752643  1          0.3521231 
633.6900000000001 0.1693178  1          0.3520634 
633.79     0.1918203  1          0.3105035 
633.89     0.2472019  1          0.2082534 
633.99     0.2576353  1          0.208223  
634.09     0.2858585  0.9396709  0.1410394 
634.1900000000001 0.3366768  0.7233011  0.09613659
634.29     0.3534283  0.6629751  0.08541132
634.39     0.3091661  0.5585765  0.1552319 
634.49     0.3070025  0.5622995  0.155211  
634.59     0.3012423  0.5878357  0.2080408 
634.6900000000001 0.2704697  0.7469594  0.2808924 
634.79     0.2390023  0.8567969  0.3317768 
634.89     0.2354271  0.9114262  0.2643661 
634.99     0.2347472  0.913923   0.2643247 
635.09     0.2713835  0.7517208  0.210139  
635.1900000000001 0.2824277  0.6861075  0.1682552 
635.29     0.2949552  0.6521572  0.1550443 
635.39     0.2988678  0.6716118  0.1701515 
635.49     0.3018169  0.6654024  0.1701281 
635.59     0.2917697  0.6789467  0.1841233 
635.6900000000001 0.2990938  0.637518   0.1861621 
635.79     0.290326   0.6588692  0.2099243 
635.89     0.2889011  0.6993017  0.2309087 
635.99     0.2890051  0.6990635  0.230874  
636.09     0.2881134  0.6978373  0.2308394 
636.1900000000001 0.2824826  0.7341308  0.2166416 
636.29     0.2986368  0.6801395  0.1987183 
636.39     0.3019194  0.6660221  0.1859784 
636.49     0.2954432  0.6798241  0.1859522 
636.59     0.2599052  0.7574359  0.2211591 
636.6900000000001 0.2463652  0.838583   0.2330541 
636.79     0.253611   0.889575   0.2716756 
636.89     0.2513584  0.9865177  0.2354243 
636.99     0.2568664  0.9664956  0.2353888 
637.09     0.285751   0.8250551  0.2117851 
637.1900000000001 0.2873492  0.7959909  0.2072549 
637.29     0.2818096  0.8022296  0.2162911 
637.39     0.2952059  0.7392432  0.2005769 
637.49     0.2914507  0.7482501  0.2005481 
637.59     0.2937423  0.7375674  0.2005192 
637.6900000000001 0.2836907  0.7505376  0.2026781 
637.79     0.2826165  0.7577094  0.1982908 
637.89     0.2688787  0.9104619  0.2184082 
637.99     0.2707573  0.9044851  0.2183762 
638.09     0.292014   0.7959974  0.171469  
638.1900000000001 0.3102089  0.6791992  0.1351966 
638.29     0.2879953  0.7081552  0.1285753 
638.39     0.2865442  0.8190222  0.1753376 
638.49     0.2847475  0.8239099  0.1753133 
638.59     0.2450448  0.9778898  0.1752891 
638.6900000000001 0.2671466  0.8865316  0.1453967 
638.79     0.2915547  0.7768416  0.1143675 
638.89     0.3134069  0.6497795  0.1189532 
638.99     0.3158484  0.6450273  0.1189383 
639.09     0.3050285  0.6340448  0.1418406 
639.1900000000001 0.2867116  0.6747381  0.165421  
639.29     0.2748505  0.7287331  0.2066241 
639.39     0.3000878  0.7426419  0.2065941 
639.49     0.3007841  0.7410156  0.2065642 
639.59     0.3125634  0.7086793  0.1434795 
639.6900000000001 0.3158054  0.6701863  0.1219565 
639.79     0.3288466  0.5926604  0.1039106 
639.89     0.3231971  0.5735997  0.09142593
639.99     0.3220538  0.5755256  0.0914152 
640.09     0.3318868  0.5415332  0.08613341
640.1900000000001 0.3418863  0.5072501  0.0874259 
640.29     0.3406042  0.4945238  0.09272601
640.39     0.339545   0.4241843  0.100991  
640.49     0.3389522  0.424886   0.1009789 
640.59     0.3505954  0.4100215  0.0995613 
640.6900000000001 0.3440214  0.403443   0.09268239
640.79     0.3342052  0.4348233  0.09132961
640.89     0.3226227  0.4924123  0.1095897 
640.99     0.3182757  0.4987719  0.1095763 
641.09     0.3184707  0.4942792  0.1095629 
641.1900000000001 0.3144692  0.509382   0.1095495 
641.29     0.3233931  0.5002736  0.102297  
641.39     0.3186621  0.5147133  0.09531873
641.49     0.3238692  0.5068818  0.09530746
641.59     0.3364288  0.4698437  0.09258451
641.6900000000001 0.3375864  0.4472117  0.09123344
641.79     0.3561144  0.4050038  0.08467481
641.89     0.3424684  0.4218023  0.1124274 
641.99     0.3418274  0.4225504  0.1124136 
642.09     0.3293366  0.4578016  0.1231627 
642.1900000000001 0.3251226  0.4690879  0.1094158 
642.29     0.3325463  0.4373811  0.1064779 
642.39     0.3490199  0.3304952  0.09384676
642.49     0.3546515  0.3255287  0.09383571
642.59     0.3637084  0.3044873  0.08980931
642.6900000000001 0.3626937  0.2942519  0.07953294
642.79     0.3702374  0.2580183  0.06754649
642.89     0.3915028  0.2001522  0.03757076
642.99     0.3939446  0.1989784  0.03756704
643.09     0.3971361  0.1909854  0.03303687
643.1900000000001 0.4006517  0.1891644  0.0357284 
643.29     0.3926728  0.1923248  0.04322   
643.39     0.3920871  0.1531763  0.0471383 
643.49     0.3904304  0.1537911  0.04713349
643.59     0.3957175  0.1461235  0.03754476
643.6900000000001 0.3966432  0.1313789  0.02952141
643.79     0.3980618  0.1312615  0.03125312
643.89     0.3933598  0.1002715  0.04319383
643.99     0.3908077  0.1008908  0.04318949
644.09     0.3829754  0.09439326 0.03660807
644.1900000000001 0.3840489  0.1004263  0.03937982
644.29     0.3903442  0.08647504 0.03478585
644.39     0.3883936  0.07219578 0.0375151 
644.49     0.3874905  0.07235494 0.0375114 
644.59     0.3864971  0.09932993 0.03659007
644.6900000000001 0.3886015  0.09240843 0.03122605
644.79     0.3800234  0.1003049  0.02610349
644.89     0.3552244  0.1616331  0.02863121
644.99     0.3627718  0.1584503  0.02862848
645.09     0.3428586  0.1769488  0.02862577
645.1900000000001 0.3693131  0.1765615  0.03034177
645.29     0.3977125  0.1828704  0.02862032
645.39     0.402146   0.2282535  0.03296325
645.49     0.4047582  0.2268598  0.03296006
645.59     0.3812484  0.2304999  0.02946786
645.6900000000001 0.3728911  0.2271097  0.02442794
645.79     0.3584509  0.2285871  0.02199258
645.89     0.361418   0.2481945  0.0227953 
645.99     0.3453937  0.2590734  0.02279318
646.09     0.3438851  0.2430775  0.02039562
646.1900000000001 0.3160085  0.2537443  0.02118607
646.29     0.2905874  0.2760489  0.02039189
646.39     0.262796   0.3464325  0.015011  
646.49     0.2504444  0.3625734  0.01500966
646.59     0.2750431  0.3528933  0.02197633
646.6900000000001 0.2402402  0.3879665  0.02943694
646.79     0.2055711  0.4242926  0.03651106
646.89     0.2042621  0.4211066  0.05834845
646.99     0.2320869  0.3731877  0.05834226
647.09     0.2190678  0.4217834  0.05513834
647.1900000000001 0.2090368  0.4322946  0.04114213
647.29     0.1811348  0.5030303  0.02856596
647.39     0.1416468  0.6546143  0.01499761
647.49     0.1924153  0.4899409  0.01499627
647.59     0.1854542  0.4540671  0.01802988
647.6900000000001 0.2352199  0.329336   0.02115687
647.79     0.2346447  0.3329682  0.01725933
647.89     0.2217466  0.343536   0.01350824
647.99     0.2239036  0.3404046  0.01350705
648.09     0.2311362  0.3570441  0.009897215
648.1900000000001 0.2457617  0.3344247  0.003737999
648.29     0.2386343  0.2800723  0         
648.39     0.2479089  0.2638722  0.0004947924
648.49     0.2542619  0.2576311  0.0004947516
648.59     0.2604131  0.2630231  0.00242509
648.6900000000001 0.2469775  0.2827635  0.00373643
648.79     0.2561999  0.3453673  0.004399368
648.89     0.3054938  0.3684895  0.005067251
648.99     0.3209904  0.351639   0.005066824
649.09     0.3090616  0.3913155  0.009888626
649.1900000000001 0.3359347  0.3997464  0.01349271
649.29     0.3531266  0.3785401  0.01059689
649.39     0.3670287  0.3505405  0         
649.49     0.3687512  0.3489915  0         
649.59     0.366388   0.4154016  0.0004943036
649.6900000000001 0.3534209  0.5542541  0.001775104
649.79     0.3049233  0.8168499  0.005063398
649.89     0.1947503  1          0.01722671
