~Version
 VERS              .         3.0                           : CWLS LOG ASCII STANDARD - VERSION 3.0
 WRAP              .         NO                            : ONE LINE PER DEPTH STEP
 DLM               .         SPACE                         : DELIMITING CHARACTER(SPACE TAB OR COMMA)
~Well Information
#_______________________________________________________________________________
#
#PARAMETER_NAME    .UNIT     VALUE                         : DESCRIPTION
#_______________________________________________________________________________
STRT               .m        1.09                          : First reference value
STOP               .m        818.99                        : Last reference value
STEP               .m        0.1                           : Step increment
NULL               .         -9999                         : Missing value
COMP               .         ICPetroleum                   : Company
WELL               .         309                           : Well name
FLD                .         Karatobe                      : Field
LOC                .                                       : Location
SRVC               .                                       : Service Company
CTRY               .         KZ                            : Country
DATE               .         2022-10-26 17_52_23           : Service Date
LATI               .         0                             : Latitude
LONG               .         0                             : Longitude
GDAT               .         WGS 84                        : Geodetic Datum
API                .                                       : API NUMBER
COORDIN            .                                       : Grid System
COUNTRY            .         Kazakhstan                    : 
COUNTRY            .         Kazakhstan                    : 
EREF               .m        135.5                         : 
KB                 .         136.5                         : KB Elevation
ORIGINALWELLNAME   .         309                           : 
PROV               .                                       : PROVINCE
RWS                .         -999                          : Def_Rw
UWI                .         1_309                         : Unique Well Identifier (UWI)
WST                .         -999                          : Def_Rwt
X                  .km       466444.93                     : 
XCOORD             .                                       : X or East-West Coordinate
Y                  .km       5308441.67                    : 
YCOORD             .                                       : Y or North-South Coordinate
~Parameter Information Block
#_______________________________________________________________________________
#
#PARAMETER_NAME    .UNIT     VALUE                         : DESCRIPTION
#_______________________________________________________________________________
SET                .         Las                           : 
TLFamily_DEPT      .         Measured Depth                : 
TLFamily_PHI_FINAL .         Porosity                      : 
TLFamily_SW_AR     .         Water Saturation              : 
TLFamily_VSH_FINAL .         Shale Volume                  : 
~Curve Information
#_______________________________________________________________________________
#
#LOGNAME           .UNIT     LOG_ID                        : DESCRIPTION
#_______________________________________________________________________________
DEPT               .m                                      : DEPTH {F}
PHI_FINAL          .m3/m3                                  : Porosity {F}
SW_AR              .m3/m3                                  :  {F}
VSH_FINAL          .unitless                               : Vshale {F}
~Ascii
# ...
596.99     0.2015813  0.9517933  0.2425525 
597.09     0.1741187  1          0.3109935 
597.1900000000001 0.1258069  1          0.4542329 
597.29     0.07835155 1          0.667199  
597.39     0.009848111 1          1         
597.49     0.01985889 1          1         
597.59     0.0208709  1          1         
597.6900000000001 0.01844114 1          1         
597.79     0.08690714 1          0.7614222 
597.89     0.2030274  1          0.4622321 
597.99     0.188057   1          0.4621441 
598.09     0.1766533  1          0.4796643 
598.1900000000001 0.1481915  1          0.5408066 
598.29     0.1321756  1          0.5456752 
598.39     0.1575001  1          0.5021827 
598.49     0.1612107  1          0.5020847 
598.59     0.1534656  1          0.5066528 
598.6900000000001 0.1549374  1          0.5603924 
598.79     0.1363189  1          0.6134645 
598.89     0.2017698  1          0.478927  
598.99     0.2001704  1          0.4788353 
599.09     0.1973997  1          0.483222  
599.1900000000001 0.1562906  1          0.5446956 
599.29     0.1370889  1          0.5857463 
599.39     0.1816031  1          0.474027  
599.49     0.1788706  1          0.4739366 
599.59     0.2071562  1          0.4192461 
599.6900000000001 0.1961359  1          0.4231707 
599.79     0.1774961  1          0.4352873 
599.89     0.1647257  1          0.4824783 
599.99     0.1531654  1          0.4823854 
600.09     0.1260634  1          0.5145801 
600.1900000000001 0.1043405  1          0.5689685 
600.29     0.1052716  1          0.5585921 
600.39     0.04728524 1          0.7244095 
600.49     0.05130558 1          0.7242523 
600.59     0.04518944 1          0.7305231 
600.6900000000001 0.05874809 1          0.7112406 
600.79     0.07388138 1          0.6563873 
600.89     0.148539   1          0.4815517 
600.99     0.1589694  1          0.4814591 
601.09     0.2020902  1          0.3910373 
601.1900000000001 0.2141829  1          0.394739  
601.29     0.2229285  1          0.4139794 
601.39     0.138708   1          0.6212574 
601.49     0.143243   1          0.6211287 
601.59     0.08866596 1          0.7617558 
601.6900000000001 0.08434935 1          0.7549227 
601.79     0.1162892  1          0.6848322 
601.89     0.2242145  1          0.4806282 
601.99     0.2339857  1          0.4805359 
602.09     0.2968498  1          0.3683618 
602.1900000000001 0.3223167  1          0.3405874 
602.29     0.2723416  1          0.4093062 
602.39     0.1674999  1          0.5122685 
602.49     0.1441903  1          0.5121683 
602.59     0.1215689  1          0.5509816 
602.6900000000001 0.1001954  1          0.6195884 
602.79     0.04293608 1          0.7664489 
602.89     0.06405178 1          0.7662809 
602.99     0.07236673 1          0.7661123 
603.09     0.1226972  1          0.6302783 
603.1900000000001 0.1699039  1          0.5161918 
603.29     0.1919241  1          0.4365559 
603.39     0.1533598  1          0.5207481 
603.49     0.1555876  1          0.5206463 
603.59     0.141808   1          0.5549103 
603.6900000000001 0.1590239  1          0.5300649 
603.79     0.1754625  1          0.5108699 
603.89     0.1820242  1          0.5107702 
603.99     0.185166   1          0.510671  
604.09     0.1911532  1          0.4920898 
604.1900000000001 0.1864718  1          0.4919949 
604.29     0.1906335  1          0.4696161 
604.39     0.2037314  1          0.4608591 
604.49     0.2028588  1          0.4607719 
604.59     0.186991   1          0.496176  
604.6900000000001 0.1897893  1          0.4736417 
604.79     0.2190383  1          0.3959515 
604.89     0.2067851  1          0.4073687 
604.99     0.2031615  1          0.4072944 
605.09     0.1463335  1          0.4956971 
605.1900000000001 0.09484578 1          0.6000191 
605.29     0.07214729 1          0.6330443 
605.39     0.1057452  1          0.5479159 
605.49     0.09763215 1          0.5478069 
605.59     0.1064113  1          0.528085  
605.6900000000001 0.09259206 1          0.5279816 
605.79     0.1031933  1          0.5575165 
605.89     0.1522137  1          0.5277738 
605.99     0.1560467  1          0.52767   
606.09     0.1957411  1          0.4466876 
606.1900000000001 0.2314893  0.9915894  0.3657033 
606.29     0.242188   0.8831248  0.331589  
606.39     0.1808645  1          0.4634179 
606.49     0.1704489  1          0.4633302 
606.59     0.1447196  1          0.5222532 
606.6900000000001 0.1356571  1          0.485133  
606.79     0.1417108  1          0.4059634 
606.89     0.1922619  1          0.2764103 
606.99     0.209798   1          0.2763654 
607.09     0.2267942  1          0.2706966 
607.1900000000001 0.2360159  1          0.2936862 
607.29     0.2377688  1          0.318166  
607.39     0.2480155  1          0.3309659 
607.49     0.2537341  1          0.3309093 
607.59     0.271942   1          0.3276028 
607.6900000000001 0.2602659  1          0.327547  
607.79     0.255599   1          0.3473732 
607.89     0.2450576  1          0.3753217 
607.99     0.2538111  1          0.3752551 
608.09     0.2380668  1          0.4246203 
608.1900000000001 0.2159225  1          0.4126841 
608.29     0.2431783  1          0.3304576 
608.39     0.2878923  0.9852661  0.1829202 
608.49     0.2786912  1          0.1828939 
608.59     0.3078918  0.7438781  0.1220054 
608.6900000000001 0.3431086  0.5830796  0.09629832
608.79     0.3375338  0.5505263  0.1109787 
608.89     0.2958492  0.6073593  0.1978531 
608.99     0.2818885  0.6357759  0.197824  
609.09     0.2695088  0.6730382  0.2184165 
609.1900000000001 0.2521348  0.7377187  0.2329631 
609.29     0.2606699  0.7516629  0.2090083 
609.39     0.2471301  0.8903442  0.2206989 
609.49     0.2138534  1          0.2206656 
609.59     0.2010357  1          0.2533458 
609.6900000000001 0.1751767  1          0.2668038 
609.79     0.1648228  1          0.2836719 
609.89     0.1986543  1          0.2894414 
609.99     0.2205597  1          0.2893942 
610.09     0.2159587  1          0.2864287 
610.1900000000001 0.2089976  1          0.2952033 
610.29     0.1824418  1          0.3261026 
610.39     0.1237329  1          0.4906689 
610.49     0.1510062  1          0.4905748 
610.59     0.152976   1          0.5472374 
610.6900000000001 0.1504526  1          0.5621707 
610.79     0.1287004  1          0.6601324 
610.89     0.03843356 1          0.9187014 
610.99     0.03408767 1          0.9184899 
611.09     0.01274456 1          0.9666371 
611.1900000000001 0.004265601 1          1         
611.29     0.006259034 1          0.9912182 
611.39     0.039649   1          0.8420159 
611.49     0.0363578  1          0.8418268 
611.59     0.03884759 1          0.8060149 
611.6900000000001 0.03314653 1          0.7715963 
611.79     0.08583602 1          0.6471906 
611.89     0.08945523 1          0.6356757 
611.99     0.08487538 1          0.6355442 
612.09     0.05601452 1          0.7002417 
612.1900000000001 0.08060633 1          0.6352821 
612.29     0.1062582  1          0.5404858 
612.39     0.09810255 1          0.6128178 
612.49     0.1037464  1          0.6126924 
612.59     0.08840073 1          0.629144  
612.6900000000001 0.1032475  1          0.5701096 
612.79     0.1500417  1          0.4974632 
612.89     0.1345339  1          0.5597128 
612.99     0.1342984  1          0.5596014 
613.09     0.1266618  1          0.5852018 
613.1900000000001 0.1485381  1          0.5346634 
613.29     0.1429779  1          0.5643275 
613.39     0.1325298  1          0.5901087 
613.49     0.1350747  1          0.5899894 
613.59     0.1094559  1          0.6562857 
613.6900000000001 0.06891779 1          0.7419404 
613.79     0.09688799 1          0.650239  
613.89     0.1807128  1          0.4321111 
613.99     0.178427   1          0.4320315 
614.09     0.1812324  1          0.4610063 
614.1900000000001 0.177141   1          0.473865  
614.29     0.1613324  1          0.4870255 
614.39     0.1623158  1          0.4565013 
614.49     0.1605785  1          0.456416  
614.59     0.1619844  1          0.4605744 
