~Version
 VERS              .         3.0                           : CWLS LOG ASCII STANDARD - VERSION 3.0
 WRAP              .         NO                            : ONE LINE PER DEPTH STEP
 DLM               .         SPACE                         : DELIMITING CHARACTER(SPACE TAB OR COMMA)
~Well Information
#_______________________________________________________________________________
#
#PARAMETER_NAME    .UNIT     VALUE                         : DESCRIPTION
#_______________________________________________________________________________
STRT               .m        1.09                          : First reference value
STOP               .m        818.99                        : Last reference value
STEP               .m        0.1                           : Step increment
NULL               .         -9999                         : Missing value
COMP               .         ICPetroleum                   : Company
WELL               .         309                           : Well name
FLD                .         Karatobe                      : Field
LOC                .                                       : Location
SRVC               .                                       : Service Company
CTRY               .         KZ                            : Country
DATE               .         2022-10-26 17_52_23           : Service Date
LATI               .         0                             : Latitude
LONG               .         0                             : Longitude
GDAT               .         WGS 84                        : Geodetic Datum
API                .                                       : API NUMBER
COORDIN            .                                       : Grid System
COUNTRY            .         Kazakhstan                    : 
COUNTRY            .         Kazakhstan                    : 
EREF               .m        135.5                         : 
KB                 .         136.5                         : KB Elevation
ORIGINALWELLNAME   .         309                           : 
PROV               .                                       : PROVINCE
RWS                .         -999                          : Def_Rw
UWI                .         1_309                         : Unique Well Identifier (UWI)
WST                .         -999                          : Def_Rwt
X                  .km       466444.93                     : 
XCOORD             .                                       : X or East-West Coordinate
Y                  .km       5308441.67                    : 
YCOORD             .                                       : Y or North-South Coordinate
~Parameter Information Block
#_______________________________________________________________________________
#
#PARAMETER_NAME    .UNIT     VALUE                         : DESCRIPTION
#_______________________________________________________________________________
SET                .         Las                           : 
TLFamily_DEPT      .         Measured Depth                : 
TLFamily_PHI_FINAL .         Porosity                      : 
TLFamily_SW_AR     .         Water Saturation              : 
TLFamily_VSH_FINAL .         Shale Volume                  : 
~Curve Information
#_______________________________________________________________________________
#
#LOGNAME           .UNIT     LOG_ID                        : DESCRIPTION
#_______________________________________________________________________________
DEPT               .m                                      : DEPTH {F}
PHI_FINAL          .m3/m3                                  : Porosity {F}
SW_AR              .m3/m3                                  :  {F}
VSH_FINAL          .unitless                               : Vshale {F}
~Ascii
# ...
326.39     0.2088873  1          0.5678281 
326.49     0.2617497  0.8715359  0.4244499 
326.59     0.2618392  0.7693438  0.3251683 
326.69     0.286328   0.6317505  0.2887759 
326.79     0.2766665  0.6525998  0.2887137 
326.89     0.2895081  0.6081228  0.2626669 
326.99     0.276063   0.677086   0.2885893 
327.09     0.2360375  0.8119773  0.4032766 
327.19     0.1881997  1          0.5338664 
327.29     0.1812315  1          0.5337285 
327.39     0.1468955  1          0.6223807 
327.49     0.2024873  1          0.4728541 
327.59     0.2187488  1          0.4339104 
327.69     0.218428   1          0.433805  
327.79     0.2293591  0.9759987  0.42312   
327.89     0.2524805  0.8776705  0.3780407 
327.99     0.273284   0.7336059  0.3283876 
328.09     0.2693042  0.7438572  0.3283142 
328.19     0.2765156  0.7536504  0.3325148 
328.29     0.2702599  0.8113741  0.3411196 
328.39     0.2745152  0.7788448  0.3033716 
328.49     0.3048932  0.6396968  0.2444229 
328.59     0.3097867  0.6301342  0.2443728 
328.69     0.3048603  0.6298392  0.251158  
328.79     0.2982256  0.6362405  0.2580823 
328.89     0.2864728  0.668016   0.2836054 
328.99     0.2678001  0.7504583  0.3362274 
329.09     0.2812066  0.7165699  0.3361519 
329.19     0.2722652  0.7784439  0.3768981 
329.29     0.2740673  0.7978631  0.3962014 
329.39     0.2868925  0.7962986  0.4010808 
329.49     0.3035894  0.8173592  0.371914  
329.59     0.2854874  0.8663022  0.3718279 
329.69     0.2776783  0.9114643  0.3533484 
329.79     0.2751953  0.9278929  0.3313252 
329.89     0.2751244  0.9323484  0.357712  
329.99     0.2790146  0.9222459  0.3531069 
330.09     0.2794405  0.9209163  0.3530264 
330.19     0.2830814  0.9097082  0.352946  
330.29     0.2668038  0.9665656  0.3619511 
330.39     0.2672896  0.9749467  0.3618681 
330.49     0.2782936  0.9384408  0.3757615 
330.59     0.2687362  0.9699814  0.3756743 
330.69     0.2503334  1          0.4099094 
330.79     0.2316594  1          0.3997545 
330.89     0.2308463  1          0.3801628 
330.99     0.1986796  1          0.34784   
331.09     0.1531068  1          0.3477612 
331.19     0.150078   1          0.3260535 
331.29     0.1192951  1          0.3703694 
331.39     0.1401389  1          0.4092272 
331.49     0.1853473  1          0.3844232 
331.59     0.2119587  1          0.3843335 
331.69     0.2110047  1          0.3842438 
331.79     0.1938729  1          0.4621883 
331.89     0.1931526  1          0.479175  
331.99     0.1154214  1          0.6983847 
332.09     0.1363527  1          0.6981904 
332.19     0.09079908 1          0.765032  
332.29     0.1184243  1          0.7475396 
332.39     0.1614627  1          0.6976077 
332.49     0.1412759  1          0.7819965 
332.59     0.1418991  1          0.7817717 
332.69     0.112548   1          0.8654184 
332.79     0.1093633  1          0.8749664 
332.89     0.1276374  1          0.8081765 
332.99     0.06439213 1          1         
333.09     0.06589192 1          1         
333.19     0.06605762 1          1         
333.29     0.05340397 1          1         
333.39     0.05464432 1          1         
333.49     0.04853165 1          1         
333.59     0.0334098  1          1         
333.69     0.0263789  1          1         
333.79     0.03333788 1          1         
333.89     0.03203519 1          1         
333.99     0.03693023 1          1         
334.09     0.04736503 1          1         
334.19     0.05910002 1          1         
334.29     0.05419058 1          1         
334.39     0.04234058 1          1         
334.49     0.03146523 1          1         
334.59     0.0325604  1          1         
334.69     0.03081277 1          1         
334.79     0.03626573 1          1         
334.89     0.03982807 1          1         
334.99     0.04315772 1          1         
335.09     0.05880753 1          1         
335.19     0.06343317 1          1         
335.29     0.07277232 1          1         
335.39     0.07515209 1          1         
335.49     0.06351004 1          1         
335.59     0.0650074  1          1         
335.69     0.06696208 1          1         
335.79     0.06777614 1          1         
335.89     0.07041195 1          1         
335.99     0.07231751 1          1         
336.09     0.07324796 1          1         
336.19     0.07500818 1          1         
336.29     0.08001544 1          1         
336.39     0.07875894 1          1         
336.49     0.08098651 1          1         
336.59     0.09693512 1          1         
336.69     0.09709415 1          1         
336.79     0.115534   1          1         
336.89     0.1117858  1          1         
336.99     0.109384   1          1         
337.09     0.1225809  1          1         
337.19     0.1138883  1          1         
337.29     0.1300552  1          1         
337.39     0.1361181  1          1         
337.49     0.1381379  1          0.9974858 
337.59     0.1207393  1          0.9971797 
337.69     0.1270528  1          1         
337.79     0.1191741  1          1         
337.89     0.1301938  1          0.9744077 
337.99     0.2639531  1          0.6120325 
338.09     0.2669537  1          0.6118698 
338.19     0.3039547  0.8959667  0.5441812 
338.29     0.2866232  0.953643   0.6115443 
338.39     0.2725974  1          0.6477984 
338.49     0.2514364  1          0.6401929 
338.59     0.230476   1          0.6400205 
338.69     0.170165   1          0.8128885 
338.79     0.07400277 1          1         
338.89     0.04851838 1          1         
338.99     0.06700356 1          0.8983981 
339.09     0.06118305 1          0.898131  
339.19     0.115126   1          0.7585293 
339.29     0.1337288  1          0.6923088 
339.39     0.08730458 1          0.7931687 
339.49     0.02717681 1          0.9484005 
339.59     0.01454007 1          0.9481146 
339.69     0.03856806 1          0.8014708 
339.79     0.03324063 1          0.7922605 
339.89     0.002193178 1          1         
339.99     0          1          1         
340.09     0.0008468212 1          1         
340.19     0.01511472 1          1         
340.29     0.01303601 1          1         
340.39     0.00860368 1          1         
340.49     0.01522334 1          1         
340.59     0.02405076 1          1         
340.69     0.03134701 1          1         
340.79     0.03198822 1          1         
340.89     0.04526241 1          0.9549381 
340.99     0.04544184 1          0.95465   
341.09     0.04187873 1          0.9543622 
341.19     0.02621211 1          0.9754306 
341.29     0.0385542  1          0.9328696 
341.39     0.1117195  1          0.7369511 
341.49     0.1270636  1          0.6881345 
341.59     0.1248862  1          0.6879458 
341.69     0.0899588  1          0.7704054 
341.79     0.07711516 1          0.7966589 
341.89     0.08269886 1          0.7875205 
341.99     0.1216323  1          0.7192102 
342.09     0.1363959  1          0.7190106 
342.19     0.1515909  1          0.6946924 
342.29     0.1656828  1          0.6866272 
342.39     0.1218803  1          0.7348932 
342.49     0.08018199 1          0.8040478 
342.59     0.1084387  1          0.8038175 
342.69     0.07399913 1          0.9085845 
342.79     0.106714   1          0.8883474 
342.89     0.07957261 1          0.9811908 
342.99     0.1189237  1          0.8028967 
343.09     0.09963015 1          0.8026668 
343.19     0.169181   1          0.6618634 
343.29     0.1729769  1          0.7166215 
343.39     0.127811   1          0.8201572 
343.49     0.1151358  1          0.8670031 
343.59     0.1319422  1          0.8667495 
343.69     0.2101849  1          0.6918381 
343.79     0.2510993  1          0.5957776 
343.89     0.2583322  1          0.542637  
343.99     0.1734657  1          0.6756945 
344.09     0.1368501  1          0.6755107 
344.19     0.07397632 1          0.8091614 
344.29     0.09055381 1          0.7146407 
344.39     0.09307208 1          0.6673006 
344.49     0.07298445 1          0.6825107 
