~Version
 VERS              .         3.0                           : CWLS LOG ASCII STANDARD - VERSION 3.0
 WRAP              .         NO                            : ONE LINE PER DEPTH STEP
 DLM               .         SPACE                         : DELIMITING CHARACTER(SPACE TAB OR COMMA)
~Well Information
#_______________________________________________________________________________
#
#PARAMETER_NAME    .UNIT     VALUE                         : DESCRIPTION
#_______________________________________________________________________________
STRT               .m        1.09                          : First reference value
STOP               .m        818.99                        : Last reference value
STEP               .m        0.1                           : Step increment
NULL               .         -9999                         : Missing value
COMP               .         ICPetroleum                   : Company
WELL               .         309                           : Well name
FLD                .         Karatobe                      : Field
LOC                .                                       : Location
SRVC               .                                       : Service Company
CTRY               .         KZ                            : Country
DATE               .         2022-10-26 17_52_23           : Service Date
LATI               .         0                             : Latitude
LONG               .         0                             : Longitude
GDAT               .         WGS 84                        : Geodetic Datum
API                .                                       : API NUMBER
COORDIN            .                                       : Grid System
COUNTRY            .         Kazakhstan                    : 
COUNTRY            .         Kazakhstan                    : 
EREF               .m        135.5                         : 
KB                 .         136.5                         : KB Elevation
ORIGINALWELLNAME   .         309                           : 
PROV               .                                       : PROVINCE
RWS                .         -999                          : Def_Rw
UWI                .         1_309                         : Unique Well Identifier (UWI)
WST                .         -999                          : Def_Rwt
X                  .km       466444.93                     : 
XCOORD             .                                       : X or East-West Coordinate
Y                  .km       5308441.67                    : 
YCOORD             .                                       : Y or North-South Coordinate
~Parameter Information Block
#_______________________________________________________________________________
#
#PARAMETER_NAME    .UNIT     VALUE                         : DESCRIPTION
#_______________________________________________________________________________
SET                .         Las                           : 
TLFamily_DEPT      .         Measured Depth                : 
TLFamily_PHI_FINAL .         Porosity                      : 
TLFamily_SW_AR     .         Water Saturation              : 
TLFamily_VSH_FINAL .         Shale Volume                  : 
~Curve Information
#_______________________________________________________________________________
#
#LOGNAME           .UNIT     LOG_ID                        : DESCRIPTION
#_______________________________________________________________________________
DEPT               .m                                      : DEPTH {F}
PHI_FINAL          .m3/m3                                  : Porosity {F}
SW_AR              .m3/m3                                  :  {F}
VSH_FINAL          .unitless                               : Vshale {F}
~Ascii
# ...
417.39     0.1344085  1          0.6043107 
417.49     0.06264865 1          0.7308988 
417.59     0.06859974 1          0.7307108 
417.69     0.002004182 1          0.965607  
417.79     0.0006741093 1          1         
417.89     0.005172366 1          1         
417.99     0.01062445 1          1         
418.09     0.009011372 1          1         
418.19     0.006587125 1          1         
418.29     0.002268951 1          1         
418.39     0.001814402 1          1         
418.49     0.0009053045 1          1         
418.59     0.0009053045 1          1         
418.69     0          1          1         
418.79     0.004617426 1          1         
418.89     0.005147729 1          1         
418.99     0.008708327 1          1         
419.09     0.008708327 1          1         
419.19     0.004162877 1          1         
419.29     0.001056827 1          1         
419.39     0.001881084 1          1         
419.49     0.01083211 1          1         
419.59     0.01628438 1          1         
419.69     0.01390007 1          1         
419.79     0.01080824 1          1         
419.89     0.008218333 1          1         
419.99     0.01092599 1          1         
420.09     0.01227738 1          1         
420.19     0.008996492 1          1         
420.29     0.008563545 1          1         
420.39     0.009268198 1          1         
420.49     0.01949276 1          1         
420.59     0.01594645 1          1         
420.69     0.09344587 1          0.7878245 
420.79     0.1236765  1          0.6663808 
420.89     0.1031228  1          0.7095481 
420.99     0.004713609 1          0.996491  
421.09     0.004488779 1          0.9962111 
421.19     0.007938834 1          1         
421.29     0.006859249 1          1         
421.39     0.00574482 1          1         
421.49     0.07725234 1          0.7542138 
421.59     0.06747654 1          0.7540182 
421.69     0.1295885  1          0.5980334 
421.79     0.1214127  1          0.5978889 
421.89     0.118795   1          0.6106102 
421.99     0.1272467  1          0.5849766 
422.09     0.1388303  1          0.5848359 
422.19     0.1493861  1          0.5846953 
422.29     0.1391138  1          0.6035612 
422.39     0.1572351  1          0.5970223 
422.49     0.1256751  1          0.6776606 
422.59     0.1229606  1          0.6774906 
422.69     0.09469438 1          0.6916788 
422.79     0.09295364 1          0.7061294 
422.89     0.1161717  1          0.6026846 
422.99     0.1334694  1          0.6154813 
423.09     0.1340857  1          0.6153312 
423.19     0.09885612 1          0.6554663 
423.29     0.09038417 1          0.6692377 
423.39     0.08023223 1          0.6904591 
423.49     0.1334717  1          0.4957674 
423.59     0.0944845  1          0.4956543 
423.69     0.1224813  1          0.4014224 
423.79     0.1087995  1          0.4438284 
423.89     0.1408492  1          0.4637874 
423.99     0.1679766  1          0.5061064 
424.09     0.1850596  1          0.5059903 
424.19     0.149141   1          0.5881376 
424.29     0.1311309  1          0.5879962 
424.39     0.09718531 1          0.6199206 
424.49     0.1259483  1          0.6067676 
424.59     0.1404338  1          0.6066205 
424.69     0.1453984  1          0.6064738 
424.79     0.1400486  1          0.639262  
424.89     0.1071353  1          0.7171821 
424.99     0.01415098 1          0.9656482 
425.09     0.00880124 1          0.9653804 
425.19     0.02093358 1          0.8540886 
425.29     0.09845006 1          0.66591   
425.39     0.1297339  1          0.6054469 
425.49     0.09423151 1          0.7311369 
425.59     0.1046192  1          0.7309498 
425.69     0.07775133 1          0.7775963 
425.79     0.097041   1          0.7381983 
425.89     0.1045287  1          0.7457002 
425.99     0.1102138  1          0.6859616 
426.09     0.1129369  1          0.6857899 
426.19     0.100964   1          0.7298302 
426.29     0.1012767  1          0.7296438 
426.39     0.1022778  1          0.7219206 
426.49     0.1389348  1          0.5911574 
426.59     0.1317604  1          0.5910159 
426.69     0.1193674  1          0.6362865 
426.79     0.07903378 1          0.7363108 
426.89     0.04220641 1          0.8415668 
426.99     0.1286775  1          0.6493341 
427.09     0.1316855  1          0.6491743 
427.19     0.1312134  1          0.6839027 
427.29     0.09476274 1          0.7743703 
427.39     0.1178138  1          0.6979679 
427.49     0.1730081  1          0.5591459 
427.59     0.1843993  1          0.5590143 
427.69     0.1695426  1          0.6020945 
427.79     0.1770889  1          0.5769206 
427.89     0.1703485  1          0.5767833 
427.99     0.1057376  1          0.696915  
428.09     0.1114537  1          0.6967401 
428.19     0.09929502 1          0.7186273 
428.29     0.1184972  1          0.6749415 
428.39     0.1109143  1          0.6747733 
428.49     0.08521403 1          0.6888282 
428.59     0.06679039 1          0.688656  
428.69     0.06409246 1          0.7251965 
428.79     0.05540936 1          0.8120195 
428.89     0.00256953 1          1         
428.99     0.008331068 1          1         
429.09     0.009033517 1          1         
429.19     0.05733443 1          0.8364465 
429.29     0.06736805 1          0.8109543 
429.39     0.1047634  1          0.7239081 
429.49     0.1104809  1          0.659013  
429.59     0.1167578  1          0.6588502 
429.69     0.1198245  1          0.6656091 
429.79     0.1039121  1          0.7382883 
429.89     0.03083872 1          0.826414  
429.99     0.01985047 1          0.8346776 
430.09     0.01241224 1          0.8344568 
430.19     0.04342908 1          0.7529129 
430.29     0.04969119 1          0.7605144 
430.39     0.07610967 1          0.7146357 
430.49     0.1005568  1          0.6853925 
430.59     0.09806412 1          0.6852213 
430.69     0.07695269 1          0.7290255 
430.79     0.08082035 1          0.7065541 
430.89     0.1013094  1          0.6232097 
430.99     0.1065328  1          0.6165392 
431.09     0.1101533  1          0.61639   
431.19     0.02635639 1          0.7665999 
431.29     0.0250796  1          0.8403396 
431.39     0.002420455 1          1         
431.49     0.04993156 1          0.831378  
431.59     0.05025612 1          0.8311586 
431.69     0.1030917  1          0.6623258 
431.79     0.1437121  1          0.5360697 
431.89     0.1314805  1          0.5359457 
431.99     0.06035909 1          0.7341617 
432.09     0.06365421 1          0.7339754 
432.19     0.04987354 1          0.7725186 
432.29     0.07489118 1          0.7566169 
432.39     0.06402501 1          0.7721198 
432.49     0.03606258 1          0.8207797 
432.59     0.03774171 1          0.8205646 
432.69     0.04492513 1          0.8037716 
432.79     0.04541117 1          0.8370154 
432.89     0.04712401 1          0.828317  
432.99     0.07997578 1          0.732299  
433.09     0.08257511 1          0.732113  
433.19     0.07159777 1          0.7319276 
433.29     0.08547732 1          0.7242361 
433.39     0.07689107 1          0.7166182 
433.49     0.01461328 1          0.9433377 
433.59     0.01537812 1          0.9430807 
433.69     0.002307107 1          1         
433.79     0.03732894 1          0.8348114 
433.89     0.1177439  1          0.6519166 
433.99     0.09658743 1          0.7611015 
434.09     0.1027781  1          0.7609066 
434.19     0.02138806 1          0.9900212 
434.29     0.01332056 1          0.9997123 
434.39     0.05101635 1          0.8592688 
434.49     0.1078309  1          0.7072955 
434.59     0.1061658  1          0.7071179 
434.69     0.1294378  1          0.7142758 
434.79     0.1356661  1          0.6851691 
434.89     0.140125   1          0.6237115 
434.99     0.1721888  1          0.532118  
435.09     0.1419986  1          0.5319952 
435.19     0.1726383  1          0.4281479 
435.29     0.2070289  0.8281346  0.326441  
435.39     0.1961011  0.840753   0.3301744 
435.49     0.1569685  1          0.4824952 
