~Version
 VERS              .         3.0                           : CWLS LOG ASCII STANDARD - VERSION 3.0
 WRAP              .         NO                            : ONE LINE PER DEPTH STEP
 DLM               .         SPACE                         : DELIMITING CHARACTER(SPACE TAB OR COMMA)
~Well Information
#_______________________________________________________________________________
#
#PARAMETER_NAME    .UNIT     VALUE                         : DESCRIPTION
#_______________________________________________________________________________
STRT               .m        1.09                          : First reference value
STOP               .m        818.99                        : Last reference value
STEP               .m        0.1                           : Step increment
NULL               .         -9999                         : Missing value
COMP               .         ICPetroleum                   : Company
WELL               .         309                           : Well name
FLD                .         Karatobe                      : Field
LOC                .                                       : Location
SRVC               .                                       : Service Company
CTRY               .         KZ                            : Country
DATE               .         2022-10-26 17_52_23           : Service Date
LATI               .         0                             : Latitude
LONG               .         0                             : Longitude
GDAT               .         WGS 84                        : Geodetic Datum
API                .                                       : API NUMBER
COORDIN            .                                       : Grid System
COUNTRY            .         Kazakhstan                    : 
COUNTRY            .         Kazakhstan                    : 
EREF               .m        135.5                         : 
KB                 .         136.5                         : KB Elevation
ORIGINALWELLNAME   .         309                           : 
PROV               .                                       : PROVINCE
RWS                .         -999                          : Def_Rw
UWI                .         1_309                         : Unique Well Identifier (UWI)
WST                .         -999                          : Def_Rwt
X                  .km       466444.93                     : 
XCOORD             .                                       : X or East-West Coordinate
Y                  .km       5308441.67                    : 
YCOORD             .                                       : Y or North-South Coordinate
~Parameter Information Block
#_______________________________________________________________________________
#
#PARAMETER_NAME    .UNIT     VALUE                         : DESCRIPTION
#_______________________________________________________________________________
SET                .         Las                           : 
TLFamily_DEPT      .         Measured Depth                : 
TLFamily_PHI_FINAL .         Porosity                      : 
TLFamily_SW_AR     .         Water Saturation              : 
TLFamily_VSH_FINAL .         Shale Volume                  : 
~Curve Information
#_______________________________________________________________________________
#
#LOGNAME           .UNIT     LOG_ID                        : DESCRIPTION
#_______________________________________________________________________________
DEPT               .m                                      : DEPTH {F}
PHI_FINAL          .m3/m3                                  : Porosity {F}
SW_AR              .m3/m3                                  :  {F}
VSH_FINAL          .unitless                               : Vshale {F}
~Ascii
# ...
773.79     0          1          0.04037138
773.89     0          1          0.05525964
773.99     0          1          0.06222344
774.09     0          1          0.05664245
774.1900000000001 0          1          0.04170075
774.29     0          1          0.02861906
774.39     0          1          0.02605849
774.49     0          1          0.02605849
774.59     0          1          0.03249447
774.6900000000001 0          1          0.03641178
774.79     0          1          0.04437381
774.89     0          1          0.04037138
774.99     0          1          0.03119804
775.09     0          1          0.0235162 
775.1900000000001 0          1          0.0235162 
775.29     0          1          0.02478508
775.39     0          1          0.02478508
775.49     0          1          0.02861906
775.59     0          1          0.03772692
775.6900000000001 0          1          0.04437381
775.79     0          1          0.0430349 
775.89     0          1          0.0430349 
775.99     0          1          0.04037138
776.09     0          1          0.03641178
776.1900000000001 0          1          0.02861906
776.29     0          1          0.02733649
776.39     0          1          0.02733649
776.49     0          1          0.03249447
776.59     0          1          0.03379555
776.6900000000001 0          1          0.03119804
776.79     0          1          0.01973678
776.89     0          1          0.01352731
776.99     0          1          0.02225189
777.09     0          1          0.03119804
777.1900000000001 0          1          0.03641178
777.29     0          1          0.03119804
777.39     0          1          0.03904678
777.49     0          1          0.04841947
777.59     0          1          0.05664245
777.6900000000001 0          1          0.04977771
777.79     0          1          0.04037138
777.89     0          1          0.03510132
777.99     0          1          0.03379555
778.09     0          1          0.03249447
778.1900000000001 0          1          0.03379555
778.29     0          1          0.04571753
778.39     0          1          0.06504409
778.49     0          1          0.07362829
778.59     0.02593495 1          0.07799009
778.6900000000001 0.03025106 1          0.066462  
778.79     0.02487523 1          0.05250885
778.89     0          1          0.03119804
778.99     0          1          0.02478508
779.09     0          1          0.02225189
779.1900000000001 0          1          0.02225189
779.29     0          1          0.01599777
779.39     0          1          0.01848598
779.49     0          1          0.01848598
779.59     0          1          0.01599777
779.6900000000001 0          1          0.01229872
779.79     0          1          0.0110745 
779.89     0          1          0.01476034
779.99     0          1          0.01599777
780.09     0          1          0.01599777
780.1900000000001 0          1          0.01723963
780.29     0          1          0.01973678
780.39     0          1          0.0235162 
780.49     0          1          0.0235162 
780.59     0          1          0.01973678
780.6900000000001 0          1          0.01599777
780.79     0          1          0.01973678
780.89     0          1          0.02099207
780.99     0          1          0.02099207
781.09     0          1          0.01599777
781.1900000000001 0          1          0.01973678
781.29     0          1          0.02099207
781.39     0          1          0.01973678
781.49     0          1          0.01229872
781.59     0          1          0.008639224
781.6900000000001 0          1          0.007428093
781.79     0          1          0.008639224
781.89     0          1          0.006221313
781.99     0          1          0.008639224
782.09     0          1          0.01476034
782.1900000000001 0          1          0.0235162 
782.29     0          1          0.02225189
782.39     0          1          0.01848598
782.49     0          1          0.01599777
782.59     0          1          0.01723963
782.6900000000001 0          1          0.01723963
782.79     0          1          0.01848598
782.89     0          1          0.01599777
782.99     0          1          0.01352731
783.09     0          1          0.01599777
783.1900000000001 0          1          0.01848598
783.29     0          1          0.01848598
783.39     0          1          0.0110745 
783.49     0          1          0.01229872
783.59     0          1          0.01476034
783.6900000000001 0          1          0.01599777
783.79     0          1          0.01599777
783.89     0          1          0.01599777
783.99     0          1          0.01848598
784.09     0          1          0.01848598
784.1900000000001 0          1          0.01973678
784.29     0          1          0.02099207
784.39     0          1          0.01723963
784.49     0          1          0.01848598
784.59     0          1          0.01599777
784.6900000000001 0          1          0.02225189
784.79     0          1          0.02225189
784.89     0          1          0.02478508
784.99     0          1          0.02225189
785.09     0          1          0.01973678
785.1900000000001 0          1          0.02099207
785.29     0          1          0.01848598
785.39     0          1          0.01599777
785.49     0          1          0.01476034
785.59     0          1          0.01848598
785.6900000000001 0          1          0.01973678
785.79     0          1          0.01723963
785.89     0          1          0.01973678
785.99     0          1          0.02225189
786.09     0          1          0.02478508
786.1900000000001 0          1          0.01973678
786.29     0          1          0.01599777
786.39     0          1          0.01352731
786.49     0          1          0.01973678
786.59     0          1          0.02225189
786.6900000000001 0          1          0.02605849
786.79     0          1          0.01973678
786.89     0          1          0.02861906
786.99     0          1          0.02990625
787.09     0          1          0.03119804
787.1900000000001 0.02399747 1          0.0235162 
787.29     0.050461   0.7568919  0.0235162 
787.39     0.06093943 0.6267456  0.02990625
787.49     0.06916771 0.5521871  0.02990625
787.59     0.07158795 0.5335189  0.03379555
787.6900000000001 0.07527989 0.5073535  0.03510132
787.79     0.07335466 0.5206693  0.0430349 
787.89     0.07491122 0.5098504  0.04170075
787.99     0.0739181  0.5167005  0.0430349 
788.09     0.07528586 0.5073133  0.04037138
788.1900000000001 0.0769872  0.4961022  0.03641178
788.29     0.0802758  0.4757788  0.03249447
788.39     0.08319707 0.4590729  0.02733649
788.49     0.08400753 0.454644   0.02861906
788.59     0.08239773 0.4635264  0.02861906
788.6900000000001 0.07863648 0.4856972  0.03641178
788.79     0.07964358 0.4795556  0.03249447
788.89     0.08038656 0.4751232  0.02990625
788.99     0.07958002 0.4799385  0.02478508
789.09     0.0748285  0.5104141  0.02605849
789.1900000000001 0.06845953 0.5578993  0.02733649
789.29     0.06414119 0.5954601  0.02990625
789.39     0.05962498 0.6405624  0.03641178
789.49     0.05742172 0.6651407  0.0430349 
789.59     0.05861519 0.6515976  0.04170075
789.6900000000001 0.06138378 0.6222087  0.03641178
789.79     0.06751201 0.5657293  0.02225189
789.89     0.06660957 0.5733939  0.02099207
789.99     0.06365287 0.6000282  0.02225189
790.09     0.05698526 0.670235   0.03249447
790.1900000000001 0.05433174 0.7029688  0.03510132
790.29     0.05771036 0.6618139  0.03119804
790.39     0.0623934  0.6121404  0.02990625
790.49     0.06596751 0.5789747  0.03249447
790.59     0.06534647 0.5844772  0.03641178
790.6900000000001 0.06269168 0.6092279  0.03772692
790.79     0.06058975 0.6303628  0.03119804
790.89     0.05798773 0.6586483  0.02990625
790.99     0.05829301 0.655199   0.0235162 
791.09     0.06079575 0.6282268  0.02225189
791.1900000000001 0.06029089 0.6334875  0.02733649
791.29     0.05553126 0.6877842  0.03510132
791.39     0.05291048 0.7218517  0.03379555
