~Version information
  VERS.                           2.00 : CWLS log ASCII Standard -Version 2.00
  WRAP.                             NO : One line per depth step
~Well information
#MNEM.UNIT              Data Type        Information
#----------------------------------------------------------------------
  STRT.M                         1.090 : 
  STOP.M                       818.990 : 
  STEP.M                         0.100 : 
  NULL.                      -999.2500 : 
  WELL.                            309 : Well Name
  FLD .                       KARATUBE : Field Name
  SRVC.        JSC "KAZPROMGEOPHYSIKA" : Service company
  DATE.                       26.07.04 : Log date
~Curve information
#MNEM.UNIT                               Curve Description
#----------------------------------------------------------------------
  DEPT.M                               : Depth Curve
  LL3 .OHMM                            : Appar.resist.laterolog,3 electrodes
  MLL .OHMM                            : Microlaterolog sonde
  RHOB.G/C3                            : Bulk density by gamma-gamma log
  GZ3 .OHMM                            : App.resistivity by lateral A2.0M0.5N
  GZ3B.OHMM                            : App.resistivity by lateral N0.5Œ2.0€
  SP  .MV                              : Spontaneous potential
  CALI.MM                              : Caliper
  C1  .MM                              : Diameter from profile1
  C2  .MM                              : Diameter from profile2
  GR  .UR/H                            : Gamma-ray log
  NGLD.UE                              : Neutron-gamma log/device DRST-90
  CILR.MMHO                            : Conduct. by sonde 7I1.6,react.signal
  CILA.MMHO                            : Conduct. by sonde 7I1.6,active signal
  DTP .US/M                            : Interval travel time (P-wave)
  T1  .US                              : Travel time1
  T2  .US                              : Travel time2
~Parameter information
#MNEM.UNIT              Value            Description
#----------------------------------------------------------------------
#----------------------------------------------------------------------
  DFV .SEK                          40 : Drilling Fluid Viscosity
  BS  .MM                        215.9 : Bit Size
  DFD .G/C3                       1.13 : Drilling Fluid Density
~Ascii Log Data
# ...
  816.090 89742.8906 0.7080 1.9170 1.2150 -999.250 311.6070 241.4200 238.5940 244.2460 1.7600 8.0240 -3.2790 5.1610 219.5660 586.9560 499.1620
  816.190 89742.8906 0.8270 1.9160 1.1680 -999.250 311.6960 240.2370 239.2070 241.2660 1.9800 8.0080 -2.5460 2.6710 219.4860 582.6490 495.1590
  816.290 89742.8906 0.7880 1.9010 1.1800 -999.250 311.8720 244.3790 239.2070 249.5500 2.2000 8.0210 -2.8980 5.9170 218.7250 578.7450 491.9510
  816.390 89742.8906 0.7480 1.8390 1.1920 -999.250 311.3420 242.6040 238.5940 246.6130 2.3400 8.0430 -2.2240 2.1820 216.9840 575.4110 489.6310
  816.490 89742.8906 0.7480 1.8660 1.1680 -999.250 311.2540 242.6040 235.5270 249.6800 2.4400 8.0640 -3.1330 5.1610 214.4500 573.3370 488.4460
  816.590 89742.8906 0.7880 1.8340 1.1570 -999.250 311.2540 243.7870 231.2340 256.3400 2.3200 7.9870 -3.7190 2.7600 212.2280 572.2260 488.0720
  816.690 89742.8906 0.6690 1.8790 1.1450 -999.250 312.1380 245.5620 231.2340 259.8910 2.1400 7.9650 -1.5790 5.7390 210.3850 572.0780 488.1310
  816.790 89742.8906 0.5110 1.8720 1.1680 -999.250 311.9610 244.9700 232.4600 257.4800 1.8600 8.0350 -3.6610 6.1390 209.8670 572.2260 488.2200
  816.890 89742.8906 0.3530 1.8750 1.1340 -999.250 311.5190 244.9700 228.1670 261.7740 1.7000 8.1040 -0.8460 1.4710 210.0150 572.5220 488.2650
  816.990 89742.8906 0.3130 1.8240 1.1220 -999.250 311.4300 242.0120 227.5540 256.4700 1.7600 8.0910 -4.9210 5.5170 210.6440 572.5960 488.2200
  817.090 89742.8906 0.2740 1.8580 1.1340 -999.250 312.4920 243.1950 226.3270 260.0640 1.8400 8.1650 -2.2240 3.6940 210.9410 572.2560 488.1310
  817.190 89742.8906 0.2740 1.8300 1.1570 -999.250 313.3750 241.4200 225.1000 257.7400 1.9800 8.2000 -3.1330 5.6050 210.3110 571.9890 488.0870
  817.290 89742.8906 0.2340 1.8260 1.1340 -999.250 -999.250 237.8700 223.2600 252.4790 2.0600 8.3680 -2.8100 3.9600 209.7560 571.7960 488.0870
  817.390 89742.8906 0.3130 1.8250 1.1450 -999.250 -999.250 222.4850 214.6730 230.2970 2.2400 8.3730 -3.1330 3.6050 209.2740 571.9890 488.0870
  817.490 89742.8906 0.2740 1.8270 1.1220 -999.250 -999.250 220.7100 212.8330 228.5870 2.2200 8.4190 -4.1300 4.7160 209.7560 572.1820 488.0420
  817.590 89742.8906 0.1550 1.8240 -999.250 -999.250 -999.250 220.7100 212.2200 229.2000 2.1800 8.5010 -2.0480 4.5380 210.3480 572.3000 488.0420
  817.690 89742.8906 0.2340 1.8670 -999.250 -999.250 -999.250 228.9940 217.1270 240.8620 1.9800 8.5410 -4.0710 6.1830 210.6440 572.3000 488.1310
  817.790 89742.8906 0.1950 1.8420 -999.250 -999.250 -999.250 231.3610 217.7400 244.9820 1.8000 8.5680 -1.4320 1.8710 210.4220 572.1520 488.2200
  817.890 89742.8906 0.2340 1.7980 -999.250 -999.250 -999.250 231.3610 217.7400 244.9820 1.6400 8.5170 -4.6870 5.4720 209.8300 572.0780 488.2650
  817.990 89742.8906 0.2340 1.8390 -999.250 -999.250 -999.250 223.0770 213.4470 232.7070 1.6600 8.5710 -1.4910 2.9380 209.5330 572.1520 488.2650
  818.090 89742.8906 0.2340 1.8670 -999.250 -999.250 -999.250 207.6920 205.4730 209.9120 1.7400 8.5920 -2.7220 6.4950 209.7190 572.2260 488.2520
  818.190 89742.8906 0.2340 1.8780 -999.250 -999.250 -999.250 202.3670 198.7260 206.0080 -999.250 8.5650 -2.5170 2.5380 209.9360 572.4480 488.2260
  818.290 89742.8906 0.2740 1.9140 -999.250 -999.250 -999.250 198.8170 199.9530 197.6800 -999.250 8.5040 -3.7780 4.3610 210.5550 572.3000 488.2010
  818.390 89742.8906 0.3130 1.8730 -999.250 -999.250 -999.250 191.1240 196.2730 185.9760 -999.250 8.5170 -2.6050 3.3380 210.2480 572.3740 488.2010
  818.490 89742.8906 0.3920 1.8490 -999.250 -999.250 -999.250 183.4320 192.5930 174.2710 -999.250 8.5680 -2.8400 5.7830 210.4330 572.1520 488.1820
  818.590 89742.8906 0.3920 1.8820 -999.250 -999.250 -999.250 182.2490 191.9790 172.5180 -999.250 8.5170 -3.0740 4.0050 209.9250 572.2260 488.1950
  818.690 89742.8906 0.3920 1.8570 -999.250 -999.250 -999.250 180.4730 191.3660 169.5810 -999.250 8.4640 -2.3120 3.9600 210.0780 572.1520 488.1950
  818.790 89742.8906 0.3920 1.7750 -999.250 -999.250 -999.250 189.3490 199.3390 179.3590 -999.250 8.2800 -3.6900 4.1830 209.8930 572.3000 488.2710
  818.890 89742.8906 0.4320 1.7440 -999.250 -999.250 -999.250 202.9590 205.4730 200.4440 -999.250 8.2240 -1.8720 3.9160 210.0730 572.3740 488.3280
  818.990 89742.8906 0.4710 1.8050 -999.250 -999.250 -999.250 215.3850 211.6070 219.1630 -999.250 8.1600 -3.1330 6.2280 210.1150 572.3740 488.3850
