~Version information
  VERS.                           2.00 : CWLS log ASCII Standard -Version 2.00
  WRAP.                             NO : One line per depth step
~Well information
#MNEM.UNIT              Data Type        Information
#----------------------------------------------------------------------
  STRT.M                         1.090 : 
  STOP.M                       818.990 : 
  STEP.M                         0.100 : 
  NULL.                      -999.2500 : 
  WELL.                            309 : Well Name
  FLD .                       KARATUBE : Field Name
  SRVC.        JSC "KAZPROMGEOPHYSIKA" : Service company
  DATE.                       26.07.04 : Log date
~Curve information
#MNEM.UNIT                               Curve Description
#----------------------------------------------------------------------
  DEPT.M                               : Depth Curve
  LL3 .OHMM                            : Appar.resist.laterolog,3 electrodes
  MLL .OHMM                            : Microlaterolog sonde
  RHOB.G/C3                            : Bulk density by gamma-gamma log
  GZ3 .OHMM                            : App.resistivity by lateral A2.0M0.5N
  GZ3B.OHMM                            : App.resistivity by lateral N0.5Œ2.0€
  SP  .MV                              : Spontaneous potential
  CALI.MM                              : Caliper
  C1  .MM                              : Diameter from profile1
  C2  .MM                              : Diameter from profile2
  GR  .UR/H                            : Gamma-ray log
  NGLD.UE                              : Neutron-gamma log/device DRST-90
  CILR.MMHO                            : Conduct. by sonde 7I1.6,react.signal
  CILA.MMHO                            : Conduct. by sonde 7I1.6,active signal
  DTP .US/M                            : Interval travel time (P-wave)
  T1  .US                              : Travel time1
  T2  .US                              : Travel time2
~Parameter information
#MNEM.UNIT              Value            Description
#----------------------------------------------------------------------
#----------------------------------------------------------------------
  DFV .SEK                          40 : Drilling Fluid Viscosity
  BS  .MM                        215.9 : Bit Size
  DFD .G/C3                       1.13 : Drilling Fluid Density
~Ascii Log Data
# ...
  678.990 2.3660 2.5270 2.2720 1.5960 5.6660 165.5560 227.2190 230.6200 223.8170 2.7600 1.9470 176.1660 284.1500 349.8430 755.7630 624.7340
  679.090 2.3170 2.1320 2.2770 1.6190 5.6430 166.3520 223.6690 227.5540 219.7840 2.7800 1.9950 168.3080 281.6600 327.5720 753.0500 633.6670
  679.190 2.2230 1.9340 2.2540 1.6650 5.5640 166.1750 224.2600 226.9400 221.5800 2.8200 1.9730 174.7000 271.3010 298.4590 751.8440 642.0000
  679.290 2.1580 1.7360 2.2280 1.7580 5.5520 165.9980 223.6690 227.5540 219.7840 2.7400 1.9520 173.7910 273.7910 274.6090 751.3120 648.4450
  679.390 2.4210 1.7760 2.2570 1.8270 5.4380 165.9980 223.6690 227.5540 219.7840 2.6600 1.8670 175.0230 262.5870 257.1690 753.3510 653.4450
  679.490 2.9720 1.8550 2.3160 1.8620 5.3350 165.1140 224.2600 228.1670 220.3540 2.6000 1.8800 178.6000 260.4970 249.7670 755.3360 658.0000
  679.590 3.0200 1.9730 2.2570 1.9310 5.1990 164.3180 223.0770 226.9400 219.2140 2.4400 1.9760 178.2770 263.0310 243.3390 759.5360 664.0580
  679.690 3.2580 2.0920 2.2430 2.0000 5.0280 163.7880 227.2190 230.6200 223.8170 2.4800 2.0480 188.0710 260.4080 238.6950 764.6470 671.0780
  679.790 3.0830 2.2900 2.3350 2.0810 4.7540 163.8760 233.7280 232.4600 234.9950 2.5400 2.0610 191.0030 261.5640 233.9220 770.9800 678.0320
  679.890 3.2660 2.2500 2.3520 2.2080 4.5490 163.5220 233.1360 233.0740 233.1980 2.6400 1.9550 198.3330 258.4960 232.3700 779.2620 682.8780
  679.990 3.2810 5.0170 2.2390 2.2770 4.3550 162.6380 226.6270 230.0070 223.2470 2.7600 1.8510 201.8520 260.8530 240.9610 788.7440 685.5750
  680.090 3.2280 5.4120 2.2030 2.3700 4.1270 162.6380 223.0770 228.1670 217.9870 2.7800 1.7730 210.3550 260.2750 257.9220 799.3370 687.6720
  680.190 2.8450 3.7130 2.1540 2.5080 3.9220 163.1690 224.2600 228.7800 219.7400 2.6600 1.8450 217.1570 270.9450 279.1610 808.7130 690.7210
  680.290 2.7610 2.9220 2.1660 2.6700 3.7960 163.3460 224.2600 228.1670 220.3540 2.5000 1.9440 223.2560 267.0770 294.9800 815.5880 696.2950
  680.390 2.5180 1.8150 2.2790 2.9010 3.7390 163.0810 223.0770 228.1670 217.9870 2.5400 1.9870 234.1930 271.3900 298.2330 819.1310 703.0330
  680.490 2.5060 1.9730 2.3220 3.0630 3.6820 162.2850 223.6690 228.1670 219.1700 2.7400 1.9840 236.2460 275.4360 290.2430 820.7180 708.2470
  680.590 2.3990 1.8940 2.2960 3.2710 3.6480 160.0740 224.2600 227.5540 220.9670 2.8200 1.9550 254.3070 275.9250 281.1770 821.5140 709.3470
  680.690 2.6550 1.8940 2.2640 3.5020 3.5800 160.0750 223.6690 226.9400 220.3970 2.8400 1.9650 260.8750 283.7940 280.4170 823.7920 707.2720
  680.790 2.3770 1.6970 2.2150 3.7210 3.5800 160.7810 223.6690 226.3270 221.0100 2.7000 1.9490 265.5370 280.1480 291.2990 826.2610 703.8050
  680.890 2.3120 1.4600 2.0900 3.9180 3.5110 163.6110 222.4850 226.3270 218.6430 2.6400 1.8770 269.9060 278.6810 306.1380 827.3510 700.5970
  680.990 1.9540 1.1040 2.1500 4.0450 3.4770 163.6990 222.4850 226.9400 218.0300 2.6200 1.8270 267.7950 278.7260 316.8870 825.3900 697.7590
  681.090 2.0090 1.1430 2.1380 4.2530 3.4540 162.9920 223.0770 225.7140 220.4400 2.6800 1.7520 271.0500 274.6350 319.0790 821.4170 695.6440
  681.190 2.0090 1.1430 2.1730 4.3570 3.4310 162.6380 223.6690 226.9400 220.3970 2.8000 1.7680 268.9390 275.9250 314.4300 817.1480 693.8320
  681.290 2.1430 1.2220 2.2200 4.4720 3.3970 162.8150 223.6690 226.3270 221.0100 2.8400 1.7730 268.9390 277.1250 308.2920 813.4410 691.7040
  681.390 2.2340 1.3800 2.1740 4.5650 3.3740 162.9920 224.2600 226.9400 221.5800 2.8400 1.8110 267.3260 284.2830 304.3420 810.5650 688.7270
  681.490 2.3710 1.4200 2.2060 4.6570 3.2370 162.2850 222.4850 226.3270 218.6430 2.8000 1.8110 272.1930 291.0410 304.5940 808.5470 685.2330
  681.590 2.2340 1.4200 2.1880 4.7030 3.1460 161.8430 223.6690 226.9400 220.3970 2.6800 1.7680 277.6180 302.1560 308.2830 807.4040 682.1540
  681.690 2.2800 1.4600 2.2120 4.7960 3.0550 162.2850 222.4850 226.3270 218.6430 2.6600 1.7390 279.4650 301.0890 313.1250 806.8730 679.7300
  681.790 2.0090 1.2620 2.1740 4.8760 2.9520 163.3450 222.4850 226.3270 218.6430 2.6800 1.7410 285.5050 303.9350 317.8570 806.5310 677.5350
  681.890 1.8710 1.0640 2.2100 4.9340 2.9070 163.5220 227.8110 227.5540 228.0680 2.6000 1.7970 277.6760 306.0690 322.4910 806.0960 674.8090
  681.990 1.9320 1.2620 2.2390 4.9690 2.8500 162.8160 231.9530 228.7800 235.1250 2.5600 1.8210 286.6780 302.5560 328.2170 805.4310 671.5270
  682.090 1.8110 1.1430 2.2170 4.9690 2.7810 162.1080 224.2600 225.1000 223.4200 2.5800 1.7890 283.5410 308.2470 334.7600 803.8490 668.5540
  682.190 1.7180 1.1040 2.1370 4.8420 2.7590 161.7540 224.2600 225.1000 223.4200 2.6400 1.7280 278.2040 302.3340 338.2360 800.6610 666.2690
  682.290 1.7020 1.0640 2.1350 4.7150 2.7930 161.7540 223.6690 225.7140 221.6240 2.5600 1.7070 274.0410 299.1330 335.9790 795.6350 664.6950
  682.390 1.7020 1.0250 2.1510 4.5650 2.8500 161.5780 222.4850 224.4870 220.4840 2.3600 1.7310 269.5540 299.4890 327.3480 790.1010 663.1950
  682.490 1.7500 0.9850 2.1730 4.3910 2.8730 162.3730 224.2600 225.7140 222.8070 2.4000 1.7970 262.8110 298.8660 317.2630 785.4770 661.7640
  682.590 1.7910 1.1430 2.1370 4.2990 2.9300 162.2850 225.4440 225.1000 225.7870 2.7000 1.8190 262.3710 295.3980 309.2830 782.2710 660.6230
  682.690 1.8710 1.1830 2.2060 4.1490 2.9870 161.8430 225.4440 223.8740 227.0140 3.0600 1.8750 253.6040 304.6020 304.1200 779.8460 660.0660
  682.790 1.9590 1.2220 2.1920 4.0330 2.9640 160.8700 225.4440 225.1000 225.7870 3.2200 1.8850 248.2090 296.4650 299.4520 777.2470 659.7580
  682.890 1.9540 1.3410 2.2400 3.9060 2.9750 160.7820 225.4440 224.4870 226.4010 2.8800 1.9070 242.0510 300.0220 293.7250 774.3810 659.1540
  682.990 2.0610 1.4990 2.2560 3.8140 3.0090 161.4000 225.4440 224.4870 226.4010 2.5000 1.8960 233.8120 300.8230 288.0670 771.7510 658.1640
  683.090 2.2340 1.5780 2.1940 3.7790 2.9980 161.6660 224.8520 224.4870 225.2170 2.3600 1.9330 230.2930 300.2000 283.9670 769.9370 657.0940
  683.190 2.1040 1.3010 2.1750 3.7440 2.9750 160.1630 224.8520 225.1000 224.6040 2.3600 1.9840 226.0120 311.8930 282.1070 769.0160 656.6080
  683.290 2.1140 1.1430 2.1480 3.6870 2.9300 157.6000 225.4440 224.4870 226.4010 2.4200 2.0030 220.2070 317.3620 281.0180 768.5090 656.5570
  683.390 2.1380 1.1830 2.2070 3.6520 2.8950 157.6880 224.8520 224.4870 225.2170 2.4000 1.9950 221.8200 326.2980 279.8800 767.9440 656.3890
  683.490 2.0000 1.3010 2.1940 3.6640 2.8950 159.8970 223.0770 223.8740 222.2800 2.5400 1.9710 219.7670 334.5680 278.8880 766.3830 654.9110
  683.590 1.8580 1.2620 2.2130 3.6170 2.8730 162.7270 223.0770 223.2600 222.8940 2.5800 1.9280 219.3270 334.6120 278.6810 763.4160 651.7340
  683.690 1.6410 1.2620 2.2450 3.6290 2.8730 163.0800 223.0770 222.0330 224.1200 2.5800 1.9090 218.6820 334.6120 279.2040 759.1570 647.4890
  683.790 1.5780 1.2220 2.1710 3.6400 2.8950 162.9920 224.2600 223.2600 225.2610 2.5400 1.9120 212.3490 329.8550 279.1710 754.5930 643.3700
  683.890 1.3960 1.1830 2.2540 3.5940 2.9870 163.6110 224.8520 223.2600 226.4440 2.7200 1.9390 211.5860 325.8090 278.0580 750.2670 640.4270
  683.990 1.2710 1.0250 2.1740 3.5250 3.0780 164.2300 225.4440 223.2600 227.6270 2.8400 1.9970 208.2140 321.5410 274.5990 746.5330 638.7790
  684.090 1.2910 0.9060 2.1760 3.3980 3.1350 164.7600 224.8520 222.6470 227.0570 2.8400 1.9890 200.9130 319.5400 269.3850 744.2700 638.3980
  684.190 1.3180 0.9060 2.2860 3.2940 3.2260 163.7880 227.2190 223.2600 231.1780 2.6000 2.0000 194.5800 303.3120 264.6790 744.1520 638.8910
  684.290 1.3060 0.8270 2.2810 3.1320 3.3510 162.9920 226.0360 222.0330 230.0380 2.5200 1.9360 191.6190 299.0890 263.1510 746.6820 640.2140
  684.390 1.3960 0.9060 2.2350 3.0050 3.4430 163.4350 226.6270 222.6470 230.6080 2.5400 1.9550 182.9690 294.2870 266.1700 750.0850 641.9250
  684.490 1.5450 1.1430 2.1270 2.8900 3.5570 164.4070 227.2190 223.8740 230.5640 2.6800 1.9200 187.1910 288.1070 270.3990 753.2150 643.6710
  684.590 1.6790 1.2620 2.1540 2.8320 3.6140 164.3180 227.8110 223.8740 231.7480 2.5600 1.9250 185.6960 297.6210 273.8600 752.4920 642.7190
  684.690 1.7300 1.2620 2.2490 2.7390 3.6820 163.6110 224.8520 219.5800 230.1240 2.3800 1.9600 185.7540 290.9520 274.4330 747.3590 637.6930
