~Version information
  VERS.                           2.00 : CWLS log ASCII Standard -Version 2.00
  WRAP.                             NO : One line per depth step
~Well information
#MNEM.UNIT              Data Type        Information
#----------------------------------------------------------------------
  STRT.M                         1.090 : 
  STOP.M                       818.990 : 
  STEP.M                         0.100 : 
  NULL.                      -999.2500 : 
  WELL.                            309 : Well Name
  FLD .                       KARATUBE : Field Name
  SRVC.        JSC "KAZPROMGEOPHYSIKA" : Service company
  DATE.                       26.07.04 : Log date
~Curve information
#MNEM.UNIT                               Curve Description
#----------------------------------------------------------------------
  DEPT.M                               : Depth Curve
  LL3 .OHMM                            : Appar.resist.laterolog,3 electrodes
  MLL .OHMM                            : Microlaterolog sonde
  RHOB.G/C3                            : Bulk density by gamma-gamma log
  GZ3 .OHMM                            : App.resistivity by lateral A2.0M0.5N
  GZ3B.OHMM                            : App.resistivity by lateral N0.5Œ2.0€
  SP  .MV                              : Spontaneous potential
  CALI.MM                              : Caliper
  C1  .MM                              : Diameter from profile1
  C2  .MM                              : Diameter from profile2
  GR  .UR/H                            : Gamma-ray log
  NGLD.UE                              : Neutron-gamma log/device DRST-90
  CILR.MMHO                            : Conduct. by sonde 7I1.6,react.signal
  CILA.MMHO                            : Conduct. by sonde 7I1.6,active signal
  DTP .US/M                            : Interval travel time (P-wave)
  T1  .US                              : Travel time1
  T2  .US                              : Travel time2
~Parameter information
#MNEM.UNIT              Value            Description
#----------------------------------------------------------------------
#----------------------------------------------------------------------
  DFV .SEK                          40 : Drilling Fluid Viscosity
  BS  .MM                        215.9 : Bit Size
  DFD .G/C3                       1.13 : Drilling Fluid Density
~Ascii Log Data
# ...
  586.890 0.9590 0.4320 1.9370 1.1220 1.1050 181.2930 233.7280 228.1670 239.2890 2.3200 1.7730 341.1860 215.6810 442.9840 1112.0300 933.3760
  586.990 0.9590 0.4320 1.9370 1.1220 1.1050 181.2930 233.7280 228.1670 239.2890 2.3200 1.7730 341.1860 215.6810 446.6460 1112.0300 933.3760
  587.090 0.9270 0.4320 1.9460 1.0990 1.1170 179.5240 230.1780 225.1000 235.2550 2.1600 1.7890 340.8640 223.2840 446.6460 1112.3101 933.6010
  587.190 0.8870 0.4320 1.9020 1.0760 1.1620 178.6410 224.8520 222.0330 227.6710 2.0800 1.6770 327.9330 224.9730 446.7700 1112.3400 934.0080
  587.290 0.8830 0.4320 1.9330 1.0410 1.2310 179.3470 224.8520 221.4200 228.2840 2.1800 1.5410 330.4250 219.4160 445.8390 1112.2800 934.2200
  587.390 0.9950 0.3530 1.8860 1.0180 1.3560 178.9940 225.4440 221.4200 229.4670 2.3800 1.4990 328.7540 224.2620 445.1580 1110.5601 931.5400
  587.490 0.9950 0.3530 1.8860 1.0180 1.3560 178.9940 225.4440 221.4200 229.4670 2.3800 1.4990 328.7540 224.2620 447.5460 1110.5601 931.5400
  587.590 1.0570 0.5110 1.8790 1.0530 1.4240 178.4640 224.2600 219.5800 228.9410 2.3200 1.5520 330.8940 233.1090 447.5460 1107.8700 928.0110
  587.690 0.9700 0.3920 1.8280 1.0300 1.4130 180.4080 225.4440 220.8070 230.0810 2.1400 1.6270 326.9950 242.1350 449.6420 1104.0200 923.5930
  587.790 0.9510 0.4710 1.8680 1.0410 1.4470 180.4960 223.6690 219.5800 227.7570 2.2800 1.6830 328.4900 248.0480 451.0640 1100.2600 919.1040
  587.890 0.9180 0.4320 1.8890 0.9950 1.4360 180.6740 223.6690 220.1930 227.1440 2.4000 1.6670 314.2400 266.5880 452.8800 1095.1899 911.2890
  587.990 0.9180 0.4320 1.8890 0.9950 1.4360 180.6740 223.6690 220.1930 227.1440 2.4000 1.6670 314.2400 266.5880 459.7550 1095.1899 911.2890
  588.090 0.9060 0.3530 1.8610 0.9610 1.5270 179.0820 222.4850 218.9670 226.0040 2.1600 1.6050 297.2630 278.7260 459.7550 1092.1200 907.3810
  588.190 0.8770 0.3530 1.8720 0.9370 1.5270 179.1710 221.8930 219.5800 224.2070 2.2600 1.5490 294.0380 287.0840 461.8550 1087.1600 902.7660
  588.290 0.8630 0.4320 1.8820 0.9610 1.6300 179.4350 221.3020 219.5800 223.0230 2.3000 1.5280 285.9450 300.6890 460.9820 1080.1000 897.6570
  588.390 0.9730 0.4710 1.8970 0.9260 1.6750 179.1710 219.5270 217.7400 221.3130 2.3800 1.6050 275.8580 317.7620 456.1120 1065.5400 888.2430
  588.490 0.9730 0.4710 1.8970 0.9260 1.6750 179.1710 219.5270 217.7400 221.3130 2.3800 1.6050 275.8580 317.7620 443.2400 1065.5400 888.2430
  588.590 0.9380 0.4710 1.8260 0.9030 1.7320 179.5250 220.7100 218.9670 222.4530 2.2600 1.6130 269.1150 333.6340 443.2400 1059.9399 884.0200
  588.690 0.9100 0.3920 1.9020 0.9140 1.7890 180.8500 221.8930 219.5800 224.2070 2.1000 1.5970 263.0450 341.7710 439.7890 1055.0900 879.3920
  588.790 0.8750 0.3920 1.8960 0.9030 1.7890 182.2650 220.7100 218.3530 223.0670 2.0600 1.5760 255.5390 350.3510 439.2390 1047.6899 871.2910
  588.890 0.8650 0.3920 1.9600 0.8450 1.8920 181.6470 222.4850 218.3530 226.6170 2.0800 1.6880 238.4450 353.5530 441.0020 1023.5300 843.8250
  588.990 0.8650 0.3920 1.9600 0.8450 1.8920 181.6470 222.4850 218.3530 226.6170 2.0800 1.6880 238.4450 353.5530 449.2590 1023.5300 843.8250
  589.090 0.8360 0.3530 1.8760 0.8450 1.9830 181.1150 222.4850 218.9670 226.0040 2.0200 1.7230 227.3610 350.3960 449.2590 1012.5700 830.6900
  589.190 0.8370 0.3920 1.8540 0.8220 2.0520 180.4080 224.2600 220.1930 228.3270 2.2400 1.7090 216.4240 350.8850 454.7080 1004.3900 821.9660
  589.290 0.8670 0.3530 1.8910 0.7760 2.1540 180.5850 223.6690 220.8070 226.5310 2.4600 1.6080 198.3630 341.6370 456.0540 997.8910 818.1370
  589.390 0.9000 0.3130 1.9210 0.7990 2.5760 180.2310 220.1180 218.9670 221.2700 4.4400 1.5390 166.7840 312.6490 449.3850 987.1730 820.3530
  589.490 0.9000 0.3130 1.9210 0.7990 2.5760 180.2310 220.1180 218.9670 221.2700 4.4400 1.5390 166.7840 312.6490 417.0490 987.1730 820.3530
  589.590 1.0670 0.4320 1.9800 0.8330 2.8040 181.6460 223.6690 219.5800 227.7570 5.4000 1.5710 163.4410 287.9730 417.0490 984.4390 822.5630
  589.690 1.3520 0.6690 2.0210 0.8330 3.0320 180.2320 223.6690 223.2600 224.0770 5.7600 1.6030 155.6120 276.0140 404.6910 979.8540 820.5510
  589.790 1.4890 0.6290 2.0280 0.8800 3.1690 179.4360 228.9940 226.3270 231.6610 5.7400 1.6350 151.0670 272.3230 398.2580 971.0020 810.2720
  589.890 1.5240 0.7480 2.0890 1.0180 3.1350 177.4920 221.8930 220.8070 222.9800 6.3600 1.6030 143.7960 268.4550 401.8250 951.9280 769.6740
  589.990 1.5240 0.7480 2.0890 1.0180 3.1350 177.4920 221.8930 220.8070 222.9800 6.3600 1.6030 143.7960 268.4550 455.6350 951.9280 769.6740
  590.090 1.5780 0.7080 2.0230 1.0530 3.1350 175.7220 221.8930 219.5800 224.2070 6.7800 1.5200 142.3590 272.9900 455.6350 951.5580 753.8120
  590.190 1.6250 0.7480 2.0130 1.0880 3.2370 172.8060 223.0770 220.8070 225.3470 7.1800 1.5230 149.6310 295.8430 494.3640 954.9470 748.5160
  590.290 1.7700 0.7080 2.0330 1.1220 3.3740 173.5130 221.8930 220.1930 223.5940 7.0600 1.5010 152.2700 300.1560 516.0770 955.7800 752.9530
  590.390 1.7340 0.6690 2.1330 1.1800 3.5220 176.4300 224.8520 222.0330 227.6710 7.0200 1.5170 133.0640 253.8720 507.0670 953.3800 761.5120
  590.490 1.7340 0.6690 2.1330 1.1800 3.5220 176.4300 224.8520 222.0330 227.6710 7.0200 1.5170 133.0640 253.8720 479.6690 953.3800 761.5120
  590.590 1.7140 0.6290 2.0950 1.2720 3.5910 176.6950 226.0360 223.8740 228.1970 7.0200 1.5490 128.7830 249.2040 479.6690 948.7690 760.9810
  590.690 1.8110 0.7080 2.0570 1.2960 3.7390 177.1370 227.8110 225.7140 229.9080 7.3000 1.5810 120.2800 251.7380 469.4700 942.0690 761.1120
  590.790 1.8280 0.6690 2.0110 1.3650 3.8990 177.5790 229.5860 226.3270 232.8450 7.1400 1.5730 118.5210 258.1410 452.3940 935.7360 763.9430
  590.890 2.4270 1.1430 2.1520 1.5270 4.2980 177.1370 237.8700 236.7540 238.9860 6.5600 1.6320 121.3360 249.6040 429.4810 927.5580 762.3570
  590.990 2.4270 1.1430 2.1520 1.5270 4.2980 177.1370 237.8700 236.7540 238.9860 6.5600 1.6320 121.3360 249.6040 413.0020 927.5580 762.3570
  591.090 3.1770 1.8550 2.3510 1.7110 4.2520 177.4030 241.4200 244.7280 238.1130 6.0200 1.6560 127.1120 277.5700 413.0020 927.1880 756.5660
  591.190 2.5060 1.3010 2.1670 1.8270 4.3090 177.4910 258.5800 263.7410 253.4180 5.6600 1.6510 135.8200 316.7390 426.5540 931.2620 749.9360
  591.290 2.1330 0.9060 2.1250 1.9190 4.1150 175.8120 239.6450 247.7940 231.4960 5.5000 1.6510 152.1520 326.9210 453.3140 936.5210 743.0350
  591.390 1.4490 0.7480 2.0000 1.9080 3.6710 175.4570 251.4790 255.7680 247.1910 5.9000 1.7470 143.9720 299.4000 483.7160 945.2620 738.3680
  591.490 1.4490 0.7480 2.0000 1.9080 3.6710 175.4570 251.4790 255.7680 247.1910 5.9000 1.7470 143.9720 299.4000 517.2340 945.2620 738.3680
  591.590 1.3520 0.5900 1.9580 1.8500 3.7050 176.7840 250.2960 253.3140 247.2770 5.7000 1.7170 127.8160 315.3610 517.2340 952.4840 746.2940
  591.690 1.2440 0.5500 2.0790 1.8730 3.6940 176.2530 232.5440 233.0740 232.0150 5.1400 1.6640 113.4190 308.6920 515.4750 958.7430 760.6920
  591.790 1.1860 0.4710 2.0350 1.7580 4.1720 176.2530 228.4020 228.1670 228.6380 4.4000 1.6800 108.6100 270.4560 495.1280 959.4470 778.7010
  591.890 2.5410 6.4800 2.3720 2.0580 5.3930 174.3970 249.7040 261.9010 237.5070 3.6000 1.6850 125.0300 244.8470 451.8640 963.8540 800.4420
  591.990 2.5410 6.4800 2.3720 2.0580 5.3930 174.3970 249.7040 261.9010 237.5070 3.6000 1.6850 125.0300 244.8470 408.5300 963.8540 800.4420
  592.090 3.8280 11.9350 2.4720 2.2770 5.3930 173.1590 243.1950 261.2880 225.1030 3.8600 1.6240 123.0070 270.3230 408.5300 973.7060 805.8400
  592.190 2.1230 3.0800 2.2000 2.4850 5.2440 174.3080 252.6630 253.3140 252.0110 4.3600 1.5950 118.9900 290.5080 419.6640 979.4840 813.7940
  592.290 1.4160 0.5900 1.8990 2.6120 4.9820 175.1040 228.4020 225.7140 231.0910 4.7400 1.6400 109.9000 284.2830 414.2250 979.4840 823.1640
  592.390 2.0800 0.5110 2.1710 2.5320 4.8000 176.1650 228.4020 226.9400 229.8640 4.5000 1.7390 114.6210 257.0290 390.7990 976.5800 836.7570
  592.490 2.0800 0.5110 2.1710 2.5320 4.8000 176.1650 228.4020 226.9400 229.8640 4.5000 1.7390 114.6210 257.0290 349.5590 976.5800 836.7570
