~Version information
  VERS.                           2.00 : CWLS log ASCII Standard -Version 2.00
  WRAP.                             NO : One line per depth step
~Well information
#MNEM.UNIT              Data Type        Information
#----------------------------------------------------------------------
  STRT.M                         1.090 : 
  STOP.M                       818.990 : 
  STEP.M                         0.100 : 
  NULL.                      -999.2500 : 
  WELL.                            309 : Well Name
  FLD .                       KARATUBE : Field Name
  SRVC.        JSC "KAZPROMGEOPHYSIKA" : Service company
  DATE.                       26.07.04 : Log date
~Curve information
#MNEM.UNIT                               Curve Description
#----------------------------------------------------------------------
  DEPT.M                               : Depth Curve
  LL3 .OHMM                            : Appar.resist.laterolog,3 electrodes
  MLL .OHMM                            : Microlaterolog sonde
  RHOB.G/C3                            : Bulk density by gamma-gamma log
  GZ3 .OHMM                            : App.resistivity by lateral A2.0M0.5N
  GZ3B.OHMM                            : App.resistivity by lateral N0.5Œ2.0€
  SP  .MV                              : Spontaneous potential
  CALI.MM                              : Caliper
  C1  .MM                              : Diameter from profile1
  C2  .MM                              : Diameter from profile2
  GR  .UR/H                            : Gamma-ray log
  NGLD.UE                              : Neutron-gamma log/device DRST-90
  CILR.MMHO                            : Conduct. by sonde 7I1.6,react.signal
  CILA.MMHO                            : Conduct. by sonde 7I1.6,active signal
  DTP .US/M                            : Interval travel time (P-wave)
  T1  .US                              : Travel time1
  T2  .US                              : Travel time2
~Parameter information
#MNEM.UNIT              Value            Description
#----------------------------------------------------------------------
#----------------------------------------------------------------------
  DFV .SEK                          40 : Drilling Fluid Viscosity
  BS  .MM                        215.9 : Bit Size
  DFD .G/C3                       1.13 : Drilling Fluid Density
~Ascii Log Data
# ...
  448.690 2.2280 1.1040 1.9510 6.0660 4.6290 164.8490 226.6270 224.4870 228.7680 4.6000 1.4400 94.4190 248.8040 414.4400 1055.4200 887.0680
  448.790 2.2390 0.9850 1.9700 5.7310 4.4580 164.6720 226.6270 223.8740 229.3810 4.6600 1.4270 93.7440 254.0500 420.8880 1054.5601 887.7390
  448.890 2.2750 1.1830 2.0500 5.3960 4.3550 165.1140 225.4440 223.2600 227.6270 4.8000 1.4350 91.9270 245.8690 417.0630 1053.9301 889.7430
  448.990 2.4210 1.2220 2.0780 4.8190 4.2410 164.8490 226.0360 222.6470 229.4240 4.8400 1.4430 89.4340 244.3580 410.4600 1056.0000 894.7070
  449.090 2.4210 1.2220 2.0780 4.8190 4.2410 164.8490 226.0360 222.6470 229.4240 4.8400 1.4430 89.4340 244.3580 403.2360 1056.0000 894.7070
  449.190 2.4660 1.2620 2.1020 4.6450 4.1610 165.2910 225.4440 221.4200 229.4670 4.7000 1.5040 93.7740 242.7570 403.2360 1059.3400 896.7420
  449.290 2.6180 1.2620 2.0390 4.4950 4.1040 165.6440 225.4440 223.8740 227.0140 4.5600 1.4830 93.6270 247.7370 406.5060 1062.8400 898.6220
  449.390 2.6670 1.3010 2.0400 4.4380 4.0930 165.8210 224.2600 223.8740 224.6470 4.2600 1.4930 93.3340 244.6690 410.5350 1064.7900 899.3380
  449.490 2.5000 1.2220 2.0630 4.4140 3.9560 164.3180 224.8520 223.8740 225.8310 4.7600 1.4640 93.1870 245.3360 413.6230 1063.5699 896.1750
  449.590 2.5000 1.2220 2.0630 4.4140 3.9560 164.3180 224.8520 223.8740 225.8310 4.7600 1.4640 93.1870 245.3360 418.4980 1063.5699 896.1750
  449.690 2.4210 1.1040 2.1050 4.4140 3.9900 164.2300 223.6690 222.6470 224.6900 5.1000 1.4430 96.8820 246.4920 418.4980 1062.9301 893.7740
  449.790 2.4040 1.1430 2.0940 4.4140 3.9790 164.5840 224.2600 223.2600 225.2610 5.1200 1.4850 93.3630 245.4250 422.8810 1063.0699 892.3000
  449.890 2.4150 1.1830 2.0420 4.4720 4.0130 166.3510 224.2600 223.2600 225.2610 5.1400 1.5280 96.7650 242.6680 426.9190 1062.8700 891.9300
  449.990 2.4210 1.2220 2.0370 4.5300 4.0470 166.6170 224.2600 223.8740 224.6470 5.2000 1.5490 94.4770 245.1580 427.3450 1060.7300 892.6220
  450.090 2.4210 1.2220 2.0370 4.5300 4.0470 166.6170 224.2600 223.8740 224.6470 5.2000 1.5490 94.4770 245.1580 420.2630 1060.7300 892.6220
  450.190 2.4270 1.1430 2.0040 4.6690 4.0580 166.2630 224.8520 223.8740 225.8310 5.0400 1.5550 95.7380 249.2040 420.2630 1059.7600 892.4350
  450.290 2.4040 1.1430 2.0620 4.8300 4.1040 165.3790 224.2600 222.6470 225.8740 5.1600 1.5170 94.1550 250.1820 418.3230 1059.2900 891.4870
  450.390 2.4380 1.1830 2.0820 5.0380 4.1380 164.6720 223.6690 222.6470 224.6900 5.1200 1.4320 95.4160 245.3360 419.5090 1059.6801 891.0340
  450.490 2.4770 1.1040 2.1120 5.2110 4.1500 161.4890 223.0770 220.8070 225.3470 4.7000 1.4350 96.7350 251.5600 421.6030 1063.2500 895.2150
  450.590 2.4770 1.1040 2.1120 5.2110 4.1500 161.4890 223.0770 220.8070 225.3470 4.7000 1.4350 96.7350 251.5600 420.0770 1063.2500 895.2150
  450.690 2.4600 1.1830 2.0580 5.1880 4.1270 162.1080 223.0770 222.0330 224.1200 4.8000 1.5010 93.8620 251.8720 420.0770 1064.9800 898.5390
  450.790 2.2910 1.1040 2.0490 5.0730 4.1500 164.0530 223.6690 222.6470 224.6900 4.8200 1.5410 94.0960 250.3600 416.1010 1066.2700 900.5000
  450.890 2.2540 1.1040 1.9840 4.9800 4.1720 164.5830 223.6690 222.6470 224.6900 5.1000 1.5170 91.6040 250.7600 414.4200 1068.0300 900.6930
  450.990 2.3710 1.0640 2.0570 4.7490 4.2410 164.0530 225.4440 223.2600 227.6270 5.3400 1.4270 94.9170 251.6050 418.3320 1074.3000 900.0350
  451.090 2.3710 1.0640 2.0570 4.7490 4.2410 164.0530 225.4440 223.2600 227.6270 5.3400 1.4270 94.9170 251.6050 435.6560 1074.3000 900.0350
  451.190 2.3880 1.1040 2.0230 4.7150 4.3890 163.6990 224.2600 223.2600 225.2610 5.3800 1.4190 93.8320 253.3830 435.6560 1075.8500 900.6250
  451.290 2.3390 1.1430 2.0520 4.6690 4.4580 162.1960 223.0770 224.4870 221.6670 5.1800 1.4350 93.9790 249.3370 438.0640 1074.8900 901.4970
  451.390 2.3010 1.1830 2.1180 4.6690 4.5490 160.4280 224.8520 225.7140 223.9910 5.0800 1.4560 92.6600 250.7160 433.4900 1072.9600 903.0180
  451.490 2.3440 1.2220 2.1620 4.6690 4.7310 157.8640 224.2600 225.7140 222.8070 5.4200 1.4320 93.6860 247.9150 424.8460 1074.4301 908.2130
  451.590 2.3440 1.2220 2.1620 4.6690 4.7310 157.8640 224.2600 225.7140 222.8070 5.4200 1.4320 93.6860 247.9150 415.5320 1074.4301 908.2130
  451.690 2.3990 1.4200 2.1840 4.5990 4.8110 158.8370 224.2600 226.3270 222.1940 5.6000 1.4480 91.7800 251.2050 415.5320 1075.7500 909.3070
  451.790 2.3880 1.2220 2.1330 4.5880 4.8680 160.5170 222.4850 223.8740 221.0970 5.3400 1.4930 89.8450 245.1140 416.1040 1074.3101 908.2620
  451.890 2.4040 1.3410 2.0810 4.5410 4.9250 159.5440 224.2600 225.7140 222.8070 5.1600 1.5600 89.6980 247.2030 415.1310 1070.5500 906.1310
  451.990 2.3280 1.2220 2.1360 4.4720 5.0960 159.2790 226.0360 225.1000 226.9710 5.1000 1.5570 87.6750 246.4470 411.0400 1064.5500 907.2210
  452.090 2.3280 1.2220 2.1360 4.4720 5.0960 159.2790 226.0360 225.1000 226.9710 5.1000 1.5570 87.6750 246.4470 393.3210 1064.5500 907.2210
  452.190 2.3170 1.1430 2.2460 4.4380 5.2440 161.5770 224.2600 225.1000 223.4200 5.2200 1.4960 86.1800 237.1550 393.3210 1059.6899 904.5350
  452.290 2.4210 1.2620 2.2350 4.3910 5.2670 162.5500 224.2600 225.7140 222.8070 5.3800 1.4400 86.1210 232.6200 387.8890 1049.1300 893.9690
  452.390 2.5290 1.4600 2.2140 4.3100 5.3010 163.2570 222.4850 224.4870 220.4840 5.5000 1.4000 82.3380 237.2890 387.8940 1031.6899 874.7520
  452.490 2.5000 1.2220 2.1110 4.1490 5.1300 159.5440 221.8930 223.8740 219.9130 5.7400 1.4560 81.7230 235.6440 392.3450 994.6680 834.0720
  452.590 2.5000 1.2220 2.1110 4.1490 5.1300 159.5440 221.8930 223.8740 219.9130 5.7400 1.4560 81.7230 235.6440 401.4900 994.6680 834.0720
  452.690 2.4100 1.1430 2.1310 4.1490 5.0500 159.9860 221.8930 223.2600 220.5270 5.7400 1.5040 80.4330 231.2860 401.4900 983.2600 821.2390
  452.790 2.3390 1.1430 2.0860 4.1260 5.0050 161.0470 219.5270 219.5800 219.4730 5.4800 1.5170 81.5170 231.3310 405.0550 978.2230 815.3310
  452.890 2.3330 1.1430 2.0430 4.1030 4.9590 162.9040 220.7100 219.5800 221.8400 5.4800 1.5040 80.5210 234.2650 407.2300 979.0380 815.4090
  452.990 2.3280 1.1040 2.0550 4.1140 4.9820 161.5770 219.5270 223.8740 215.1800 5.5400 1.4770 80.7550 237.1550 409.0730 986.8610 822.4410
  453.090 2.3280 1.1040 2.0550 4.1140 4.9820 161.5770 219.5270 223.8740 215.1800 5.5400 1.4770 80.7550 237.1550 411.0480 986.8610 822.4410
  453.190 2.3390 1.0250 2.1390 4.0560 4.9930 161.7540 219.5270 225.7140 213.3400 5.2600 1.4530 82.0750 231.5090 411.0480 991.5930 825.3630
  453.290 2.3170 1.1430 2.0720 4.0330 4.9820 162.4620 217.7510 225.1000 210.4030 5.4200 1.4670 78.4680 236.4440 415.5740 997.4250 828.3070
  453.390 2.3880 1.1040 2.0350 3.9750 4.9820 164.4060 218.9350 226.9400 210.9300 5.5800 1.4110 81.8990 235.0210 422.7960 1003.2300 832.0980
  453.490 2.3170 1.0250 2.0790 3.9640 4.9930 164.8480 218.9350 226.9400 210.9300 5.5000 1.3630 81.2240 226.7070 427.8230 1005.2900 836.2390
  453.590 2.3170 1.0250 2.0790 3.9640 4.9930 164.8480 218.9350 226.9400 210.9300 5.5000 1.3630 81.2240 226.7070 422.6240 1005.2900 836.2390
  453.690 2.3660 1.0640 2.1490 3.9410 5.1070 163.3450 221.3020 224.4870 218.1170 5.4200 1.4050 83.7750 224.7950 422.6240 1000.3700 832.5660
  453.790 2.5060 1.1430 2.1090 3.9180 5.1990 163.0800 222.4850 225.7140 219.2570 5.6000 1.4670 83.0720 224.6170 419.5040 994.7270 824.8930
  453.890 2.5640 1.2220 2.0830 3.9990 5.2330 163.5220 224.8520 225.7140 223.9910 5.8000 1.4910 83.5410 217.4150 424.5850 991.0610 816.6900
  453.990 2.5230 1.1040 2.0730 4.0330 5.4270 160.6940 228.9940 228.7800 229.2080 5.1000 1.4530 78.6730 199.5420 435.9260 988.4380 817.3930
  454.090 2.5230 1.1040 2.0730 4.0330 5.4270 160.6940 228.9940 228.7800 229.2080 5.1000 1.4530 78.6730 199.5420 427.6140 988.4380 817.3930
  454.190 2.6000 1.1830 2.0440 4.0790 5.5860 159.8090 227.8110 225.1000 230.5210 4.8200 1.4690 72.1050 197.0960 427.6140 985.5270 831.1300
  454.290 2.8640 1.1830 2.2140 4.1370 5.7120 160.6050 226.6270 225.1000 228.1540 4.5400 1.5410 71.5480 192.0720 385.9930 981.2090 850.6260
  454.390 3.7330 1.5390 2.2810 4.2530 5.8030 162.1080 226.6270 223.8740 229.3810 4.0800 1.6480 76.7970 199.4970 326.4570 979.4090 870.1890
