~Version information
  VERS.                           2.00 : CWLS log ASCII Standard -Version 2.00
  WRAP.                             NO : One line per depth step
~Well information
#MNEM.UNIT              Data Type        Information
#----------------------------------------------------------------------
  STRT.M                         1.090 : 
  STOP.M                       818.990 : 
  STEP.M                         0.100 : 
  NULL.                      -999.2500 : 
  WELL.                            309 : Well Name
  FLD .                       KARATUBE : Field Name
  SRVC.        JSC "KAZPROMGEOPHYSIKA" : Service company
  DATE.                       26.07.04 : Log date
~Curve information
#MNEM.UNIT                               Curve Description
#----------------------------------------------------------------------
  DEPT.M                               : Depth Curve
  LL3 .OHMM                            : Appar.resist.laterolog,3 electrodes
  MLL .OHMM                            : Microlaterolog sonde
  RHOB.G/C3                            : Bulk density by gamma-gamma log
  GZ3 .OHMM                            : App.resistivity by lateral A2.0M0.5N
  GZ3B.OHMM                            : App.resistivity by lateral N0.5Œ2.0€
  SP  .MV                              : Spontaneous potential
  CALI.MM                              : Caliper
  C1  .MM                              : Diameter from profile1
  C2  .MM                              : Diameter from profile2
  GR  .UR/H                            : Gamma-ray log
  NGLD.UE                              : Neutron-gamma log/device DRST-90
  CILR.MMHO                            : Conduct. by sonde 7I1.6,react.signal
  CILA.MMHO                            : Conduct. by sonde 7I1.6,active signal
  DTP .US/M                            : Interval travel time (P-wave)
  T1  .US                              : Travel time1
  T2  .US                              : Travel time2
~Parameter information
#MNEM.UNIT              Value            Description
#----------------------------------------------------------------------
#----------------------------------------------------------------------
  DFV .SEK                          40 : Drilling Fluid Viscosity
  BS  .MM                        215.9 : Bit Size
  DFD .G/C3                       1.13 : Drilling Fluid Density
~Ascii Log Data
# ...
  632.790 1.6220 0.8670 2.1310 7.4180 3.5000 172.4520 233.1360 232.4600 233.8120 5.6400 1.6400 166.1680 330.8780 375.0310 976.8250 826.3910
  632.890 1.6250 0.9460 2.1200 6.0890 3.9440 173.1590 233.7280 233.0740 234.3820 5.5800 1.6080 151.3310 336.3020 376.0870 980.5220 829.5350
  632.990 1.6250 0.9460 2.1200 6.0890 3.9440 173.1590 233.7280 233.0740 234.3820 5.5800 1.6080 151.3310 336.3020 377.4670 980.5220 829.5350
  633.090 1.5700 0.8270 2.1490 5.4660 4.1950 173.5130 233.7280 232.4600 234.9950 5.4200 1.5410 146.2590 338.9250 377.4670 982.9660 831.8130
  633.190 1.5920 0.8270 2.1330 5.0500 4.5830 173.0710 233.7280 233.0740 234.3820 5.6800 1.4770 135.0580 326.1650 377.8840 986.3000 835.2570
  633.290 1.6900 0.9460 2.1300 4.6920 4.9360 173.0710 233.7280 234.9140 232.5420 5.9200 1.5120 129.0180 314.8280 377.6060 990.4480 839.8500
  633.390 1.6630 0.9060 2.1810 4.0910 5.8490 173.9550 233.7280 234.3010 233.1550 5.5000 1.6240 107.3200 290.7300 376.4950 999.0400 850.0720
  633.490 1.6630 0.9060 2.1810 4.0910 5.8490 173.9550 233.7280 234.3010 233.1550 5.5000 1.6240 107.3200 290.7300 372.4200 999.0400 850.0720
  633.590 1.7100 0.8270 2.1330 3.8830 6.3500 173.7780 236.0950 232.4600 239.7290 5.2400 1.6510 100.2240 266.8100 372.4200 1003.6000 854.7310
  633.690 1.6980 0.9850 2.1570 3.7440 6.9770 173.1590 237.8700 233.0740 242.6660 5.2400 1.6610 91.5450 245.0250 372.1800 1008.2000 857.9300
  633.790 1.7500 0.9850 2.1270 3.6750 7.6730 173.2470 237.2780 233.6870 240.8690 4.9800 1.7120 80.7550 216.3920 375.6820 1012.0300 859.0800
  633.890 2.0460 1.0640 2.0790 3.7210 9.3260 174.1320 233.1360 230.6200 235.6520 4.2000 1.7040 63.8370 188.1150 382.3640 1019.2300 858.9290
  633.990 2.0460 1.0640 2.0790 3.7210 9.3260 174.1320 233.1360 230.6200 235.6520 4.2000 1.7040 63.8370 188.1150 400.7590 1019.2300 858.9290
  634.090 2.3280 1.0640 2.0710 3.7910 9.9310 174.1320 230.1780 229.3940 230.9610 3.5200 1.6930 63.6020 168.0640 400.7590 1022.7100 858.6200
  634.190 2.8770 1.6970 1.9480 3.9750 10.5690 174.3970 230.7690 230.6200 230.9180 2.9400 1.6240 57.7380 162.9510 410.2170 1025.3400 858.3560
  634.290 3.1190 1.3010 1.8820 4.1950 11.0140 174.0430 235.5030 234.9140 236.0920 2.7800 1.6450 56.7700 156.1480 417.4520 1026.7400 858.0540
  634.390 5.5460 2.6850 2.0050 4.5990 10.9000 173.6010 230.1780 229.3940 230.9610 3.6800 1.6770 54.3370 171.7540 421.7260 1025.5699 858.4610
  634.490 5.5460 2.6850 2.0050 4.5990 10.9000 173.6010 230.1780 229.3940 230.9610 3.6800 1.6770 54.3370 171.7540 417.7630 1025.5699 858.4610
  634.590 5.2720 1.9340 1.9150 4.7490 10.5350 173.8660 227.8110 227.5540 228.0680 4.2000 1.6290 58.0020 173.5770 417.7630 1022.5000 858.1540
  634.690 4.0460 1.4600 1.8990 4.7960 10.0220 173.8660 227.8110 226.3270 229.2940 4.7800 1.6030 58.6760 181.2680 410.8650 1018.6600 857.2590
  634.790 3.8910 1.3410 1.9570 4.7490 9.4400 173.6900 227.8110 227.5540 228.0680 5.1200 1.5710 57.9730 176.9110 403.4890 1015.9400 856.5960
  634.890 3.5480 1.1430 2.0900 4.4490 8.6990 172.3630 227.2190 226.3270 228.1110 4.6600 1.6240 56.8580 175.7110 398.3690 1013.3400 854.4810
  634.990 3.5480 1.1430 2.0900 4.4490 8.6990 172.3630 227.2190 226.3270 228.1110 4.6600 1.6240 56.8580 175.7110 397.1380 1013.3400 854.4810
  635.090 3.9720 1.2220 2.0140 4.2990 8.4030 172.2750 225.4440 226.3270 224.5610 4.2200 1.6720 61.7260 173.3100 397.1380 1013.6900 853.5690
  635.190 4.4050 1.2220 2.0440 4.1030 8.1630 173.1590 224.8520 225.7140 223.9910 3.8200 1.6800 60.3770 176.2440 400.2930 1015.7800 853.7180
  635.290 4.4880 1.2220 2.0250 3.9750 7.9470 173.8660 223.6690 225.7140 221.6240 3.6800 1.6800 60.3480 173.4880 405.1450 1017.9200 854.1900
  635.390 4.1400 1.1830 1.9920 3.8600 7.5480 173.2470 227.8110 226.9400 228.6810 3.8400 1.6720 60.4650 180.6460 409.3210 1019.4400 854.0430
  635.490 4.1400 1.1830 1.9920 3.8600 7.5480 173.2470 227.8110 226.9400 228.6810 3.8400 1.6720 60.4650 180.6460 413.4850 1019.4400 854.0430
  635.590 4.2360 1.2220 2.0130 3.8720 7.3880 172.5400 228.9940 228.1670 229.8210 3.9800 1.6720 64.2770 181.5800 413.4850 1019.0500 852.6580
  635.690 4.5710 1.1430 1.9620 3.9060 7.2170 172.7170 231.9530 229.3940 234.5120 4.0000 1.7170 62.4000 187.3600 415.9890 1018.4600 851.1560
  635.790 4.5290 1.1040 1.9690 4.0100 7.0120 172.4520 231.3610 228.7800 233.9420 4.2200 1.7170 66.3000 190.4270 418.2680 1017.7200 849.4790
  635.890 4.0740 1.1830 1.9610 4.1830 6.6580 172.1860 228.9940 226.9400 231.0480 4.4000 1.6160 66.5930 197.4970 420.6150 1015.9300 847.6310
  635.990 4.0740 1.1830 1.9610 4.1830 6.6580 172.1860 228.9940 226.9400 231.0480 4.4000 1.6160 66.5930 197.4970 420.7440 1015.9300 847.6310
  636.090 4.1110 1.1830 1.9700 4.3450 6.5210 172.8050 227.8110 226.9400 228.6810 4.4000 1.6110 69.4370 205.4100 420.7440 1015.1100 847.4360
  636.190 3.8640 1.3010 2.0170 4.5410 6.4190 173.6900 229.5860 227.5540 231.6180 4.2800 1.6480 66.3000 210.0790 419.1950 1014.0000 847.5520
  636.290 4.0460 1.3010 1.9430 4.7730 6.3620 174.2200 228.9940 226.9400 231.0480 4.1200 1.6670 71.2550 214.7470 416.1280 1012.8900 848.1350
  636.390 4.1300 1.1430 1.9080 5.4310 6.3620 173.9550 226.0360 226.3270 225.7440 4.0000 1.7470 75.2430 229.9970 411.8930 1009.8500 848.7470
  636.490 4.1300 1.1430 1.9080 5.4310 6.3620 173.9550 226.0360 226.3270 225.7440 4.0000 1.7470 75.2430 229.9970 402.7690 1009.8500 848.7470
  636.590 4.2360 1.3800 2.0540 5.8470 6.3850 173.5130 226.0360 225.7140 226.3570 4.3200 1.7070 78.5560 238.1780 402.7690 1008.7800 848.7730
  636.690 3.8370 1.3410 2.0990 6.1930 6.3850 174.0430 227.2190 225.7140 228.7240 4.4200 1.6190 75.4770 238.2220 400.0210 1008.8200 848.9890
  636.790 3.2430 1.3410 2.0270 6.6320 6.4870 173.7780 227.2190 225.7140 228.7240 4.7200 1.5250 76.2100 226.4400 399.5730 1009.9700 849.2050
  636.890 2.6910 0.9060 2.0900 6.9900 6.8180 173.9540 224.8520 225.1000 224.6040 4.4400 1.5650 69.4370 208.4340 401.9040 1011.6300 846.9440
  636.990 2.6910 0.9060 2.0900 6.9900 6.8180 173.9540 224.8520 225.1000 224.6040 4.4400 1.5650 69.4370 208.4340 411.7220 1011.6300 846.9440
  637.090 3.0130 0.9460 1.9970 6.9900 7.0910 174.3080 228.9940 226.3270 231.6610 4.2400 1.6160 68.3230 206.1660 411.7220 1011.7800 845.6390
  637.190 3.1990 1.1430 2.0040 6.9100 7.4110 173.7780 228.4020 226.3270 230.4780 4.2000 1.6450 62.8110 206.5660 415.3540 1012.0000 845.4200
  637.290 3.2660 1.0250 2.0170 6.8520 7.5360 173.4240 229.5860 226.3270 232.8450 4.2800 1.6320 62.2530 206.7890 416.4570 1012.7400 846.3760
  637.390 3.5160 1.1430 1.9820 6.8060 7.8780 177.3130 224.8520 225.1000 224.6040 4.1400 1.6130 60.7870 215.2360 415.9200 1012.2200 847.9910
  637.490 3.5160 1.1430 1.9820 6.8060 7.8780 177.3130 224.8520 225.1000 224.6040 4.1400 1.6130 60.7870 215.2360 410.5870 1012.2200 847.9910
  637.590 3.5640 1.0250 1.9610 6.8520 8.0490 182.7090 224.8520 223.8740 225.8310 4.1400 1.6210 64.9220 213.1470 410.5870 1011.4800 848.7830
  637.690 3.6730 1.2620 2.0030 6.8860 8.2200 188.1890 226.0360 224.4870 227.5840 4.1600 1.6480 62.1070 220.4830 406.7530 1011.7400 850.3090
  637.790 3.6310 1.4600 2.0010 6.8980 8.4370 189.3380 226.0360 223.8740 228.1970 4.1200 1.6670 59.6730 212.9690 403.5870 1012.8900 851.6500
  637.890 2.7800 0.8670 2.0430 6.8630 9.1330 180.7640 226.6270 224.4870 228.7680 4.3000 1.5920 52.2840 206.3440 403.1050 1015.7100 853.1320
  637.990 2.7800 0.8670 2.0430 6.8630 9.1330 180.7640 226.6270 224.4870 228.7680 4.3000 1.5920 52.2840 206.3440 406.4380 1015.7100 853.1320
  638.090 3.1050 0.9060 2.0350 6.8060 9.5660 175.2790 225.4440 223.8740 227.0140 3.8600 1.5650 54.4830 204.8770 406.4380 1017.3000 853.8870
  638.190 3.7840 1.2220 2.0180 6.7710 9.9990 171.0370 224.8520 224.4870 225.2170 3.4600 1.5890 52.6070 209.7680 408.5310 1018.6700 855.0870
  638.290 3.9990 1.5390 2.1100 6.7020 10.2730 171.6560 224.2600 224.4870 224.0340 3.3800 1.6350 51.1990 204.0770 408.9570 1019.4100 856.3170
  638.390 3.0410 1.0250 2.0410 6.5750 10.7290 171.9210 225.4440 225.1000 225.7870 3.9000 1.6350 43.1950 188.9600 407.7350 1019.7100 857.9090
  638.490 3.0410 1.0250 2.0410 6.5750 10.7290 171.9210 225.4440 225.1000 225.7870 3.9000 1.6350 43.1950 188.9600 404.4940 1019.7100 857.9090
