~Version information
  VERS.                           2.00 : CWLS log ASCII Standard -Version 2.00
  WRAP.                             NO : One line per depth step
~Well information
#MNEM.UNIT              Data Type        Information
#----------------------------------------------------------------------
  STRT.M                         1.090 : 
  STOP.M                       818.990 : 
  STEP.M                         0.100 : 
  NULL.                      -999.2500 : 
  WELL.                            309 : Well Name
  FLD .                       KARATUBE : Field Name
  SRVC.        JSC "KAZPROMGEOPHYSIKA" : Service company
  DATE.                       26.07.04 : Log date
~Curve information
#MNEM.UNIT                               Curve Description
#----------------------------------------------------------------------
  DEPT.M                               : Depth Curve
  LL3 .OHMM                            : Appar.resist.laterolog,3 electrodes
  MLL .OHMM                            : Microlaterolog sonde
  RHOB.G/C3                            : Bulk density by gamma-gamma log
  GZ3 .OHMM                            : App.resistivity by lateral A2.0M0.5N
  GZ3B.OHMM                            : App.resistivity by lateral N0.5Œ2.0€
  SP  .MV                              : Spontaneous potential
  CALI.MM                              : Caliper
  C1  .MM                              : Diameter from profile1
  C2  .MM                              : Diameter from profile2
  GR  .UR/H                            : Gamma-ray log
  NGLD.UE                              : Neutron-gamma log/device DRST-90
  CILR.MMHO                            : Conduct. by sonde 7I1.6,react.signal
  CILA.MMHO                            : Conduct. by sonde 7I1.6,active signal
  DTP .US/M                            : Interval travel time (P-wave)
  T1  .US                              : Travel time1
  T2  .US                              : Travel time2
~Parameter information
#MNEM.UNIT              Value            Description
#----------------------------------------------------------------------
#----------------------------------------------------------------------
  DFV .SEK                          40 : Drilling Fluid Viscosity
  BS  .MM                        215.9 : Bit Size
  DFD .G/C3                       1.13 : Drilling Fluid Density
~Ascii Log Data
# ...
  128.290 -999.250 -999.250 -999.250 -999.250 0.0450 249.1910 228.4020 228.1670 228.6380 2.6400 1.0240 -999.250 -999.250 -999.2500 -999.2500 -999.2500
  128.390 -999.250 -999.250 -999.250 -999.250 0.0560 248.8370 228.4020 228.1670 228.6380 2.7400 1.0590 -999.250 -999.250 -999.2500 -999.2500 -999.2500
  128.490 -999.250 -999.250 -999.250 -999.250 0.0900 248.6600 229.5860 228.1670 231.0050 2.8400 1.1250 -999.250 -999.250 -999.2500 -999.2500 -999.2500
  128.590 -999.250 -999.250 -999.250 -999.250 0.0900 248.7490 228.4020 229.3940 227.4110 2.8600 1.1200 -999.250 -999.250 -999.2500 -999.2500 -999.2500
  128.690 -999.250 -999.250 -999.250 -999.250 0.0900 249.2790 228.4020 227.5540 229.2510 2.9000 1.0960 -999.250 -999.250 -999.2500 -999.2500 -999.2500
  128.790 -999.250 -999.250 -999.250 -999.250 0.0790 249.6330 228.9940 227.5540 230.4350 2.9400 1.0160 -999.250 -999.250 -999.2500 -999.2500 -999.2500
  128.890 -999.250 -999.250 -999.250 -999.250 0.0560 250.8700 228.4020 227.5540 229.2510 2.8600 1.0240 -999.250 -999.250 -999.2500 -999.2500 -999.2500
  128.990 -999.250 -999.250 -999.250 -999.250 0.1020 251.7540 229.5860 228.1670 231.0050 2.8800 1.0670 -999.250 -999.250 -999.2500 -999.2500 -999.2500
  129.090 -999.250 -999.250 -999.250 -999.250 0.1020 252.1080 228.9940 228.1670 229.8210 3.0200 1.0930 -999.250 -999.250 -999.2500 -999.2500 -999.2500
  129.190 -999.250 -999.250 -999.250 -999.250 0.0900 251.7540 228.9940 228.1670 229.8210 3.2000 1.0640 -999.250 -999.250 -999.2500 -999.2500 -999.2500
  129.290 -999.250 -999.250 -999.250 -999.250 0.1020 252.4620 228.9940 228.1670 229.8210 3.2200 1.0400 -999.250 -999.250 -999.2500 -999.2500 -999.2500
  129.390 -999.250 -999.250 -999.250 -999.250 0.0790 253.3460 228.9940 228.1670 229.8210 3.0800 1.0160 -999.250 -999.250 -999.2500 -999.2500 -999.2500
  129.490 -999.250 -999.250 -999.250 -999.250 0.0450 253.5230 228.4020 228.1670 228.6380 3.0600 1.0210 -999.250 -999.250 -999.2500 -999.2500 -999.2500
  129.590 -999.250 -999.250 -999.250 -999.250 0.0900 253.5230 228.4020 228.7800 228.0240 3.0600 1.0370 -999.250 -999.250 -999.2500 -999.2500 -999.2500
  129.690 -999.250 -999.250 -999.250 -999.250 0.0330 253.7000 228.4020 228.1670 228.6380 2.9400 1.0530 -999.250 -999.250 -999.2500 -999.2500 -999.2500
  129.790 -999.250 -999.250 -999.250 -999.250 0.1130 253.8760 228.4020 228.7800 228.0240 2.9400 1.0530 -999.250 -999.250 -999.2500 -999.2500 -999.2500
  129.890 -999.250 -999.250 -999.250 -999.250 0.0680 253.9650 228.4020 228.1670 228.6380 2.9400 1.0480 -999.250 -999.250 -999.2500 -999.2500 -999.2500
  129.990 -999.250 -999.250 -999.250 -999.250 0.0560 255.0250 228.9940 228.7800 229.2080 2.9600 1.0370 -999.250 -999.250 -999.2500 -999.2500 -999.2500
  130.090 -999.250 -999.250 -999.250 -999.250 0.1020 256.1750 228.4020 228.7800 228.0240 2.8800 0.9970 -999.250 -999.250 -999.2500 -999.2500 -999.2500
  130.190 -999.250 -999.250 -999.250 -999.250 0.0680 256.1750 228.9940 228.1670 229.8210 2.9200 1.0050 -999.250 -999.250 -999.2500 -999.2500 -999.2500
  130.290 -999.250 -999.250 -999.250 -999.250 0.0450 255.9100 228.4020 228.7800 228.0240 2.9800 1.0000 -999.250 -999.250 -999.2500 -999.2500 -999.2500
  130.390 -999.250 -999.250 -999.250 -999.250 0.1020 255.7330 228.4020 228.7800 228.0240 2.9600 1.0000 -999.250 -999.250 -999.2500 -999.2500 -999.2500
  130.490 -999.250 -999.250 -999.250 -999.250 0.0330 255.8220 228.4020 228.7800 228.0240 2.8400 0.9390 -999.250 -999.250 -999.2500 -999.2500 -999.2500
  130.590 -999.250 -999.250 -999.250 -999.250 0.0790 255.1140 228.4020 227.5540 229.2510 2.9400 0.9680 -999.250 -999.250 -999.2500 -999.2500 -999.2500
  130.690 -999.250 -999.250 -999.250 -999.250 0.0790 254.8490 227.8110 227.5540 228.0680 2.8800 1.0080 -999.250 -999.250 -999.2500 -999.2500 -999.2500
  130.790 -999.250 -999.250 -999.250 -999.250 0.0680 254.4950 228.4020 228.1670 228.6380 2.9600 1.0320 -999.250 -999.250 -999.2500 -999.2500 -999.2500
  130.890 -999.250 -999.250 -999.250 -999.250 0.0790 254.3190 228.4020 228.1670 228.6380 2.9600 1.0030 -999.250 -999.250 -999.2500 -999.2500 -999.2500
  130.990 -999.250 -999.250 -999.250 -999.250 0.0450 253.3460 228.9940 228.1670 229.8210 3.0400 1.0290 -999.250 -999.250 -999.2500 -999.2500 -999.2500
  131.090 -999.250 -999.250 -999.250 -999.250 0.0450 253.5230 228.9940 228.7800 229.2080 2.9800 1.0480 -999.250 -999.250 -999.2500 -999.2500 -999.2500
  131.190 -999.250 -999.250 -999.250 -999.250 0.0900 253.7880 228.9940 227.5540 230.4350 2.9200 1.0370 -999.250 -999.250 -999.2500 -999.2500 -999.2500
  131.290 -999.250 -999.250 -999.250 -999.250 0.0900 254.7600 228.9940 227.5540 230.4350 2.9000 1.0160 -999.250 -999.250 -999.2500 -999.2500 -999.2500
  131.390 -999.250 -999.250 -999.250 -999.250 0.0790 254.4950 228.9940 228.1670 229.8210 2.7800 1.0080 -999.250 -999.250 -999.2500 -999.2500 -999.2500
  131.490 -999.250 -999.250 -999.250 -999.250 0.0790 254.1420 228.4020 228.1670 228.6380 2.6000 1.0370 -999.250 -999.250 -999.2500 -999.2500 -999.2500
  131.590 -999.250 -999.250 -999.250 -999.250 0.1130 254.4070 228.9940 228.1670 229.8210 2.5600 1.0320 -999.250 -999.250 -999.2500 -999.2500 -999.2500
  131.690 -999.250 -999.250 -999.250 -999.250 0.0790 255.2910 228.4020 228.1670 228.6380 2.6800 1.0350 -999.250 -999.250 -999.2500 -999.2500 -999.2500
  131.790 -999.250 -999.250 -999.250 -999.250 0.0790 255.9100 227.8110 227.5540 228.0680 2.8600 1.0160 -999.250 -999.250 -999.2500 -999.2500 -999.2500
  131.890 -999.250 -999.250 -999.250 0.0250 0.0680 255.2030 227.8110 228.7800 226.8410 3.0000 1.0110 177.8080 13.4750 -999.2500 -999.2500 -999.2500
  131.990 -999.250 -999.250 -999.250 0.0360 0.0330 254.8490 228.4020 227.5540 229.2510 2.9600 1.0290 177.2810 16.6760 -999.2500 -999.2500 -999.2500
  132.090 -999.250 -999.250 -999.250 0.0020 0.0900 255.2030 228.4020 227.5540 229.2510 2.9600 1.0240 174.4950 14.8980 -999.2500 -999.2500 -999.2500
  132.190 -999.250 -999.250 -999.250 0.0250 0.0450 255.8210 228.9940 228.7800 229.2080 3.0400 0.9870 175.1690 10.5850 -999.2500 -999.2500 -999.2500
  132.290 -999.250 -999.250 -999.250 -0.0330 0.0330 255.2910 228.4020 228.7800 228.0240 3.1200 0.9600 175.8440 12.1410 -999.2500 -999.2500 -999.2500
  132.390 -999.250 -999.250 -999.250 -0.0100 0.0680 254.6720 228.4020 228.1670 228.6380 3.1000 0.9650 180.5350 14.1420 -999.2500 -999.2500 -999.2500
  132.490 -999.250 -999.250 -999.250 0.0250 0.0330 254.7610 228.4020 228.1670 228.6380 3.0600 1.0110 182.8810 13.9640 -999.2500 -999.2500 -999.2500
  132.590 -999.250 -999.250 -999.250 0.0130 0.0680 255.3790 228.4020 228.1670 228.6380 3.1600 1.0160 178.3360 14.2750 -999.2500 -999.2500 -999.2500
  132.690 -999.250 -999.250 -999.250 -0.0210 0.0560 255.4680 228.9940 228.1670 229.8210 3.1400 1.0530 175.4920 10.9410 -999.2500 -999.2500 -999.2500
  132.790 -999.250 -999.250 -999.250 -0.0210 0.0680 254.7600 228.9940 228.1670 229.8210 3.0200 1.0610 178.3950 14.4090 -999.2500 -999.2500 -999.2500
  132.890 -999.250 -999.250 -999.250 0.0130 0.0900 254.4070 228.4020 228.1670 228.6380 2.8600 1.0320 181.9130 18.9880 -999.2500 -999.2500 -999.2500
  132.990 -999.250 -999.250 -999.250 0.0130 0.1130 254.7600 228.4020 228.7800 228.0240 2.7400 0.9790 183.7310 16.1430 -999.2500 -999.2500 -999.2500
  133.090 -999.250 -999.250 -999.250 -0.0210 0.1020 254.6720 227.8110 228.7800 226.8410 2.7200 0.9840 183.6730 13.1640 -999.2500 -999.2500 -999.2500
  133.190 -999.250 -999.250 -999.250 0.0360 0.1020 254.8490 228.4020 228.1670 228.6380 2.7000 1.0110 181.8250 17.4320 -999.2500 -999.2500 -999.2500
  133.290 -999.250 -999.250 -999.250 -0.0210 0.1130 254.8490 228.9940 227.5540 230.4350 2.6600 1.0110 181.7670 15.7420 -999.2500 -999.2500 -999.2500
  133.390 -999.250 -999.250 -999.250 -0.0100 0.0790 255.2910 228.9940 228.7800 229.2080 2.7400 0.9920 180.6530 15.7420 -999.2500 -999.2500 -999.2500
  133.490 -999.250 -999.250 -999.250 -0.0210 0.0680 255.6450 228.9940 227.5540 230.4350 2.8200 0.9790 180.6820 21.2550 -999.2500 -999.2500 -999.2500
  133.590 -999.250 -999.250 -999.250 0.0020 0.0680 255.7330 228.4020 225.7140 231.0910 2.9000 0.9890 173.4100 17.0760 -999.2500 -999.2500 -999.2500
