~Version information
  VERS.                           2.00 : CWLS log ASCII Standard -Version 2.00
  WRAP.                             NO : One line per depth step
~Well information
#MNEM.UNIT              Data Type        Information
#----------------------------------------------------------------------
  STRT.M                         1.090 : 
  STOP.M                       818.990 : 
  STEP.M                         0.100 : 
  NULL.                      -999.2500 : 
  WELL.                            309 : Well Name
  FLD .                       KARATUBE : Field Name
  SRVC.        JSC "KAZPROMGEOPHYSIKA" : Service company
  DATE.                       26.07.04 : Log date
~Curve information
#MNEM.UNIT                               Curve Description
#----------------------------------------------------------------------
  DEPT.M                               : Depth Curve
  LL3 .OHMM                            : Appar.resist.laterolog,3 electrodes
  MLL .OHMM                            : Microlaterolog sonde
  RHOB.G/C3                            : Bulk density by gamma-gamma log
  GZ3 .OHMM                            : App.resistivity by lateral A2.0M0.5N
  GZ3B.OHMM                            : App.resistivity by lateral N0.5Œ2.0€
  SP  .MV                              : Spontaneous potential
  CALI.MM                              : Caliper
  C1  .MM                              : Diameter from profile1
  C2  .MM                              : Diameter from profile2
  GR  .UR/H                            : Gamma-ray log
  NGLD.UE                              : Neutron-gamma log/device DRST-90
  CILR.MMHO                            : Conduct. by sonde 7I1.6,react.signal
  CILA.MMHO                            : Conduct. by sonde 7I1.6,active signal
  DTP .US/M                            : Interval travel time (P-wave)
  T1  .US                              : Travel time1
  T2  .US                              : Travel time2
~Parameter information
#MNEM.UNIT              Value            Description
#----------------------------------------------------------------------
#----------------------------------------------------------------------
  DFV .SEK                          40 : Drilling Fluid Viscosity
  BS  .MM                        215.9 : Bit Size
  DFD .G/C3                       1.13 : Drilling Fluid Density
~Ascii Log Data
# ...
  310.290 1.6980 0.7080 1.9140 4.2300 4.3430 174.6620 224.2600 229.3940 219.1270 5.3800 1.2290 87.6160 240.8010 637.5820 1179.1100 924.0780
  310.390 1.7500 0.7080 1.9670 4.2410 4.4580 175.6340 223.6690 229.3940 217.9440 5.6000 1.2400 88.2610 231.5980 637.5820 1173.1100 921.3330
  310.490 2.2080 0.9060 2.1270 4.0560 4.3550 177.2260 223.0770 228.7800 217.3730 5.5400 1.3890 84.5380 224.4400 629.4440 1161.2400 926.7780
  310.590 2.3550 0.9460 2.0670 3.9640 4.2290 177.2260 221.3020 228.7800 213.8230 5.1400 1.4270 87.6750 227.7740 586.1540 1159.2400 930.7780
  310.690 2.4210 0.9060 2.0730 3.8600 4.0470 176.1650 222.4850 228.1670 216.8030 4.9000 1.4450 88.7310 232.9760 571.1540 1153.6400 933.0000
  310.790 2.4210 0.9060 2.0730 3.8600 4.0470 176.1650 222.4850 228.1670 216.8030 4.9000 1.4450 88.7310 232.9760 551.5880 1153.6400 933.0000
  310.890 2.4380 0.9850 2.1690 3.7560 3.8080 175.8110 220.7100 228.7800 212.6400 5.1200 1.4110 89.4050 224.3060 551.5880 1152.3700 937.4910
  310.990 2.3770 1.0250 2.1180 3.5710 3.5570 175.7230 222.4850 230.0070 214.9630 5.5200 1.3470 91.8090 231.5980 537.1970 1146.6600 949.6140
  311.090 2.3230 0.8670 2.0890 3.5940 3.4200 176.0760 221.8930 230.6200 213.1670 5.5000 1.3870 96.4710 231.4640 492.6040 1146.7700 955.4570
  311.190 2.3120 0.9460 2.0860 3.5710 3.3060 176.3420 224.2600 228.7800 219.7400 5.3600 1.4080 96.5010 233.3320 478.2860 1148.2700 960.5980
  311.290 2.3120 0.9460 2.0860 3.5710 3.3060 176.3420 224.2600 228.7800 219.7400 5.3600 1.4080 96.5010 233.3320 469.1710 1148.2700 960.5980
  311.390 2.3230 1.0640 2.0240 3.4900 3.2150 175.0160 223.6690 235.5270 211.8100 5.0600 1.4480 101.3390 228.6630 469.1710 1151.1400 965.9600
  311.490 2.5470 1.1040 2.0290 3.5370 3.0660 174.3970 223.6690 236.1410 211.1970 4.7000 1.4750 104.6810 233.3320 462.9590 1156.9700 979.4270
  311.590 2.5120 0.7880 2.0230 3.5250 2.9980 173.8670 222.4850 233.0740 211.8970 4.9000 1.4400 110.1640 246.0470 443.8630 1159.6300 987.5910
  311.690 2.5230 0.8270 1.9960 3.5370 2.9300 172.9820 220.7100 234.3010 207.1200 4.9000 1.4030 113.0080 244.7130 430.1010 1166.3400 993.3780
  311.790 2.5230 0.8270 1.9960 3.5370 2.9300 172.9820 220.7100 234.3010 207.1200 4.9000 1.4030 113.0080 244.7130 432.4140 1166.3400 993.3780
  311.890 2.6000 0.8670 2.0610 3.5830 2.8270 173.4240 218.9350 228.1670 209.7030 4.7800 1.3520 121.8930 243.1570 432.4140 1173.8700 996.4440
  311.990 2.2390 0.7880 2.0030 3.7100 2.7470 175.3690 222.4850 230.6200 214.3500 4.6400 1.4480 126.4080 251.2050 443.5550 1187.5200 1008.0000
  312.090 2.0750 0.8270 2.0170 3.7680 2.7240 175.1920 224.8520 227.5540 222.1500 4.8200 1.4610 131.1580 257.7850 448.8060 1193.0601 1017.3300
  312.190 2.0420 0.8670 1.9950 3.8600 2.6900 175.3690 227.2190 231.2340 223.2040 4.9200 1.4430 131.4810 256.0510 439.3160 1198.8500 1026.6700
  312.290 2.0420 0.8670 1.9950 3.8600 2.6900 175.3690 227.2190 231.2340 223.2040 4.9200 1.4430 131.4810 256.0510 430.4690 1198.8500 1026.6700
  312.390 2.0140 0.9850 2.0190 3.8830 2.6560 174.9270 228.4020 234.9140 221.8910 5.2600 1.4850 136.0260 251.7380 430.4690 1204.7200 1029.5000
  312.490 2.0750 0.8670 2.0530 3.9750 2.5420 175.3690 221.8930 233.0740 210.7130 5.0600 1.5150 141.1280 258.9410 438.0410 1215.2100 1020.6900
  312.590 2.0370 1.0250 2.0730 3.9750 2.4620 175.9880 218.3430 231.2340 205.4530 4.7800 1.4770 140.5410 262.8980 486.3080 1219.5699 1013.1100
  312.690 2.0230 1.0250 2.0000 4.0330 2.4510 175.3700 217.7510 229.3940 206.1090 5.0200 1.4830 145.3790 265.5210 516.1630 1223.7800 1005.9200
  312.790 2.0230 1.0250 2.0000 4.0330 2.4510 175.3700 217.7510 229.3940 206.1090 5.0200 1.4830 145.3790 265.5210 544.6490 1223.7800 1005.9200
  312.890 2.0140 1.0250 1.9640 4.1370 2.3480 174.3970 218.9350 229.3940 208.4760 5.1800 1.4690 145.6430 270.7230 544.6490 1227.2400 1003.4700
  312.990 1.8160 0.7880 2.0230 4.2070 2.2570 173.6900 219.5270 225.7140 213.3400 5.5000 1.3680 158.7200 286.2840 559.4270 1228.0400 1014.8900
  313.090 1.7100 0.7880 2.0090 4.1720 2.1770 173.8670 218.3430 225.7140 210.9730 5.5200 1.3440 160.6260 288.1510 532.8830 1226.8800 1022.4400
  313.190 1.6250 0.7880 1.9520 4.1600 2.1310 173.6010 217.7510 223.8740 211.6290 5.3800 1.3410 166.3140 287.6180 511.0820 1226.5100 1026.6400
  313.290 1.6250 0.7880 1.9520 4.1600 2.1310 173.6010 217.7510 223.8740 211.6290 5.3800 1.3410 166.3140 287.6180 499.6770 1226.5100 1026.6400
  313.390 1.5700 0.8270 1.9470 3.9990 2.0860 173.3360 221.8930 224.4870 219.3000 5.2800 1.2720 167.8390 286.9510 499.6770 1226.2200 1029.0400
  313.490 1.4860 0.7080 1.9180 3.7910 2.0520 173.6890 221.3020 231.8470 210.7560 5.6400 1.2270 175.3450 283.4830 492.9580 1225.6400 1033.3199
  313.590 1.4550 0.6690 1.9380 3.6980 2.0170 172.6280 219.5270 224.4870 214.5660 5.9000 1.2670 171.0350 292.8640 480.8060 1224.6700 1032.2300
  313.690 1.4260 0.7080 1.9030 3.5480 1.9830 171.9210 220.7100 224.4870 216.9330 6.0200 1.3090 169.9210 286.4620 481.0930 1225.2300 1029.9600
  313.790 1.4260 0.7080 1.9030 3.5480 1.9830 171.9210 220.7100 224.4870 216.9330 6.0200 1.3090 169.9210 286.4620 488.1790 1225.2300 1029.9600
  313.890 1.4000 0.7480 1.7830 3.4330 2.0060 171.5670 223.6690 226.9400 220.3970 6.1600 1.3280 171.7390 286.2840 488.1790 1226.4399 1028.7500
  313.990 1.4650 0.7480 1.9360 3.2940 2.0520 171.4790 220.1180 225.1000 215.1360 5.9600 1.3870 171.0350 275.3020 494.2430 1225.6000 1029.4000
  314.090 1.5890 0.7880 1.8870 3.1440 2.0400 170.6840 219.5270 222.6470 216.4060 6.2400 1.4320 172.2670 276.4580 490.4870 1223.2700 1030.6300
  314.190 1.5740 0.8270 1.8940 3.1090 2.0740 169.7110 222.4850 228.7800 216.1900 6.4000 1.4640 177.2220 276.0140 481.6020 1223.9000 1032.3600
  314.290 1.5740 0.8270 1.8940 3.1090 2.0740 169.7110 222.4850 228.7800 216.1900 6.4000 1.4640 177.2220 276.0140 478.8480 1223.9000 1032.3600
  314.390 1.4960 0.6690 1.8250 3.1320 2.0060 170.5070 223.0770 233.0740 213.0800 6.6800 1.4530 176.1080 283.6610 478.8480 1226.0000 1034.3400
  314.490 1.4550 0.7080 1.8250 2.9590 1.9720 171.4790 227.2190 231.2340 223.2040 6.5600 1.3810 185.7840 299.0890 479.1560 1227.2400 1038.2300
  314.590 1.4260 0.7880 1.8220 2.9130 1.9030 171.3910 222.4850 228.7800 216.1900 6.4400 1.3890 186.8390 286.8180 472.5340 1224.3500 1041.0000
  314.690 1.4090 0.7080 1.8660 2.8430 1.9030 172.0100 221.3020 222.6470 219.9570 6.5400 1.3440 193.7880 284.9500 458.3870 1227.2700 1045.1000
  314.790 1.4090 0.7080 1.8660 2.8430 1.9030 172.0100 221.3020 222.6470 219.9570 6.5400 1.3440 193.7880 284.9500 455.4290 1227.2700 1045.1000
  314.890 1.4350 0.6290 1.8320 2.8090 1.9490 171.3020 221.8930 226.9400 216.8470 6.6200 1.3200 186.2820 282.4600 455.4290 1234.2100 1050.1400
  314.990 1.3870 0.7080 1.8900 2.7630 1.9380 171.3910 220.7100 224.4870 216.9330 6.4200 1.4110 193.0850 280.4600 460.1860 1247.1300 1059.6600
  315.090 1.3930 0.5900 1.8080 2.7160 1.9380 172.6290 218.9350 225.7140 212.1560 6.3600 1.4610 190.7390 275.1240 468.6600 1252.2800 1062.3800
  315.190 1.4490 0.7480 1.8170 2.6240 1.9380 173.4240 217.7510 227.5540 207.9490 6.5400 1.4400 190.5340 275.1240 474.7580 1258.0200 1064.0200
  315.290 1.4490 0.7480 1.8170 2.6240 1.9380 173.4240 217.7510 227.5540 207.9490 6.5400 1.4400 190.5340 275.1240 484.9900 1258.0200 1064.0200
  315.390 1.4590 0.6290 1.8590 2.5660 1.9380 174.0430 217.7510 230.0070 205.4960 6.6800 1.4080 189.4200 277.8810 484.9900 1259.3800 1065.4800
  315.490 1.4860 0.7480 1.8260 2.5080 2.0060 173.1590 219.5270 230.6200 208.4330 7.0000 1.3470 197.5120 279.1260 484.7320 1265.0699 1071.7600
  315.590 1.5030 0.7880 1.8560 2.4850 1.9950 172.7170 227.8110 230.6200 225.0010 7.0800 1.3090 206.0740 280.1480 483.2870 1267.5000 1075.5300
  315.690 1.4650 0.7480 1.8750 2.4850 2.0400 172.8940 231.9530 228.7800 235.1250 6.9400 1.3150 200.4440 286.8180 479.9210 1263.5200 1078.5500
  315.790 1.4650 0.7480 1.8750 2.4850 2.0400 172.8940 231.9530 228.7800 235.1250 6.9400 1.3150 200.4440 286.8180 462.4270 1263.5200 1078.5500
  315.890 1.3870 0.6690 1.8510 2.4280 2.0290 171.8330 225.4440 225.7140 225.1740 6.6800 1.3200 209.1820 287.3510 462.4270 1264.0400 1080.1400
