~Version information
  VERS.                           2.00 : CWLS log ASCII Standard -Version 2.00
  WRAP.                             NO : One line per depth step
~Well information
#MNEM.UNIT              Data Type        Information
#----------------------------------------------------------------------
  STRT.M                         1.090 : 
  STOP.M                       818.990 : 
  STEP.M                         0.100 : 
  NULL.                      -999.2500 : 
  WELL.                            309 : Well Name
  FLD .                       KARATUBE : Field Name
  SRVC.        JSC "KAZPROMGEOPHYSIKA" : Service company
  DATE.                       26.07.04 : Log date
~Curve information
#MNEM.UNIT                               Curve Description
#----------------------------------------------------------------------
  DEPT.M                               : Depth Curve
  LL3 .OHMM                            : Appar.resist.laterolog,3 electrodes
  MLL .OHMM                            : Microlaterolog sonde
  RHOB.G/C3                            : Bulk density by gamma-gamma log
  GZ3 .OHMM                            : App.resistivity by lateral A2.0M0.5N
  GZ3B.OHMM                            : App.resistivity by lateral N0.5Œ2.0€
  SP  .MV                              : Spontaneous potential
  CALI.MM                              : Caliper
  C1  .MM                              : Diameter from profile1
  C2  .MM                              : Diameter from profile2
  GR  .UR/H                            : Gamma-ray log
  NGLD.UE                              : Neutron-gamma log/device DRST-90
  CILR.MMHO                            : Conduct. by sonde 7I1.6,react.signal
  CILA.MMHO                            : Conduct. by sonde 7I1.6,active signal
  DTP .US/M                            : Interval travel time (P-wave)
  T1  .US                              : Travel time1
  T2  .US                              : Travel time2
~Parameter information
#MNEM.UNIT              Value            Description
#----------------------------------------------------------------------
#----------------------------------------------------------------------
  DFV .SEK                          40 : Drilling Fluid Viscosity
  BS  .MM                        215.9 : Bit Size
  DFD .G/C3                       1.13 : Drilling Fluid Density
~Ascii Log Data
# ...
  402.290 6.7140 2.0130 2.0010 6.1240 8.1410 167.5010 225.4440 223.2600 227.6270 4.7000 1.5600 32.2580 130.2720 415.8650 1064.1500 898.3010
  402.390 6.4860 2.0520 1.9900 6.3440 7.7410 167.8550 224.8520 220.1930 229.5110 4.3400 1.5010 34.6040 130.4950 414.6190 1069.2600 903.8790
  402.490 6.1940 1.6570 1.9900 6.8520 7.2170 168.5620 227.8110 222.0330 233.5880 3.6600 1.4320 35.2780 137.3860 413.4530 1080.1500 915.8790
  402.590 6.1940 1.6570 1.9900 6.8520 7.2170 168.5620 227.8110 222.0330 233.5880 3.6600 1.4320 35.2780 137.3860 410.6750 1080.1500 915.8790
  402.690 6.4420 1.7360 1.9410 7.1410 6.8860 168.1200 226.0360 220.8070 231.2640 3.8600 1.4350 39.6170 137.2970 410.6750 1084.6700 920.8270
  402.790 7.0800 1.8940 2.0070 7.3950 6.7150 167.7660 225.4440 222.0330 228.8540 4.3000 1.4610 39.1480 142.1430 409.6010 1088.8900 925.2250
  402.890 7.3280 1.9340 1.9960 7.7530 6.4640 167.1470 225.4440 222.0330 228.8540 4.2800 1.4350 41.4060 138.5870 409.1620 1093.6300 930.2300
  402.990 6.6530 1.8150 1.9430 8.3650 6.0540 167.3240 224.8520 223.2600 226.4440 4.4000 1.4350 44.7490 152.6800 408.5000 1100.8500 939.0820
  403.090 6.6530 1.8150 1.9430 8.3650 6.0540 167.3240 224.8520 223.2600 226.4440 4.4000 1.4350 44.7490 152.6800 404.4260 1100.8500 939.0820
  403.190 6.7300 1.6970 1.9940 8.6880 5.8370 167.8540 226.6270 223.8740 229.3810 4.4800 1.4960 44.8370 157.9270 404.4260 1102.4800 942.8550
  403.290 6.1090 1.6970 1.9840 9.0810 5.6090 167.5010 229.5860 223.8740 235.2980 4.4200 1.5230 48.2380 158.7720 399.0690 1103.3300 948.1830
  403.390 5.5330 1.6570 1.9970 9.4740 5.3700 168.1200 227.2190 223.2600 231.1780 4.2200 1.5310 48.2380 159.2610 387.8790 1104.1100 956.6890
  403.490 4.4880 1.4990 1.9970 10.2020 5.0500 168.2970 221.8930 222.6470 221.1400 4.2200 1.5840 54.4830 177.1780 368.5580 1104.7400 973.8200
  403.590 4.4880 1.4990 1.9970 10.2020 5.0500 168.2970 221.8930 222.6470 221.1400 4.2200 1.5840 54.4830 177.1780 327.3050 1104.7400 973.8200
  403.690 4.0830 1.6970 2.0320 10.4790 4.8680 167.7660 218.3430 222.6470 214.0400 4.7400 1.5870 55.3630 192.7390 327.3050 1106.2200 976.3580
  403.790 3.6140 1.4200 2.1020 10.7560 4.7540 167.4120 215.9760 210.3800 221.5730 5.2800 1.4960 57.9140 193.6730 324.6630 1111.4100 975.7850
  403.890 3.3960 1.1430 2.0970 10.9060 4.6630 166.6170 216.5680 212.2200 220.9160 5.7200 1.4350 60.8460 206.8780 339.0580 1119.2600 973.8200
  403.990 2.9310 0.8670 2.1020 10.9990 4.6630 164.5830 216.5680 210.9930 222.1430 6.0200 1.3950 63.9540 218.4820 363.6010 1135.6500 968.7290
  404.090 2.9310 0.8670 2.1020 10.9990 4.6630 164.5830 216.5680 210.9930 222.1430 6.0200 1.3950 63.9540 218.4820 417.2910 1135.6500 968.7290
  404.190 2.7540 0.8270 2.0810 10.9640 4.7080 164.5830 214.2010 208.5400 219.8630 6.1000 1.4210 66.3880 222.4830 417.2910 1138.8199 964.9510
  404.290 2.6910 0.8670 2.1360 10.8370 4.7430 164.8490 214.7930 208.5400 221.0460 6.0800 1.4450 65.2740 223.7280 434.6600 1138.8500 960.8630
  404.390 2.6550 0.8270 2.0920 10.5940 4.7540 164.9370 214.2010 209.1530 219.2490 6.2800 1.3840 66.8280 223.9500 444.9740 1137.9800 957.4450
  404.490 2.5880 0.8270 2.1180 9.8670 4.8570 164.7600 217.1600 212.8330 221.4860 6.2800 1.2850 69.8770 227.5520 451.3330 1136.0400 951.2810
  404.590 2.5880 0.8270 2.1180 9.8670 4.8570 164.7600 217.1600 212.8330 221.4860 6.2800 1.2850 69.8770 227.5520 461.8910 1136.0400 951.2810
  404.690 2.6240 0.7880 2.0680 9.6470 4.8450 164.7600 217.1600 213.4470 220.8730 6.1800 1.3550 69.0850 225.7290 461.8910 1134.4399 948.8120
  404.790 2.6240 0.7880 2.0840 9.2200 4.8340 165.1140 214.7930 212.8330 216.7530 6.3000 1.3810 72.1050 223.6390 464.0820 1132.5601 949.1460
  404.890 2.6670 0.8270 2.0940 8.7920 4.8220 164.8490 217.1600 212.8330 221.4860 6.1600 1.4160 67.5310 225.4180 458.5270 1130.4100 950.7070
  404.990 2.7930 0.9850 2.1330 7.9950 4.8000 164.4070 215.3850 214.6730 216.0960 5.9400 1.4080 69.8180 224.7950 449.2540 1129.1100 960.2500
  405.090 2.7930 0.9850 2.1330 7.9950 4.8000 164.4070 215.3850 214.6730 216.0960 5.9400 1.4080 69.8180 224.7950 422.1560 1129.1100 960.2500
  405.190 2.7860 0.8270 2.1130 7.6600 4.7200 164.1410 217.7510 216.5130 218.9900 5.9600 1.3920 68.1470 217.0590 422.1560 1130.1500 967.4130
  405.290 2.8640 0.7880 2.1620 7.3250 4.7430 163.9640 219.5270 216.5130 222.5400 5.7600 1.3760 69.0850 215.0140 406.8420 1132.1400 975.6060
  405.390 2.9510 0.8270 2.1680 7.1290 4.8000 163.1690 218.3430 216.5130 220.1730 5.7200 1.3890 65.8600 218.4820 391.3390 1135.6200 983.8880
  405.490 3.2210 1.0250 2.1100 6.8400 4.8000 163.2570 217.7510 225.1000 210.4030 6.2600 1.4590 70.4340 224.6620 379.3200 1147.2500 997.2980
  405.590 3.2210 1.0250 2.1100 6.8400 4.8000 163.2570 217.7510 225.1000 210.4030 6.2600 1.4590 70.4340 224.6620 374.8690 1147.2500 997.2980
  405.690 3.2430 1.4990 2.0950 6.7130 4.8220 164.2300 220.1180 221.4200 218.8170 6.6800 1.4880 71.1380 224.9730 374.8690 1153.7100 1001.5300
  405.790 3.0830 1.4200 2.1410 6.6090 4.7880 165.7330 221.3020 220.1930 222.4100 6.4800 1.4370 69.8180 230.6200 380.4560 1158.4000 1004.2900
  405.890 2.7860 1.1430 2.0710 6.5050 4.7540 167.4130 224.2600 222.0330 226.4870 6.1000 1.4160 71.8710 227.3290 385.2870 1159.4900 1005.5500
  405.990 2.6980 1.0640 2.0560 6.0660 4.7310 167.9430 221.3020 217.1270 225.4770 5.7400 1.4960 71.0500 223.7280 384.8580 1153.7000 1001.6700
  406.090 2.6980 1.0640 2.0560 6.0660 4.7310 167.9430 221.3020 217.1270 225.4770 5.7400 1.4960 71.0500 223.7280 380.0740 1153.7000 1001.6700
  406.190 2.7290 1.1040 2.0770 5.9050 4.6740 167.2360 221.8930 215.2870 228.5000 6.1200 1.4910 74.9200 221.0160 380.0740 1151.1899 996.9220
  406.290 2.7930 1.1830 2.0430 5.6850 4.6740 167.2360 219.5270 212.8330 226.2200 6.4800 1.4610 67.3550 224.7950 385.6810 1150.3199 991.5740
  406.390 2.7670 1.0640 2.1120 5.4770 4.6740 166.7940 218.9350 210.9930 226.8770 6.7400 1.4000 71.8710 219.8160 396.8660 1149.4900 985.8970
  406.490 2.7230 1.1830 2.1420 5.2920 4.7200 168.6500 213.0180 208.5400 217.4960 7.0600 1.3630 69.9060 216.8370 408.9870 1144.9301 974.0440
  406.590 2.7230 1.1830 2.1420 5.2920 4.7200 168.6500 213.0180 208.5400 217.4960 7.0600 1.3630 69.9060 216.8370 427.2160 1144.9301 974.0440
  406.690 2.7540 1.1040 2.0320 5.3040 4.8000 169.4460 214.2010 207.9260 220.4760 6.8400 1.3570 70.8150 214.6140 427.2160 1142.1000 968.1660
  406.790 2.7230 1.0640 2.1030 5.2460 4.8340 168.8270 214.2010 207.9260 220.4760 6.4800 1.3840 69.7890 218.1260 434.8260 1139.2400 962.3770
  406.890 2.6980 1.0250 2.0780 5.2000 4.8450 167.6780 211.8340 206.7000 216.9690 6.0000 1.4240 72.6040 220.6160 442.1620 1136.0300 956.3330
  406.990 2.7290 0.9060 2.1260 5.1190 4.9480 166.7050 209.4670 204.2460 214.6890 5.9600 1.3970 72.5450 221.0610 449.2330 1125.1100 940.9320
  407.090 2.7290 0.9060 2.1260 5.1190 4.9480 166.7050 209.4670 204.2460 214.6890 5.9600 1.3970 72.5450 221.0610 460.4520 1125.1100 940.9320
  407.190 2.7670 0.9460 2.1480 5.0840 5.0850 166.8820 209.4670 206.0860 212.8490 6.2600 1.3410 67.5020 223.5950 460.4520 1117.4900 932.0820
  407.290 2.7040 0.8670 2.1030 5.1420 5.1420 166.5290 207.6920 206.7000 208.6850 6.4200 1.2960 71.7830 222.7950 463.5320 1109.5400 924.3640
  407.390 2.7160 0.9060 2.1570 5.1880 5.2210 166.0870 209.4670 207.9260 211.0090 6.4600 1.3040 74.1290 227.2410 462.9510 1102.1100 918.5590
  407.490 2.6420 0.8270 2.0850 5.1190 5.3010 167.3240 214.2010 211.6070 216.7960 6.5000 1.2910 72.9850 222.8390 458.8820 1090.3300 915.5450
  407.590 2.6420 0.8270 2.0850 5.1190 5.3010 167.3240 214.2010 211.6070 216.7960 6.5000 1.2910 72.9850 222.8390 436.9560 1090.3300 915.5450
  407.690 2.6000 0.8270 2.1410 5.0730 5.2670 167.1470 218.9350 214.6730 223.1970 6.4800 1.3470 71.0200 224.3060 436.9560 1085.4500 917.5870
  407.790 2.6180 0.8670 2.0700 4.8530 5.2560 166.7050 220.1180 216.5130 223.7230 6.3400 1.4320 70.4930 222.5280 419.6650 1081.0699 920.3660
  407.890 2.8120 1.0250 2.0720 4.7730 5.2440 165.7330 223.0770 217.1270 229.0270 6.0600 1.5390 71.3720 220.9270 401.7550 1077.7200 922.2340
  407.990 2.9990 1.1040 2.1640 4.6340 5.1990 165.4670 223.0770 217.1270 229.0270 5.1800 1.5810 68.7630 218.7490 388.7140 1073.7800 919.5490
