~Version information
  VERS.                           2.00 : CWLS log ASCII Standard -Version 2.00
  WRAP.                             NO : One line per depth step
~Well information
#MNEM.UNIT              Data Type        Information
#----------------------------------------------------------------------
  STRT.M                         1.090 : 
  STOP.M                       818.990 : 
  STEP.M                         0.100 : 
  NULL.                      -999.2500 : 
  WELL.                            309 : Well Name
  FLD .                       KARATUBE : Field Name
  SRVC.        JSC "KAZPROMGEOPHYSIKA" : Service company
  DATE.                       26.07.04 : Log date
~Curve information
#MNEM.UNIT                               Curve Description
#----------------------------------------------------------------------
  DEPT.M                               : Depth Curve
  LL3 .OHMM                            : Appar.resist.laterolog,3 electrodes
  MLL .OHMM                            : Microlaterolog sonde
  RHOB.G/C3                            : Bulk density by gamma-gamma log
  GZ3 .OHMM                            : App.resistivity by lateral A2.0M0.5N
  GZ3B.OHMM                            : App.resistivity by lateral N0.5Œ2.0€
  SP  .MV                              : Spontaneous potential
  CALI.MM                              : Caliper
  C1  .MM                              : Diameter from profile1
  C2  .MM                              : Diameter from profile2
  GR  .UR/H                            : Gamma-ray log
  NGLD.UE                              : Neutron-gamma log/device DRST-90
  CILR.MMHO                            : Conduct. by sonde 7I1.6,react.signal
  CILA.MMHO                            : Conduct. by sonde 7I1.6,active signal
  DTP .US/M                            : Interval travel time (P-wave)
  T1  .US                              : Travel time1
  T2  .US                              : Travel time2
~Parameter information
#MNEM.UNIT              Value            Description
#----------------------------------------------------------------------
#----------------------------------------------------------------------
  DFV .SEK                          40 : Drilling Fluid Viscosity
  BS  .MM                        215.9 : Bit Size
  DFD .G/C3                       1.13 : Drilling Fluid Density
~Ascii Log Data
# ...
  264.290 3.1990 1.1040 2.0190 5.7660 5.2100 156.6270 233.1360 239.2070 227.0650 4.6800 1.3150 73.7180 231.3750 500.6320 1193.7100 993.4580
  264.390 3.1260 0.9460 1.9840 5.6850 5.1190 156.0080 232.5440 237.9810 227.1080 4.3800 1.2960 78.1160 232.3980 500.6320 1196.7300 996.0380
  264.490 2.9920 1.0250 2.0920 5.5230 5.1190 156.0080 226.6270 235.5270 217.7270 4.9600 1.2750 78.8790 221.8160 501.7370 1202.6400 1000.5000
  264.590 2.9580 1.0640 2.1010 5.5000 5.1420 156.1840 225.4440 236.7540 214.1340 4.9400 1.2910 77.4130 225.5960 505.3540 1205.5300 1005.3800
  264.690 2.9240 1.0250 2.0490 5.5460 5.2330 155.8310 233.1360 239.2070 227.0650 4.7800 1.2960 73.2200 231.7760 500.3910 1208.0699 1015.1700
  264.790 2.9240 1.0250 2.0490 5.5460 5.2330 155.8310 233.1360 239.2070 227.0650 4.7800 1.2960 73.2200 231.7760 482.2340 1208.0699 1015.1700
  264.890 2.8770 0.9850 2.0340 5.5460 5.2780 155.4770 231.3610 233.0740 229.6480 4.5600 1.2930 71.9290 226.8850 482.2340 1209.5601 1029.1600
  264.990 3.6480 1.2220 2.1420 5.6390 5.6550 152.5590 225.4440 228.7800 222.1070 4.3200 1.3950 72.7800 212.5240 450.9940 1212.3101 1048.2500
  265.090 4.6560 2.4480 2.4410 5.8120 5.7120 151.3220 224.8520 227.5540 222.1500 3.8200 1.4270 71.7540 217.1920 410.1540 1216.2600 1048.4000
  265.190 4.3350 1.6180 2.4310 6.0200 5.6660 152.3830 224.8520 230.0070 219.6970 3.7200 1.3600 74.4510 218.7930 419.6410 1221.7000 1045.2900
  265.290 4.3350 1.6180 2.4310 6.0200 5.6660 152.3830 224.8520 230.0070 219.6970 3.7200 1.3600 74.4510 218.7930 441.0360 1221.7000 1045.2900
  265.390 3.2810 0.9060 2.1540 6.1360 5.6890 153.3550 224.2600 230.6200 217.9000 4.1200 1.2830 74.4510 233.3760 441.0360 1227.3700 1042.0900
  265.490 2.8910 0.9850 2.0210 6.2280 5.4500 155.3010 224.8520 230.0070 219.6970 4.6600 1.2160 75.3600 228.9750 463.2050 1247.1899 1037.5300
  265.590 2.9170 0.9850 2.0600 6.0550 5.3810 154.5930 223.0770 228.1670 217.9870 4.7400 1.2720 69.3200 230.7530 524.1310 1265.9600 1035.3000
  265.690 2.9580 1.0640 2.0310 5.8700 5.4150 155.0350 224.2600 226.9400 221.5800 4.7800 1.3650 73.2200 228.5300 576.6500 1280.6100 1032.7800
  265.790 2.9580 1.0640 2.0310 5.8700 5.4150 155.0350 224.2600 226.9400 221.5800 4.7800 1.3650 73.2200 228.5300 619.5850 1280.6100 1032.7800
  265.890 2.9040 0.9460 2.0250 5.7890 5.4720 154.4160 224.2600 226.9400 221.5800 5.1200 1.3710 72.6040 231.4200 619.5850 1285.4600 1030.1300
  265.990 2.7990 0.9850 2.0470 5.5930 5.6550 155.0350 224.2600 229.3940 219.1270 5.3000 1.3390 69.5840 232.7540 638.3390 1284.8300 1025.2800
  266.090 2.7350 0.8270 2.0480 5.6270 5.7800 155.2120 223.6690 230.0070 217.3300 5.3800 1.3070 70.2580 230.4860 648.8810 1288.6500 1022.8700
  266.190 2.7480 0.9060 2.0900 5.5700 5.8260 155.7420 223.0770 228.7800 217.3730 5.2400 1.2640 72.8970 233.0200 664.4590 1291.7800 1019.9300
  266.290 2.7480 0.9060 2.0900 5.5700 5.8260 155.7420 223.0770 228.7800 217.3730 5.2400 1.2640 72.8970 233.0200 679.6210 1291.7800 1019.9300
  266.390 2.7800 1.0640 2.0710 5.5230 5.9510 156.1840 223.0770 228.7800 217.3730 5.2400 1.2670 68.0880 226.5290 679.6210 1288.8500 1016.0300
  266.490 2.7730 0.8670 2.0050 5.4080 6.1450 156.5380 221.3020 229.3940 213.2100 5.4800 1.2960 66.6810 219.0600 682.0470 1283.2200 1008.3800
  266.590 2.7540 0.9060 2.0420 5.4080 6.2480 155.8310 221.3020 229.3940 213.2100 5.4600 1.2990 68.2060 214.7030 687.0920 1279.8900 1006.4700
  266.690 2.8050 0.9060 2.0240 5.3500 6.3620 155.3890 221.8930 228.7800 215.0070 5.2600 1.3230 67.8540 214.3470 683.5370 1275.1100 1005.9600
  266.790 2.8050 0.9060 2.0240 5.3500 6.3620 155.3890 221.8930 228.7800 215.0070 5.2600 1.3230 67.8540 214.3470 672.8780 1275.1100 1005.9600
  266.890 2.8840 0.9850 2.0070 5.2810 6.4640 154.5930 222.4850 228.7800 216.1900 5.0400 1.3360 65.4490 210.3460 672.8780 1270.0000 1006.0400
  266.990 3.2510 0.9850 2.0920 5.2350 6.5780 155.1240 222.4850 229.3940 215.5770 4.8200 1.3570 64.7160 207.9450 659.9050 1263.8101 1006.4400
  267.090 3.2730 0.8670 2.0690 5.2000 6.5670 154.6810 223.0770 230.6200 215.5330 4.8200 1.3630 65.9770 213.8580 643.4260 1263.7700 1006.7600
  267.190 3.2730 0.9060 2.0540 5.2230 6.4760 153.0900 223.0770 230.6200 215.5330 5.0200 1.3920 64.5110 214.1690 642.5210 1264.7300 1007.0800
  267.290 3.2730 0.9060 2.0540 5.2230 6.4760 153.0900 223.0770 230.6200 215.5330 5.0200 1.3920 64.5110 214.1690 644.1350 1264.7300 1007.0800
  267.390 3.2210 0.9060 2.0310 5.1770 6.4190 151.8520 223.0770 231.2340 214.9200 5.0600 1.3520 65.9770 209.7230 644.1350 1265.2900 1007.2400
  267.490 3.1620 0.9460 2.0330 5.1880 6.3050 145.3100 223.0770 228.7800 217.3730 4.6800 1.3280 64.9220 211.1900 645.1070 1262.7600 1005.1000
  267.590 3.1050 1.0250 2.0010 5.2230 6.2590 145.2220 221.8930 228.1670 215.6200 4.9400 1.3200 63.0160 213.3690 644.1470 1258.5400 1001.6500
  267.690 3.0410 0.9850 1.9520 5.1880 6.2710 149.3780 222.4850 227.5540 217.4170 5.2800 1.3200 63.6610 211.5460 642.2360 1252.7100 997.3140
  267.790 3.0410 0.9850 1.9520 5.1880 6.2710 149.3780 222.4850 227.5540 217.4170 5.2800 1.3200 63.6610 211.5460 638.4910 1252.7100 997.3140
  267.890 3.0830 0.9850 1.9840 5.1420 6.2480 152.2060 223.0770 228.1670 217.9870 5.3200 1.2930 60.9340 212.9690 638.4910 1249.2500 994.5550
  267.990 3.1620 0.9850 2.0300 5.0960 6.2590 150.4380 222.4850 229.3940 215.5770 4.9400 1.3280 61.8720 212.7910 636.7380 1252.3199 994.9250
  268.090 3.1330 0.9060 2.0790 5.0840 6.2820 149.9070 223.0770 228.7800 217.3730 4.9000 1.2910 63.2800 218.7040 643.4790 1255.7800 995.8140
  268.190 3.0480 0.9460 2.0230 5.0380 6.3050 149.5540 223.0770 227.5540 218.6000 4.7400 1.2160 61.1690 213.5910 649.9070 1256.7600 995.8140
  268.290 3.0480 0.9460 2.0230 5.0380 6.3050 149.5540 223.0770 227.5540 218.6000 4.7400 1.2160 61.1690 213.5910 652.3510 1256.7600 995.8140
  268.390 2.9990 0.9460 1.9630 5.0610 6.3500 149.4650 223.0770 226.9400 219.2140 4.7400 1.2530 64.2180 212.8800 652.3510 1255.8199 992.4070
  268.490 2.8840 0.9460 2.0390 5.1080 6.5100 149.7310 221.8930 227.5540 216.2330 4.9600 1.4000 61.9020 210.9240 658.5360 1249.7300 981.1670
  268.590 2.8310 0.9060 2.0140 5.1420 6.5560 151.4100 223.6690 230.0070 217.3300 5.0000 1.3360 60.0540 213.6800 671.4150 1246.0000 978.0550
  268.690 2.7800 0.8670 2.0340 5.1540 6.6010 151.7640 221.8930 229.3940 214.3930 4.8400 1.2670 57.1520 208.4780 669.8600 1244.4399 974.8430
  268.790 2.7800 0.8670 2.0340 5.1540 6.6010 151.7640 221.8930 229.3940 214.3930 4.8400 1.2670 57.1520 208.4780 674.0010 1244.4399 974.8430
  268.890 2.7800 0.8270 1.9950 5.1770 6.6580 151.4100 224.2600 231.2340 217.2870 4.9600 1.2320 59.3800 203.4540 674.0010 1242.0000 974.3330
  268.990 2.9110 0.9850 2.0500 5.1310 6.6920 150.9690 223.6690 227.5540 219.7840 5.1600 1.2720 59.8200 195.9400 669.1660 1233.3300 975.3700
  269.090 2.9780 0.9850 2.0810 5.1650 6.6920 151.5870 223.6690 229.3940 217.9440 5.0800 1.2960 57.1220 191.0500 644.9070 1226.2200 978.6660
  269.190 3.0760 1.0250 2.1080 5.2000 6.7380 151.3220 224.8520 233.0740 216.6300 5.0200 1.2990 60.8170 185.9370 618.8890 1215.5601 985.0590
  269.290 3.0760 1.0250 2.1080 5.2000 6.7380 151.3220 224.8520 233.0740 216.6300 5.0200 1.2990 60.8170 185.9370 576.2410 1215.5601 985.0590
  269.390 3.1550 0.9850 2.0530 5.2460 6.8060 150.6150 226.6270 233.0740 220.1810 5.0400 1.3070 53.3690 186.9590 576.2410 1202.0000 992.6360
  269.490 4.1300 1.1430 2.1710 5.4080 6.6810 150.8800 224.8520 231.2340 218.4700 4.8600 1.3550 60.1130 193.2280 523.4080 1185.1100 1006.0900
  269.590 4.4570 1.6970 2.2270 5.5000 6.5900 150.4380 225.4440 233.0740 217.8140 4.8000 1.3170 58.1190 196.6960 447.5570 1190.0000 1009.0400
  269.690 4.3050 1.4990 2.2390 5.6970 6.3730 150.0840 224.2600 231.2340 217.2870 4.8000 1.2690 58.9690 205.0100 452.4080 1199.5601 1010.8300
  269.790 4.3050 1.4990 2.2390 5.6970 6.3730 150.0840 224.2600 231.2340 217.2870 4.8000 1.2690 58.9690 205.0100 471.8160 1199.5601 1010.8300
  269.890 3.6900 1.4200 2.1210 5.8350 6.0990 149.8190 223.6690 228.7800 218.5570 4.8600 1.2450 60.5820 204.7880 471.8160 1207.1100 1014.5500
