~Version information
  VERS.                           2.00 : CWLS log ASCII Standard -Version 2.00
  WRAP.                             NO : One line per depth step
~Well information
#MNEM.UNIT              Data Type        Information
#----------------------------------------------------------------------
  STRT.M                         1.090 : 
  STOP.M                       818.990 : 
  STEP.M                         0.100 : 
  NULL.                      -999.2500 : 
  WELL.                            309 : Well Name
  FLD .                       KARATUBE : Field Name
  SRVC.        JSC "KAZPROMGEOPHYSIKA" : Service company
  DATE.                       26.07.04 : Log date
~Curve information
#MNEM.UNIT                               Curve Description
#----------------------------------------------------------------------
  DEPT.M                               : Depth Curve
  LL3 .OHMM                            : Appar.resist.laterolog,3 electrodes
  MLL .OHMM                            : Microlaterolog sonde
  RHOB.G/C3                            : Bulk density by gamma-gamma log
  GZ3 .OHMM                            : App.resistivity by lateral A2.0M0.5N
  GZ3B.OHMM                            : App.resistivity by lateral N0.5Œ2.0€
  SP  .MV                              : Spontaneous potential
  CALI.MM                              : Caliper
  C1  .MM                              : Diameter from profile1
  C2  .MM                              : Diameter from profile2
  GR  .UR/H                            : Gamma-ray log
  NGLD.UE                              : Neutron-gamma log/device DRST-90
  CILR.MMHO                            : Conduct. by sonde 7I1.6,react.signal
  CILA.MMHO                            : Conduct. by sonde 7I1.6,active signal
  DTP .US/M                            : Interval travel time (P-wave)
  T1  .US                              : Travel time1
  T2  .US                              : Travel time2
~Parameter information
#MNEM.UNIT              Value            Description
#----------------------------------------------------------------------
#----------------------------------------------------------------------
  DFV .SEK                          40 : Drilling Fluid Viscosity
  BS  .MM                        215.9 : Bit Size
  DFD .G/C3                       1.13 : Drilling Fluid Density
~Ascii Log Data
# ...
  172.790 2.0610 0.4320 1.8880 3.5130 3.4650 174.8390 275.1480 267.4220 282.8740 3.3200 1.4370 110.2820 263.4310 509.2790 1235.2200 1034.1000
  172.890 2.0140 0.4320 1.8770 3.4670 3.4880 176.6070 269.2310 263.7410 274.7200 3.3600 1.4370 109.4610 265.6990 502.7970 1234.3900 1036.0800
  172.990 1.9010 0.3530 1.8540 3.3980 3.5000 177.4910 267.4560 262.5150 272.3970 3.4200 1.5010 109.2260 265.6990 495.7690 1233.4301 1036.6400
  173.090 1.7950 0.3920 1.9440 3.3980 3.5570 178.1980 267.4560 264.3550 270.5560 3.4200 1.5810 108.9620 264.3650 491.9770 1233.0200 1036.2600
  173.190 1.8160 0.4320 1.9780 3.3630 3.6480 177.4910 266.8640 264.9680 268.7600 3.3800 1.6030 104.7400 255.8730 491.9060 1233.2700 1035.6300
  173.290 1.9230 0.3920 1.9260 3.3520 3.7510 180.3200 268.0470 265.5810 270.5130 3.2000 1.5920 105.5900 249.5600 494.0800 1233.5900 1035.3600
  173.390 2.0180 0.4710 1.8690 3.3170 3.8530 181.1160 268.6390 266.1950 271.0830 2.9800 1.5440 102.7750 243.0680 495.5700 1233.6200 1035.6400
  173.490 2.1430 0.4710 1.9310 3.2940 3.9440 180.4080 268.6390 266.1950 271.0830 2.8200 1.5230 103.0100 241.1570 494.9360 1234.0200 1036.7700
  173.590 2.1680 0.5110 1.9470 3.2940 4.0010 178.0220 269.8220 266.1950 273.4500 2.8600 1.5150 102.8050 239.9120 493.1230 1235.2100 1039.0300
  173.690 2.1730 0.5110 1.8820 3.3050 4.0810 176.4300 268.6390 266.8080 270.4700 2.9000 1.5410 103.5080 241.0680 490.4530 1237.6000 1042.3199
  173.790 2.1980 0.5110 1.9040 3.3050 4.2290 177.4910 269.2310 266.8080 271.6530 3.1200 1.5650 103.0980 241.3790 488.2100 1240.4600 1045.7200
  173.890 2.2030 0.4320 1.9210 3.3520 4.3210 178.7290 269.8220 267.4220 272.2230 3.3000 1.5630 104.4470 237.7330 486.8550 1243.6801 1048.3199
  173.990 2.2280 0.4320 1.9380 3.4210 4.4920 180.1430 271.0060 268.0350 273.9770 3.4200 1.5150 99.2280 239.6010 488.3870 1247.1600 1049.5800
  174.090 2.2540 0.3920 1.8890 3.4330 4.6060 181.3810 271.0060 268.6480 273.3640 3.3800 1.4370 104.1240 236.3550 493.9540 1250.8500 1049.8000
  174.190 2.2440 0.4710 1.9180 3.4900 4.7770 182.0000 271.5980 269.8750 273.3200 3.5200 1.3730 102.8050 246.3590 502.6370 1250.0000 1045.1899
  174.290 2.2030 0.3920 1.8940 3.5130 4.9590 180.7620 271.5980 270.4880 272.7070 3.4400 1.3550 99.8140 239.1110 512.0160 1243.4700 1033.1300
  174.390 2.1330 0.3530 1.8940 3.5830 5.0500 181.1160 273.3730 273.5550 273.1900 3.5200 1.4210 102.4530 236.9330 525.8530 1230.9000 1009.7400
  174.490 2.1930 0.3920 1.9020 3.6400 5.0620 180.5850 274.5560 274.1680 274.9440 3.3600 1.4850 96.1780 238.8000 552.8900 1217.4900 980.7990
  174.590 2.1830 0.3920 1.9370 3.6640 5.0620 179.8780 275.7400 275.3950 276.0840 3.3600 1.5150 97.8490 237.7330 591.7250 1200.8400 949.6660
  174.690 2.1280 0.3920 1.9080 3.6060 5.0280 178.6400 276.9230 276.6220 277.2240 3.0200 1.4830 96.6470 247.4260 627.9480 1178.0200 921.2580
  174.790 2.0420 0.3530 1.8320 3.5710 4.9480 175.9880 278.1070 279.0750 277.1380 2.8600 1.4530 92.6890 251.2490 641.9100 1149.0000 893.2950
  174.890 2.0180 0.3920 1.8790 3.5370 4.7880 176.5190 280.4730 281.5290 279.4180 2.7400 1.4480 90.5480 251.6490 639.2620 1117.6300 865.3320
  174.990 2.0180 0.3530 1.8860 3.4210 4.6740 177.1380 281.6570 283.9820 279.3320 3.1200 1.4480 88.2910 253.8720 630.7530 1089.3400 840.3230
  175.090 1.9860 0.3530 1.9510 3.3630 4.5260 177.5800 282.2490 285.8220 278.6750 3.4400 1.4160 90.0210 255.5170 622.5400 1064.7300 823.5920
  175.190 1.9910 0.3920 1.9640 3.2820 4.3780 175.6350 285.2070 290.1160 280.2990 3.5400 1.3970 85.9740 257.7400 602.8550 1044.6100 819.6660
  175.290 1.9720 0.3530 1.9050 3.2360 4.2290 173.4240 288.1660 293.1820 283.1490 3.4000 1.4000 89.2000 259.5190 562.3590 1028.3000 821.0680
  175.390 1.9280 0.3920 1.8910 3.1780 4.1380 173.0710 293.4910 300.5430 286.4400 3.0800 1.4450 85.1830 259.9190 518.0700 1015.8000 819.6930
  175.490 1.9140 0.4320 1.9100 3.1210 4.0010 173.4240 298.8170 303.6090 294.0240 2.9000 1.4610 88.8480 257.1620 490.2800 1007.4600 809.7070
  175.590 1.8920 0.4710 1.9790 3.0170 3.9440 175.5460 302.3670 306.6760 298.0580 2.7400 1.4160 91.5750 261.1190 494.3890 1002.5900 797.2400
  175.690 1.8880 0.4710 1.9750 2.9700 3.8870 175.9000 307.6920 310.3560 305.0280 2.8400 1.3550 92.0730 269.8780 513.3820 1003.7200 788.2720
  175.790 1.8580 0.4710 2.0170 2.8900 3.8530 177.6680 310.6510 311.5830 309.7190 2.9600 1.3790 94.3310 269.7450 538.6250 1007.5300 783.5100
  175.890 1.7990 0.4710 1.9670 2.8320 3.8650 174.8390 314.2010 313.4230 314.9790 2.9000 1.4350 98.3190 265.1650 560.0440 1011.7800 780.6510
  175.990 1.8030 0.4320 1.9530 2.7860 3.8990 174.2190 318.3430 315.2630 321.4230 2.5600 1.4770 94.9760 252.2720 577.8170 1009.1000 779.9030
  176.090 1.8320 0.5110 1.8470 2.6820 3.9440 172.7170 316.5680 312.8100 320.3270 2.2600 1.4910 95.4160 233.9100 572.9980 1002.1500 785.7550
  176.190 1.9010 0.5900 1.8530 2.6470 4.1270 173.3360 300.5920 294.4090 306.7740 2.3000 1.4850 86.4140 214.3030 540.9840 993.3430 800.9400
  176.290 1.9950 0.5900 1.8590 2.6820 4.5490 172.6280 282.8400 271.1020 294.5790 2.4000 1.4750 77.8520 188.3820 481.0070 986.7780 824.0140
  176.390 2.3710 0.8670 2.0300 2.8430 5.1190 172.0100 280.4730 267.4220 293.5250 2.5600 1.4880 72.2230 170.1980 406.9100 983.1850 851.4430
  176.490 4.0180 2.9620 2.3290 3.0860 5.6660 173.6010 278.6980 266.1950 291.2020 2.4600 1.5600 68.2350 162.5060 329.3550 985.5190 880.3550
  176.590 9.4410 44.2300 2.4110 3.5250 5.9630 175.6350 277.5150 266.1950 288.8350 2.4400 1.7010 69.9650 166.7300 262.9100 998.0740 911.9750
  176.690 27.6690 9.6810 2.4210 3.9870 6.1450 177.4030 277.5150 266.1950 288.8350 2.4000 1.8480 72.0170 174.2440 215.2470 1021.2600 944.1790
  176.790 36.1410 9.2470 2.4570 4.5070 6.0080 176.0770 277.5150 266.1950 288.8350 2.3200 2.1010 79.4650 184.3360 192.7010 1052.1500 975.3370
  176.890 27.1020 7.3490 2.4390 4.9460 5.5980 177.2260 276.3310 264.9680 287.6950 2.5200 2.3470 81.1660 203.7650 192.0280 1084.7400 998.8070
  176.990 11.3240 4.2270 2.3940 5.4310 5.2330 175.6350 276.9230 266.1950 287.6510 2.5800 2.4130 91.7210 214.7030 214.8340 1117.5000 1014.8400
  177.090 5.3950 1.8940 2.2360 5.7660 4.8340 174.0440 278.1070 266.1950 290.0180 2.9800 2.2510 97.4680 237.2440 256.6390 1147.7000 1023.4600
  177.190 3.5160 1.3410 2.0820 6.0550 4.4230 172.7170 279.2900 267.4220 291.1580 3.1400 1.9520 99.9610 242.3570 310.6040 1174.7600 1027.4000
  177.290 2.9650 1.6570 2.1560 6.2050 4.1840 173.7780 281.0650 271.1020 291.0290 3.2400 1.7390 107.0560 250.2710 368.4000 1196.4301 1028.3700
  177.390 2.6790 1.7360 2.1320 6.1360 3.8530 174.1320 279.8820 268.6480 291.1150 3.0600 1.5920 105.9130 260.4080 420.1560 1212.6200 1027.9301
  177.490 2.1930 1.1830 2.0330 5.9620 3.6370 174.6620 280.4730 269.8750 291.0720 2.6600 1.5490 108.8160 261.2970 461.7330 1223.6000 1027.7000
  177.590 1.9910 1.2220 1.8930 5.5810 3.4430 174.2200 278.1070 269.2620 286.9510 2.5400 1.5070 111.8360 260.9420 489.7560 1228.7900 1027.6400
  177.690 1.9190 1.1830 1.9320 5.2350 3.3170 176.5180 278.1070 268.0350 288.1780 2.5800 1.4830 110.3700 261.6970 502.8840 1230.4100 1027.8400
  177.790 1.9230 1.1430 1.9020 4.9340 3.2370 177.0490 279.2900 269.8750 288.7050 2.8400 1.4610 109.2550 255.5170 506.4040 1230.1400 1028.1500
  177.890 1.9100 1.1830 1.9210 4.5990 3.2720 177.8450 280.4730 269.8750 291.0720 3.0200 1.4590 110.6040 257.3400 504.9610 1230.5900 1028.7100
  177.990 1.9410 1.0250 1.9240 4.3800 3.2600 177.9330 281.0650 270.4880 291.6420 3.0600 1.4880 110.3700 258.4070 504.7140 1231.3300 1029.1400
  178.090 1.9720 1.1040 1.9160 4.1950 3.2940 177.7560 282.2490 271.1020 293.3950 3.1600 1.5010 110.1350 256.3180 505.4930 1232.0699 1029.5699
  178.190 1.9770 1.1430 1.8840 4.0560 3.3290 178.7290 282.8400 271.1020 294.5790 3.3200 1.5150 110.4870 255.8730 506.2620 1232.0699 1029.9500
  178.290 1.9950 1.0640 1.9140 3.9410 3.3630 178.6400 282.2490 271.7150 292.7820 3.3400 1.5120 110.6630 251.3830 505.3030 1231.9000 1030.8900
  178.390 1.9910 1.0640 1.8950 3.8480 3.4200 178.2860 284.0240 272.9420 295.1060 3.2000 1.4830 106.9980 252.8050 502.5280 1232.0000 1032.3600
