~Version information
  VERS.                           2.00 : CWLS log ASCII Standard -Version 2.00
  WRAP.                             NO : One line per depth step
~Well information
#MNEM.UNIT              Data Type        Information
#----------------------------------------------------------------------
  STRT.M                         1.090 : 
  STOP.M                       818.990 : 
  STEP.M                         0.100 : 
  NULL.                      -999.2500 : 
  WELL.                            309 : Well Name
  FLD .                       KARATUBE : Field Name
  SRVC.        JSC "KAZPROMGEOPHYSIKA" : Service company
  DATE.                       26.07.04 : Log date
~Curve information
#MNEM.UNIT                               Curve Description
#----------------------------------------------------------------------
  DEPT.M                               : Depth Curve
  LL3 .OHMM                            : Appar.resist.laterolog,3 electrodes
  MLL .OHMM                            : Microlaterolog sonde
  RHOB.G/C3                            : Bulk density by gamma-gamma log
  GZ3 .OHMM                            : App.resistivity by lateral A2.0M0.5N
  GZ3B.OHMM                            : App.resistivity by lateral N0.5Œ2.0€
  SP  .MV                              : Spontaneous potential
  CALI.MM                              : Caliper
  C1  .MM                              : Diameter from profile1
  C2  .MM                              : Diameter from profile2
  GR  .UR/H                            : Gamma-ray log
  NGLD.UE                              : Neutron-gamma log/device DRST-90
  CILR.MMHO                            : Conduct. by sonde 7I1.6,react.signal
  CILA.MMHO                            : Conduct. by sonde 7I1.6,active signal
  DTP .US/M                            : Interval travel time (P-wave)
  T1  .US                              : Travel time1
  T2  .US                              : Travel time2
~Parameter information
#MNEM.UNIT              Value            Description
#----------------------------------------------------------------------
#----------------------------------------------------------------------
  DFV .SEK                          40 : Drilling Fluid Viscosity
  BS  .MM                        215.9 : Bit Size
  DFD .G/C3                       1.13 : Drilling Fluid Density
~Ascii Log Data
# ...
  725.190 1.6250 0.5900 2.2470 2.7050 2.7700 168.5620 233.7280 241.0470 226.4080 4.0800 1.4590 146.7870 280.6820 334.9200 946.8920 809.3610
  725.290 1.6790 0.5110 2.2730 2.7050 2.7930 167.4130 250.2960 247.7940 252.7970 4.1600 1.4830 141.0980 286.7730 343.8280 945.3000 803.9460
  725.390 1.5890 0.5110 2.1620 2.6820 2.7130 167.8550 247.9290 245.9540 249.9040 4.0000 1.5360 147.6070 282.5050 353.3830 942.5220 798.6800
  725.490 1.6480 0.6290 2.1050 2.6360 2.6790 167.5890 246.7460 242.2740 251.2170 3.9600 1.6000 147.9590 289.5740 359.6060 938.2260 795.3540
  725.590 1.6220 0.5900 1.9970 2.5660 2.6900 168.8270 255.0300 242.8870 267.1720 3.7200 1.6400 143.5030 282.0600 357.1800 934.5960 795.4990
  725.690 1.6480 0.5900 2.0710 2.5780 2.7130 169.2690 244.9700 237.3670 252.5740 3.8000 1.6240 145.4960 279.7930 347.7440 931.7810 797.6910
  725.790 1.5350 0.6690 2.0020 2.5430 2.7240 170.5070 234.9110 230.0070 239.8150 3.7000 1.5390 135.7320 281.6160 335.2250 930.6700 798.9060
  725.890 1.5140 0.6290 2.0070 2.5200 2.8160 170.7720 230.1780 226.9400 233.4150 3.8200 1.5200 139.9550 276.0580 329.4100 928.6700 799.1190
  725.990 1.6000 0.6690 2.1480 2.5550 2.9300 171.0370 243.7870 234.3010 253.2730 3.9000 1.5440 139.8960 282.7720 323.8790 927.2920 798.7470
  726.090 1.7140 0.6290 2.3200 2.5780 2.9520 171.4790 255.6210 242.2740 268.9690 4.2400 1.6210 139.0750 279.5260 321.3640 926.5810 798.3690
  726.190 1.5740 0.6290 2.3540 2.6240 2.9750 171.4790 260.9470 247.7940 274.0990 4.4200 1.6190 142.7400 282.4600 320.5310 928.3890 796.9690
  726.290 1.8110 0.5900 2.3610 2.6360 2.9750 170.5950 268.0470 250.2480 285.8470 4.4800 1.6050 140.6000 289.2180 328.5490 930.8410 794.7060
  726.390 1.4720 0.5500 2.2040 2.6240 2.9180 169.2690 271.0060 250.8610 291.1510 4.5000 1.5840 144.5580 291.1750 340.3370 932.6260 792.5890
  726.490 1.5920 0.6290 2.1960 2.5550 2.9070 169.2690 247.3370 241.0470 253.6270 4.3200 1.5650 142.8280 289.8410 350.0920 933.1520 791.7130
  726.590 1.4420 0.5900 2.1680 2.4970 2.9070 169.1810 253.8460 245.3410 262.3510 4.0400 1.5650 140.1310 283.8830 353.5980 932.4110 791.8710
  726.690 1.6440 0.5110 2.1350 2.4620 2.9410 169.9760 255.6210 250.2480 260.9950 3.6600 1.6110 138.3710 278.5030 351.3490 930.9590 792.2460
  726.790 1.4320 0.6290 2.2440 2.3930 2.9300 169.2690 237.2780 247.1810 227.3750 3.6800 1.6450 136.6410 276.0140 346.7830 928.9150 791.6360
  726.890 1.5740 0.4710 2.2490 2.3810 2.9870 169.3570 238.4620 239.2070 237.7160 3.9000 1.6510 136.6710 272.1010 343.1950 927.5740 790.2010
  726.990 1.7020 0.5500 2.1980 2.3930 3.0440 169.0040 233.7280 234.9140 232.5420 4.0600 1.6590 133.6210 270.4560 343.4310 931.0630 788.5890
  727.090 1.6600 0.5110 2.1640 2.3930 3.1010 168.2960 236.0950 234.9140 237.2750 4.1000 1.7040 132.0670 271.9680 356.1850 930.7730 788.3090
  727.190 1.5350 0.6690 2.1440 2.4280 3.1580 167.7660 234.3200 237.3670 231.2720 3.9000 1.7170 126.7310 268.0550 356.1600 931.1810 787.1170
  727.290 1.4960 0.6690 2.2450 2.4390 3.2830 167.9430 239.0530 241.6610 236.4460 3.7200 1.7200 129.0180 266.2770 360.1600 926.7920 785.8400
  727.390 1.5780 0.5900 2.2810 2.4970 3.3510 168.5620 237.8700 242.2740 233.4660 3.5400 1.7120 130.7180 268.5890 352.3790 926.1690 783.5010
  727.490 1.6750 0.6690 2.2510 2.5320 3.3060 169.0920 231.3610 237.9810 224.7410 3.6600 1.7410 129.2820 265.2540 356.6700 924.1350 782.3150
  727.590 1.9590 0.6290 2.1110 2.5660 3.3170 169.1800 230.7690 239.2070 222.3310 3.8600 1.7170 130.2200 264.3210 354.5510 922.1010 781.1280
  727.690 1.7910 0.6290 2.1020 2.5550 3.2370 167.8540 240.2370 246.5680 233.9060 4.2800 1.7120 123.9160 266.8550 352.4320 920.0670 781.9120
  727.790 1.7580 0.6290 2.2650 2.5890 3.2030 166.3520 242.0120 240.4340 243.5900 4.3800 1.7360 126.4080 270.0110 345.3870 918.0330 781.2030
  727.890 1.7180 0.5110 2.1940 2.5320 3.1120 165.7330 237.2780 246.5680 227.9890 4.1600 1.7250 126.7600 273.5240 342.0750 915.9990 778.5560
  727.990 1.6560 0.5500 2.1010 2.5320 3.0660 165.9100 244.3790 249.0210 239.7360 3.9000 1.6930 125.4990 272.8120 343.6080 913.9890 775.2670
  728.090 1.7260 0.7080 2.1710 2.5200 3.0550 166.0860 236.6860 244.7280 228.6450 3.8000 1.6290 127.2000 269.3450 346.8050 911.9900 773.2440
  728.190 1.6630 0.5900 2.2630 2.5080 3.0550 165.2020 250.8880 244.1140 257.6610 3.8400 1.5920 130.2200 265.9210 346.8650 909.9560 773.2430
  728.290 1.8030 0.6690 2.1910 2.5080 3.0660 165.1140 247.9290 245.9540 249.9040 3.7400 1.6160 124.9720 269.9230 341.7820 907.8980 772.3090
  728.390 1.6110 0.7480 2.1760 2.5320 3.0320 164.5840 240.8280 250.2480 231.4090 3.7400 1.6190 129.2230 272.0120 338.9720 906.1200 772.4430
  728.490 1.9190 0.5900 2.1980 2.5320 3.0090 166.0860 236.6860 242.8870 230.4850 3.8800 1.6770 127.6690 281.8820 334.1940 904.1670 773.0350
  728.590 1.6520 0.7080 2.1740 2.4850 2.9640 168.1200 245.5620 242.2740 248.8500 4.1400 1.6720 126.3500 268.5440 327.8290 903.7810 772.7390
  728.690 1.7860 0.7480 2.2740 2.5200 2.9750 170.9490 235.5030 242.8870 228.1180 4.0800 1.6480 126.8480 266.8990 327.6040 902.7440 770.5540
  728.790 1.6830 0.7880 2.2280 2.5660 2.9410 171.8330 236.0950 244.1140 228.0750 3.8200 1.5870 125.8220 271.9230 330.4750 902.0030 766.3680
  728.890 2.0370 0.7480 2.2020 2.5780 2.9410 172.3630 242.0120 237.3670 246.6560 3.5600 1.5840 128.2260 271.9230 339.0870 900.2260 761.9610
  728.990 1.7380 0.7880 2.1900 2.5890 2.9980 172.1860 242.6040 241.6610 243.5460 3.4200 1.6130 130.3670 270.0560 345.6610 900.3730 758.0300
  729.090 1.6630 0.7480 2.1300 2.6240 3.0320 172.2750 231.3610 239.8210 222.9010 3.5600 1.6370 131.7450 265.7430 355.8590 899.7810 754.8390
  729.190 1.9860 0.7080 2.1380 2.6700 3.0090 172.7170 234.3200 244.7280 223.9120 3.6400 1.6270 134.1490 268.3220 362.3530 897.5580 750.0190
  729.290 1.7300 0.7880 2.1280 2.6700 2.9640 172.1870 232.5440 242.8870 222.2010 3.5400 1.6160 133.1810 266.4550 368.8480 890.2250 743.5430
  729.390 1.5560 0.6290 2.1900 2.6360 3.0090 172.0980 230.7690 235.5270 226.0110 3.4400 1.6560 133.1230 265.8770 366.7050 883.0400 736.1040
  729.490 1.5420 0.6290 2.1060 2.7160 3.0550 171.5670 236.6860 234.9140 238.4590 3.3800 1.6430 130.1320 261.2970 367.3410 876.1510 730.1460
  729.590 1.7950 0.5900 2.2270 2.7390 3.1460 171.1250 236.6860 234.9140 238.4590 3.6200 1.6850 132.0670 254.8060 365.0120 870.1510 726.0720
  729.690 2.1730 0.5900 2.2420 2.7860 3.1800 168.8270 235.5030 234.3010 236.7050 3.5400 1.7040 129.5750 257.9630 360.1980 864.6690 723.9240
  729.790 2.1230 0.6290 2.3130 2.8550 3.2370 166.6170 227.2190 235.5270 218.9110 3.5800 1.7470 135.0580 256.7620 351.8640 859.8230 723.8500
  729.890 2.1930 0.7480 2.3730 3.0170 3.2150 164.6720 234.3200 241.6610 226.9780 3.7600 1.7150 135.7030 270.7230 339.9330 858.9690 725.9390
  729.990 2.2280 0.9060 2.3920 3.0740 3.1690 163.6110 238.4620 247.7940 229.1290 3.9600 1.6850 137.6090 268.1440 332.5760 859.4410 729.2130
  730.090 1.9540 0.9060 2.4200 3.1320 3.1230 163.5230 238.4620 247.7940 229.1290 4.0800 1.6910 143.4440 272.5010 325.5710 861.4190 732.6350
  730.190 2.1730 0.7880 2.3050 3.1320 3.0320 164.9370 240.2370 247.1810 233.2920 4.4000 1.7150 138.4010 276.7690 321.9590 861.6060 735.3460
  730.290 1.6940 0.6690 2.1960 3.1440 2.9980 166.5280 234.9110 246.5680 223.2550 4.7400 1.7120 145.6140 277.0810 315.6490 864.4670 737.5760
  730.390 1.8790 0.5900 2.2030 3.0740 2.9410 165.2900 238.4620 242.8870 234.0360 4.9200 1.7010 144.5580 280.4600 317.2290 868.4470 739.5090
  730.490 1.6560 0.6290 2.2370 3.0280 2.9410 164.6720 237.2780 245.9540 228.6020 4.6600 1.6850 142.4180 271.5680 322.3450 873.5580 740.5980
  730.590 1.6670 0.5500 2.2730 2.9940 2.9640 163.7880 235.5030 248.4080 222.5980 4.6200 1.7070 143.8840 273.7020 332.4000 874.6520 740.7990
  730.690 1.8660 0.5500 2.2740 2.9590 2.9980 165.1140 237.8700 252.7010 223.0390 4.9200 1.6960 143.6490 276.6360 334.6330 872.9130 738.3330
  730.790 1.5810 0.5500 2.2690 2.9360 2.9980 164.6720 236.6860 256.3810 216.9920 4.9400 1.7330 148.7510 274.9020 336.4510 870.1200 736.4730
  730.890 1.7020 0.5900 2.2290 2.9360 2.9870 162.9030 242.6040 261.9010 223.3060 4.7800 1.7410 148.0180 276.0580 334.1180 866.9560 733.5900
