~Version information
  VERS.                           2.00 : CWLS log ASCII Standard -Version 2.00
  WRAP.                             NO : One line per depth step
~Well information
#MNEM.UNIT              Data Type        Information
#----------------------------------------------------------------------
  STRT.M                         1.090 : 
  STOP.M                       818.990 : 
  STEP.M                         0.100 : 
  NULL.                      -999.2500 : 
  WELL.                            309 : Well Name
  FLD .                       KARATUBE : Field Name
  SRVC.        JSC "KAZPROMGEOPHYSIKA" : Service company
  DATE.                       26.07.04 : Log date
~Curve information
#MNEM.UNIT                               Curve Description
#----------------------------------------------------------------------
  DEPT.M                               : Depth Curve
  LL3 .OHMM                            : Appar.resist.laterolog,3 electrodes
  MLL .OHMM                            : Microlaterolog sonde
  RHOB.G/C3                            : Bulk density by gamma-gamma log
  GZ3 .OHMM                            : App.resistivity by lateral A2.0M0.5N
  GZ3B.OHMM                            : App.resistivity by lateral N0.5Œ2.0€
  SP  .MV                              : Spontaneous potential
  CALI.MM                              : Caliper
  C1  .MM                              : Diameter from profile1
  C2  .MM                              : Diameter from profile2
  GR  .UR/H                            : Gamma-ray log
  NGLD.UE                              : Neutron-gamma log/device DRST-90
  CILR.MMHO                            : Conduct. by sonde 7I1.6,react.signal
  CILA.MMHO                            : Conduct. by sonde 7I1.6,active signal
  DTP .US/M                            : Interval travel time (P-wave)
  T1  .US                              : Travel time1
  T2  .US                              : Travel time2
~Parameter information
#MNEM.UNIT              Value            Description
#----------------------------------------------------------------------
#----------------------------------------------------------------------
  DFV .SEK                          40 : Drilling Fluid Viscosity
  BS  .MM                        215.9 : Bit Size
  DFD .G/C3                       1.13 : Drilling Fluid Density
~Ascii Log Data
# ...
  540.990 2.3660 0.8670 2.0400 3.2480 5.9400 170.0650 217.7510 218.3530 217.1500 5.5800 1.5440 73.8350 220.4830 430.1040 1058.1801 886.1390
  541.090 2.4320 0.8670 2.0110 3.2710 5.9060 170.7720 217.7510 217.1270 218.3760 5.4200 1.5630 69.2610 220.9720 430.1040 1054.6801 883.4000
  541.190 2.5940 0.9460 1.9310 3.2710 5.8710 170.2410 218.3430 217.7400 218.9460 5.3600 1.5550 73.8650 218.7490 428.2100 1050.6500 879.6830
  541.290 2.6610 0.9850 1.9220 3.3050 5.8260 170.5070 221.8930 220.8070 222.9800 5.6800 1.5440 72.2810 228.4850 427.4270 1047.4399 876.0410
  541.390 2.4380 0.8670 2.0090 3.3750 5.6890 170.9490 220.7100 219.5800 221.8400 6.0200 1.5280 74.3920 220.8830 428.4960 1044.4500 872.1450
  541.490 2.4380 0.8670 2.0090 3.3750 5.6890 170.9490 220.7100 219.5800 221.8400 6.0200 1.5280 74.3920 220.8830 430.7550 1044.4500 872.1450
  541.590 2.3010 0.8670 2.0100 3.4330 5.6320 170.6830 219.5270 219.5800 219.4730 5.9200 1.5470 69.7890 218.4370 430.7550 1043.3400 871.6260
  541.690 2.3070 0.9060 2.0440 3.4090 5.5980 170.2410 222.4850 221.4200 223.5500 5.9200 1.5310 73.8060 211.6350 429.2740 1042.0000 871.1450
  541.790 2.4430 0.8270 1.9800 3.4330 5.6550 168.2090 223.0770 221.4200 224.7340 5.8600 1.5490 73.2780 213.6360 427.1440 1040.6700 870.5890
  541.890 2.7990 0.9460 2.0030 3.4440 5.7230 168.3840 221.8930 220.1930 223.5940 5.6800 1.5870 74.9790 202.8320 425.2000 1039.8500 871.1970
  541.990 2.7990 0.9460 2.0030 3.4440 5.7230 168.3840 221.8930 220.1930 223.5940 5.6800 1.5870 74.9790 202.8320 421.6440 1039.8500 871.1970
  542.090 3.1410 0.9850 1.9330 3.5480 5.7690 170.5070 222.4850 220.8070 224.1640 5.5800 1.6080 73.5420 206.6550 421.6440 1040.5900 872.4420
  542.190 3.1840 1.1430 1.9180 3.5830 5.7570 170.8610 222.4850 220.8070 224.1640 5.4600 1.5760 77.7060 205.2770 420.3820 1041.2600 873.8210
  542.290 2.9850 1.0640 1.9310 3.6640 5.7350 169.1810 223.0770 222.0330 224.1200 5.5600 1.5390 76.8260 207.5000 418.6020 1042.0000 874.7560
  542.390 3.2510 0.9850 1.9010 3.9180 5.6430 169.0920 225.4440 223.8740 227.0140 5.6800 1.4430 79.7880 204.2990 418.1170 1042.8199 875.5150
  542.490 3.2510 0.9850 1.9010 3.9180 5.6430 169.0920 225.4440 223.8740 227.0140 5.6800 1.4430 79.7880 204.2990 418.2550 1042.8199 875.5150
  542.590 3.5730 1.0640 1.9220 4.0450 5.5860 171.0380 224.8520 222.6470 227.0570 5.5200 1.4560 80.0810 208.8340 418.2550 1043.2600 875.8910
  542.690 3.7670 1.1040 1.9060 4.1720 5.5410 169.9760 221.8930 219.5800 224.2070 5.3400 1.4910 84.5080 212.2130 418.4270 1043.5200 876.6410
  542.790 3.7410 1.2220 1.9310 4.3340 5.4150 168.4740 220.1180 219.5800 220.6570 5.1400 1.5250 84.5380 219.1490 417.2010 1043.7500 877.6760
  542.890 3.8190 1.0640 2.0220 4.6800 5.3130 162.1970 222.4850 220.8070 224.1640 4.6200 1.4990 88.9650 232.7090 415.1870 1044.9500 879.6570
  542.990 3.8190 1.0640 2.0220 4.6800 5.3130 162.1970 222.4850 220.8070 224.1640 4.6200 1.4990 88.9650 232.7090 413.2350 1044.9500 879.6570
  543.090 3.8370 1.1830 2.1100 4.8760 5.1870 160.0750 223.6690 221.4200 225.9170 4.3800 1.4610 92.8650 241.4230 413.2350 1046.4800 880.2690
  543.190 3.6220 1.1040 2.1680 5.1190 5.1530 160.1630 223.6690 222.6470 224.6900 4.5000 1.4110 96.5300 251.2050 415.5180 1048.2200 880.6700
  543.290 3.1910 1.1830 2.2390 5.2920 5.0500 162.9030 223.0770 222.6470 223.5070 4.7600 1.4270 95.7680 258.4520 418.8870 1049.9399 881.0060
  543.390 2.5470 0.9460 2.0110 5.4190 4.9930 166.4400 223.6690 224.4870 222.8500 4.8600 1.4850 96.4130 266.5880 422.3230 1051.7600 881.6480
  543.490 2.5470 0.9460 2.0110 5.4190 4.9930 166.4400 223.6690 224.4870 222.8500 4.8600 1.4850 96.4130 266.5880 425.2750 1051.7600 881.6480
  543.590 2.3820 0.8670 1.9880 5.4310 5.0390 165.8210 223.6690 223.8740 223.4640 4.9800 1.4770 97.9370 265.4320 425.2750 1052.4100 882.3620
  543.690 2.3120 0.8670 1.9850 5.3960 5.1420 165.8210 225.4440 223.8740 227.0140 5.3400 1.5010 97.2340 266.1430 425.1190 1053.0000 883.5740
  543.790 2.2590 0.7880 1.9780 5.3730 5.2560 168.2080 227.2190 226.3270 228.1110 5.6000 1.4590 94.3020 264.1430 423.5720 1053.5900 884.7110
  543.890 2.2030 0.7880 2.0730 5.1650 5.5640 166.3530 228.4020 226.3270 230.4780 5.8600 1.4560 88.6430 262.7200 422.2090 1055.1500 885.9490
  543.990 2.2030 0.7880 2.0730 5.1650 5.5640 166.3530 228.4020 226.3270 230.4780 5.8600 1.4560 88.6430 262.7200 423.0030 1055.1500 885.9490
  544.090 2.1580 0.8270 2.0390 5.0840 5.7000 165.2910 228.4020 227.5540 229.2510 5.9200 1.4880 86.5020 261.2970 423.0030 1056.8199 886.2910
  544.190 2.1830 0.8270 2.0270 5.0040 5.9060 165.1140 228.9940 227.5540 230.4350 6.0400 1.5410 81.4590 261.6530 426.3160 1058.5100 886.8380
  544.290 2.1430 0.8670 1.9720 4.9110 6.1220 167.8540 227.2190 224.4870 229.9510 6.1800 1.4750 79.6120 256.3180 429.1690 1060.0500 887.8020
  544.390 2.1140 0.8270 2.0340 4.7730 6.6010 168.7380 224.8520 223.2600 226.4440 5.7200 1.4370 72.3690 244.0910 430.6120 1062.2700 890.5170
  544.490 2.1140 0.8270 2.0340 4.7730 6.6010 168.7380 224.8520 223.2600 226.4440 5.7200 1.4370 72.3690 244.0910 429.3800 1062.2700 890.5170
  544.590 2.1280 0.8270 2.0050 4.7150 6.8980 169.1800 224.8520 223.2600 226.4440 5.5400 1.4720 68.4700 241.8240 429.3800 1063.2500 891.8750
  544.690 2.1280 0.7880 2.0080 4.6570 7.2400 169.8880 224.2600 222.6470 225.8740 5.5000 1.4720 64.0130 238.4450 428.4290 1064.2200 893.1770
  544.790 2.1580 0.7880 1.9570 4.5880 7.5590 169.0920 224.2600 222.6470 225.8740 5.8000 1.4400 63.4560 231.9530 427.6180 1065.2600 894.6190
  544.890 2.2180 0.7880 1.9930 4.4840 8.3120 167.0580 220.7100 219.5800 221.8400 6.0200 1.4990 56.0960 212.9690 426.6060 1068.3700 897.6270
  544.990 2.2180 0.7880 1.9930 4.4840 8.3120 167.0580 220.7100 219.5800 221.8400 6.0200 1.4990 56.0960 212.9690 426.8650 1068.3700 897.6270
  545.090 2.2490 0.7880 2.0400 4.3680 8.6190 166.9710 221.3020 219.5800 223.0230 5.8200 1.5790 51.9030 206.8780 426.8650 1070.1400 899.0510
  545.190 2.3230 0.7880 1.9860 4.2990 8.9960 168.2960 221.8930 218.9670 224.8200 5.4800 1.5680 48.0330 198.1630 427.7120 1071.6801 900.3720
  545.290 2.3710 0.7480 2.0050 4.2530 9.4400 164.8490 222.4850 218.9670 226.0040 5.5800 1.5170 47.5640 185.7590 428.2620 1073.1400 901.4840
  545.390 2.4660 0.7880 1.9600 4.0910 10.3640 164.4060 224.8520 221.4200 228.2840 5.6000 1.5120 39.9400 157.7040 429.1480 1075.8199 902.8920
  545.490 2.4660 0.7880 1.9600 4.0910 10.3640 164.4060 224.8520 221.4200 228.2840 5.6000 1.5120 39.9400 157.7040 432.3220 1075.8199 902.8920
  545.590 2.7100 0.7880 1.8750 3.9990 10.8540 168.2970 223.6690 221.4200 225.9170 4.9000 1.5310 34.4570 151.5690 432.3220 1076.7400 903.4320
  545.690 3.2510 0.9850 1.9060 3.9870 11.2310 168.2080 223.0770 220.8070 225.3470 4.7000 1.5170 33.7830 141.9650 433.2780 1077.4301 904.0030
  545.790 3.8280 1.1830 1.9290 3.9640 11.5380 171.5670 223.6690 221.4200 225.9170 4.8000 1.5310 34.6920 142.1880 433.5620 1077.6300 904.3670
  545.890 4.3850 1.2620 1.8640 4.0100 11.8350 175.1040 223.6690 220.1930 227.1440 4.9200 1.5070 32.0230 133.3400 433.1610 1078.6300 905.0090
  545.990 4.3850 1.2620 1.8640 4.0100 11.8350 175.1040 223.6690 220.1930 227.1440 4.9200 1.5070 32.0230 133.3400 434.0580 1078.6300 905.0090
  546.090 4.5710 1.3010 1.8530 4.1030 11.7670 175.1920 224.2600 219.5800 228.9410 4.8200 1.4370 28.0060 136.2750 434.0580 1079.9700 905.6280
  546.190 4.5710 1.3410 1.8970 4.1600 11.7780 175.4580 224.2600 220.8070 227.7140 4.9000 1.4560 30.4990 134.3630 435.8570 1081.6100 906.6100
  546.290 4.5810 1.3010 1.9130 4.2990 11.7550 175.7230 223.6690 220.8070 226.5310 5.0800 1.4670 30.2930 137.2970 437.5060 1083.1700 907.8220
  546.390 4.5810 1.1830 1.8880 4.5070 11.6750 176.7840 224.8520 222.0330 227.6710 4.9800 1.5200 29.5310 132.6730 438.3620 1085.4200 910.3840
  546.490 4.5810 1.1830 1.8880 4.5070 11.6750 176.7840 224.8520 222.0330 227.6710 4.9800 1.5200 29.5310 132.6730 437.5970 1085.4200 910.3840
  546.590 4.6450 1.1830 1.8790 4.5760 11.6520 177.2260 224.8520 222.0330 227.6710 4.9400 1.5390 26.0420 136.5410 437.5970 1086.4600 911.4200
  546.690 4.6670 1.1430 1.8590 4.7030 11.6180 177.0490 225.4440 222.0330 228.8540 5.0200 1.5390 28.0650 134.2290 437.6040 1087.3199 912.0690
