~Version information
  VERS.                           2.00 : CWLS log ASCII Standard -Version 2.00
  WRAP.                             NO : One line per depth step
~Well information
#MNEM.UNIT              Data Type        Information
#----------------------------------------------------------------------
  STRT.M                         1.090 : 
  STOP.M                       818.990 : 
  STEP.M                         0.100 : 
  NULL.                      -999.2500 : 
  WELL.                            309 : Well Name
  FLD .                       KARATUBE : Field Name
  SRVC.        JSC "KAZPROMGEOPHYSIKA" : Service company
  DATE.                       26.07.04 : Log date
~Curve information
#MNEM.UNIT                               Curve Description
#----------------------------------------------------------------------
  DEPT.M                               : Depth Curve
  LL3 .OHMM                            : Appar.resist.laterolog,3 electrodes
  MLL .OHMM                            : Microlaterolog sonde
  RHOB.G/C3                            : Bulk density by gamma-gamma log
  GZ3 .OHMM                            : App.resistivity by lateral A2.0M0.5N
  GZ3B.OHMM                            : App.resistivity by lateral N0.5Œ2.0€
  SP  .MV                              : Spontaneous potential
  CALI.MM                              : Caliper
  C1  .MM                              : Diameter from profile1
  C2  .MM                              : Diameter from profile2
  GR  .UR/H                            : Gamma-ray log
  NGLD.UE                              : Neutron-gamma log/device DRST-90
  CILR.MMHO                            : Conduct. by sonde 7I1.6,react.signal
  CILA.MMHO                            : Conduct. by sonde 7I1.6,active signal
  DTP .US/M                            : Interval travel time (P-wave)
  T1  .US                              : Travel time1
  T2  .US                              : Travel time2
~Parameter information
#MNEM.UNIT              Value            Description
#----------------------------------------------------------------------
#----------------------------------------------------------------------
  DFV .SEK                          40 : Drilling Fluid Viscosity
  BS  .MM                        215.9 : Bit Size
  DFD .G/C3                       1.13 : Drilling Fluid Density
~Ascii Log Data
# ...
  494.990 2.8310 0.9850 2.1070 4.0680 4.8680 167.3240 225.4440 226.9400 223.9470 5.5400 1.5280 81.9280 220.0380 360.6890 1059.0800 918.1460
  495.090 3.1770 1.5780 2.1510 4.1720 4.9020 166.5280 226.0360 228.1670 223.9040 5.6000 1.5090 80.3740 210.9680 352.3250 1061.0400 916.4910
  495.190 2.8770 0.9850 2.2250 4.2530 4.8680 166.6170 222.4850 226.3270 218.6430 5.6800 1.4830 79.7290 205.8550 361.3680 1068.0800 915.5210
  495.290 2.6060 0.8270 2.1530 4.3340 4.8790 166.7940 220.7100 223.8740 217.5470 5.5000 1.4370 75.2130 203.3650 381.3850 1077.1500 917.0450
  495.390 2.5940 0.7880 2.0800 4.4840 4.9710 167.6780 221.8930 223.2600 220.5270 5.4000 1.4320 76.6210 200.2090 400.2610 1084.6700 920.5800
  495.490 3.0410 0.9460 2.0030 4.5990 5.0390 168.7380 220.1180 221.4200 218.8170 5.0800 1.4560 76.2400 201.4980 410.2210 1088.9301 924.8200
  495.590 3.9540 1.1830 1.9900 4.7260 5.0960 169.2690 220.1180 220.8070 219.4300 4.8800 1.4960 78.8490 201.9870 410.2700 1090.1100 928.2820
  495.690 5.1050 1.2620 1.8970 4.9340 5.1640 169.5340 219.5270 222.0330 217.0200 4.7000 1.4930 81.6050 214.4360 404.5780 1087.3000 929.2410
  495.790 5.1290 1.2620 1.9530 5.2230 5.0730 169.7990 220.1180 223.2600 216.9770 4.9200 1.5170 84.9190 226.5740 395.1420 1081.3700 926.9590
  495.890 4.1980 1.3410 2.0050 5.5120 4.9480 170.0650 219.5270 222.0330 217.0200 5.3400 1.5200 91.8090 242.9350 386.0330 1074.5200 921.1660
  495.990 3.1770 0.9460 2.0350 5.7310 4.7200 169.6230 214.7930 217.7400 211.8460 5.6400 1.5010 90.1090 248.5370 383.3860 1070.1100 913.3090
  496.090 2.6120 0.7880 1.9430 5.9160 4.6060 169.0920 215.3850 216.5130 214.2560 5.8400 1.4930 96.6180 250.0490 392.0100 1068.2600 903.3900
  496.190 2.3770 0.5900 1.9300 5.9620 4.4690 166.3520 213.0180 213.4470 212.5890 5.5200 1.4640 92.3370 258.7190 412.1760 1066.9600 892.6940
  496.290 2.2130 0.5110 1.9600 5.8810 4.3890 164.6720 210.0590 211.6070 208.5120 5.2800 1.4590 97.2920 255.6510 435.6760 1063.5900 881.4420
  496.390 2.0650 0.5900 2.0440 5.6620 4.3430 163.9640 212.4260 212.8330 212.0190 5.2200 1.3600 96.3540 261.6530 455.3790 1056.8900 872.0420
  496.490 1.9680 0.5900 2.0300 5.4190 4.3780 163.6990 207.6920 209.7660 205.6180 5.3400 1.3360 91.5450 251.5600 462.1200 1047.7400 865.9310
  496.590 1.8880 0.6690 1.9920 5.1650 4.4800 165.8210 208.8760 212.8330 204.9180 5.4000 1.2910 91.3400 243.5580 454.5280 1037.2600 864.7090
  496.690 1.8410 0.5110 1.9590 4.9920 4.6970 165.9090 217.7510 222.0330 213.4690 5.1600 1.2910 84.5380 241.8240 431.3800 1027.7800 866.9910
  496.790 1.9720 0.3920 1.9420 4.8300 4.9820 168.4730 221.8930 225.7140 218.0730 5.0000 1.2690 87.2640 240.5340 401.9690 1019.7800 869.8520
  496.890 2.6180 0.7880 1.8990 4.7260 5.0160 168.6500 220.7100 222.6470 218.7730 4.5200 1.2850 88.4960 247.5590 374.8180 1014.7800 869.9970
  496.990 3.0410 1.1830 2.0080 4.6220 5.0390 169.1800 213.6090 212.8330 214.3860 4.2000 1.3520 86.8250 250.4040 361.9560 1014.2200 866.7160
  497.090 2.9040 0.9460 2.0830 4.5070 4.9480 168.3850 214.7930 213.4470 216.1390 3.9000 1.3710 86.2970 249.3370 368.7680 1017.2200 861.0430
  497.190 2.3230 0.5900 2.0060 4.5070 4.9020 166.5280 215.3850 213.4470 217.3230 4.0800 1.3730 84.9480 253.2940 390.4510 1021.4200 854.6490
  497.290 1.9910 0.4320 2.0100 4.4030 4.8340 165.7330 215.3850 214.6730 216.0960 4.0800 1.2960 84.7720 251.3380 416.9370 1021.6700 848.5090
  497.390 1.8490 0.3920 2.0620 4.3800 4.9820 164.7600 214.7930 217.1270 212.4590 4.0200 1.2720 83.6870 248.7150 432.8970 1018.5300 843.2470
  497.490 1.9050 0.4320 1.9850 4.3800 5.1870 165.4670 215.3850 218.3530 212.4160 3.9200 1.2320 81.3120 246.8920 438.2180 1013.0400 838.8360
  497.590 2.0370 0.5500 1.9660 4.3680 5.3700 166.0860 216.5680 220.1930 212.9430 4.0800 1.2750 78.6150 241.3790 435.5050 1007.6700 834.5820
  497.690 2.1380 0.6690 2.1360 4.2410 5.5860 167.0590 219.5270 223.2600 215.7930 4.3800 1.2930 77.4130 237.9560 432.7340 1002.2900 830.3030
  497.790 2.1280 0.5500 2.2030 4.1260 5.7350 167.5890 221.3020 225.7140 216.8900 4.7000 1.3600 75.1840 234.9320 429.9690 997.1420 826.2960
  497.890 2.1830 0.5500 2.1500 4.1140 5.8140 168.2080 223.0770 228.1670 217.9870 5.2200 1.3760 73.1900 229.3750 427.1160 993.0010 824.0350
  497.990 2.2700 0.6290 2.1210 4.0330 5.9280 169.4460 221.8930 226.9400 216.8470 5.7800 1.4050 72.8680 228.0850 422.4170 990.5940 823.8280
  498.090 2.5180 0.7880 2.1130 4.0100 6.0310 169.0920 221.8930 225.7140 218.0730 6.0200 1.4110 71.7240 221.2380 416.9160 990.0010 825.6580
  498.190 2.7100 0.9060 2.0820 3.9870 6.0310 169.7990 222.4850 228.7800 216.1900 6.0600 1.4110 66.3000 223.5060 410.8590 991.0390 828.8210
  498.290 2.6850 0.7880 2.0880 4.0100 6.0880 169.2690 224.2600 229.3940 219.1270 5.8000 1.4370 68.9680 217.2810 405.5430 990.8530 830.9820
  498.390 2.6300 0.6290 2.1000 3.9750 6.0880 170.5950 223.6690 228.1670 219.1700 5.7800 1.4930 68.7920 224.2170 399.6790 990.2680 830.0860
  498.490 2.7290 0.8270 2.1370 3.9990 6.0990 170.2410 223.6690 228.1670 219.1700 5.6800 1.5550 65.5670 216.3030 400.4540 990.0680 824.0270
  498.590 2.7480 0.8270 2.1260 3.9750 6.1910 171.3020 224.8520 226.9400 222.7640 5.5800 1.5630 68.3230 214.2140 415.1020 993.9570 815.8570
  498.690 2.6790 0.7480 2.0840 3.9870 6.2710 171.9210 224.8520 227.5540 222.1500 5.3600 1.5390 61.6380 216.7920 445.2500 998.8020 808.1310
  498.790 2.6180 0.5900 2.1690 3.9870 6.3390 172.2750 224.8520 228.7800 220.9240 5.3400 1.5150 64.6580 211.9460 476.6760 1002.0600 803.3680
  498.890 2.7160 0.5900 2.1700 3.9520 6.4760 171.8330 224.2600 228.1670 220.3540 5.5800 1.4880 63.9830 215.5920 496.7320 1002.8100 801.1830
  498.990 2.8310 0.8270 2.1410 3.9990 6.6010 171.8330 223.6690 228.1670 219.1700 5.6400 1.4670 61.4320 212.4800 504.0650 1003.1400 800.9980
  499.090 2.9380 0.9850 2.1390 3.9990 6.6810 171.8330 223.0770 228.7800 217.3730 5.6400 1.4910 62.5470 204.7440 505.3610 1003.7900 801.9980
  499.190 2.9780 1.0250 2.1320 4.0680 6.8180 172.7170 223.0770 227.5540 218.6000 5.7400 1.5680 59.9370 203.5430 504.4720 1003.8500 802.6640
  499.290 3.0270 1.0640 2.1730 4.1600 6.9430 172.5400 223.6690 228.1670 219.1700 5.9800 1.5600 60.9340 199.5860 502.9720 1002.8500 802.8860
  499.390 2.8970 0.8670 2.1450 4.2760 7.1140 171.7450 222.4850 226.9400 218.0300 6.3200 1.5280 56.8580 203.1430 499.9170 1001.8500 803.3310
  499.490 2.9380 0.8670 2.1270 4.3340 7.2510 169.2690 220.7100 226.9400 214.4800 6.0400 1.4610 55.8610 198.5640 496.3060 1001.4100 805.1090
  499.590 3.0830 1.0640 2.1480 4.3680 7.3770 166.9700 223.6690 228.7800 218.5570 5.6800 1.4370 53.7210 194.2060 490.7500 1002.0800 809.0350
  499.690 3.0620 1.0640 2.1610 4.4260 7.5590 167.2360 222.4850 231.8470 213.1230 5.0800 1.4290 53.9560 188.2040 482.6020 1003.3500 815.2570
  499.790 3.1620 1.0640 2.1430 4.4950 7.6050 168.2970 223.6690 233.6870 213.6500 4.7200 1.3970 54.8350 189.4050 470.2320 1005.5100 822.8530
  499.890 3.2880 1.1430 2.2300 4.5650 7.6620 170.3300 223.6690 233.0740 214.2630 4.5600 1.3680 51.7270 191.8500 456.6490 1007.9000 829.1300
  499.990 3.2360 1.0640 2.0970 4.6340 7.6840 170.5070 229.5860 236.7540 222.4180 4.2000 1.3810 52.5770 191.8950 446.9180 1009.2200 831.7780
  500.090 3.2430 1.4600 1.6300 4.7380 7.7760 171.8330 228.9940 240.4340 217.5540 4.0400 1.3870 50.5250 194.9180 443.5950 1006.6100 831.0670
  500.190 3.1990 1.0640 1.4970 4.9110 7.7640 172.4510 224.2600 239.2070 209.3130 3.7600 1.4080 49.7630 199.0530 438.8540 1001.1600 828.9300
  500.290 3.1190 1.2620 1.7130 5.0270 7.7190 172.2750 220.7100 237.3670 204.0530 4.1200 1.4130 52.7240 198.6970 430.5620 994.4560 826.9970
  500.390 2.9510 0.9060 2.0200 5.0730 7.7190 172.1860 221.3020 231.8470 210.7560 4.5600 1.4430 50.0850 204.6990 418.6500 989.4620 825.2150
  500.490 2.7930 0.7880 2.1310 5.2110 7.6960 172.1860 220.1180 229.3940 210.8430 5.1000 1.5010 50.3780 199.6750 410.6180 984.7530 823.4710
  500.590 2.8450 0.9850 2.1230 5.2230 7.6500 173.0700 220.1180 228.1670 212.0700 5.4600 1.5120 49.9970 201.6760 403.2060 980.3770 821.5660
  500.690 2.8910 0.9460 2.1250 5.2110 7.6390 172.7170 220.1180 227.5540 212.6830 5.7200 1.5280 47.0940 201.3200 397.0280 976.6830 820.2020
