~Version information
  VERS.                           2.00 : CWLS log ASCII Standard -Version 2.00
  WRAP.                             NO : One line per depth step
~Well information
#MNEM.UNIT              Data Type        Information
#----------------------------------------------------------------------
  STRT.M                         1.090 : 
  STOP.M                       818.990 : 
  STEP.M                         0.100 : 
  NULL.                      -999.2500 : 
  WELL.                            309 : Well Name
  FLD .                       KARATUBE : Field Name
  SRVC.        JSC "KAZPROMGEOPHYSIKA" : Service company
  DATE.                       26.07.04 : Log date
~Curve information
#MNEM.UNIT                               Curve Description
#----------------------------------------------------------------------
  DEPT.M                               : Depth Curve
  LL3 .OHMM                            : Appar.resist.laterolog,3 electrodes
  MLL .OHMM                            : Microlaterolog sonde
  RHOB.G/C3                            : Bulk density by gamma-gamma log
  GZ3 .OHMM                            : App.resistivity by lateral A2.0M0.5N
  GZ3B.OHMM                            : App.resistivity by lateral N0.5Œ2.0€
  SP  .MV                              : Spontaneous potential
  CALI.MM                              : Caliper
  C1  .MM                              : Diameter from profile1
  C2  .MM                              : Diameter from profile2
  GR  .UR/H                            : Gamma-ray log
  NGLD.UE                              : Neutron-gamma log/device DRST-90
  CILR.MMHO                            : Conduct. by sonde 7I1.6,react.signal
  CILA.MMHO                            : Conduct. by sonde 7I1.6,active signal
  DTP .US/M                            : Interval travel time (P-wave)
  T1  .US                              : Travel time1
  T2  .US                              : Travel time2
~Parameter information
#MNEM.UNIT              Value            Description
#----------------------------------------------------------------------
#----------------------------------------------------------------------
  DFV .SEK                          40 : Drilling Fluid Viscosity
  BS  .MM                        215.9 : Bit Size
  DFD .G/C3                       1.13 : Drilling Fluid Density
~Ascii Log Data
# ...
  770.990 149.6240 25.6510 2.7040 67.0120 67.5360 267.9330 229.5860 226.9400 232.2310 0.6400 5.3040 -2.3120 1.2040 174.5530 502.4650 433.3200
  771.090 222.3310 76.4060 2.7270 66.6310 67.9120 269.7900 230.1780 227.5540 232.8010 0.4600 5.2640 -2.9280 2.5820 172.8620 501.3880 433.0710
  771.190 1374.0400 77.4730 2.7360 66.1570 68.2200 269.9670 229.5860 227.5540 231.6180 0.3800 5.3150 -2.7810 0.4040 170.7920 500.3530 432.6940
  771.290 89742.8906 72.3340 2.7910 65.7760 68.3570 269.3480 230.1780 226.3270 234.0280 0.4600 5.4130 -3.3970 0.8480 169.1470 499.7870 432.5200
  771.390 89742.8906 113.0100 2.7660 65.3600 68.0490 269.6130 229.5860 227.5540 231.6180 0.5200 5.5570 -2.0480 0.4920 168.1680 499.8490 432.6790
  771.490 89742.8906 98.6210 2.7480 65.2100 67.5590 268.5520 230.7690 226.3270 235.2120 0.5600 5.5840 -3.6610 2.0930 167.9240 500.4460 433.1640
  771.590 89742.8906 79.7260 2.7740 65.4520 67.1480 266.9600 230.1780 226.9400 233.4150 0.5600 5.6130 -1.3740 -1.8640 168.2050 501.3060 433.7980
  771.690 89742.8906 90.5570 2.7390 65.6020 66.7610 264.7510 230.1780 225.7140 234.6410 0.5800 5.6830 -2.9570 1.3370 168.7700 502.0620 434.4730
  771.790 89742.8906 61.3450 2.8670 65.8220 66.4760 265.2800 230.1780 226.9400 233.4150 0.5400 5.6480 -3.9250 -0.9300 168.9720 502.6440 435.2670
  771.890 89742.8906 78.4220 2.8420 66.1220 66.1680 265.9890 230.1780 226.9400 233.4150 0.5000 5.5870 -0.8460 0.9370 168.4420 503.7910 436.6360
  771.990 89742.8906 66.6820 2.8090 66.4230 65.9170 267.4030 229.5860 226.3270 232.8450 0.3800 5.4640 -3.5430 -2.0860 167.8880 505.7570 438.4170
  772.090 89742.8906 94.2730 2.8240 66.7000 65.6890 268.0220 230.7690 225.7140 235.8250 0.4200 5.4560 -1.9600 -3.3310 168.3490 508.4700 440.3250
  772.190 89742.8906 127.4370 2.8020 67.1040 65.5180 268.8180 230.1780 226.9400 233.4150 0.4800 5.3950 -4.7460 2.6270 170.3640 510.5920 441.0710
  772.290 89742.8906 69.2910 2.8890 67.4740 65.2900 269.2600 229.5860 225.7140 233.4580 0.6200 5.1730 -2.3120 4.1830 173.8030 512.0100 440.8030
  772.390 2471.7200 42.1740 2.8740 67.7630 65.0500 269.0830 229.5860 226.3270 232.8450 0.8600 5.0030 -3.5430 5.4720 178.0180 512.7700 439.8980
  772.490 418.7930 77.0780 2.7910 67.9360 64.9710 270.2320 229.5860 227.5540 231.6180 1.0000 4.7790 -2.4000 0.8040 182.1800 513.2620 439.4150
  772.590 179.0610 19.1290 2.7090 67.9820 65.1070 270.6740 230.1780 227.5540 232.8010 1.0000 4.7710 -3.2790 1.2040 184.6170 513.1400 439.2630
  772.690 97.4990 12.9620 2.6510 67.5660 65.6890 271.1160 230.7690 226.3270 235.2120 0.8400 4.7470 -3.2210 1.1590 184.6940 512.2120 439.3610
  772.790 105.6820 40.8700 2.8110 66.3650 66.2360 271.0280 229.5860 226.3270 232.8450 0.7000 4.8640 -2.0770 -0.0860 182.1280 511.0040 439.5440
  772.890 207.4910 35.2570 2.7610 65.1870 66.7950 271.4700 229.5860 226.3270 232.8450 0.6600 4.9870 -3.3090 -0.5750 178.6490 510.2540 440.0260
  772.990 778.0370 55.9700 2.6640 64.1470 67.2280 272.1770 229.5860 226.3270 232.8450 0.6200 5.1890 -1.7250 -3.9090 175.5710 510.2660 440.7000
  773.090 1174.9000 131.5090 2.8440 63.1770 67.5480 274.2110 230.1780 225.1000 235.2550 0.6200 5.3920 -3.9250 -3.0200 173.9140 510.6560 441.4060
  773.190 672.9770 77.7100 2.7690 62.6340 67.6160 274.9180 229.5860 225.1000 234.0710 0.6200 5.5310 -1.0220 -6.9770 173.1250 511.0850 441.9590
  773.290 1566.7500 68.7370 2.8000 62.4370 67.7300 276.6860 230.7690 225.7140 235.8250 0.6000 5.5730 -3.3670 -7.3770 172.8160 511.4470 442.3120
  773.390 3845.9199 44.2300 2.7840 62.6910 67.8440 276.5980 230.7690 226.3270 235.2120 0.5600 5.5070 -1.0510 -13.1120 172.8370 511.9300 442.5450
  773.490 2691.5300 103.4830 2.7100 62.9110 67.7190 278.8080 231.9530 227.5540 236.3520 0.6000 5.3360 -4.2470 -6.9770 173.4630 512.3820 442.5200
  773.590 1241.6500 54.0330 2.7810 62.9340 67.4450 280.3110 230.7690 227.5540 233.9850 0.6200 5.2160 -2.6640 -4.8870 174.6540 512.7800 442.1180
  773.690 1621.8101 68.5400 2.7680 62.8990 67.1600 280.9290 231.9530 227.5540 236.3520 0.7400 5.1870 -2.8690 0.4480 176.6550 513.0440 441.3340
  773.790 648.6350 71.3070 2.6390 62.9230 66.8290 281.6360 231.3610 226.9400 235.7820 0.8800 5.1970 -3.7490 -1.2860 179.2750 513.1430 440.4800
  773.890 334.9660 33.9520 2.6320 62.7720 66.5670 280.4870 229.5860 227.5540 231.6180 1.1000 5.0240 -2.8100 -1.9530 181.6590 512.9290 439.8800
  773.990 230.6750 25.7700 2.8370 62.4370 66.5210 279.7810 230.1780 227.5540 232.8010 1.2000 4.7630 -4.0420 0.1810 182.6220 512.2620 439.5720
  774.090 136.7730 36.1260 2.8200 61.9410 66.9200 278.3660 231.9530 228.1670 235.7380 1.1200 4.5760 -3.0450 0.0480 181.7250 511.2970 439.3630
  774.190 101.8590 38.3000 2.6550 60.9010 67.4910 278.5420 231.3610 228.1670 234.5550 0.9000 4.6030 -2.6340 2.0930 179.8350 510.3150 439.1260
  774.290 166.7250 43.0040 2.6870 59.7110 67.8780 277.9240 231.3610 228.7800 233.9420 0.7000 4.7330 -3.3670 1.2480 177.9730 509.4560 438.8060
  774.390 305.4920 70.8720 2.7300 58.7410 68.2550 276.6850 232.5440 229.3940 235.6950 0.6600 4.9040 -2.2530 -0.3080 176.6250 508.7580 438.4510
  774.490 370.6810 47.9450 2.7570 57.5740 68.4030 274.6530 233.1360 228.1670 238.1050 0.6600 5.0000 -4.1300 1.7370 175.7670 508.0240 437.9880
  774.590 380.1890 43.1230 2.7920 56.6500 68.1860 274.4760 231.9530 227.5540 236.3520 0.7600 5.0590 -3.1920 0.4040 175.0900 507.2210 437.4070
  774.690 374.1100 56.8790 2.7360 56.1420 68.0380 274.2990 232.5440 228.1670 236.9220 0.8200 5.2130 -2.6050 5.0270 174.5360 506.4100 436.7820
  774.790 314.0510 44.1900 2.8360 55.7490 67.9470 274.2990 234.3200 228.7800 239.8590 0.9400 5.2560 -3.6020 2.6270 174.0700 505.8770 436.4970
  774.890 311.8890 64.2310 2.7710 55.3680 67.9120 274.0340 233.1360 229.3940 236.8780 0.8800 5.2930 -2.9570 1.9600 173.4520 506.0640 436.9230
  774.990 202.7680 51.0290 2.8490 54.9060 67.9690 273.5920 235.5030 231.2340 239.7720 0.7400 5.1250 -4.4520 4.2720 172.8520 506.7440 437.9530
  775.090 175.7920 20.8290 2.8000 54.4210 68.0720 273.2380 233.7280 229.3940 238.0620 0.6200 5.0880 -0.4940 3.0710 171.9760 507.7500 439.2590
  775.190 206.5380 34.1500 2.8220 53.7390 68.3230 273.3260 233.7280 229.3940 238.0620 0.6200 5.0770 -3.6610 5.7390 171.2270 508.5170 440.3620
  775.290 346.7370 34.7820 2.6790 53.0690 68.4260 273.5920 233.1360 229.3940 236.8780 0.6400 5.1790 -1.8130 -0.6630 170.3880 509.1960 441.2540
  775.390 626.6140 70.5560 2.8750 52.4920 68.4600 274.1220 233.1360 229.3940 236.8780 0.6400 5.2960 -4.3940 2.0490 169.8550 509.8680 441.9790
  775.490 807.2350 49.3290 2.7330 51.9830 68.5050 274.1220 231.9530 229.3940 234.5120 0.7000 5.3230 -3.1920 0.4040 169.7230 510.8260 442.7200
  775.590 592.9250 50.5540 2.6710 51.7410 68.5970 273.8570 233.1360 230.6200 235.6520 0.8400 5.3760 -1.1390 3.1160 170.2640 512.3610 443.7960
  775.690 493.1740 47.9060 2.7450 51.7180 68.6420 274.0340 233.1360 230.0070 236.2650 0.9400 5.3600 -3.3670 1.8710 171.4110 514.0200 444.9330
  775.790 383.7070 65.2190 2.7830 51.7750 68.7220 274.5640 232.5440 228.7800 236.3080 0.9200 5.3950 -2.1650 1.8710 172.7160 515.4050 445.9850
  775.890 363.0780 64.6660 2.8420 51.7180 68.9270 276.3330 235.5030 230.6200 240.3860 0.9200 5.3310 -4.1590 1.8710 173.5510 515.8710 446.6190
  775.990 295.8010 30.2360 2.7900 51.6480 69.1900 276.3320 234.9110 230.6200 239.2020 0.8800 5.3280 -3.1620 -0.3520 173.1300 515.7520 447.1500
  776.090 287.7400 49.8030 2.7870 51.4060 69.3950 277.3050 233.7280 229.3940 238.0620 0.8200 5.3920 -2.7520 4.1830 171.5070 515.4580 447.7560
  776.190 403.6450 83.6400 2.7520 51.0710 69.5770 277.3050 233.7280 230.6200 236.8350 0.7000 5.4560 -3.6610 8.5400 169.2550 515.8620 448.8930
  776.290 1285.2900 73.0460 2.8690 50.7820 69.8510 278.9840 233.7280 230.0070 237.4490 0.6800 5.5010 -2.3710 8.0510 167.4230 517.2330 450.5070
  776.390 1164.1300 137.0430 2.8510 50.6090 69.9420 279.5150 233.1360 230.0070 236.2650 0.6800 5.4640 -4.0710 9.1180 166.8140 519.9230 452.8370
  776.490 6622.1699 84.3120 2.7650 50.5620 70.1360 279.9570 233.7280 230.6200 236.8350 0.7600 5.5040 -0.9040 7.0280 167.7130 523.2720 455.3730
