~Version information
  VERS.                           2.00 : CWLS log ASCII Standard -Version 2.00
  WRAP.                             NO : One line per depth step
~Well information
#MNEM.UNIT              Data Type        Information
#----------------------------------------------------------------------
  STRT.M                         1.090 : 
  STOP.M                       818.990 : 
  STEP.M                         0.100 : 
  NULL.                      -999.2500 : 
  WELL.                            309 : Well Name
  FLD .                       KARATUBE : Field Name
  SRVC.        JSC "KAZPROMGEOPHYSIKA" : Service company
  DATE.                       26.07.04 : Log date
~Curve information
#MNEM.UNIT                               Curve Description
#----------------------------------------------------------------------
  DEPT.M                               : Depth Curve
  LL3 .OHMM                            : Appar.resist.laterolog,3 electrodes
  MLL .OHMM                            : Microlaterolog sonde
  RHOB.G/C3                            : Bulk density by gamma-gamma log
  GZ3 .OHMM                            : App.resistivity by lateral A2.0M0.5N
  GZ3B.OHMM                            : App.resistivity by lateral N0.5Œ2.0€
  SP  .MV                              : Spontaneous potential
  CALI.MM                              : Caliper
  C1  .MM                              : Diameter from profile1
  C2  .MM                              : Diameter from profile2
  GR  .UR/H                            : Gamma-ray log
  NGLD.UE                              : Neutron-gamma log/device DRST-90
  CILR.MMHO                            : Conduct. by sonde 7I1.6,react.signal
  CILA.MMHO                            : Conduct. by sonde 7I1.6,active signal
  DTP .US/M                            : Interval travel time (P-wave)
  T1  .US                              : Travel time1
  T2  .US                              : Travel time2
~Parameter information
#MNEM.UNIT              Value            Description
#----------------------------------------------------------------------
#----------------------------------------------------------------------
  DFV .SEK                          40 : Drilling Fluid Viscosity
  BS  .MM                        215.9 : Bit Size
  DFD .G/C3                       1.13 : Drilling Fluid Density
~Ascii Log Data
# ...
  218.590 4.3050 1.3010 1.9950 7.6950 8.1630 166.2630 231.3610 236.1410 226.5810 4.4200 1.3810 40.8490 167.7530 620.3800 1294.1600 1049.0300
  218.690 4.1980 1.1430 2.0100 7.6950 8.0040 164.9370 230.7690 237.3670 224.1710 4.0200 1.3150 38.8840 166.5970 612.8370 1297.4399 1048.3800
  218.790 4.0180 1.1040 1.9850 7.5450 7.7870 166.4400 231.3610 239.2070 223.5150 3.6200 1.3630 41.9340 162.3730 622.6750 1300.7400 1046.4100
  218.890 3.8280 1.0640 1.9470 7.4410 7.5590 168.3850 232.5440 242.2740 222.8150 3.3600 1.4270 36.8910 168.0190 635.8270 1303.5200 1040.9600
  218.990 3.8640 1.1040 1.9350 7.2330 7.2850 171.4790 233.1360 242.8870 223.3850 3.0400 1.4320 40.7900 166.8190 656.3940 1300.6200 1035.7700
  219.090 3.8370 1.1430 1.9620 7.0020 7.1480 173.2470 230.1780 237.9810 222.3740 2.9400 1.4350 41.0540 171.5320 662.1190 1300.6200 1030.4301
  219.190 3.8640 1.1040 1.9630 6.9100 7.0800 174.3080 231.9530 237.9810 225.9250 2.9600 1.4670 40.4090 170.1090 675.4780 1302.7900 1027.9700
  219.290 3.8020 0.9460 1.9620 6.7710 7.0340 173.2470 240.8280 242.2740 239.3830 3.2200 1.5090 41.3770 169.5750 687.0490 1304.5800 1025.5100
  219.390 3.6810 0.9850 1.9860 6.7360 6.9770 173.1590 243.7870 243.5010 244.0730 3.1600 1.5150 40.2920 171.8870 697.6740 1301.4700 1020.8500
  219.490 3.5160 1.0640 1.8850 6.6900 6.9430 171.7440 245.5620 241.6610 249.4640 3.0400 1.4590 43.6340 171.2650 701.5370 1298.0000 1017.9000
  219.590 3.4910 1.0640 1.9470 6.6900 7.0230 173.3360 244.3790 238.5940 250.1630 2.9400 1.4050 39.4420 167.8860 700.2380 1293.3300 1016.8900
  219.690 3.6060 0.9460 1.9720 6.6440 7.1710 173.3360 242.0120 237.3670 246.6560 2.8800 1.3170 42.3440 161.1280 691.1100 1288.8900 1019.7800
  219.790 4.0460 0.9460 1.9120 6.6550 7.2630 175.5460 239.0530 234.9140 243.1930 2.9600 1.2990 38.0340 162.0620 672.7780 1285.1899 1022.4400
  219.890 4.3450 1.1430 1.8070 6.7250 7.3200 176.8720 237.8700 235.5270 240.2120 2.9200 1.3090 40.6440 159.3500 656.8530 1283.1899 1023.1100
  219.990 4.6030 1.1430 1.8780 6.8750 7.3990 175.7230 240.8280 236.1410 245.5160 2.8600 1.3170 41.4350 160.3720 650.1880 1282.3000 1021.5900
  220.090 4.6130 1.1040 1.9120 7.0250 7.3540 173.8660 239.0530 233.0740 245.0330 2.7400 1.2830 40.0570 160.6830 651.7630 1282.0000 1018.1600
  220.190 4.5810 1.1040 1.8900 7.2560 7.2850 172.8050 234.3200 229.3940 239.2450 2.6200 1.2610 40.4970 161.4390 659.5950 1281.5601 1018.4100
  220.290 4.5810 1.1040 1.8920 7.3830 7.2400 174.3090 229.5860 228.1670 231.0050 2.7000 1.2610 41.0540 161.9280 657.8720 1276.2200 1019.7500
  220.390 4.6030 1.0640 1.8550 7.5220 7.1140 176.3420 231.9530 228.1670 235.7380 2.6600 1.2510 43.2830 165.5740 641.1860 1267.8600 1020.3800
  220.490 4.7530 1.1040 1.8360 7.6140 7.0910 176.3420 232.5440 230.6200 234.4680 2.6400 1.2450 41.4060 169.0860 618.6970 1258.3101 1011.9000
  220.590 4.7100 1.1430 1.7870 7.7530 7.0340 175.9880 231.9530 230.0070 233.8980 2.6400 1.2350 45.3350 173.5320 616.0300 1240.3101 1000.8100
  220.690 4.4880 1.1430 1.7450 7.8680 6.9430 175.7230 231.9530 231.2340 232.6720 2.7400 1.2690 43.5760 178.8230 598.7530 1218.0000 990.5250
  220.790 4.2560 1.0640 1.7580 8.0650 6.8980 175.9000 231.9530 232.4600 231.4450 2.8200 1.2350 44.0450 182.8690 568.6880 1196.0000 986.9920
  220.890 4.1490 1.0250 1.6400 8.0880 6.8630 175.1040 231.3610 233.0740 229.6480 2.9400 1.2640 48.3550 185.9810 522.5210 1186.6700 986.1840
  220.990 4.1300 1.0250 1.5880 8.1460 6.8860 173.8660 232.5440 233.0740 232.0150 3.2400 1.2750 47.5050 192.8280 501.2070 1184.5200 986.4070
  221.090 4.1490 1.0250 1.8590 8.1340 6.9660 172.7170 231.9530 233.6870 230.2180 3.8600 1.2990 47.9450 189.9380 495.2810 1184.1500 986.2210
  221.190 4.0360 1.0640 1.9530 8.1220 7.0340 172.0980 231.9530 235.5270 228.3780 4.3600 1.2880 48.2380 193.9400 494.8180 1184.5200 986.4510
  221.290 3.9990 1.0640 1.9570 8.1570 7.1140 170.8600 230.1780 234.9140 225.4410 4.7600 1.2590 47.0650 195.4510 495.1700 1185.1899 987.2360
  221.390 3.8370 1.0640 2.0140 8.1460 7.2170 169.7110 230.7690 233.6870 227.8510 4.8200 1.3010 48.9120 193.4950 494.8730 1185.4100 988.4440
  221.490 3.7500 1.1040 2.0490 8.1690 7.3770 167.0590 231.3610 234.9140 227.8080 4.7400 1.3390 48.3850 195.0510 492.4100 1185.7800 989.6550
  221.590 3.7930 1.1040 2.0370 8.0990 7.4680 166.8820 232.5440 235.5270 229.5620 4.7600 1.3840 49.4990 192.2950 490.3090 1186.0000 990.0880
  221.690 3.7670 0.9850 2.0450 8.0530 7.5700 165.2020 234.3200 236.7540 231.8850 4.6800 1.3730 46.8600 192.0720 489.7810 1186.3300 989.4390
  221.790 3.7410 1.0250 2.0330 8.0420 7.6960 167.6780 236.6860 237.9810 235.3920 4.8400 1.3360 51.8440 183.9360 492.2380 1186.5200 988.2790
  221.890 3.7240 0.9460 2.0420 7.9840 7.7410 166.2630 236.6860 237.9810 235.3920 4.5800 1.3310 51.0230 191.0050 495.6010 1186.4100 988.4960
  221.990 3.7840 0.9850 2.0560 7.8910 7.7980 167.5890 237.8700 238.5940 237.1460 4.3800 1.3680 47.4460 185.5370 494.7790 1185.0699 990.3900
  222.090 3.6560 1.2220 2.0440 7.8450 7.8550 167.5890 237.2780 237.9810 236.5760 4.2600 1.4190 50.2020 182.2910 486.7120 1181.9600 992.5980
  222.190 3.6390 0.9850 2.0580 7.8680 7.9350 169.5340 235.5030 234.3010 236.7050 4.3400 1.4110 46.0390 182.8690 473.4130 1177.6700 993.0510
  222.290 3.9810 1.0250 2.0550 7.8800 8.0950 169.8880 233.7280 234.3010 233.1550 4.4200 1.3470 49.5280 179.4010 461.5400 1175.0400 992.0440
  222.390 4.3950 1.5780 2.0340 8.0300 8.0150 168.4730 236.6860 235.5270 237.8460 4.2000 1.3280 49.4110 185.4920 457.4850 1175.5200 990.6290
  222.490 4.0460 0.9060 1.9500 8.0760 7.8210 166.7050 231.9530 234.9140 228.9910 4.1000 1.3310 47.8270 184.4700 462.2250 1179.2600 989.6580
  222.590 3.5160 0.7480 1.8880 8.0420 7.6050 167.8540 231.3610 234.9140 227.8080 4.1200 1.3650 48.4430 185.7150 474.0030 1182.6700 988.8150
  222.690 3.4590 0.7880 1.8840 7.9150 7.3420 170.2420 230.7690 237.3670 224.1710 4.3200 1.3870 47.3580 189.9830 484.6300 1184.5500 987.7860
  222.790 3.4670 0.7480 1.9050 7.7530 6.9660 171.1250 232.5440 239.2070 225.8810 4.6400 1.3970 51.1990 191.5830 491.9050 1184.4301 986.6250
  222.890 3.5480 0.6690 1.8860 7.2680 6.7270 170.9490 233.7280 240.4340 227.0220 4.8200 1.4130 47.0360 190.9610 494.5130 1183.9800 985.2980
  222.990 3.5890 0.9060 1.8520 6.8980 6.6240 171.7450 228.9940 237.9810 220.0080 4.8200 1.3890 50.4960 187.8930 496.7010 1183.5601 983.9710
  223.090 3.5400 0.9850 1.8540 6.6790 6.5900 173.8670 227.2190 237.3670 217.0710 4.5600 1.3760 47.2120 191.2720 498.9630 1182.9800 982.4660
  223.190 3.5640 0.9460 1.9520 6.5170 6.5780 174.4850 228.9940 238.5940 219.3940 4.2200 1.3440 49.0880 190.1610 501.2990 1182.1899 980.9100
  223.290 3.6060 0.9460 1.9570 6.3440 6.5330 173.9550 229.5860 236.1410 223.0310 4.1200 1.3410 50.7010 189.3600 503.2060 1180.9600 978.9100
  223.390 3.5560 1.0250 1.9020 6.2160 6.5440 173.3360 229.5860 237.3670 221.8040 4.1400 1.2960 48.1210 191.1830 505.1130 1179.5699 976.8660
  223.490 3.5640 1.0250 1.8670 6.1930 6.6010 172.8940 232.5440 237.3670 227.7210 4.3800 1.3330 48.5310 185.0030 506.7610 1177.4100 974.7200
  223.590 3.5400 0.9850 1.8740 6.1470 6.7380 171.4790 234.9110 237.3670 232.4550 4.5400 1.3040 46.4490 186.3810 506.7190 1174.6700 973.3520
  223.690 3.6980 1.0250 1.9020 6.1360 6.8750 171.0370 234.3200 236.7540 231.8850 4.7800 1.3550 48.3260 185.2700 503.2880 1171.3300 972.6940
  223.790 4.0180 1.1830 1.9690 6.2400 7.0340 169.4460 227.2190 233.6870 220.7510 4.7800 1.3570 45.4230 182.8250 496.5980 1168.5200 972.7520
  223.890 4.0740 1.1430 2.0490 6.3440 7.1480 168.4730 224.8520 232.4600 217.2440 4.7800 1.3950 47.4460 181.4460 489.4180 1166.3700 973.1420
  223.990 4.1210 1.1430 2.0410 6.5400 7.2740 165.7320 224.8520 232.4600 217.2440 4.6400 1.3550 45.8630 181.1800 483.0710 1165.1100 973.3700
  224.090 4.0090 1.0640 2.0140 6.7590 7.3200 164.8490 225.4440 232.4600 218.4270 4.7000 1.2750 45.0710 182.7800 479.3540 1164.1500 973.5400
  224.190 4.0270 0.9850 2.0340 6.8750 7.3650 162.4620 225.4440 231.8470 219.0400 4.7000 1.2610 48.9120 180.7350 476.5210 1163.8500 973.3100
