~Version information
  VERS.                           2.00 : CWLS log ASCII Standard -Version 2.00
  WRAP.                             NO : One line per depth step
~Well information
#MNEM.UNIT              Data Type        Information
#----------------------------------------------------------------------
  STRT.M                         1.090 : 
  STOP.M                       818.990 : 
  STEP.M                         0.100 : 
  NULL.                      -999.2500 : 
  WELL.                            309 : Well Name
  FLD .                       KARATUBE : Field Name
  SRVC.        JSC "KAZPROMGEOPHYSIKA" : Service company
  DATE.                       26.07.04 : Log date
~Curve information
#MNEM.UNIT                               Curve Description
#----------------------------------------------------------------------
  DEPT.M                               : Depth Curve
  LL3 .OHMM                            : Appar.resist.laterolog,3 electrodes
  MLL .OHMM                            : Microlaterolog sonde
  RHOB.G/C3                            : Bulk density by gamma-gamma log
  GZ3 .OHMM                            : App.resistivity by lateral A2.0M0.5N
  GZ3B.OHMM                            : App.resistivity by lateral N0.5Œ2.0€
  SP  .MV                              : Spontaneous potential
  CALI.MM                              : Caliper
  C1  .MM                              : Diameter from profile1
  C2  .MM                              : Diameter from profile2
  GR  .UR/H                            : Gamma-ray log
  NGLD.UE                              : Neutron-gamma log/device DRST-90
  CILR.MMHO                            : Conduct. by sonde 7I1.6,react.signal
  CILA.MMHO                            : Conduct. by sonde 7I1.6,active signal
  DTP .US/M                            : Interval travel time (P-wave)
  T1  .US                              : Travel time1
  T2  .US                              : Travel time2
~Parameter information
#MNEM.UNIT              Value            Description
#----------------------------------------------------------------------
#----------------------------------------------------------------------
  DFV .SEK                          40 : Drilling Fluid Viscosity
  BS  .MM                        215.9 : Bit Size
  DFD .G/C3                       1.13 : Drilling Fluid Density
~Ascii Log Data
# ...
  356.090 2.3880 1.0640 2.0350 4.6450 4.3660 169.9760 237.8700 247.7940 227.9450 5.2200 1.4690 88.6130 237.7780 473.7030 1081.1801 891.7020
  356.190 2.2590 0.9850 2.0680 4.6110 4.3780 169.9760 234.9110 244.1140 225.7080 5.3200 1.5280 85.6810 242.1350 473.7030 1078.1300 891.6280
  356.290 2.1630 0.8270 2.0450 4.5990 4.4000 169.3570 233.7280 241.0470 226.4080 5.4200 1.5330 84.0100 237.6440 466.2530 1076.4399 891.9980
  356.390 2.2590 0.9850 2.0250 4.5410 4.4120 170.6830 230.1780 239.2070 221.1480 5.1800 1.5200 84.8310 236.3550 461.1160 1076.6700 893.7760
  356.490 2.4380 1.0250 2.0480 4.5410 4.5150 171.3020 223.0770 228.7800 217.3730 5.1600 1.4030 82.6020 231.5530 457.2270 1078.5601 900.5020
  356.590 2.4380 1.0250 2.0480 4.5410 4.5150 171.3020 223.0770 228.7800 217.3730 5.1600 1.4030 82.6020 231.5530 445.1340 1078.5601 900.5020
  356.690 2.4380 0.9850 2.0890 4.6340 4.6400 169.6230 223.0770 227.5540 218.6000 5.1600 1.4130 81.0190 232.5760 445.1340 1080.1100 904.6540
  356.790 2.4830 0.9850 2.0380 4.7960 4.7200 168.8270 224.2600 228.7800 219.7400 5.3000 1.4930 83.0720 231.5090 438.6440 1082.4399 909.0030
  356.890 2.5410 0.9460 2.0810 4.7610 4.7540 168.7390 224.8520 227.5540 222.1500 5.1000 1.5010 78.2920 239.1560 433.6030 1086.5601 913.6540
  356.990 2.5120 0.9060 2.0550 4.5760 4.8340 168.6500 224.8520 227.5540 222.1500 5.3400 1.5200 82.8080 240.3120 432.2540 1096.6700 923.6710
  357.090 2.5120 0.9060 2.0550 4.5760 4.8340 168.6500 224.8520 227.5540 222.1500 5.3400 1.5200 82.8080 240.3120 432.4890 1096.6700 923.6710
  357.190 2.5000 0.9460 2.0770 4.4950 4.8570 168.6500 225.4440 226.9400 223.9470 5.5200 1.5310 80.6380 235.7770 432.4890 1101.4399 930.3690
  357.290 2.4380 0.9060 2.1180 4.4140 4.9140 167.4130 226.6270 228.7800 224.4740 5.3000 1.5950 80.1690 241.4230 427.6900 1106.0699 939.1770
  357.390 2.3600 0.9060 2.1510 4.3220 5.0050 167.9430 228.4020 230.0070 226.7980 5.4200 1.5920 76.2400 239.6890 417.2420 1109.9301 949.2200
  357.490 2.5000 0.8670 2.1720 4.2760 5.2330 168.2080 227.2190 230.6200 223.8170 5.1200 1.6000 76.1220 230.2190 401.7640 1118.5900 963.2580
  357.590 2.5000 0.8670 2.1720 4.2760 5.2330 168.2080 227.2190 230.6200 223.8170 5.1200 1.6000 76.1220 230.2190 388.3380 1118.5900 963.2580
  357.690 2.8510 1.4200 2.2850 4.3450 5.3470 168.4730 227.2190 231.2340 223.2040 4.9400 1.5840 80.2860 226.3070 388.3380 1127.8500 967.8690
  357.790 2.9580 1.5780 2.2380 4.3910 5.3130 169.5340 226.6270 229.3940 223.8610 4.9600 1.5250 73.0440 230.3080 399.9580 1141.8500 974.1460
  357.890 2.4210 1.0250 2.1570 4.4030 5.3130 169.6230 223.6690 226.3270 221.0100 5.1000 1.4800 77.9110 222.7950 419.2640 1157.9301 981.4800
  357.990 2.2030 0.9460 2.0240 4.4720 5.3010 168.8270 227.2190 230.0070 224.4310 5.3400 1.4450 73.9820 218.3930 441.1160 1176.4301 993.6280
  358.090 2.2030 0.9460 2.0240 4.4720 5.3010 168.8270 227.2190 230.0070 224.4310 5.3400 1.4450 73.9820 218.3930 456.9960 1176.4301 993.6280
  358.190 2.1980 0.8270 2.0860 4.3800 5.2670 170.0650 225.4440 228.7800 222.1070 5.4000 1.4560 72.7210 217.2810 456.9960 1178.9600 993.2580
  358.290 2.1280 0.7880 2.0790 4.2760 5.3010 169.6230 224.2600 226.3270 222.1940 5.5400 1.4830 68.3230 216.3480 464.2640 1179.4399 985.4800
  358.390 2.1530 0.8670 2.0340 4.1950 5.2780 169.7990 223.0770 225.7140 220.4400 5.4600 1.4990 68.5870 211.1460 484.9120 1174.2800 974.0350
  358.490 2.4040 0.8270 1.8930 4.1140 5.2210 171.0370 224.2600 225.7140 222.8070 4.4400 1.5570 66.3880 199.1420 500.6060 1168.8900 955.1460
  358.590 2.4040 0.8270 1.8930 4.1140 5.2210 171.0370 224.2600 225.7140 222.8070 4.4400 1.5570 66.3880 199.1420 534.3570 1168.8900 955.1460
  358.690 2.5470 0.9460 1.8850 4.0100 5.1990 175.3690 224.2600 225.7140 222.8070 4.0400 1.5920 60.4940 201.4980 534.3570 1173.7800 949.8500
  358.790 2.6120 0.9460 1.8990 3.9990 5.1070 178.3750 223.6690 225.1000 222.2370 4.2000 1.5520 65.1560 198.5190 559.8200 1177.6200 943.8870
  358.890 2.6910 0.9850 1.9880 3.9990 5.0730 179.7890 225.4440 228.1670 222.7210 4.3000 1.5010 63.8950 207.7220 584.3290 1182.3700 938.1650
  358.990 2.7160 0.9060 1.9770 4.0790 4.9140 180.7620 227.8110 230.6200 225.0010 4.6000 1.3970 67.2970 213.4130 610.5100 1174.8300 925.7760
  359.090 2.7160 0.9060 1.9770 4.0790 4.9140 180.7620 227.8110 230.6200 225.0010 4.6000 1.3970 67.2970 213.4130 622.6360 1174.8300 925.7760
  359.190 2.7040 0.9060 2.0750 4.1140 4.8450 180.6740 240.8280 237.9810 243.6760 4.8600 1.4190 68.3820 219.9930 622.6360 1167.5400 914.4700
  359.290 2.5530 1.0250 2.0130 4.1370 4.7880 180.0550 234.9110 242.2740 227.5480 4.8000 1.4510 71.1960 214.7470 632.6710 1163.3000 902.3320
  359.390 2.3660 0.9850 1.9630 4.1260 4.6860 180.4970 226.0360 237.3670 214.7040 4.8800 1.4930 69.2910 209.3670 652.4320 1159.4600 899.4520
  359.490 2.2340 0.8670 1.8950 3.9870 4.6630 180.8510 228.9940 231.2340 226.7540 4.6200 1.4160 65.0980 198.4750 650.0150 1150.3000 923.1090
  359.590 2.2340 0.8670 1.8950 3.9870 4.6630 180.8510 228.9940 231.2340 226.7540 4.6200 1.4160 65.0980 198.4750 567.9670 1150.3000 923.1090
  359.690 2.3880 0.8670 1.9380 3.9640 4.7770 181.0270 225.4440 228.1670 222.7210 4.3800 1.3840 69.6130 188.9600 567.9670 1144.4399 929.4060
  359.790 2.5060 0.9460 1.9150 3.9870 4.9250 180.5850 224.8520 228.7800 220.9240 4.2400 1.4030 68.7040 188.8270 537.5970 1138.1500 930.8130
  359.890 2.6850 0.8670 1.8930 4.1260 5.0620 182.3540 226.6270 228.7800 224.4740 4.1200 1.4030 67.5310 182.7800 518.3380 1132.3700 929.6650
  359.990 2.9650 0.9060 1.9920 4.4720 5.1760 183.9450 226.0360 228.7800 223.2910 4.6000 1.3810 68.7330 196.2520 506.7640 1123.6300 943.7390
  360.090 2.9650 0.9060 1.9920 4.4720 5.1760 183.9450 226.0360 228.7800 223.2910 4.6000 1.3810 68.7330 196.2520 449.7270 1123.6300 943.7390
  360.190 3.0830 0.9060 1.9380 4.7260 5.2210 184.2980 226.0360 230.0070 222.0640 4.6200 1.4030 75.5950 208.3000 449.7270 1123.3300 957.1830
  360.290 3.2510 0.9060 1.8680 4.9800 5.2440 184.6520 229.5860 230.0070 229.1650 4.2800 1.4350 75.5950 217.0590 415.3750 1128.2200 971.8130
  360.390 3.2730 0.8670 1.8840 5.1540 5.1190 184.0330 240.8280 237.9810 243.6760 3.9000 1.4800 83.1890 219.4600 391.0230 1139.3300 982.9460
  360.490 2.8380 0.7880 1.8630 5.4080 4.8000 185.2710 228.4020 231.8470 224.9580 3.8600 1.4910 82.7490 229.7300 390.9680 1170.5900 985.6200
  360.590 2.8380 0.7880 1.8630 5.4080 4.8000 185.2710 228.4020 231.8470 224.9580 3.8600 1.4910 82.7490 229.7300 462.4310 1170.5900 985.6200
  360.690 2.6610 0.7080 1.8700 5.5120 4.6060 186.0670 226.6270 231.2340 222.0210 4.0000 1.5070 84.5080 241.3350 462.4310 1178.8101 980.9310
  360.790 2.5640 0.8670 1.8880 5.5230 4.4120 185.8010 226.6270 231.8470 221.4070 4.0000 1.5070 86.5310 238.1780 494.7090 1179.7200 974.7610
  360.890 2.5060 0.9060 1.8960 5.4770 4.3090 185.9780 228.4020 233.0740 223.7310 3.9800 1.4770 89.6980 238.9780 512.3940 1176.0300 967.0350
  360.990 2.3120 0.9060 2.0000 5.3500 4.0930 184.8290 236.6860 243.5010 229.8720 3.9800 1.4290 96.4420 251.8270 522.4870 1169.5100 951.1390
  361.090 2.3120 0.9060 2.0000 5.3500 4.0930 184.8290 236.6860 243.5010 229.8720 3.9800 1.4290 96.4420 251.8270 545.9310 1169.5100 951.1390
  361.190 2.2230 0.8670 2.0160 5.3500 3.9440 184.7400 235.5030 237.9810 233.0250 4.2000 1.4320 94.8000 247.3370 545.9310 1164.3900 944.8720
  361.290 2.0700 0.8270 1.9120 5.1880 3.8300 185.8010 234.3200 237.9810 230.6580 4.3800 1.4240 97.7320 244.8470 548.7830 1159.4100 939.3460
  361.390 2.0280 0.7880 1.8680 5.0380 3.7960 185.9780 230.7690 238.5940 222.9440 4.1600 1.4400 92.4250 243.2910 550.1540 1148.3000 933.7610
  361.490 2.1330 0.9850 1.8800 4.6450 3.7050 186.0670 229.5860 233.0740 226.0980 4.0000 1.5280 90.7830 242.9350 536.3380 1128.4200 924.7390
  361.590 2.1330 0.9850 1.8800 4.6450 3.7050 186.0670 229.5860 233.0740 226.0980 4.0000 1.5280 90.7830 242.9350 509.2060 1128.4200 924.7390
  361.690 2.1980 0.8670 1.8900 4.5410 3.7620 186.5970 226.0360 229.3940 222.6770 4.1400 1.5600 90.7540 235.0660 509.2060 1122.4200 923.3690
  361.790 2.2230 0.7880 1.9100 4.5530 3.8530 186.6860 224.2600 226.9400 221.5800 4.0200 1.6030 87.3230 232.9760 497.6320 1118.3500 923.9980
