~VERSION INFORMATION
 VERS.                  2.0:   CWLS Log Ascii Standard
 WRAP.                   NO:   One line per depth step
~WELL INFORMATION
#MNEM.UNIT        DATA TYPE:   INFORMATION
#---------    -------------   --------------------------
 STRT.M              140.00:   Top Depth
 STOP.M              770.00:   Bottom Depth
 STEP.M                0.10:   Increment
 NULL.              -999.25:   Null Value
 SRVC.                  KPG:   Service Company/Logging company
 DATE.           14.08.2024:   LAS file Creation Date
 WELL.                  353:   Well Name
 COMP.                KMG-B:   Company
 FLD .             Karatube:   Field
 STATE.                    :   State
 COUNT.          Kazakhstan:   Country
 LATI.                     :   Latitude/Northing
 LONG.                     :   Longitude/Easting
 DF  .                     :   DF Elevation
 GL  .                     :   GL Elevation
~PARAMETER INFORMATION
#MNEM  .UNIT          Value:   Description
#---------    -------------   --------------------------
~CURVE INFORMATION
#MNEM  .UNIT           API Code:   Curve Description
#---------       -------------- -------------------------- 
 DEPTH .M                      :   1 Measured depth
 AMF   .OHMM                   :   2 Array Induction Mud Resistivity Fully Calibrated (F13
 AT10  .ohm.m                  :   3 " Array Induction, two foot resolution
 AT20  .ohm.m                  :   4 " Array Induction, two foot resolution
 AT30  .ohm.m                  :   5 " Array Induction, two foot resolution
 AT60  .ohm.m                  :   6 " Array Induction, two foot resolution
 AT90  .ohm.m                  :   7 " Array Induction, two foot resolution
 BSC   .mm                     :   8 Nominal Caliper
 C1    .mm                     :   9 CALIPER DIAMETER 1
 C2    .mm                     :   10 CALIPER DIAMETER 2
 CALI  .mm                     :   11 Caliper
 CFTC  .dec                    :   12 Neutron far
 CNTC  .dec                    :   13 Neutron near
 DT    .uSec/m                 :   14 Sonic travel time
 GR    .uR/h                   :   15 GammaRay  
 HCGR  .GAPI                   :   16 HNGS Computed Gamma Ray {F13.4}
 HMIN  .Ohmm                   :   17 HIP Micro Inverse Resistivity
 HMNO  .Ohmm                   :   18 HIP Micro Normal Resistivity
 HSGR  .GAPI                   :   19 HNGS Standard Gamma-Ray
 HTNP  .m3/m3                  :   20 High Resolution Thermal Neutron Porosity (Ratio Method) in Selected Lithology
 HTPR  .                       :   21 HNGS Formation Thorium Potassium Concentration
 HTUR  .                       :   22 HNGS Formation Thorium Uranium Concentration
 HUPR  .                       :   23 HNGS Formation Uranium Potassium Concentration
 PEFZ  .B/E                    :   24 Formation Photoelectric Factor 
 Perm  .md                     :   25 Permeability
 PHIE  .Dec                    :   26 Effective porosity 
 POTA  .                       :   27 
 RHOZ  .g/cm3                  :   28 Bulk Density 
 RLA1  .ohm.m                  :   29 ShalRes HRLT Borehole Corrected Resistivity 1
 RLA2  .ohm.m                  :   30 MedRes  HRLT Borehole Corrected Resistivity 2
 RLA3  .ohm.m                  :   31 DeepRes HRLT Borehole Corrected Resistivity 3
 RLA4  .ohm.m                  :   32 XDeepRes HRLT Borehole Corrected Resisitivity 4
 RLA5  .ohm.m                  :   33 UltraDeepR HRLT Borehole Corrected Resistivity 5
 RT    .ohm.m                  :   34 
 RXO   .ohm.m                  :   35 HRLT Invaded Zone Resistivity
 RXOZ  .ohm.m                  :   36 MicroRes Invaded Formation Resistivity
 SP    .mV                     :   37 Spontaneous Potential
 SW    .Dec                    :   38 Water saturation
 TEMP  .                       :   39 TEMP
 THOR  .                       :   40 
 TNPH  .V/V                    :   41 Neutron porosity
 URAN  .                       :   42 
 VCLAV .Dec                    :   43 Clay volume
 HAZIM .deg                    :   44 Hole Azimuth
 SDEVM .deg                    :   45 Sonde Deviation
~A Log Data Section - Number of Curves = 45
# ...
264.00  0.1572    2.1830    3.2810    4.2940    6.2700    6.7800 215.9000 210.2610 211.2560 210.7580     606.8300 1820.2665 456.0839  56.9234  38.6782   0.7131   0.6337  43.4333  0.3403  2.3083  5.6014  0.4121      1.8269    72.1808  0.3147  1.5183      2.0105    2.7930    3.4090    3.5790    3.6580    3.7500    4.2370    2.1950    1.5540  89.1915  0.8567 25.6952  3.5045      0.3376  0.6257  0.2052 289.1964  0.1595
264.10  0.1571    2.1240    3.0170    3.7910    5.1350    5.6650 215.9000 210.6760 213.5340 212.1000     602.7957 1826.0903 459.9773  54.7428  37.8392   0.6348   0.5660  42.6817  0.3469  2.4174  5.5830  0.4330      1.8350    75.0615  0.3203  1.4662      2.0147    2.6200    3.1720    3.3320    3.4080    3.5060    3.9500    2.0960    1.4710  89.3251  0.8736 25.6529  3.5413      0.3432  0.6343  0.1881 288.3047  0.1634
264.20  0.1569    2.0870    2.8640    3.5280    4.6140    5.1550 215.9000 210.8790 213.9710 212.4190     603.7705 1842.9418 464.1467  52.4327  37.1266   0.6053   0.5387  42.0477  0.3518  2.4513  5.2777  0.4672      1.8419    81.1871  0.3252  1.4323      2.0195    2.5870    3.0960    3.2720    3.3470    3.4500    3.8840    2.1020    1.4270  89.2161  0.8686 25.6597  3.5113      0.3474  0.6687  0.1707 287.5954  0.1670
264.30  0.1568    2.0710    2.8170    3.4960    4.6830    5.2270 215.9000 210.8790 212.6390 211.7570     609.5580 1870.3884 468.5813  49.9981  36.5353   0.6228   0.5502  41.5265  0.3548  2.4132  4.6970  0.5140      1.8477    91.3003  0.3294  1.4160      2.0247    2.6880    3.1750    3.3930    3.4670    3.5740    4.0320    2.2090    1.4220  88.8740  0.8421 25.7138  3.4170      0.3501  0.7277  0.1529 287.0115  0.1702
264.40  0.1569    2.0360    2.7260    3.3070    4.4590    4.7950 215.9000 209.7400 212.8330 211.2810     608.2543 1873.5387 474.9442  49.3633  37.4983   0.6764   0.5974  42.6450  0.3552  2.4927  4.8300  0.5161      1.8575    83.8970  0.3275  1.4394      2.0347    2.5880    3.0220    3.2430    3.3090    3.4180    3.8430    2.1410    1.4420  88.1584  0.8674 25.6615  3.5889      0.3527  0.7428  0.1484 286.5195  0.1730
264.50  0.1569    2.0120    2.6720    3.1680    4.1820    4.4430 215.9000 208.1320 212.6480 210.3780     610.4523 1864.1284 479.5457  49.9723  39.7767   0.6738   0.5995  45.1375  0.3471  2.5942  4.9933  0.5194      1.8644    70.2170  0.3214  1.5077      2.0433    2.4730    2.8590    3.0660    3.1300    3.2330    3.6190    2.0640    1.4820  87.5639  0.9099 25.6572  3.9186      0.3478  0.7835  0.1528 286.1984  0.1757
264.60  0.1569    2.0000    2.6620    3.0930    3.8510    4.1980 215.9000 206.0020 211.9810 208.9700     616.9308 1840.5551 482.0333  51.9985  43.5621   0.6046   0.5478  49.2036  0.3292  2.7187  5.1752  0.5253      1.8678    52.3970  0.3103  1.6280      2.0499    2.3430    2.6870    2.8640    2.9310    3.0220    3.3620    1.9790    1.5460  87.1204  0.9754 25.7116  4.4274      0.3343  0.8553  0.1675 286.1009  0.1780
264.70  0.1571    2.1110    2.9290    3.5070    4.2220    4.8080 215.9000 208.3820 212.7090 210.5340     594.5619 1820.9774 483.8589  59.4543  45.4456   0.6608   0.6005  51.7127  0.3438  2.7542  4.8232  0.5733      1.8738    41.4179  0.2945  1.6915      2.0470    2.5520    2.9570    3.1150    3.2070    3.2970    3.6710    2.1430    1.5710  86.6467  0.9778 25.7120  4.6595      0.3503  0.9714  0.2257 286.1662  0.1800
264.80  0.1573    2.2310    3.2220    3.9400    4.6970    5.6470 215.9000 210.5240 213.1280 211.8220     566.5106 1803.1842 483.2079  65.5055  46.6560   0.7175   0.6516  54.0359  0.3676  2.8517  4.3364  0.6681      1.8837    37.3285  0.2850  1.7174      2.0391    2.7980    3.2680    3.4200    3.5370    3.6230    4.0430    2.3260    1.6210  86.2800  0.9584 25.7015  4.8955      0.3748  1.1458  0.2775 286.2081  0.1819
264.90  0.1575    2.3510    3.5250    4.3580    5.2580    6.7350 215.9000 211.9090 212.9710 212.4400     532.9320 1787.5918 479.0538  69.0369  47.0725   0.7634   0.6910  56.2346  0.4017  3.0469  3.7048  0.8267      1.8988    43.1060  0.2870  1.6946      2.0250    3.0650    3.5980    3.7610    3.9020    3.9800    4.4560    2.5160    1.7090  86.0700  0.9051 25.6804  5.1626      0.4088  1.4002  0.3095 286.2803  0.1835
265.00  0.1574    2.3350    3.5270    4.1860    5.1200    6.2630 215.9000 212.0620 213.1460 212.6030     520.5992 1779.7173 473.3842  69.8348  46.7008   0.7085   0.6493  56.4273  0.4148  3.1222  3.5756  0.8736      1.9056    43.8258  0.2918  1.6671      2.0159    2.8920    3.3420    3.5040    3.6090    3.6690    4.0870    2.4160    1.6620  85.8534  0.9311 25.7156  5.2042      0.4217  1.4558  0.3169 286.4584  0.1848
265.10  0.1574    2.3230    3.5150    4.0290    4.9210    5.6590 215.9000 212.1900 213.1030 212.6460     517.0135 1771.1152 469.0071  68.2327  46.5525   0.6728   0.6167  56.8067  0.4171  3.1223  3.4745  0.8989      1.9105    49.1684  0.3003  1.6619      2.0104    2.7750    3.1640    3.3290    3.4020    3.4520    3.8280    2.3550    1.6220  85.5821  0.9365 25.7164  5.1874      0.4233  1.4940  0.3021 286.6982  0.1859
265.20  0.1574    2.3480    3.5420    4.0250    4.7690    5.1660 215.9000 212.5480 212.6000 212.5740     524.3097 1759.5236 467.2605  62.9646  46.9743   0.6934   0.6180  57.9589  0.4045  3.0152  3.3128  0.9103      1.9143    66.7175  0.3137  1.6971      2.0101    2.8540    3.2520    3.4320    3.4940    3.5470    3.9360    2.4290    1.6240  85.2150  0.8853 25.6437  5.1164      0.4091  1.5449  0.2553 286.9066  0.1873
265.30  0.1572    2.3930    3.5970    4.1470    4.8850    4.9930 215.9000 212.4660 212.0180 212.2420     534.9514 1779.5231 465.8623  61.6030  46.6755   0.7423   0.6696  57.4909  0.3979  2.9748  3.2574  0.9132      1.9079    74.0077  0.3144  1.6939      2.0132    3.1060    3.5230    3.7300    3.7970    3.8570    4.2810    2.6380    1.7150  84.8325  0.8445 25.6896  5.0392      0.4029  1.5469  0.2436 286.9668  0.1891
265.40  0.1570    2.4020    3.5540    4.1270    4.8700    4.7630 215.9000 212.3530 211.6110 211.9820     542.9839 1802.2592 463.8173  61.4652  46.9010   0.7728   0.7114  57.5931  0.3960  2.9331  3.2072  0.9145      1.9077    73.3565  0.3131  1.7104      2.0159    3.1830    3.5800    3.7920    3.8590    3.9210    4.3380    2.7170    1.7890  84.5257  0.8403 25.7355  5.0148      0.4011  1.5643  0.2425 286.9175  0.1906
265.50  0.1568    2.3290    3.2940    3.7560    4.4660    4.2810 215.9000 212.3530 211.6110 211.9820     544.1174 1818.0234 460.2571  62.3469  48.5322   0.7526   0.7121  59.5632  0.4015  2.8618  3.1245  0.9159      1.9251    61.6658  0.3125  1.7843      2.0161    2.8170    3.1100    3.2730    3.3240    3.3740    3.6900    2.4680    1.7910  84.3864  0.9130 25.7338  5.1050      0.4053  1.6343  0.2499 286.8203  0.1918
265.60  0.1568    2.3210    3.2080    3.6490    4.2590    4.0720 215.9000 212.0240 211.7340 211.8790     552.5290 1814.7473 459.2148  63.4165  50.1336   0.7162   0.6635  61.0473  0.3896  3.0001  3.3646  0.8933      1.9481    56.6100  0.3094  1.8140      2.0107    2.7540    3.0460    3.1940    3.2540    3.3020    3.6090    2.4190    1.7700  84.3623  0.9324 25.7094  5.4443      0.3940  1.6201  0.2592 286.7973  0.1930
265.70  0.1568    2.3500    3.2280    3.7110    4.2650    4.0650 215.9000 211.6670 211.6710 211.6690     559.7708 1805.9076 459.1644  64.3941  51.5806   0.6985   0.6290  62.3498  0.3769  3.1459  3.5964  0.8747      1.9725    56.3516  0.3070  1.8363      2.0033    2.8470    3.1770    3.3190    3.3930    3.4440    3.7750    2.4860    1.7320  84.3512  0.9183 25.7003  5.7772      0.3822  1.6064  0.2677 286.8750  0.1935
265.80  0.1568    2.4300    3.4100    4.0370    4.7070    4.4030 215.9000 211.4770 211.0160 211.2460     558.6193 1795.7101 459.9861  64.9882  52.6318   0.7429   0.6684  63.5108  0.3746  3.1613  3.5740  0.8846      1.9967    64.2661  0.3079  1.8706      1.9948    3.1430    3.5420    3.6780    3.7630    3.8200    4.1960    2.7200    1.6650  84.2922  0.8657 25.7485  5.9137      0.3801  1.6547  0.2729 287.1016  0.1934
265.90  0.1569    2.4180    3.3640    3.9570    4.6010    4.2810 215.9000 211.4470 210.8970 211.1720     559.7384 1785.7218 460.1549  64.4858  52.6471   0.7324   0.6620  63.1618  0.3701  3.3043  3.8832  0.8538      1.9952    65.0059  0.3099  1.8425      1.9922    3.0990    3.4620    3.5900    3.6680    3.7210    4.0690    2.7060    1.6390  84.0660  0.8729 25.7109  6.0828      0.3754  1.5744  0.2685 287.4817  0.1929
