~VERSION INFORMATION
 VERS.                  2.0:   CWLS Log Ascii Standard
 WRAP.                   NO:   One line per depth step
~WELL INFORMATION
#MNEM.UNIT        DATA TYPE:   INFORMATION
#---------    -------------   --------------------------
 STRT.M              140.00:   Top Depth
 STOP.M              770.00:   Bottom Depth
 STEP.M                0.10:   Increment
 NULL.              -999.25:   Null Value
 SRVC.                  KPG:   Service Company/Logging company
 DATE.           14.08.2024:   LAS file Creation Date
 WELL.                  353:   Well Name
 COMP.                KMG-B:   Company
 FLD .             Karatube:   Field
 STATE.                    :   State
 COUNT.          Kazakhstan:   Country
 LATI.                     :   Latitude/Northing
 LONG.                     :   Longitude/Easting
 DF  .                     :   DF Elevation
 GL  .                     :   GL Elevation
~PARAMETER INFORMATION
#MNEM  .UNIT          Value:   Description
#---------    -------------   --------------------------
~CURVE INFORMATION
#MNEM  .UNIT           API Code:   Curve Description
#---------       -------------- -------------------------- 
 DEPTH .M                      :   1 Measured depth
 AMF   .OHMM                   :   2 Array Induction Mud Resistivity Fully Calibrated (F13
 AT10  .ohm.m                  :   3 " Array Induction, two foot resolution
 AT20  .ohm.m                  :   4 " Array Induction, two foot resolution
 AT30  .ohm.m                  :   5 " Array Induction, two foot resolution
 AT60  .ohm.m                  :   6 " Array Induction, two foot resolution
 AT90  .ohm.m                  :   7 " Array Induction, two foot resolution
 BSC   .mm                     :   8 Nominal Caliper
 C1    .mm                     :   9 CALIPER DIAMETER 1
 C2    .mm                     :   10 CALIPER DIAMETER 2
 CALI  .mm                     :   11 Caliper
 CFTC  .dec                    :   12 Neutron far
 CNTC  .dec                    :   13 Neutron near
 DT    .uSec/m                 :   14 Sonic travel time
 GR    .uR/h                   :   15 GammaRay  
 HCGR  .GAPI                   :   16 HNGS Computed Gamma Ray {F13.4}
 HMIN  .Ohmm                   :   17 HIP Micro Inverse Resistivity
 HMNO  .Ohmm                   :   18 HIP Micro Normal Resistivity
 HSGR  .GAPI                   :   19 HNGS Standard Gamma-Ray
 HTNP  .m3/m3                  :   20 High Resolution Thermal Neutron Porosity (Ratio Method) in Selected Lithology
 HTPR  .                       :   21 HNGS Formation Thorium Potassium Concentration
 HTUR  .                       :   22 HNGS Formation Thorium Uranium Concentration
 HUPR  .                       :   23 HNGS Formation Uranium Potassium Concentration
 PEFZ  .B/E                    :   24 Formation Photoelectric Factor 
 Perm  .md                     :   25 Permeability
 PHIE  .Dec                    :   26 Effective porosity 
 POTA  .                       :   27 
 RHOZ  .g/cm3                  :   28 Bulk Density 
 RLA1  .ohm.m                  :   29 ShalRes HRLT Borehole Corrected Resistivity 1
 RLA2  .ohm.m                  :   30 MedRes  HRLT Borehole Corrected Resistivity 2
 RLA3  .ohm.m                  :   31 DeepRes HRLT Borehole Corrected Resistivity 3
 RLA4  .ohm.m                  :   32 XDeepRes HRLT Borehole Corrected Resisitivity 4
 RLA5  .ohm.m                  :   33 UltraDeepR HRLT Borehole Corrected Resistivity 5
 RT    .ohm.m                  :   34 
 RXO   .ohm.m                  :   35 HRLT Invaded Zone Resistivity
 RXOZ  .ohm.m                  :   36 MicroRes Invaded Formation Resistivity
 SP    .mV                     :   37 Spontaneous Potential
 SW    .Dec                    :   38 Water saturation
 TEMP  .                       :   39 TEMP
 THOR  .                       :   40 
 TNPH  .V/V                    :   41 Neutron porosity
 URAN  .                       :   42 
 VCLAV .Dec                    :   43 Clay volume
 HAZIM .deg                    :   44 Hole Azimuth
 SDEVM .deg                    :   45 Sonde Deviation
~A Log Data Section - Number of Curves = 45
# ...
388.00  0.1500    2.5840    2.4710    2.4360    2.4160    2.3910 215.9000 212.8170 222.7200 217.7130     445.4076 1438.6622 588.1581 103.5653  75.1611   0.7068   0.7694  93.5380  0.3868  4.2474  3.9907  1.0672      2.8028     0.0000  0.0001  2.3841      2.1039    2.4890    2.4480    2.4100    2.3640    2.3240    2.2510    2.5890    2.5070  57.9548  1.0000 28.7784 10.1263      0.3809  2.5439  0.8519 240.8448  0.2332
388.10  0.1500    2.5900    2.4370    2.4110    2.3830    2.3640 215.9000 213.7600 227.3880 220.4690     443.9325 1427.3523 591.4789 103.4835  76.3068   0.6465   0.7198  95.3276  0.3798  4.3340  3.9873  1.0882      2.8100     0.0000  0.0001  2.3995      2.1078    2.4300    2.3880    2.3480    2.3010    2.2630    2.1860    2.5260    2.4810  57.5420  1.0000 28.8208 10.4033      0.3753  2.6104  0.8512 240.0470  0.2329
388.20  0.1501    2.5930    2.4130    2.3650    2.3010    2.2860 215.9000 215.4770 233.0580 224.0950     443.4275 1419.0822 593.5763 107.7774  78.9945   0.5070   0.5843  97.7061  0.3723  4.5144  4.2786  1.0552      2.7997     0.0000  0.0001  2.4412      2.1101    2.3230    2.2810    2.2400    2.1910    2.1570    2.0750    2.4210    2.3870  57.2509  1.0000 28.8541 11.0207      0.3723  2.5759  0.8899 239.5193  0.2322
388.30  0.1501    2.6130    2.4040    2.3600    2.2600    2.2450 215.9000 220.2280 229.8810 225.0030     428.9848 1434.9449 595.4967 106.2591  82.3404   0.4502   0.5336 100.1994  0.4044  4.5197  4.6335  0.9786      2.7774     0.0000  0.0001  2.5433      2.1151    2.2970    2.2610    2.2180    2.1700    2.1390    2.0620    2.4040    2.3280  56.9053  1.0000 28.8551 11.4950      0.4058  2.4847  0.8762 239.8227  0.2330
388.40  0.1501    2.6300    2.4050    2.3650    2.2490    2.2410 215.9000 220.7300 224.7160 222.7140     421.6878 1449.6031 596.5848 107.0159  83.4187   0.4599   0.5478 100.8400  0.4258  4.4753  4.7365  0.9453      2.7641     0.0000  0.0001  2.5875      2.1176    2.3130    2.2760    2.2310    2.1810    2.1530    2.0710    2.4260    2.3510  56.7386  1.0000 28.8605 11.5814      0.4276  2.4457  0.8830 240.1592  0.2347
388.50  0.1501    2.6420    2.4200    2.3830    2.2730    2.2800 215.9000 215.9250 217.4560 216.6890     423.6513 1461.8767 596.6622 110.7731  81.7005   0.5481   0.6382  99.2120  0.4326  4.3767  4.5291  0.9665      2.7624     0.0000  0.0001  2.5587      2.1170    2.3780    2.3280    2.2830    2.2260    2.2000    2.1030    2.4920    2.4700  56.7926  1.0000 28.8725 11.1993      0.4338  2.4728  0.9169 240.5779  0.2371
388.60  0.1501    2.6620    2.4420    2.4000    2.3070    2.3300 215.9000 215.3640 214.4380 214.9010     417.1603 1458.4890 594.4075 111.9263  81.1118   0.6521   0.7334  98.1462  0.4493  4.4643  4.7913  0.9331      2.7940     0.0000  0.0001  2.5190      2.1172    2.4480    2.3890    2.3480    2.2930    2.2660    2.1660    2.5580    2.6030  57.1576  1.0000 28.8735 11.2433      0.4439  2.3513  0.9273 241.1083  0.2396
388.70  0.1501    2.6750    2.4590    2.4060    2.3210    2.3560 215.9000 214.5530 212.7630 213.6560     413.0342 1466.5425 592.8312 113.9412  80.7538   0.7297   0.7967  97.3582  0.4642  4.5416  5.0757  0.8956      2.8292     0.0000  0.0001  2.4890      2.1183    2.4780    2.4140    2.3760    2.3220    2.2960    2.1960    2.5860    2.6750  57.4892  1.0000 28.8735 11.3041      0.4551  2.2294  0.9454 241.6182  0.2419
388.80  0.1502    2.6780    2.4680    2.3970    2.3070    2.3420 215.9000 212.8140 212.5460 212.6800     413.5583 1493.8007 592.5766 117.5883  80.5944   0.7655   0.8114  96.9136  0.4751  4.5794  5.3320  0.8592      2.8654     0.0000  0.0001  2.4752      2.1205    2.4480    2.3850    2.3470    2.2910    2.2710    2.1700    2.5600    2.6540  57.7300  1.0000 28.8735 11.3345      0.4675  2.1265  0.9783 242.0961  0.2444
388.90  0.1503    2.6750    2.4710    2.3960    2.3080    2.3090 215.9000 212.6050 212.3300 212.4670     406.1962 1497.3247 591.1470 115.9005  81.1288   0.7588   0.7983  97.3279  0.4918  4.6534  5.5899  0.8331      2.8880     0.0000  0.0001  2.4740      2.1234    2.3990    2.3380    2.2940    2.2480    2.2320    2.1320    2.5190    2.6330  58.0594  1.0000 28.8735 11.5125      0.4836  2.0611  0.9631 242.5541  0.2473
389.00  0.1503    2.6720    2.4740    2.3910    2.3090    2.2720 215.9000 212.6050 212.0380 212.3210     399.2251 1502.3491 589.5573 112.8244  80.9649   0.7544   0.7922  97.3498  0.5061  4.6822  5.6493  0.8296      2.9022     0.0000  0.0001  2.4621      2.1263    2.3770    2.3150    2.2670    2.2290    2.2150    2.1150    2.5030    2.6190  58.4201  1.0000 28.8735 11.5293      0.4999  2.0421  0.9354 242.9946  0.2500
389.10  0.1503    2.6710    2.4770    2.3770    2.3030    2.2360 215.9000 212.6050 211.6040 212.1040     394.9772 1516.1707 587.9676 108.5212  79.3284   0.7653   0.8062  96.4252  0.5148  4.6178  5.3397  0.8652      2.9041     0.0000  0.0001  2.4272      2.1289    2.4100    2.3400    2.2930    2.2570    2.2460    2.1410    2.5380    2.6190  58.8165  1.0000 28.8735 11.2091      0.5161  2.1000  0.8966 243.3880  0.2525
389.20  0.1503    2.6860    2.4880    2.3810    2.3060    2.2340 215.9000 213.4220 211.7530 212.5860     399.9422 1510.2330 584.7215 106.5640  79.7207   0.7517   0.8002  97.1151  0.5015  4.5601  5.3757  0.8486      2.8937     0.0000  0.0001  2.4529      2.1335    2.4310    2.3570    2.3140    2.2780    2.2690    2.1640    2.5600    2.6340  59.1461  1.0000 28.8735 11.1845      0.5025  2.0809  0.8790 243.7289  0.2552
389.30  0.1503    2.7170    2.4960    2.3870    2.3160    2.2350 215.9000 214.6270 212.3880 213.5050     404.8781 1503.0419 580.8398 106.2192  80.9289   0.6954   0.7575  98.3962  0.4876  4.5079  5.5505  0.8133      2.8754     0.0000  0.0001  2.5027      2.1389    2.4470    2.3720    2.3340    2.2990    2.2930    2.1940    2.5830    2.6400  59.5097  1.0000 28.8735 11.2806      0.4883  2.0340  0.8758 244.0793  0.2578
389.40  0.1504    2.7790    2.4950    2.3930    2.3360    2.2280 215.9000 216.3470 213.8770 215.1090     405.3433 1502.3694 576.2667 108.5152  83.0714   0.5512   0.6384 100.2847  0.4827  4.4652  5.8837  0.7598      2.8447     0.0000  0.0001  2.5795      2.1450    2.4540    2.3860    2.3570    2.3270    2.3230    2.2410    2.6100    2.6200  59.9848  1.0000 28.8735 11.5171      0.4872  1.9587  0.8965 244.4605  0.2602
389.50  0.1504    2.8140    2.5350    2.4420    2.3720    2.2810 215.9000 219.7470 213.2190 216.4580     411.4911 1508.9182 572.6524 110.9167  84.0752   0.5231   0.6196 101.6677  0.4785  4.3440  5.7066  0.7618      2.8060     0.0000  0.0001  2.6421      2.1475    2.4880    2.4300    2.4030    2.3790    2.3740    2.3120    2.6640    2.6680  60.4805  1.0000 28.8735 11.4724      0.4785  2.0133  0.9182 244.8595  0.2619
389.60  0.1504    2.8470    2.5880    2.5060    2.4250    2.3580 215.9000 221.2630 212.3230 216.7470     422.8640 1517.2708 570.3923 113.2344  84.5753   0.5795   0.6724 102.1762  0.4679  4.2587  5.6165  0.7601      2.7632     0.0000  0.0001  2.6798      2.1478    2.5040    2.4590    2.4330    2.4170    2.4100    2.3660    2.6740    2.7370  60.9466  1.0000 28.8735 11.4119      0.4621  2.0374  0.9390 245.2448  0.2629
389.70  0.1504    2.8940    2.6450    2.5780    2.5090    2.4570 215.9000 216.0650 212.4780 214.2640     444.5466 1524.9602 571.2167 115.2288  84.5555   0.7833   0.8485 100.6016  0.4384  4.3385  6.1838  0.7033      2.7150     0.0000  0.0001  2.6582      2.1445    2.4500    2.4210    2.4030    2.3920    2.3840    2.3480    2.5400    2.8100  61.3120  1.0000 28.8735 11.5320      0.4293  1.8701  0.9570 245.5661  0.2635
389.80  0.1504    2.9510    2.7180    2.6590    2.5920    2.5700 215.9000 214.8040 212.3610 213.5790     470.3494 1543.5927 569.7907 113.8940  84.3081   0.8308   0.8830  99.0615  0.4092  4.2474  6.4634  0.6578      2.6730     0.0000  0.0001  2.6745      2.1486    2.4900    2.4790    2.4710    2.4600    2.4590    2.4420    2.5450    2.8920  61.9526  1.0000 28.8558 11.3571      0.3994  1.7586  0.9450 245.8096  0.2641
389.90  0.1504    3.0280    2.8020    2.7540    2.6880    2.7020 215.9000 214.9990 212.1450 213.5670     494.2670 1570.9843 567.8792 112.0639  83.6021   0.8368   0.8823  97.5955  0.3856  4.0991  6.4850  0.6330      2.6313     0.0000  0.0001  2.6912      2.1552    2.5700    2.5800    2.5810    2.5690    2.5760    2.5800    2.6090    2.9760  62.6636  1.0000 28.8265 11.0329      0.3772  1.7032  0.9285 246.0651  0.2644
