~VERSION INFORMATION
 VERS.                  2.0:   CWLS Log Ascii Standard
 WRAP.                   NO:   One line per depth step
~WELL INFORMATION
#MNEM.UNIT        DATA TYPE:   INFORMATION
#---------    -------------   --------------------------
 STRT.M              140.00:   Top Depth
 STOP.M              770.00:   Bottom Depth
 STEP.M                0.10:   Increment
 NULL.              -999.25:   Null Value
 SRVC.                  KPG:   Service Company/Logging company
 DATE.           14.08.2024:   LAS file Creation Date
 WELL.                  353:   Well Name
 COMP.                KMG-B:   Company
 FLD .             Karatube:   Field
 STATE.                    :   State
 COUNT.          Kazakhstan:   Country
 LATI.                     :   Latitude/Northing
 LONG.                     :   Longitude/Easting
 DF  .                     :   DF Elevation
 GL  .                     :   GL Elevation
~PARAMETER INFORMATION
#MNEM  .UNIT          Value:   Description
#---------    -------------   --------------------------
~CURVE INFORMATION
#MNEM  .UNIT           API Code:   Curve Description
#---------       -------------- -------------------------- 
 DEPTH .M                      :   1 Measured depth
 AMF   .OHMM                   :   2 Array Induction Mud Resistivity Fully Calibrated (F13
 AT10  .ohm.m                  :   3 " Array Induction, two foot resolution
 AT20  .ohm.m                  :   4 " Array Induction, two foot resolution
 AT30  .ohm.m                  :   5 " Array Induction, two foot resolution
 AT60  .ohm.m                  :   6 " Array Induction, two foot resolution
 AT90  .ohm.m                  :   7 " Array Induction, two foot resolution
 BSC   .mm                     :   8 Nominal Caliper
 C1    .mm                     :   9 CALIPER DIAMETER 1
 C2    .mm                     :   10 CALIPER DIAMETER 2
 CALI  .mm                     :   11 Caliper
 CFTC  .dec                    :   12 Neutron far
 CNTC  .dec                    :   13 Neutron near
 DT    .uSec/m                 :   14 Sonic travel time
 GR    .uR/h                   :   15 GammaRay  
 HCGR  .GAPI                   :   16 HNGS Computed Gamma Ray {F13.4}
 HMIN  .Ohmm                   :   17 HIP Micro Inverse Resistivity
 HMNO  .Ohmm                   :   18 HIP Micro Normal Resistivity
 HSGR  .GAPI                   :   19 HNGS Standard Gamma-Ray
 HTNP  .m3/m3                  :   20 High Resolution Thermal Neutron Porosity (Ratio Method) in Selected Lithology
 HTPR  .                       :   21 HNGS Formation Thorium Potassium Concentration
 HTUR  .                       :   22 HNGS Formation Thorium Uranium Concentration
 HUPR  .                       :   23 HNGS Formation Uranium Potassium Concentration
 PEFZ  .B/E                    :   24 Formation Photoelectric Factor 
 Perm  .md                     :   25 Permeability
 PHIE  .Dec                    :   26 Effective porosity 
 POTA  .                       :   27 
 RHOZ  .g/cm3                  :   28 Bulk Density 
 RLA1  .ohm.m                  :   29 ShalRes HRLT Borehole Corrected Resistivity 1
 RLA2  .ohm.m                  :   30 MedRes  HRLT Borehole Corrected Resistivity 2
 RLA3  .ohm.m                  :   31 DeepRes HRLT Borehole Corrected Resistivity 3
 RLA4  .ohm.m                  :   32 XDeepRes HRLT Borehole Corrected Resisitivity 4
 RLA5  .ohm.m                  :   33 UltraDeepR HRLT Borehole Corrected Resistivity 5
 RT    .ohm.m                  :   34 
 RXO   .ohm.m                  :   35 HRLT Invaded Zone Resistivity
 RXOZ  .ohm.m                  :   36 MicroRes Invaded Formation Resistivity
 SP    .mV                     :   37 Spontaneous Potential
 SW    .Dec                    :   38 Water saturation
 TEMP  .                       :   39 TEMP
 THOR  .                       :   40 
 TNPH  .V/V                    :   41 Neutron porosity
 URAN  .                       :   42 
 VCLAV .Dec                    :   43 Clay volume
 HAZIM .deg                    :   44 Hole Azimuth
 SDEVM .deg                    :   45 Sonde Deviation
~A Log Data Section - Number of Curves = 45
# ...
680.00  0.1390    7.5370    6.0670    6.0540    6.0510    6.4550 215.9000 210.2770 211.2520 210.7640    1672.8485 3367.9385 268.7600  31.9459  25.3722   5.8510   5.1990  27.4451  0.1577  5.0203  7.5039  0.5262      2.9328     1.5699  0.1377  0.7477      2.4128    6.2990    6.1840    6.1790    5.9750    5.4470    5.2220    6.6440   12.1080  68.3668  0.9427 32.8559  3.7519      0.1603  0.3922  0.0740  63.0696  0.2154
680.10  0.1390    7.3740    5.9090    5.8460    5.6970    6.1140 215.9000 210.3760 211.1390 210.7570    1708.9037 3384.8130 263.4045  31.5609  26.0914   5.3684   4.7689  27.9740  0.1527  4.8664  7.5856  0.4808      2.9547     1.4200  0.1369  0.7800      2.4118    5.9050    5.8020    5.8050    5.6460    5.1410    4.9490    6.1420   11.9770  68.6889  0.9782 32.8617  3.7928      0.1552  0.3759  0.0720  62.7908  0.2132
680.20  0.1390    7.2770    5.7520    5.6840    5.4340    5.8400 215.9000 210.5440 210.8610 210.7020    1718.3888 3350.6367 260.8452  31.9660  27.2339   4.9221   4.3713  29.4693  0.1488  4.7243  7.7933  0.5154      2.9674     1.2880  0.1352  0.8249      2.4089    5.7330    5.6400    5.6330    5.5160    5.0130    4.8290    5.9960   11.2790  69.1052  1.0000 32.8732  3.8967      0.1504  0.4251  0.0741  62.4428  0.2120
680.30  0.1390    7.4510    5.9430    5.7230    5.5610    5.9200 215.9000 210.3810 211.1320 210.7560    1631.6523 3253.3723 261.0512  37.1892  29.0027   5.0883   4.5194  31.4932  0.1555  4.6734  8.0579  0.5486      2.9714     0.9745  0.1259  0.8828      2.4128    6.7100    6.5790    6.5960    6.5020    5.9090    5.7370    6.7410   12.5740  69.6510  0.9821 32.8740  4.1241      0.1574  0.4853  0.1025  61.9598  0.2123
680.40  0.1389    6.9370    5.7340    5.4860    5.3450    5.6810 215.9000 210.4560 211.1490 210.8030    1543.5793 3144.8938 260.5170  42.0243  30.6730   5.5377   4.9199  33.8312  0.1622  4.7054  7.7094  0.6179      3.0044     0.6661  0.1164  0.9305      2.4168    6.6760    6.5100    6.5160    6.4310    5.8600    5.6660    6.7170   12.3890  70.0856  1.0000 32.8925  4.3803      0.1643  0.5768  0.1317  61.6779  0.2120
680.50  0.1387    5.6130    5.0530    4.9240    4.7240    5.0620 215.9000 210.8160 210.8620 210.8390    1455.0785 3023.9980 259.0809  46.3466  32.2203   6.3123   5.6102  36.5317  0.1691  4.8337  6.6405  0.7295      3.0715     0.4623  0.1071  0.9659      2.4210    5.4420    5.2450    5.1960    5.1040    4.6880    4.4340    5.7800   10.4410  70.3881  1.0000 32.9317  4.6689      0.1711  0.7049  0.1601  61.4676  0.2122
680.60  0.1385    4.8440    4.1870    3.9970    3.8080    4.0220 215.9000 212.8660 212.3530 212.6090    1337.8453 2937.2393 257.3295  50.0341  33.8066   4.2641   3.7858  38.0569  0.1894  4.6311  6.7904  0.6830      3.1123     0.4779  0.1079  1.0339      2.4158    4.2500    4.0430    3.9780    3.9080    3.5820    3.3160    5.1130    9.0470  70.7735  1.0000 32.9609  4.7791      0.1913  0.7040  0.1859  61.2877  0.2135
680.70  0.1384    4.2790    3.5370    3.3200    3.1290    3.2530 215.9000 214.6800 213.8390 214.2590    1232.0339 2833.2585 255.1223  51.4730  34.5946   2.8968   2.5679  38.6002  0.2063  4.5876  7.3633  0.6267      3.1261     0.6502  0.1158  1.0618      2.4121    3.5470    3.3450    3.2600    3.2090    2.9340    2.6640    4.7110    7.6070  71.1471  1.0000 32.9846  4.8681      0.2081  0.6663  0.1963  61.4692  0.2153
680.80  0.1383    3.9440    3.1980    3.0200    2.8060    2.8930 215.9000 216.0220 215.1620 215.5920    1144.5281 2702.4861 252.3135  49.8628  34.2767   2.7183   2.4092  37.8910  0.2174  4.7930  8.4127  0.5708      3.1050     0.9920  0.1274  1.0315      2.4113    3.5160    3.3380    3.2240    3.1840    2.9150    2.6480    4.6540    6.0520  71.4972  1.0000 33.0016  4.9432      0.2190  0.5891  0.1846  61.7956  0.2174
680.90  0.1383    3.8570    3.1400    2.9610    2.7360    2.8050 215.9000 216.1690 215.5070 215.8380    1068.7388 2607.3596 260.5316  48.9989  32.6887   1.8856   1.8203  37.8371  0.2332  4.5771  6.2895  0.7826      3.0129     1.4694  0.1393  1.0036      2.4084    3.3390    3.1600    3.0400    3.0000    2.7440    2.4900    4.5400    5.6090  71.5148  1.0000 33.0035  4.5978      0.2331  0.7817  0.1785  61.9551  0.2197
681.00  0.1383    3.7910    3.1130    2.9280    2.6970    2.7550 215.9000 215.9570 215.5660 215.7620    1003.9019 2519.3438 266.3645  48.3637  31.9119   1.1672   1.2820  38.3455  0.2464  4.4284  4.7114  0.9399      2.9169     1.9670  0.1489  0.9943      2.4064    3.1970    3.0310    2.9160    2.8630    2.6230    2.3830    4.3590    5.1250  71.5397  1.0000 33.0035  4.4036      0.2449  0.9346  0.1740  62.1786  0.2221
681.10  0.1383    3.7080    3.0790    2.8870    2.6580    2.7110 215.9000 215.3830 215.3430 215.3630     955.2477 2435.9333 265.8154  47.9611  32.7836   0.7811   0.9202  39.6737  0.2540  4.4831  4.7291  0.9480      2.8294     2.3105  0.1544  1.0160      2.4061    3.1500    3.0230    2.9240    2.8410    2.6210    2.3930    4.0790    4.3340  71.6469  1.0000 33.0035  4.5553      0.2522  0.9632  0.1712  62.5224  0.2247
681.20  0.1383    3.6710    3.0590    2.8690    2.6360    2.7030 215.9000 215.4550 215.4960 215.4760     932.9711 2386.2832 271.6710  47.7831  33.5983   0.8594   0.9728  41.6020  0.2569  4.5113  4.2396  1.0760      2.7737     2.5150  0.1574  1.0385      2.3964    3.1170    3.0210    2.9380    2.8370    2.6330    2.4320    3.7900    3.9390  71.6036  1.0000 33.0035  4.6851      0.2538  1.1193  0.1700  62.9810  0.2271
681.30  0.1383    3.6550    3.0320    2.8510    2.6240    2.7100 215.9000 215.5800 215.5580 215.5690     908.4972 2345.1172 276.3012  48.0247  33.8680   0.9283   1.0255  42.9131  0.2616  4.5047  3.7459  1.2051      2.7282     2.8578  0.1621  1.0474      2.3824    3.0030    2.9320    2.8670    2.7490    2.5660    2.3920    3.4750    3.6730  71.4304  1.0000 33.0035  4.7189      0.2586  1.2616  0.1716  63.5536  0.2286
681.40  0.1383    3.6670    2.9850    2.8250    2.6270    2.7330 215.9000 215.5550 215.2750 215.4150     868.6775 2308.3147 275.7354  49.0667  33.0025   0.7889   0.9109  42.6698  0.2722  4.4350  3.4488  1.2878      2.6912     3.6072  0.1709  1.0276      2.3635    2.7090    2.6580    2.6130    2.4740    2.3270    2.1750    3.1050    3.5230  71.0420  1.0000 33.0035  4.5578      0.2724  1.3229  0.1790  64.2083  0.2293
681.50  0.1383    3.7140    3.0120    2.8540    2.7000    2.7450 215.9000 224.5690 214.2190 219.3330     866.7567 2300.2117 271.2702  49.7352  32.3125   0.9136   1.0124  42.0377  0.2724  4.4339  3.3611  1.3193      2.6672     3.6157  0.1710  1.0063      2.3513    2.8490    2.8480    2.8210    2.6530    2.5090    2.4020    3.0810    3.5610  70.8073  1.0000 33.0035  4.4615      0.2717  1.3274  0.1837  64.8140  0.2300
681.60  0.1383    3.8460    3.1130    2.9400    2.8140    2.7930 215.9000 229.8910 213.6470 221.6210     888.9674 2316.3232 267.5230  50.0822  31.0535   1.0558   1.1275  40.6220  0.2650  4.5153  3.2919  1.3742      2.6499     3.2268  0.1666  0.9604      2.3432    3.1240    3.1680    3.1490    2.9600    2.8090    2.7400    3.2140    3.6580  70.5697  1.0000 33.0035  4.3268      0.2633  1.3141  0.1862  65.2501  0.2301
681.70  0.1383    4.1850    3.3660    3.1430    2.9930    2.9490 215.9000 219.1210 214.9040 217.0020     950.8055 2378.5063 268.3525  49.8120  28.1374   1.0668   1.1330  37.3503  0.2444  4.7739  3.1310  1.5272      2.6417     2.4039  0.1558  0.8491      2.3412    3.4670    3.5240    3.4920    3.3030    3.1390    3.0770    3.5380    3.7940  70.2202  1.0000 33.0035  4.0442      0.2438  1.2913  0.1843  65.4926  0.2295
681.80  0.1383    4.5180    3.7720    3.5450    3.2090    3.1950 215.9000 217.0220 215.5840 216.3020    1023.4885 2478.9963 262.3166  47.3577  26.4442   1.2859   1.2869  35.5249  0.2314  4.8325  3.0779  1.5701      2.6632     2.0689  0.1506  0.7928      2.3580    3.8970    3.9920    3.9290    3.7850    3.5930    3.5710    4.0250    4.4110  69.7745  1.0000 32.9990  3.8313      0.2302  1.2446  0.1670  65.5241  0.2286
681.90  0.1383    4.8110    4.1370    3.9470    3.4200    3.4630 215.9000 217.2550 215.5650 216.4090    1108.1340 2593.8367 255.0497  44.6293  25.3182   1.7697   1.6808  34.1842  0.2185  4.8798  3.1200  1.5650      2.7061     1.7334  0.1446  0.7559      2.3817    4.3750    4.4990    4.4010    4.3200    4.1030    4.1230    4.5360    5.3680  69.3244  1.0000 32.9831  3.6864      0.2168  1.1834  0.1486  64.7692  0.2292
