~VERSION INFORMATION
 VERS.                  2.0:   CWLS Log Ascii Standard
 WRAP.                   NO:   One line per depth step
~WELL INFORMATION
#MNEM.UNIT        DATA TYPE:   INFORMATION
#---------    -------------   --------------------------
 STRT.M              140.00:   Top Depth
 STOP.M              770.00:   Bottom Depth
 STEP.M                0.10:   Increment
 NULL.              -999.25:   Null Value
 SRVC.                  KPG:   Service Company/Logging company
 DATE.           14.08.2024:   LAS file Creation Date
 WELL.                  353:   Well Name
 COMP.                KMG-B:   Company
 FLD .             Karatube:   Field
 STATE.                    :   State
 COUNT.          Kazakhstan:   Country
 LATI.                     :   Latitude/Northing
 LONG.                     :   Longitude/Easting
 DF  .                     :   DF Elevation
 GL  .                     :   GL Elevation
~PARAMETER INFORMATION
#MNEM  .UNIT          Value:   Description
#---------    -------------   --------------------------
~CURVE INFORMATION
#MNEM  .UNIT           API Code:   Curve Description
#---------       -------------- -------------------------- 
 DEPTH .M                      :   1 Measured depth
 AMF   .OHMM                   :   2 Array Induction Mud Resistivity Fully Calibrated (F13
 AT10  .ohm.m                  :   3 " Array Induction, two foot resolution
 AT20  .ohm.m                  :   4 " Array Induction, two foot resolution
 AT30  .ohm.m                  :   5 " Array Induction, two foot resolution
 AT60  .ohm.m                  :   6 " Array Induction, two foot resolution
 AT90  .ohm.m                  :   7 " Array Induction, two foot resolution
 BSC   .mm                     :   8 Nominal Caliper
 C1    .mm                     :   9 CALIPER DIAMETER 1
 C2    .mm                     :   10 CALIPER DIAMETER 2
 CALI  .mm                     :   11 Caliper
 CFTC  .dec                    :   12 Neutron far
 CNTC  .dec                    :   13 Neutron near
 DT    .uSec/m                 :   14 Sonic travel time
 GR    .uR/h                   :   15 GammaRay  
 HCGR  .GAPI                   :   16 HNGS Computed Gamma Ray {F13.4}
 HMIN  .Ohmm                   :   17 HIP Micro Inverse Resistivity
 HMNO  .Ohmm                   :   18 HIP Micro Normal Resistivity
 HSGR  .GAPI                   :   19 HNGS Standard Gamma-Ray
 HTNP  .m3/m3                  :   20 High Resolution Thermal Neutron Porosity (Ratio Method) in Selected Lithology
 HTPR  .                       :   21 HNGS Formation Thorium Potassium Concentration
 HTUR  .                       :   22 HNGS Formation Thorium Uranium Concentration
 HUPR  .                       :   23 HNGS Formation Uranium Potassium Concentration
 PEFZ  .B/E                    :   24 Formation Photoelectric Factor 
 Perm  .md                     :   25 Permeability
 PHIE  .Dec                    :   26 Effective porosity 
 POTA  .                       :   27 
 RHOZ  .g/cm3                  :   28 Bulk Density 
 RLA1  .ohm.m                  :   29 ShalRes HRLT Borehole Corrected Resistivity 1
 RLA2  .ohm.m                  :   30 MedRes  HRLT Borehole Corrected Resistivity 2
 RLA3  .ohm.m                  :   31 DeepRes HRLT Borehole Corrected Resistivity 3
 RLA4  .ohm.m                  :   32 XDeepRes HRLT Borehole Corrected Resisitivity 4
 RLA5  .ohm.m                  :   33 UltraDeepR HRLT Borehole Corrected Resistivity 5
 RT    .ohm.m                  :   34 
 RXO   .ohm.m                  :   35 HRLT Invaded Zone Resistivity
 RXOZ  .ohm.m                  :   36 MicroRes Invaded Formation Resistivity
 SP    .mV                     :   37 Spontaneous Potential
 SW    .Dec                    :   38 Water saturation
 TEMP  .                       :   39 TEMP
 THOR  .                       :   40 
 TNPH  .V/V                    :   41 Neutron porosity
 URAN  .                       :   42 
 VCLAV .Dec                    :   43 Clay volume
 HAZIM .deg                    :   44 Hole Azimuth
 SDEVM .deg                    :   45 Sonde Deviation
~A Log Data Section - Number of Curves = 45
# ...
182.00  0.1598    1.5520    1.8250    2.0250    2.2920    2.4530 215.9000 223.5810 211.8590 217.6410     480.0821 1605.2704 600.4085  71.6583  47.9462   0.7140   0.6385  51.8415  0.4028  2.3129  6.9447  0.3341      2.1256    31.5123  0.2796  1.8810      2.0241    1.6480    1.8170    1.9220    1.9230    1.8900    2.0660    1.4440    1.6350  78.0871  1.0000 24.4903  4.3509      0.4075  0.6280  0.3341   1.1444  0.4778
182.10  0.1598    1.4120    1.5920    1.7120    1.9150    2.0200 215.9000 225.5550 213.5340 219.4620     479.6921 1593.7189 613.4077  69.2029  47.3232   0.7413   0.6583  51.5859  0.3984  2.2221  6.5053  0.3417      2.1212    34.1217  0.2847  1.8775      2.0293    1.3760    1.4870    1.5590    1.5680    1.5420    1.6620    1.2350    1.6020  78.1487  1.0000 24.4796  4.1720      0.4032  0.6416  0.3111   1.0521  0.4815
182.20  0.1598    1.3110    1.4380    1.5080    1.6630    1.7250 215.9000 224.9730 214.9300 219.8940     483.5817 1590.4803 620.7625  65.1236  46.1714   0.6973   0.6297  50.6355  0.3906  2.1744  6.2270  0.3493      2.1103    39.8290  0.2949  1.8428      2.0333    1.1720    1.2430    1.2920    1.3090    1.2870    1.3690    1.0820    1.5820  78.1826  1.0000 24.4802  4.0062      0.3963  0.6432  0.2741   1.0663  0.4852
182.30  0.1598    1.2650    1.3950    1.4520    1.5730    1.6060 215.9000 220.9420 215.8120 218.3620     492.6187 1600.0181 621.3687  59.1417  44.1233   0.5518   0.5326  48.5427  0.3795  2.1932  6.0769  0.3609      2.0923    50.2039  0.3108  1.7569      2.0353    1.0780    1.1380    1.1780    1.2030    1.1800    1.2540    1.0170    1.5900  78.1708  1.0000 24.4984  3.8529      0.3874  0.6340  0.2231   1.2251  0.4883
182.40  0.1599    1.4170    1.6530    1.7920    1.9280    2.0200 215.9000 222.6200 218.0990 220.3480     489.7035 1609.6508 621.8335  54.0230  43.7161   0.5224   0.5265  47.8450  0.3904  2.1929  6.0701  0.3612      2.0579    61.2049  0.3252  1.7407      2.0419    1.4640    1.5880    1.6600    1.7120    1.6880    1.8310    1.3230    1.5890  77.8217  1.0000 24.4840  3.8171      0.3956  0.6289  0.1826   1.5049  0.4903
182.50  0.1599    1.5850    1.9420    2.1580    2.3430    2.5060 215.9000 223.8610 219.4010 221.6200     492.4867 1621.8846 622.5882  50.1090  42.5457   0.5489   0.5519  46.6099  0.3943  2.2801  5.9400  0.3856      2.0192    69.7244  0.3349  1.6779      2.0451    1.7450    1.9200    2.0120    2.0840    2.0600    2.2560    1.5420    1.5990  77.4963  1.0000 24.4771  3.8098      0.3967  0.6426  0.1537   1.8206  0.4917
182.60  0.1599    1.7410    2.2270    2.4960    2.7750    3.0170 215.9000 223.2800 218.7620 221.0100     507.2339 1638.5292 623.8632  48.0829  39.7653   0.6487   0.6136  44.1958  0.3821  2.5200  5.5729  0.4531      1.9763    72.7932  0.3382  1.5224      2.0415    1.7550    1.9460    2.0310    2.1070    2.0860    2.2880    1.5410    1.6300  77.2753  1.0000 24.4892  3.8289      0.3827  0.6876  0.1395   2.3267  0.4924
182.70  0.1599    1.7080    2.1710    2.3910    2.6300    2.7970 215.9000 225.7840 226.5950 226.1890     526.9782 1676.5518 626.5972  49.4739  38.3641   0.6053   0.5772  43.0563  0.3709  2.5120  5.2980  0.4745      1.9506    67.3534  0.3323  1.4692      2.0392    1.6780    1.8630    1.9450    2.0150    2.0040    2.1980    1.4780    1.5650  76.9638  1.0000 24.5042  3.6917      0.3703  0.6969  0.1492   3.0803  0.4921
182.80  0.1599    1.6540    2.0750    2.2390    2.4130    2.4960 215.9000 227.1210 233.4980 230.2870     548.2070 1714.8605 628.3831  51.3917  37.4938   0.5552   0.5342  42.4591  0.3585  2.4377  4.9447  0.4945      1.9335    60.6012  0.3244  1.4489      2.0378    1.6030    1.7840    1.8680    1.9310    1.9320    2.1220    1.4210    1.4930  76.6262  1.0000 24.5040  3.5315      0.3577  0.7166  0.1630   3.7365  0.4908
182.90  0.1599    1.6240    2.0220    2.1530    2.2620    2.2970 215.9000 224.8210 235.2460 229.9740     570.7162 1745.7614 627.6068  53.1478  37.2346   0.5447   0.5144  42.5364  0.3433  2.3156  4.3903  0.5286      1.9283    53.9419  0.3160  1.4604      2.0378    1.5680    1.7570    1.8500    1.9080    1.9230    2.1250    1.4020    1.4410  76.2671  1.0000 24.4702  3.3813      0.3442  0.7720  0.1760   4.1963  0.4885
183.00  0.1598    1.6550    2.0950    2.2610    2.3800    2.3730 215.9000 223.5940 232.8090 228.1550     577.3498 1754.6899 626.8798  53.5760  37.9530   0.5719   0.5286  43.0198  0.3400  2.2533  4.4621  0.5060      1.9340    52.1309  0.3135  1.5001      2.0386    1.6710    1.8630    1.9840    2.0440    2.0750    2.3110    1.5160    1.4200  76.0455  1.0000 24.5021  3.3789      0.3410  0.7582  0.1792   4.5222  0.4856
183.10  0.1598    1.6990    2.1920    2.4090    2.5790    2.5220 215.9000 221.1810 228.1510 224.6390     581.1939 1761.8346 626.5477  52.9475  38.2265   0.6013   0.5471  43.1877  0.3395  2.1943  4.4193  0.5010      1.9404    53.4185  0.3153  1.5216      2.0384    1.7760    1.9670    2.1150    2.1800    2.2270    2.4940    1.6300    1.4110  75.7741  1.0000 24.5286  3.3404      0.3406  0.7612  0.1745   4.7818  0.4829
183.20  0.1598    1.7370    2.2670    2.5350    2.8110    2.6850 215.9000 215.0280 220.4740 217.7340     588.0708 1778.5164 627.1990  50.4554  36.7276   0.6120   0.5545  42.2832  0.3388  2.1058  3.6787  0.5773      1.9413    60.0462  0.3238  1.4782      2.0349    1.7980    1.9820    2.1430    2.2120    2.2730    2.5500    1.6570    1.4120  75.2861  1.0000 24.4985  3.1142      0.3407  0.8524  0.1562   4.9883  0.4806
183.30  0.1598    1.6950    2.2460    2.5040    2.7780    2.6260 215.9000 212.4720 218.5550 215.4920     585.6718 1787.6626 627.2006  48.1391  36.9338   0.5706   0.5214  42.3151  0.3459  2.0969  3.6700  0.5725      1.9308    67.3159  0.3323  1.4883      2.0330    1.7560    1.9320    2.0730    2.1480    2.2150    2.4760    1.6350    1.3620  74.6778  1.0000 24.4955  3.1213      0.3464  0.8516  0.1399   5.1650  0.4786
183.40  0.1598    1.6400    2.1820    2.4160    2.6510    2.4930 215.9000 211.5230 218.3670 214.9180     580.1069 1789.8669 628.1893  46.5020  37.3946   0.5182   0.4803  42.6773  0.3539  2.1588  3.8352  0.5632      1.9166    73.5033  0.3390  1.4958      2.0312    1.7010    1.8720    1.9840    2.0670    2.1390    2.3810    1.6020    1.3070  74.1271  1.0000 24.5071  3.2254      0.3527  0.8413  0.1288   5.3272  0.4771
183.50  0.1597    1.6300    2.0860    2.3090    2.5110    2.3670 215.9000 211.9370 217.5490 214.7250     574.2944 1777.2410 633.2078  46.9429  36.8056   0.4874   0.4572  43.1010  0.3559  2.3687  3.7662  0.6294      1.9024    74.3842  0.3399  1.4348      2.0280    1.6750    1.8520    1.9450    2.0410    2.1200    2.3570    1.5850    1.2910  73.9031  1.0000 24.5372  3.3939      0.3546  0.9015  0.1317   5.4773  0.4765
183.60  0.1597    1.5990    2.0090    2.2320    2.4200    2.2740 215.9000 213.2760 217.3040 215.2810     575.1613 1792.3459 636.3680  47.5344  36.0158   0.5403   0.4923  43.4882  0.3583  2.4024  3.3523  0.7274      1.8872    74.1095  0.3396  1.3977      2.0276    1.6570    1.8310    1.9180    2.0140    2.0990    2.3290    1.5730    1.2920  73.7532  1.0000 24.5165  3.3582      0.3584  1.0148  0.1357   5.6136  0.4763
183.70  0.1597    1.5690    1.9490    2.1760    2.3600    2.2050 215.9000 214.8730 217.3430 216.1040     581.5807 1819.5280 638.0919  48.2114  35.4115   0.6114   0.5401  43.7821  0.3590  2.3660  2.9165  0.8117      1.8750    72.9468  0.3384  1.3804      2.0277    1.6470    1.8140    1.9010    1.9900    2.0810    2.3020    1.5670    1.3020  73.6415  1.0000 24.4905  3.2658      0.3605  1.1201  0.1404   5.7247  0.4767
183.80  0.1597    1.5790    1.9310    2.1560    2.3480    2.1800 215.9000 215.8400 217.5590 216.6980     600.2546 1847.5867 636.9011  48.9833  36.0440   0.6020   0.5318  43.7226  0.3519  2.3547  3.0539  0.7718      1.8789    69.5174  0.3347  1.4070      2.0255    1.6570    1.8220    1.9120    1.9850    2.0870    2.2980    1.5720    1.3190  73.5593  1.0000 24.5389  3.3128      0.3503  1.0854  0.1458   5.7953  0.4777
183.90  0.1597    1.5770    1.9310    2.1690    2.3700    2.2070 215.9000 216.2790 216.4380 216.3580     605.4071 1859.4666 634.7155  48.1451  36.0387   0.5989   0.5291  42.9358  0.3499  2.2967  3.1763  0.7242      1.8897    71.0385  0.3364  1.4167      2.0258    1.6630    1.8380    1.9270    1.9890    2.1030    2.3110    1.5730    1.3290  73.6834  1.0000 24.5117  3.2538      0.3489  1.0259  0.1399   5.8300  0.4791
