~VERSION INFORMATION
 VERS.                  2.0:   CWLS Log Ascii Standard
 WRAP.                   NO:   One line per depth step
~WELL INFORMATION
#MNEM.UNIT        DATA TYPE:   INFORMATION
#---------    -------------   --------------------------
 STRT.M              140.00:   Top Depth
 STOP.M              770.00:   Bottom Depth
 STEP.M                0.10:   Increment
 NULL.              -999.25:   Null Value
 SRVC.                  KPG:   Service Company/Logging company
 DATE.           14.08.2024:   LAS file Creation Date
 WELL.                  353:   Well Name
 COMP.                KMG-B:   Company
 FLD .             Karatube:   Field
 STATE.                    :   State
 COUNT.          Kazakhstan:   Country
 LATI.                     :   Latitude/Northing
 LONG.                     :   Longitude/Easting
 DF  .                     :   DF Elevation
 GL  .                     :   GL Elevation
~PARAMETER INFORMATION
#MNEM  .UNIT          Value:   Description
#---------    -------------   --------------------------
~CURVE INFORMATION
#MNEM  .UNIT           API Code:   Curve Description
#---------       -------------- -------------------------- 
 DEPTH .M                      :   1 Measured depth
 AMF   .OHMM                   :   2 Array Induction Mud Resistivity Fully Calibrated (F13
 AT10  .ohm.m                  :   3 " Array Induction, two foot resolution
 AT20  .ohm.m                  :   4 " Array Induction, two foot resolution
 AT30  .ohm.m                  :   5 " Array Induction, two foot resolution
 AT60  .ohm.m                  :   6 " Array Induction, two foot resolution
 AT90  .ohm.m                  :   7 " Array Induction, two foot resolution
 BSC   .mm                     :   8 Nominal Caliper
 C1    .mm                     :   9 CALIPER DIAMETER 1
 C2    .mm                     :   10 CALIPER DIAMETER 2
 CALI  .mm                     :   11 Caliper
 CFTC  .dec                    :   12 Neutron far
 CNTC  .dec                    :   13 Neutron near
 DT    .uSec/m                 :   14 Sonic travel time
 GR    .uR/h                   :   15 GammaRay  
 HCGR  .GAPI                   :   16 HNGS Computed Gamma Ray {F13.4}
 HMIN  .Ohmm                   :   17 HIP Micro Inverse Resistivity
 HMNO  .Ohmm                   :   18 HIP Micro Normal Resistivity
 HSGR  .GAPI                   :   19 HNGS Standard Gamma-Ray
 HTNP  .m3/m3                  :   20 High Resolution Thermal Neutron Porosity (Ratio Method) in Selected Lithology
 HTPR  .                       :   21 HNGS Formation Thorium Potassium Concentration
 HTUR  .                       :   22 HNGS Formation Thorium Uranium Concentration
 HUPR  .                       :   23 HNGS Formation Uranium Potassium Concentration
 PEFZ  .B/E                    :   24 Formation Photoelectric Factor 
 Perm  .md                     :   25 Permeability
 PHIE  .Dec                    :   26 Effective porosity 
 POTA  .                       :   27 
 RHOZ  .g/cm3                  :   28 Bulk Density 
 RLA1  .ohm.m                  :   29 ShalRes HRLT Borehole Corrected Resistivity 1
 RLA2  .ohm.m                  :   30 MedRes  HRLT Borehole Corrected Resistivity 2
 RLA3  .ohm.m                  :   31 DeepRes HRLT Borehole Corrected Resistivity 3
 RLA4  .ohm.m                  :   32 XDeepRes HRLT Borehole Corrected Resisitivity 4
 RLA5  .ohm.m                  :   33 UltraDeepR HRLT Borehole Corrected Resistivity 5
 RT    .ohm.m                  :   34 
 RXO   .ohm.m                  :   35 HRLT Invaded Zone Resistivity
 RXOZ  .ohm.m                  :   36 MicroRes Invaded Formation Resistivity
 SP    .mV                     :   37 Spontaneous Potential
 SW    .Dec                    :   38 Water saturation
 TEMP  .                       :   39 TEMP
 THOR  .                       :   40 
 TNPH  .V/V                    :   41 Neutron porosity
 URAN  .                       :   42 
 VCLAV .Dec                    :   43 Clay volume
 HAZIM .deg                    :   44 Hole Azimuth
 SDEVM .deg                    :   45 Sonde Deviation
~A Log Data Section - Number of Curves = 45
# ...
554.00  0.1421    3.4490    3.4820    3.6480    3.8130    4.1010 215.9000 211.8050 213.2960 212.5500     519.8147 1781.3000 404.8378 100.7247  76.2212   1.0721   1.1193  94.6500  0.4231  5.0000  4.8181  1.0389      2.2609    16.7418  0.1964  2.2499      2.0445    3.0700    3.1780    3.1960    3.1180    2.9880    3.0750    3.0290    3.4120  71.9837  0.6304 31.6439 11.2520      0.4262  2.3366  0.4550 200.0503  0.2770
554.10  0.1422    3.3640    3.4350    3.5590    3.6890    3.9980 215.9000 211.8920 212.2570 212.0750     527.5237 1764.6168 406.3818 100.0195  73.6129   1.1731   1.1538  91.1621  0.4075  4.7934  4.6713  1.0259      2.2569    25.9198  0.2122  2.2149      2.0473    2.9560    3.0470    3.0530    2.9780    2.8510    2.9300    3.0520    3.3550  71.8669  0.6009 31.6604 10.6206      0.4097  2.2727  0.4452 199.2659  0.2774
554.20  0.1423    3.2820    3.3930    3.4770    3.5890    3.9080 215.9000 212.0210 211.6040 211.8120     530.8259 1753.5082 407.1247  99.9453  72.3996   1.2208   1.1601  88.7593  0.4005  4.5915  4.7506  0.9706      2.2570    26.3453  0.2138  2.2214      2.0521    2.8950    2.9710    2.9630    2.8950    2.7670    2.8320    3.0570    3.3010  71.6962  0.6062 31.6755 10.1939      0.4013  2.1525  0.4442 198.5579  0.2778
554.30  0.1424    3.2060    3.3420    3.4050    3.5370    3.8200 215.9000 212.0210 211.8190 211.9200     528.1336 1761.7080 404.7718 100.2516  73.5662   1.1497   1.1162  88.5147  0.4081  4.4043  5.1622  0.8555      2.2584    21.4904  0.2070  2.2982      2.0603    2.9230    2.9830    2.9580    2.9010    2.7680    2.8020    3.0150    3.2650  71.4591  0.6250 31.6755 10.1182      0.4076  1.9639  0.4484 197.9512  0.2782
554.40  0.1424    3.1190    3.2740    3.3210    3.4440    3.6670 215.9000 212.3530 212.7520 212.5530     516.1730 1758.3702 403.5457  99.2157  74.2850   1.0863   1.0912  88.1171  0.4247  4.3016  5.5076  0.7831      2.2649    35.8270  0.2260  2.3439      2.0670    2.8390    2.8760    2.8470    2.7940    2.6640    2.6720    2.8960    3.2630  71.1560  0.5872 31.6755 10.0807      0.4224  1.8343  0.4341 197.4944  0.2786
554.50  0.1424    3.0650    3.2050    3.2300    3.3390    3.5020 215.9000 213.8690 213.5510 213.7100     504.0810 1753.4731 403.2069  98.6570  74.1732   0.9813   1.0291  87.4145  0.4388  4.2095  5.6339  0.7479      2.2704    41.1522  0.2324  2.3615      2.0717    2.7600    2.7800    2.7520    2.7000    2.5730    2.5640    2.8020    3.2800  70.7586  0.5827 31.6755  9.9422      0.4369  1.7658  0.4263 197.1247  0.2790
554.60  0.1423    3.0990    3.1400    3.1300    3.2260    3.3430 215.9000 218.0920 213.6110 215.8400     496.9902 1751.3837 404.3933 100.0374  72.2855   0.7698   0.8649  86.0532  0.4414  4.0952  5.2615  0.7790      2.2706    22.9455  0.2118  2.3279      2.0726    2.7590    2.7820    2.7570    2.6990    2.5750    2.5660    2.8140    3.3230  70.1684  0.6360 31.6755  9.5341      0.4459  1.8131  0.4455 196.8075  0.2794
554.70  0.1422    3.1740    3.1830    3.1910    3.2960    3.4220 215.9000 215.8550 213.5800 214.7140     488.8635 1744.7946 404.2079  98.6676  71.8234   0.9240   0.9774  86.1322  0.4497  4.0360  4.8276  0.8398      2.2732    51.5372  0.2398  2.3270      2.0689    2.8380    2.8540    2.8340    2.7740    2.6440    2.6320    2.8820    3.2720  69.6658  0.5576 31.6755  9.3914      0.4558  1.9547  0.4265 196.5027  0.2799
554.80  0.1422    3.2520    3.2520    3.2920    3.4180    3.5560 215.9000 212.6110 213.3380 212.9740     486.6518 1735.3217 403.6743  97.8279  71.4914   1.1182   1.1172  86.2145  0.4503  4.0250  4.4612  0.9024      2.2784    62.7963  0.2464  2.3189      2.0622    2.9130    2.9200    2.9050    2.8430    2.7090    2.6950    2.9460    3.2040  69.2319  0.5363 31.6755  9.3320      0.4561  2.0920  0.4148 196.2823  0.2804
554.90  0.1422    3.3030    3.2940    3.3510    3.5190    3.6300 215.9000 212.6370 212.5230 212.5800     504.2072 1721.2172 403.4093 101.4173  70.1457   1.0737   1.0669  84.8664  0.4209  4.1110  4.3703  0.9409      2.2890     8.8843  0.1807  2.2557      2.0509    2.8890    2.9010    2.8860    2.8200    2.6960    2.6840    2.9410    3.1740  68.9287  0.7209 31.6755  9.2711      0.4248  2.1216  0.4646 196.1573  0.2807
555.00  0.1422    3.3690    3.3280    3.4040    3.5920    3.7210 215.9000 213.0400 212.2460 212.6430     505.1978 1725.7134 404.8618 102.2980  70.3412   1.0888   1.0690  84.2752  0.4253  4.1503  4.7367  0.8826      2.2946     4.3502  0.1611  2.2529      2.0467    2.8780    2.9080    2.9010    2.8310    2.7170    2.7370    3.0260    3.1640  68.4803  0.8003 31.6755  9.3503      0.4248  1.9873  0.4768 196.0474  0.2809
555.10  0.1422    3.4410    3.3510    3.4380    3.6240    3.7810 215.9000 213.5220 212.4010 212.9610     503.8130 1734.3362 406.9557 102.2315  70.2383   1.0998   1.0767  83.3367  0.4349  4.1221  5.0827  0.8119      2.3028     4.6572  0.1626  2.2555      2.0469    2.8730    2.9230    2.9230    2.8500    2.7460    2.7980    3.1180    3.1630  67.9785  0.7889 31.6755  9.3020      0.4304  1.8305  0.4759 195.9435  0.2811
555.20  0.1422    3.5170    3.3390    3.4000    3.5300    3.6760 215.9000 213.7170 213.5100 213.6140     519.7641 1729.7133 408.9361 102.6175  66.3081   0.9947   1.0208  79.6631  0.4104  3.8838  4.5841  0.8488      2.3295     3.3408  0.1542  2.1811      2.0537    2.8780    2.9310    2.9160    2.8450    2.7510    2.7900    3.0890    3.1630  67.4895  0.8288 31.6755  8.4781      0.4069  1.8503  0.4812 195.8437  0.2813
555.30  0.1422    3.5310    3.2920    3.3240    3.4190    3.5470 215.9000 213.7820 214.9010 214.3410     504.1453 1721.4072 407.8282  99.9960  66.9012   0.9790   1.0242  80.4468  0.4274  3.7551  4.4924  0.8364      2.3536    25.2670  0.2127  2.2314      2.0705    2.8870    2.9270    2.9050    2.8310    2.7450    2.7590    3.0430    3.3030  67.0407  0.6119 31.6755  8.3741      0.4261  1.8639  0.4449 195.7402  0.2814
555.40  0.1422    3.4790    3.2120    3.2180    3.2850    3.3900 215.9000 213.5650 215.9100 214.7340     477.6945 1712.7782 405.6101  96.2974  69.4055   1.0428   1.0815  83.3189  0.4588  3.6699  4.5050  0.8167      2.3748    62.5122  0.2463  2.3352      2.0925    2.8740    2.8900    2.8630    2.7840    2.7060    2.6840    2.9700    3.4820  66.6174  0.5369 31.6755  8.5682      0.4602  1.9081  0.3936 195.5721  0.2814
555.50  0.1422    3.2140    3.0370    3.0480    3.0640    3.1390 215.9000 212.0160 213.7100 212.8610     480.2215 1713.3081 405.9147  95.0820  69.9630   1.3248   1.2906  85.5335  0.4523  3.5197  3.9276  0.9015      2.3855    54.9767  0.2447  2.3919      2.1157    2.7100    2.6800    2.6460    2.5660    2.4950    2.4200    2.7750    3.4750  66.2283  0.5644 31.6755  8.4150      0.4571  2.1585  0.3768 195.1253  0.2817
555.60  0.1422    2.9720    2.8320    2.8360    2.8200    2.8650 215.9000 211.1890 212.3260 211.7570     475.5852 1724.9417 403.3790  95.4696  72.5511   1.3764   1.3036  87.8164  0.4666  3.5973  4.1342  0.8784      2.3796    49.1235  0.2438  2.4586      2.1280    2.5290    2.4760    2.4300    2.3560    2.2950    2.1880    2.6030    3.4380  66.0731  0.5925 31.6755  8.8534      0.4701  2.1561  0.3821 194.2950  0.2821
555.70  0.1422    2.7600    2.6240    2.6110    2.5750    2.5910 215.9000 210.9030 211.5590 211.2310     469.9969 1738.5632 399.1707  96.8523  75.7357   1.2984   1.2065  89.6664  0.4859  3.7949  4.7382  0.8010      2.3622    41.4061  0.2406  2.5150      2.1326    2.3510    2.2880    2.2300    2.1640    2.1150    1.9910    2.4570    3.3660  66.0823  0.6270 31.6755  9.5440      0.4855  2.0143  0.4013 193.6637  0.2824
555.80  0.1421    2.6870    2.5410    2.5080    2.4560    2.4480 215.9000 211.5060 211.8430 211.6740     495.3542 1708.8258 395.5775  98.3475  73.0874   1.3262   1.1991  87.2438  0.4361  3.8164  4.5934  0.8313      2.3329    20.0426  0.2155  2.4218      2.1286    2.2890    2.2210    2.1590    2.0960    2.0530    1.9220    2.4190    3.1560  66.2808  0.7071 31.6755  9.2414      0.4342  2.0118  0.4220 193.5250  0.2822
555.90  0.1421    2.6950    2.5360    2.4870    2.4310    2.3990 215.9000 211.4170 211.6740 211.5460     514.7400 1688.8116 394.9850  97.6813  70.7264   1.3352   1.1969  85.1260  0.4020  3.9702  4.4785  0.8873      2.3085    16.5788  0.2087  2.3086      2.1193    2.3070    2.2410    2.1740    2.1140    2.0780    1.9450    2.4420    3.0930  66.5071  0.7243 31.6785  9.1477      0.3986  2.0432  0.4128 193.3900  0.2821
