~VERSION INFORMATION
 VERS.                  2.0:   CWLS Log Ascii Standard
 WRAP.                   NO:   One line per depth step
~WELL INFORMATION
#MNEM.UNIT        DATA TYPE:   INFORMATION
#---------    -------------   --------------------------
 STRT.M              140.00:   Top Depth
 STOP.M              770.00:   Bottom Depth
 STEP.M                0.10:   Increment
 NULL.              -999.25:   Null Value
 SRVC.                  KPG:   Service Company/Logging company
 DATE.           14.08.2024:   LAS file Creation Date
 WELL.                  353:   Well Name
 COMP.                KMG-B:   Company
 FLD .             Karatube:   Field
 STATE.                    :   State
 COUNT.          Kazakhstan:   Country
 LATI.                     :   Latitude/Northing
 LONG.                     :   Longitude/Easting
 DF  .                     :   DF Elevation
 GL  .                     :   GL Elevation
~PARAMETER INFORMATION
#MNEM  .UNIT          Value:   Description
#---------    -------------   --------------------------
~CURVE INFORMATION
#MNEM  .UNIT           API Code:   Curve Description
#---------       -------------- -------------------------- 
 DEPTH .M                      :   1 Measured depth
 AMF   .OHMM                   :   2 Array Induction Mud Resistivity Fully Calibrated (F13
 AT10  .ohm.m                  :   3 " Array Induction, two foot resolution
 AT20  .ohm.m                  :   4 " Array Induction, two foot resolution
 AT30  .ohm.m                  :   5 " Array Induction, two foot resolution
 AT60  .ohm.m                  :   6 " Array Induction, two foot resolution
 AT90  .ohm.m                  :   7 " Array Induction, two foot resolution
 BSC   .mm                     :   8 Nominal Caliper
 C1    .mm                     :   9 CALIPER DIAMETER 1
 C2    .mm                     :   10 CALIPER DIAMETER 2
 CALI  .mm                     :   11 Caliper
 CFTC  .dec                    :   12 Neutron far
 CNTC  .dec                    :   13 Neutron near
 DT    .uSec/m                 :   14 Sonic travel time
 GR    .uR/h                   :   15 GammaRay  
 HCGR  .GAPI                   :   16 HNGS Computed Gamma Ray {F13.4}
 HMIN  .Ohmm                   :   17 HIP Micro Inverse Resistivity
 HMNO  .Ohmm                   :   18 HIP Micro Normal Resistivity
 HSGR  .GAPI                   :   19 HNGS Standard Gamma-Ray
 HTNP  .m3/m3                  :   20 High Resolution Thermal Neutron Porosity (Ratio Method) in Selected Lithology
 HTPR  .                       :   21 HNGS Formation Thorium Potassium Concentration
 HTUR  .                       :   22 HNGS Formation Thorium Uranium Concentration
 HUPR  .                       :   23 HNGS Formation Uranium Potassium Concentration
 PEFZ  .B/E                    :   24 Formation Photoelectric Factor 
 Perm  .md                     :   25 Permeability
 PHIE  .Dec                    :   26 Effective porosity 
 POTA  .                       :   27 
 RHOZ  .g/cm3                  :   28 Bulk Density 
 RLA1  .ohm.m                  :   29 ShalRes HRLT Borehole Corrected Resistivity 1
 RLA2  .ohm.m                  :   30 MedRes  HRLT Borehole Corrected Resistivity 2
 RLA3  .ohm.m                  :   31 DeepRes HRLT Borehole Corrected Resistivity 3
 RLA4  .ohm.m                  :   32 XDeepRes HRLT Borehole Corrected Resisitivity 4
 RLA5  .ohm.m                  :   33 UltraDeepR HRLT Borehole Corrected Resistivity 5
 RT    .ohm.m                  :   34 
 RXO   .ohm.m                  :   35 HRLT Invaded Zone Resistivity
 RXOZ  .ohm.m                  :   36 MicroRes Invaded Formation Resistivity
 SP    .mV                     :   37 Spontaneous Potential
 SW    .Dec                    :   38 Water saturation
 TEMP  .                       :   39 TEMP
 THOR  .                       :   40 
 TNPH  .V/V                    :   41 Neutron porosity
 URAN  .                       :   42 
 VCLAV .Dec                    :   43 Clay volume
 HAZIM .deg                    :   44 Hole Azimuth
 SDEVM .deg                    :   45 Sonde Deviation
~A Log Data Section - Number of Curves = 45
# ...
306.00  0.1551    3.1810    2.7300    2.6610    2.4830    2.4560 215.9000 211.7960 213.1840 212.4890     522.1480 1715.4766 405.8955 108.1824  55.2467   0.8352   0.9117  97.8712  0.3922  5.1888  1.5116  3.4539      2.7943     0.0000  0.0001  1.6039      2.1896    2.9450    2.8710    2.7820    2.7050    2.5970    2.4330    3.1720    3.2830  55.7286  1.0000 26.9577  8.3131      0.3976  5.5164  0.8935 260.2461  0.3391
306.10  0.1549    3.1310    2.8330    2.7640    2.5910    2.5730 215.9000 212.1790 213.0460 212.6120     474.2692 1591.3823 432.7991 103.9719  60.2148   0.7780   0.8596  98.2094  0.4007  5.0638  1.8718  2.8483      2.7601     0.0000  0.0001  1.7679      2.1525    2.9000    2.9250    2.8110    2.7070    2.6110    2.5030    3.0800    3.1140  55.9065  1.0000 26.9577  8.9448      0.4129  4.9338  0.8556 260.4545  0.3356
306.20  0.1548    3.1380    2.9470    2.9550    2.7890    2.8320 215.9000 213.9140 213.2690 213.5910     445.7291 1509.1805 443.6651 101.6718  68.6944   0.7117   0.7978  99.9037  0.4018  5.0025  2.5561  1.9957      2.7610     0.0000  0.0002  2.0277      2.1243    2.9040    3.0620    2.9140    2.7790    2.6940    2.6670    3.0780    3.0150  55.9262  1.0000 26.9577 10.1408      0.4206  4.0092  0.8349 260.3748  0.3334
306.30  0.1547    3.1550    2.9040    2.9170    2.8180    2.8920 215.9000 216.8330 212.1150 214.4610     422.2552 1449.7408 440.8439 101.0389  74.6511   0.6344   0.7186  97.8457  0.4200  5.0752  3.9516  1.4029      2.7477     0.0000  0.0002  2.1879      2.1018    2.7930    2.9910    2.8590    2.7020    2.6230    2.6320    2.9790    2.6840  56.0966  1.0000 26.9577 11.1116      0.4317  3.0235  0.8292 260.1080  0.3322
306.40  0.1547    3.1650    2.8330    2.8230    2.7810    2.8630 215.9000 229.3270 211.2400 220.0980     405.7934 1399.9019 434.9604 101.3142  77.7716   0.5347   0.6133  95.3253  0.4305  5.0568  4.9827  1.0164      2.7124     0.0000  0.0002  2.2839      2.0762    2.6940    2.8830    2.8010    2.6210    2.5510    2.5800    2.8800    2.2580  56.2188  1.0000 26.9577 11.5491      0.4349  2.3211  0.8317 259.7738  0.3332
306.50  0.1549    3.1600    2.7510    2.6840    2.6700    2.7230 215.9000 258.5550 211.1950 233.6780     400.5693 1361.6129 426.9508 102.7998  76.4614   0.3977   0.4658  92.8924  0.4233  4.8441  5.1937  0.9335      2.6414     0.0000  0.0001  2.2901      2.0437    2.6430    2.7590    2.7740    2.5690    2.5130    2.5440    2.8060    1.7200  56.2188  1.0000 26.9577 11.0932      0.4228  2.1376  0.8450 259.4540  0.3361
306.60  0.1550    3.2690    2.7520    2.6790    2.6340    2.6860 215.9000 255.2370 227.6470 241.0480     374.4745 1341.6594 428.0578 101.6203  74.0771   0.2919   0.3465  89.6631  0.4654  4.7931  5.3914  0.8898      2.5717     0.0000  0.0000  2.2292      1.9826    2.6440    2.7180    2.7610    2.5570    2.4950    2.5100    2.7670    1.3050  56.0104  1.0000 26.9577 10.6857      0.4574  1.9851  0.8344 259.1952  0.3397
306.70  0.1551    3.3900    2.7820    2.7140    2.6400    2.6770 215.9000 247.5540 243.7780 245.6590     353.5370 1330.7205 429.2655 100.2050  72.3715   0.2204   0.2624  87.6034  0.4987  4.8297  5.4848  0.8810      2.5077     0.0000  0.0000  2.1706      1.9277    2.6570    2.7100    2.7560    2.5690    2.4960    2.5020    2.7570    1.0240  55.8370  1.0000 26.9577 10.4821      0.4877  1.9119  0.8217 258.8546  0.3446
306.80  0.1551    3.4940    2.8430    2.7800    2.7040    2.6830 215.9000 243.9540 252.1980 248.0420     352.9268 1332.0729 426.8321  99.3948  72.6317   0.2120   0.2448  88.4844  0.4917  4.9928  5.3517  0.9333      2.4560     0.0000  0.0000  2.1456      1.8988    2.6780    2.7370    2.7630    2.6150    2.5310    2.5510    2.7960    0.9880  55.8296  1.0000 26.9577 10.7119      0.4887  2.0021  0.8144 258.5746  0.3505
306.90  0.1551    3.5060    2.8960    2.8380    2.7900    2.8000 215.9000 237.3870 235.9270 236.6560     364.0660 1376.0416 425.7577  96.3625  72.3698   0.2094   0.2603  89.5561  0.4934  4.8523  4.8012  1.0182      2.4507     0.0000  0.0000  2.1663      1.9077    2.6320    2.6920    2.6880    2.6040    2.5060    2.5410    2.7980    1.0790  55.7636  1.0000 26.9577 10.5072      0.4904  2.2074  0.7870 258.5673  0.3561
307.00  0.1551    3.5630    3.0140    2.9540    2.9140    2.9680 215.9000 229.8510 220.5030 225.1290     382.3490 1438.7465 423.3893  95.0060  72.3871   0.2129   0.2873  90.6482  0.4921  4.6708  4.3136  1.0828      2.4632     0.0000  0.0000  2.2039      1.9410    2.6860    2.7450    2.7150    2.6940    2.5790    2.6240    2.8510    1.3160  55.6302  1.0000 26.9577 10.2926      0.4889  2.3860  0.7748 258.6729  0.3606
307.10  0.1553    3.8170    3.3240    3.2420    3.1320    3.2010 215.9000 221.7980 226.1710 223.9740     412.0758 1522.5355 416.3099 100.1004  73.5943   0.2294   0.3222  91.6542  0.4756  4.6023  4.3211  1.0651      2.4910     0.0000  0.0003  2.2553      2.0147    3.0790    3.1320    3.0890    3.1130    2.9800    3.0160    3.0820    1.8760  55.3497  1.0000 26.9577 10.3784      0.4772  2.4018  0.8207 258.9758  0.3644
307.20  0.1554    4.1190    3.6660    3.5010    3.3420    3.4090 215.9000 221.2500 227.4710 224.3390     452.6224 1600.8488 410.7246 101.7247  72.3841   0.4036   0.5107  89.3738  0.4479  4.5100  4.5121  1.0021      2.5343     0.0000  0.0002  2.2376      2.0774    3.2600    3.2850    3.2560    3.3000    3.1630    3.2000    3.2480    2.3910  55.0698  1.0000 26.9619 10.0941      0.4477  2.2443  0.8354 259.5399  0.3683
307.30  0.1555    4.3950    3.9820    3.7280    3.5300    3.5980 215.9000 221.7450 225.1800 223.4560     497.2184 1671.9119 405.7999 102.0028  69.8971   0.6382   0.7499  86.1257  0.4142  4.4290  4.5726  0.9748      2.5774     0.0000  0.0002  2.1780      2.1306    3.3310    3.3190    3.3150    3.3680    3.2370    3.2750    3.3610    2.9070  54.6415  1.0000 26.9651  9.6465      0.4117  2.1175  0.8379 260.1519  0.3707
307.40  0.1556    4.5160    4.1690    3.8780    3.6520    3.7510 215.9000 216.5930 215.5960 216.0940     542.6931 1724.0918 401.3559 101.8299  65.8940   0.8911   0.9774  83.5402  0.3728  4.4174  3.9419  1.1301      2.6004     0.0000  0.0002  2.0555      2.1640    3.2770    3.2230    3.2530    3.3020    3.1910    3.2250    3.3580    3.4790  53.6866  1.0000 26.9595  9.0806      0.3748  2.3156  0.8363 260.7384  0.3708
307.50  0.1556    4.6720    4.4470    4.0790    3.8270    3.8150 215.9000 217.9210 212.4750 215.1810     579.1995 1766.0499 394.8074  98.6075  61.5925   0.9694   1.0526  79.6188  0.3458  4.3912  3.5914  1.2252      2.6118     0.0000  0.0004  1.9261      2.1887    3.3470    3.3030    3.3580    3.4050    3.3200    3.3790    3.4190    3.7320  52.7983  1.0000 26.9577  8.4603      0.3489  2.3545  0.8073 261.3291  0.3703
307.60  0.1556    4.8990    4.7630    4.3290    4.0620    3.8690 215.9000 221.8950 212.2950 217.0420     611.1619 1802.0382 381.5401  94.2939  57.5359   0.9839   1.0722  75.3295  0.3258  4.3978  3.4302  1.2821      2.6196     0.0000  0.0010  1.7988      2.2059    3.5470    3.5390    3.6140    3.6640    3.6050    3.7050    3.5810    3.8400  52.0466  1.0000 26.9625  7.9058      0.3285  2.3060  0.7684 261.8977  0.3696
307.70  0.1554    5.3890    5.0570    4.7110    4.4680    4.0690 215.9000 224.5690 212.2950 218.3460     640.6115 1831.3016 340.0858  91.3418  55.3286   1.0701   1.1541  72.1742  0.3088  4.5959  3.5787  1.2842      2.6356     0.0000  0.0019  1.6973      2.2062    4.1060    4.1480    4.2380    4.3120    4.2660    4.4200    4.0960    3.9390  51.8153  1.0000 26.9909  7.7922      0.3109  2.1796  0.7418 262.3938  0.3681
307.80  0.1552    5.7960    5.3970    5.1560    5.0480    4.2590 215.9000 222.8220 213.2810 217.9990     646.8289 1851.9835 304.3450  88.4020  52.9557   0.9746   1.0767  68.8961  0.3092  4.5757  3.5732  1.2805      2.6851     0.0000  0.0046  1.6265      2.2195    4.7580    4.8150    4.9260    5.0180    4.9940    5.1810    4.7170    3.9200  51.5456  1.0000 27.0047  7.4466      0.3114  2.0828  0.7007 262.7953  0.3654
307.90  0.1550    6.1430    5.7350    5.5990    5.6650    4.4350 215.9000 219.9700 215.0070 217.4750     641.3740 1866.5114 272.3166  85.0105  50.7654   0.7852   0.9163  65.9574  0.3178  4.4526  3.4782  1.2804      2.7566     0.0001  0.0167  1.5783      2.2414    5.5000    5.5590    5.6900    5.7990    5.8060    6.0120    5.4320    3.9390  51.2879  1.0000 27.0056  7.0272      0.3204  2.0208  0.6359 263.1225  0.3620
