~VERSION INFORMATION
 VERS.                  2.0:   CWLS Log Ascii Standard
 WRAP.                   NO:   One line per depth step
~WELL INFORMATION
#MNEM.UNIT        DATA TYPE:   INFORMATION
#---------    -------------   --------------------------
 STRT.M              140.00:   Top Depth
 STOP.M              770.00:   Bottom Depth
 STEP.M                0.10:   Increment
 NULL.              -999.25:   Null Value
 SRVC.                  KPG:   Service Company/Logging company
 DATE.           14.08.2024:   LAS file Creation Date
 WELL.                  353:   Well Name
 COMP.                KMG-B:   Company
 FLD .             Karatube:   Field
 STATE.                    :   State
 COUNT.          Kazakhstan:   Country
 LATI.                     :   Latitude/Northing
 LONG.                     :   Longitude/Easting
 DF  .                     :   DF Elevation
 GL  .                     :   GL Elevation
~PARAMETER INFORMATION
#MNEM  .UNIT          Value:   Description
#---------    -------------   --------------------------
~CURVE INFORMATION
#MNEM  .UNIT           API Code:   Curve Description
#---------       -------------- -------------------------- 
 DEPTH .M                      :   1 Measured depth
 AMF   .OHMM                   :   2 Array Induction Mud Resistivity Fully Calibrated (F13
 AT10  .ohm.m                  :   3 " Array Induction, two foot resolution
 AT20  .ohm.m                  :   4 " Array Induction, two foot resolution
 AT30  .ohm.m                  :   5 " Array Induction, two foot resolution
 AT60  .ohm.m                  :   6 " Array Induction, two foot resolution
 AT90  .ohm.m                  :   7 " Array Induction, two foot resolution
 BSC   .mm                     :   8 Nominal Caliper
 C1    .mm                     :   9 CALIPER DIAMETER 1
 C2    .mm                     :   10 CALIPER DIAMETER 2
 CALI  .mm                     :   11 Caliper
 CFTC  .dec                    :   12 Neutron far
 CNTC  .dec                    :   13 Neutron near
 DT    .uSec/m                 :   14 Sonic travel time
 GR    .uR/h                   :   15 GammaRay  
 HCGR  .GAPI                   :   16 HNGS Computed Gamma Ray {F13.4}
 HMIN  .Ohmm                   :   17 HIP Micro Inverse Resistivity
 HMNO  .Ohmm                   :   18 HIP Micro Normal Resistivity
 HSGR  .GAPI                   :   19 HNGS Standard Gamma-Ray
 HTNP  .m3/m3                  :   20 High Resolution Thermal Neutron Porosity (Ratio Method) in Selected Lithology
 HTPR  .                       :   21 HNGS Formation Thorium Potassium Concentration
 HTUR  .                       :   22 HNGS Formation Thorium Uranium Concentration
 HUPR  .                       :   23 HNGS Formation Uranium Potassium Concentration
 PEFZ  .B/E                    :   24 Formation Photoelectric Factor 
 Perm  .md                     :   25 Permeability
 PHIE  .Dec                    :   26 Effective porosity 
 POTA  .                       :   27 
 RHOZ  .g/cm3                  :   28 Bulk Density 
 RLA1  .ohm.m                  :   29 ShalRes HRLT Borehole Corrected Resistivity 1
 RLA2  .ohm.m                  :   30 MedRes  HRLT Borehole Corrected Resistivity 2
 RLA3  .ohm.m                  :   31 DeepRes HRLT Borehole Corrected Resistivity 3
 RLA4  .ohm.m                  :   32 XDeepRes HRLT Borehole Corrected Resisitivity 4
 RLA5  .ohm.m                  :   33 UltraDeepR HRLT Borehole Corrected Resistivity 5
 RT    .ohm.m                  :   34 
 RXO   .ohm.m                  :   35 HRLT Invaded Zone Resistivity
 RXOZ  .ohm.m                  :   36 MicroRes Invaded Formation Resistivity
 SP    .mV                     :   37 Spontaneous Potential
 SW    .Dec                    :   38 Water saturation
 TEMP  .                       :   39 TEMP
 THOR  .                       :   40 
 TNPH  .V/V                    :   41 Neutron porosity
 URAN  .                       :   42 
 VCLAV .Dec                    :   43 Clay volume
 HAZIM .deg                    :   44 Hole Azimuth
 SDEVM .deg                    :   45 Sonde Deviation
~A Log Data Section - Number of Curves = 45
# ...
720.00  0.1373    2.7910    2.4590    2.3770    2.4280    2.7120 215.9000 214.5430 237.2360 225.6040     723.2383 1920.7587 301.1106  72.3646  48.3867   0.3777   0.4663  54.1785  0.2665  3.6259  8.4937  0.4437      2.8709     0.2857  0.0960  1.6355      2.3259    1.9660    1.9910    2.0660    2.1150    2.2720    2.3840    2.0060    2.0760  68.2447  1.0000 33.0742  5.9280      0.2704  0.7193  0.3942  46.6403  0.3352
720.10  0.1372    2.8010    2.3590    2.2480    2.2580    2.4850 215.9000 216.4800 249.1110 232.2230     708.8172 1945.1372 301.8524  71.7278  45.3969   0.3432   0.4301  52.9783  0.2798  3.6907  6.0072  0.6449      2.8041     0.4869  0.1084  1.5241      2.3270    2.0210    2.0400    2.1120    2.1800    2.3250    2.4450    2.0670    2.0790  67.5817  1.0000 33.0399  5.6223      0.2836  0.9746  0.3821  46.7012  0.3376
720.20  0.1371    2.9170    2.3800    2.2720    2.2970    2.4810 215.9000 216.6510 248.1790 231.8800     710.2182 1971.5114 296.7245  68.1195  44.7375   0.3723   0.4650  52.2436  0.2849  3.8367  6.0065  0.6472      2.7323     1.0866  0.1301  1.4792      2.3268    2.0760    2.0890    2.1530    2.2340    2.3830    2.5030    2.1280    2.2200  67.1705  1.0000 33.0176  5.6736      0.2879  0.9581  0.3316  46.8104  0.3398
720.30  0.1370    3.0530    2.4530    2.3530    2.4020    2.5620 215.9000 216.1350 242.5970 228.9840     724.9515 2001.5227 290.4742  64.0093  44.8577   0.4247   0.5266  51.5890  0.2837  3.9773  6.9529  0.5725      2.6638     1.5950  0.1419  1.4618      2.3267    2.1220    2.1270    2.1830    2.2750    2.4320    2.5470    2.1770    2.4220  66.8989  1.0000 33.0035  5.8142      0.2851  0.8372  0.2958  46.9296  0.3410
720.40  0.1370    3.0690    2.5260    2.3980    2.4070    2.5940 215.9000 215.9450 240.8320 228.0490     769.5305 2044.2076 290.5713  63.4150  43.9796   0.4587   0.5717  50.3904  0.2701  3.9348  7.3608  0.5354      2.6195     1.1501  0.1318  1.4393      2.3307    2.1240    2.1240    2.1720    2.2690    2.4260    2.5310    2.1760    2.6250  66.7713  1.0000 33.0035  5.6640      0.2665  0.7711  0.2907  47.0490  0.3415
720.50  0.1370    3.1090    2.5660    2.4130    2.4050    2.5890 215.9000 215.7380 243.2740 229.0930     808.4351 2083.0046 290.3510  63.4454  44.1821   0.4614   0.5740  49.8382  0.2562  3.9499  9.1184  0.4503      2.6006     0.8127  0.1218  1.4437      2.3309    2.1570    2.1600    2.2100    2.3030    2.4650    2.5650    2.1930    2.7900  66.7863  1.0000 33.0035  5.7032      0.2506  0.6489  0.2910  47.1722  0.3426
720.60  0.1370    3.1660    2.5900    2.4140    2.4020    2.5680 215.9000 215.5000 247.4540 230.9250     841.2815 2121.8430 290.4035  63.6572  44.7965   0.4636   0.5704  49.7327  0.2442  3.9825 10.9406  0.3691      2.5955     0.6453  0.1156  1.4590      2.3309    2.2060    2.2140    2.2710    2.3530    2.5220    2.6170    2.2220    2.8990  66.9054  1.0000 33.0082  5.8107      0.2387  0.5385  0.2928  47.2072  0.3441
720.70  0.1371    3.2540    2.6120    2.4180    2.4130    2.5660 215.9000 215.1130 248.0920 231.0150     854.0312 2174.9702 293.4251  62.8330  44.2734   0.5746   0.6817  50.2864  0.2476  3.9252  8.3305  0.4880      2.5913     0.6714  0.1166  1.4504      2.3433    2.2620    2.2490    2.3090    2.3760    2.5450    2.6140    2.2690    2.7770  67.2073  1.0000 33.0444  5.6934      0.2430  0.7073  0.2858  47.1253  0.3455
720.80  0.1371    3.3160    2.6700    2.4540    2.4140    2.5730 215.9000 215.1920 250.5410 232.1950     859.4675 2218.2429 286.4011  63.7537  44.5365   0.5237   0.6362  51.5137  0.2500  3.9420  6.6336  0.6047      2.5959     0.6496  0.1157  1.4565      2.3512    2.3100    2.2830    2.3430    2.4020    2.5820    2.6270    2.2970    2.8290  67.4299  1.0000 33.0953  5.7421      0.2486  0.8817  0.2936  47.0371  0.3465
720.90  0.1372    3.3620    2.7530    2.5100    2.4070    2.5860 215.9000 215.5190 254.1410 234.0350     860.6684 2253.9209 274.2214  65.7404  45.3360   0.3791   0.5002  53.2918  0.2515  3.9889  5.5604  0.7194      2.6071     0.5614  0.1120  1.4758      2.3569    2.3500    2.3140    2.3710    2.4280    2.6250    2.6470    2.3090    2.9800  67.6135  1.0000 33.1474  5.8855      0.2545  1.0624  0.3107  46.9045  0.3476
721.00  0.1372    3.3990    2.8270    2.5720    2.3790    2.5910 215.9000 215.1300 257.1170 235.1880     869.2311 2277.8088 279.7677  66.6087  46.2761   0.3997   0.5262  56.2387  0.2491  3.8124  4.6578  0.8285      2.6270     0.4330  0.1055  1.5343      2.3702    2.3500    2.3250    2.3620    2.4180    2.6180    2.6230    2.3000    2.9390  67.9579  1.0000 33.1018  5.8442      0.2526  1.2742  0.3182  46.7403  0.3493
721.10  0.1372    3.3810    2.8120    2.5480    2.3610    2.5400 215.9000 215.1730 246.7780 230.4340     904.2625 2308.1880 284.6737  67.7528  47.7093   0.4221   0.5484  58.6941  0.2397  3.6783  4.3182  0.8523      2.6556     0.2618  0.0941  1.6039      2.3774    2.3570    2.3310    2.3520    2.4060    2.6040    2.5920    2.3160    3.0350  68.3181  1.0000 33.0531  5.8955      0.2425  1.3653  0.3283  46.6317  0.3513
721.20  0.1372    3.3220    2.7270    2.4600    2.3510    2.4480 215.9000 215.5570 226.6990 221.0580     959.2242 2343.6191 289.1320  69.1052  49.4547   0.4449   0.5666  60.6824  0.2251  3.5823  4.4230  0.8099      2.6914     0.1199  0.0788  1.6790      2.3799    2.3720    2.3350    2.3430    2.3950    2.5860    2.5590    2.3540    3.2260  68.6885  1.0000 33.0035  6.0149      0.2266  1.3600  0.3404  46.4666  0.3526
721.30  0.1372    3.3250    2.6980    2.4340    2.3410    2.3920 215.9000 215.9360 229.9810 222.8480     986.1682 2377.4834 295.3832  70.1859  48.7685   0.4306   0.5548  60.0533  0.2221  3.6368  4.5988  0.7912      2.7311     0.0691  0.0696  1.6463      2.3888    2.4520    2.3830    2.3890    2.4430    2.6530    2.6030    2.4360    3.0200  68.9814  1.0000 33.0035  5.9866      0.2218  1.3029  0.3526  46.2383  0.3529
721.40  0.1372    3.3250    2.6820    2.4160    2.3220    2.3400 215.9000 215.9310 237.1710 226.3020    1013.1738 2393.2219 296.5257  71.1064  47.6825   0.3976   0.5222  58.6644  0.2144  3.6566  4.8739  0.7525      2.7945     0.0271  0.0562  1.6062      2.3956    2.5090    2.4190    2.4200    2.4740    2.6920    2.6250    2.5010    2.9970  69.3724  1.0000 33.0035  5.8736      0.2136  1.2102  0.3702  46.1594  0.3537
721.50  0.1372    3.3220    2.6770    2.4060    2.2950    2.2930 215.9000 215.5580 248.1160 231.2650    1040.2386 2391.5457 292.7599  71.8731  46.2122   0.3467   0.4696  56.5456  0.2023  3.6432  5.2444  0.6948      2.8807     0.0075  0.0420  1.5589      2.4004    2.5450    2.4420    2.4360    2.4880    2.7030    2.6260    2.5510    3.1500  69.8575  1.0000 33.0035  5.6794      0.2021  1.0832  0.3848  46.2200  0.3547
721.60  0.1372    3.2690    2.6720    2.4030    2.2900    2.2670 215.9000 216.3280 240.9650 228.3140    1017.2465 2415.1958 281.1646  76.4461  45.2058   0.5322   0.6696  56.3850  0.2150  3.9579  4.7695  0.8378      3.0459     0.0001  0.0165  1.4775      2.4102    2.4980    2.4010    2.3900    2.4380    2.6450    2.5650    2.5060    3.1690  70.3105  1.0000 33.0035  5.8337      0.2144  1.2315  0.4722  46.3469  0.3552
721.70  0.1372    3.1870    2.6310    2.3870    2.2690    2.2300 215.9000 216.7540 231.1790 223.8500     997.8013 2446.2715 272.4473  79.7652  45.5814   0.6174   0.7556  56.8962  0.2294  4.1265  4.8065  0.8660      3.2374     0.0000  0.0035  1.4632      2.4225    2.3480    2.2570    2.2420    2.2820    2.4690    2.3890    2.3750    3.1450  70.7084  1.0000 33.0035  6.0377      0.2292  1.2635  0.5356  46.4420  0.3546
721.80  0.1372    3.0760    2.5470    2.3550    2.2270    2.1780 215.9000 216.7510 218.7320 217.7390     983.7192 2485.4570 267.2961  81.5210  47.5683   0.5793   0.7017  58.1491  0.2452  4.1159  5.4645  0.7544      3.4580     0.0000  0.0032  1.5286      2.4376    2.0800    1.9960    1.9760    2.0050    2.1570    2.0790    2.1440    3.0740  71.0425  1.0000 33.0035  6.2915      0.2464  1.1525  0.5692  46.5850  0.3536
721.90  0.1373    3.3850    2.7560    2.5240    2.3690    2.3010 215.9000 216.7540 227.5860 222.1040    1000.0965 2502.3281 258.8750  77.4458  47.2388   0.4761   0.5932  58.0217  0.2387  3.9838  5.1120  0.7809      3.6251     0.0007  0.0247  1.5384      2.4441    2.4470    2.3720    2.3400    2.3690    2.5630    2.4720    2.5150    3.0900  71.5233  1.0000 33.0375  6.1283      0.2407  1.2015  0.4913  46.8518  0.3523
