~VERSION INFORMATION
 VERS.                  2.0:   CWLS Log Ascii Standard
 WRAP.                   NO:   One line per depth step
~WELL INFORMATION
#MNEM.UNIT        DATA TYPE:   INFORMATION
#---------    -------------   --------------------------
 STRT.M              140.00:   Top Depth
 STOP.M              770.00:   Bottom Depth
 STEP.M                0.10:   Increment
 NULL.              -999.25:   Null Value
 SRVC.                  KPG:   Service Company/Logging company
 DATE.           14.08.2024:   LAS file Creation Date
 WELL.                  353:   Well Name
 COMP.                KMG-B:   Company
 FLD .             Karatube:   Field
 STATE.                    :   State
 COUNT.          Kazakhstan:   Country
 LATI.                     :   Latitude/Northing
 LONG.                     :   Longitude/Easting
 DF  .                     :   DF Elevation
 GL  .                     :   GL Elevation
~PARAMETER INFORMATION
#MNEM  .UNIT          Value:   Description
#---------    -------------   --------------------------
~CURVE INFORMATION
#MNEM  .UNIT           API Code:   Curve Description
#---------       -------------- -------------------------- 
 DEPTH .M                      :   1 Measured depth
 AMF   .OHMM                   :   2 Array Induction Mud Resistivity Fully Calibrated (F13
 AT10  .ohm.m                  :   3 " Array Induction, two foot resolution
 AT20  .ohm.m                  :   4 " Array Induction, two foot resolution
 AT30  .ohm.m                  :   5 " Array Induction, two foot resolution
 AT60  .ohm.m                  :   6 " Array Induction, two foot resolution
 AT90  .ohm.m                  :   7 " Array Induction, two foot resolution
 BSC   .mm                     :   8 Nominal Caliper
 C1    .mm                     :   9 CALIPER DIAMETER 1
 C2    .mm                     :   10 CALIPER DIAMETER 2
 CALI  .mm                     :   11 Caliper
 CFTC  .dec                    :   12 Neutron far
 CNTC  .dec                    :   13 Neutron near
 DT    .uSec/m                 :   14 Sonic travel time
 GR    .uR/h                   :   15 GammaRay  
 HCGR  .GAPI                   :   16 HNGS Computed Gamma Ray {F13.4}
 HMIN  .Ohmm                   :   17 HIP Micro Inverse Resistivity
 HMNO  .Ohmm                   :   18 HIP Micro Normal Resistivity
 HSGR  .GAPI                   :   19 HNGS Standard Gamma-Ray
 HTNP  .m3/m3                  :   20 High Resolution Thermal Neutron Porosity (Ratio Method) in Selected Lithology
 HTPR  .                       :   21 HNGS Formation Thorium Potassium Concentration
 HTUR  .                       :   22 HNGS Formation Thorium Uranium Concentration
 HUPR  .                       :   23 HNGS Formation Uranium Potassium Concentration
 PEFZ  .B/E                    :   24 Formation Photoelectric Factor 
 Perm  .md                     :   25 Permeability
 PHIE  .Dec                    :   26 Effective porosity 
 POTA  .                       :   27 
 RHOZ  .g/cm3                  :   28 Bulk Density 
 RLA1  .ohm.m                  :   29 ShalRes HRLT Borehole Corrected Resistivity 1
 RLA2  .ohm.m                  :   30 MedRes  HRLT Borehole Corrected Resistivity 2
 RLA3  .ohm.m                  :   31 DeepRes HRLT Borehole Corrected Resistivity 3
 RLA4  .ohm.m                  :   32 XDeepRes HRLT Borehole Corrected Resisitivity 4
 RLA5  .ohm.m                  :   33 UltraDeepR HRLT Borehole Corrected Resistivity 5
 RT    .ohm.m                  :   34 
 RXO   .ohm.m                  :   35 HRLT Invaded Zone Resistivity
 RXOZ  .ohm.m                  :   36 MicroRes Invaded Formation Resistivity
 SP    .mV                     :   37 Spontaneous Potential
 SW    .Dec                    :   38 Water saturation
 TEMP  .                       :   39 TEMP
 THOR  .                       :   40 
 TNPH  .V/V                    :   41 Neutron porosity
 URAN  .                       :   42 
 VCLAV .Dec                    :   43 Clay volume
 HAZIM .deg                    :   44 Hole Azimuth
 SDEVM .deg                    :   45 Sonde Deviation
~A Log Data Section - Number of Curves = 45
# ...
596.00  0.1404    1.6930    1.4260    1.3280    1.2210    1.2030 215.9000 211.5960 211.4060 211.5010     462.3443 1562.1991 396.6679 113.5529  72.5468   1.1664   1.0309  96.4504  0.4151  8.1092  4.7287  1.7185      2.0708     0.0000  0.0001  1.6660      1.9985    1.4620    1.4130    1.3870    1.3360    1.2610    1.1720    1.6410    2.6430  62.3354  1.0000 32.2656 13.4933      0.4220  2.8565  0.9419 169.8959  0.2860
596.10  0.1404    1.6810    1.4130    1.3160    1.2100    1.1870 215.9000 211.4740 211.1880 211.3310     434.8869 1550.3488 399.5159 113.2659  72.5236   1.1570   1.0394  96.6299  0.4515  8.4965  4.6946  1.8126      2.0462     0.0000  0.0001  1.6191      1.9827    1.4720    1.4340    1.4030    1.3540    1.2790    1.1960    1.6200    2.6900  61.2315  1.0000 32.2757 13.7600      0.4597  2.9340  0.9393 169.8160  0.2861
596.20  0.1404    1.6760    1.4090    1.3140    1.2040    1.1810 215.9000 211.6680 211.1880 211.4280     416.1756 1537.4011 401.9863 112.8632  75.7392   0.9356   0.9137  99.2853  0.4800  8.8618  5.1579  1.7211      2.0428     0.0000  0.0001  1.6489      1.9884    1.4040    1.3580    1.3220    1.2800    1.2090    1.1190    1.6040    2.5660  59.8892  1.0000 32.3180 14.6161      0.4875  2.8369  0.9357 169.7183  0.2865
596.30  0.1404    1.6670    1.3890    1.2920    1.1850    1.1620 215.9000 211.9990 211.6560 211.8280     402.3367 1540.1228 401.2045 117.2264  79.1425   0.8087   0.8220 102.1113  0.5108  9.2856  5.6144  1.6564      2.0720     0.0000  0.0001  1.6746      2.0144    1.4340    1.3790    1.3390    1.3000    1.2280    1.1290    1.6710    2.5240  58.5877  1.0000 32.3690 15.5560      0.5164  2.7731  0.9750 169.7645  0.2870
596.40  0.1404    1.6470    1.3610    1.2630    1.1590    1.1380 215.9000 212.2400 212.1490 212.1950     395.3474 1548.9181 399.8919 123.0731  81.7515   0.7805   0.7840 104.8240  0.5319  9.7294  5.8622  1.6675      2.1228     0.0000  0.0001  1.6814      2.0496    1.4660    1.4010    1.3590    1.3220    1.2490    1.1430    1.7360    2.4610  57.4014  1.0000 32.4056 16.3521      0.5355  2.7990  1.0000 169.8776  0.2875
596.50  0.1404    1.5880    1.3270    1.2380    1.1320    1.1110 215.9000 211.8550 211.9340 211.8940     409.0743 1556.3206 401.9793 126.9455  80.6466   1.0086   0.9152 106.7572  0.5076 10.1568  5.2326  1.9550      2.2084     0.0000  0.0001  1.6147      2.0893    1.3350    1.2640    1.2220    1.1890    1.1260    1.0190    1.6500    2.1590  56.6354  1.0000 32.3659 16.3887      0.5106  3.1492  1.0000 169.9875  0.2881
596.60  0.1404    1.5320    1.2820    1.1960    1.0960    1.0750 215.9000 212.4910 212.1470 212.3190     415.3598 1567.2830 401.3341 125.9824  78.2178   0.9452   0.8375 106.0959  0.4966 10.6118  4.7421  2.2530      2.3009     0.0000  0.0001  1.5238      2.1151    1.2540    1.1800    1.1370    1.1060    1.0490    0.9420    1.6150    2.0670  56.0222  1.0000 32.3147 16.1427      0.5029  3.4154  1.0000 170.0484  0.2885
596.70  0.1403    1.4850    1.2400    1.1550    1.0620    1.0420 215.9000 213.4630 212.6130 213.0380     417.0981 1579.4536 399.2818 122.6958  75.3660   0.7634   0.6841 104.2397  0.4942 11.1077  4.3722  2.5411      2.3939     0.0000  0.0001  1.4243      2.1322    1.2180    1.1400    1.0970    1.0690    1.0150    0.9070    1.6130    2.0700  55.5143  1.0000 32.2664 15.8113      0.5051  3.6166  1.0000 170.1370  0.2892
596.80  0.1403    1.4940    1.2520    1.1620    1.0740    1.0540 215.9000 213.2680 213.2800 213.2740     414.4532 1587.7813 397.2335 120.4380  74.1042   0.7757   0.7266 103.2542  0.5024 11.7674  4.3026  2.7363      2.4688     0.0000  0.0001  1.3487      2.1395    1.2990    1.2140    1.1730    1.1440    1.0910    0.9770    1.6520    1.9950  55.1700  1.0000 32.2721 15.8495      0.5132  3.6841  1.0000 170.2446  0.2897
596.90  0.1403    1.5050    1.2660    1.1730    1.0850    1.0650 215.9000 213.0910 213.5710 213.3310     421.3002 1592.3634 397.3457 116.8344  74.0057   0.8391   0.7911 101.7555  0.4925 12.3773  4.5550  2.7249      2.5217     0.0000  0.0001  1.3012      2.1468    1.3240    1.2350    1.1950    1.1650    1.1130    0.9960    1.6630    2.1030  55.0594  1.0000 32.3201 16.0959      0.5026  3.5482  0.9715 170.2659  0.2896
597.00  0.1402    1.5190    1.2810    1.1880    1.0960    1.0770 215.9000 213.0090 213.6200 213.3140     432.8638 1594.7285 398.2347 112.8184  74.5676   0.9112   0.8517 100.1608  0.4741 12.9392  4.9464  2.6169      2.5595     0.0000  0.0001  1.2715      2.1546    1.3110    1.2220    1.1810    1.1490    1.0990    0.9830    1.6540    2.2820  55.1071  1.0000 32.3887 16.4503      0.4825  3.3267  0.9353 170.2270  0.2894
597.10  0.1402    1.5430    1.3010    1.2100    1.1190    1.1000 215.9000 213.7570 213.5600 213.6580     433.2943 1597.8900 393.5886 112.9728  74.5986   0.7545   0.7356 100.7758  0.4810 13.3260  4.7484  2.8102      2.5794     0.0000  0.0001  1.2465      2.1682    1.2660    1.1840    1.1410    1.1090    1.0650    0.9520    1.6060    2.0380  55.3054  1.0000 32.4058 16.6063      0.4833  3.5006  0.9367 170.1725  0.2894
597.20  0.1402    1.6110    1.3500    1.2550    1.1620    1.1420 215.9000 213.9760 214.2790 214.1270     449.9422 1595.4698 390.0636 110.8212  73.6216   0.6519   0.6580 100.0237  0.4549 13.5355  4.6094  2.9374      2.5973     0.0000  0.0001  1.2168      2.1778    1.3310    1.2550    1.2090    1.1730    1.1320    1.0160    1.6560    1.9580  55.5611  1.0000 32.3744 16.4676      0.4555  3.5725  0.9173 170.1514  0.2895
597.30  0.1401    1.7140    1.4230    1.3210    1.2220    1.2010 215.9000 213.7950 215.5080 214.6500     477.2009 1589.4487 387.2065 107.0647  71.8364   0.6010   0.6177  98.2283  0.4067 13.5951  4.5015  3.0215      2.6141     0.0000  0.0001  1.1835      2.1841    1.4790    1.4070    1.3570    1.3140    1.2720    1.1490    1.7860    2.0000  55.8695  1.0000 32.3092 16.0902      0.4088  3.5755  0.8835 170.1307  0.2896
597.40  0.1400    1.8280    1.5450    1.4420    1.3470    1.3220 215.9000 213.5860 214.8590 214.2210     465.5046 1598.0649 380.0791 106.5436  68.9013   0.8125   0.7739  96.1440  0.4280 13.2667  4.0753  3.2683      2.6370     0.0000  0.0001  1.1544      2.1836    1.6150    1.5190    1.4650    1.4160    1.3690    1.2260    2.0260    2.0340  56.4011  1.0000 32.3150 15.3199      0.4300  3.7693  0.8788 170.0864  0.2898
597.50  0.1400    1.9060    1.6100    1.5040    1.4060    1.3770 215.9000 213.4870 215.1180 214.3010     460.4455 1595.4752 374.8671 105.1294  68.1371   0.7770   0.7654  94.7503  0.4335 13.0190  4.0345  3.2385      2.6579     0.0000  0.0001  1.1570      2.1802    1.7320    1.6260    1.5710    1.5200    1.4710    1.3230    2.1020    2.1020  56.8166  1.0000 32.3504 15.0599      0.4366  3.7422  0.8660 170.0423  0.2894
597.60  0.1400    1.9500    1.6220    1.5120    1.4050    1.3700 215.9000 213.4900 216.2180 214.8500     461.5130 1582.5416 371.4232 102.8906  69.3766   0.5132   0.6047  93.9941  0.4242 12.8458  4.3494  2.9534      2.6768     0.0000  0.0001  1.1888      2.1740    1.8300    1.7280    1.6740    1.6240    1.5760    1.4390    2.0270    2.2010  57.1250  1.0000 32.4132 15.2709      0.4297  3.5110  0.8459 170.0109  0.2891
597.70  0.1400    1.7430    1.4450    1.3490    1.2530    1.2230 215.9000 213.2930 214.9100 214.1000     449.4266 1578.9313 375.2485 107.4915  69.7142   0.5807   0.6520  94.9889  0.4421 11.6860  4.2058  2.7753      2.6546     0.0000  0.0001  1.2766      2.1650    1.3610    1.2740    1.2310    1.1970    1.1610    1.0480    1.5810    2.1940  57.4285  1.0000 32.3529 14.8648      0.4473  3.5347  0.8873 169.9779  0.2892
597.80  0.1401    1.5760    1.3040    1.2210    1.1340    1.1090 215.9000 213.7400 213.6970 213.7180     443.0244 1574.8531 378.9929 110.2385  70.9887   0.6941   0.7176  97.5477  0.4528 10.7312  3.9953  2.6863      2.6237     0.0000  0.0001  1.3738      2.1573    1.1370    1.0570    1.0190    0.9950    0.9640    0.8620    1.3700    2.1980  57.9023  1.0000 32.3146 14.7042      0.4555  3.6911  0.9121 169.8908  0.2892
597.90  0.1402    1.4540    1.2030    1.1320    1.0520    1.0310 215.9000 214.9140 212.5880 213.7480     443.0322 1570.2473 382.6459 110.8949  73.3197   0.8595   0.8037 101.8702  0.4554 10.0075  3.7094  2.6979      2.5828     0.0000  0.0001  1.4815      2.1510    1.1890    1.1050    1.0670    1.0450    1.0120    0.9060    1.4230    2.2130  58.5683  1.0000 32.3011 14.8206      0.4533  3.9971  0.9180 169.7631  0.2890
