~VERSION INFORMATION
 VERS.                  2.0:   CWLS Log Ascii Standard
 WRAP.                   NO:   One line per depth step
~WELL INFORMATION
#MNEM.UNIT        DATA TYPE:   INFORMATION
#---------    -------------   --------------------------
 STRT.M              140.00:   Top Depth
 STOP.M              770.00:   Bottom Depth
 STEP.M                0.10:   Increment
 NULL.              -999.25:   Null Value
 SRVC.                  KPG:   Service Company/Logging company
 DATE.           14.08.2024:   LAS file Creation Date
 WELL.                  353:   Well Name
 COMP.                KMG-B:   Company
 FLD .             Karatube:   Field
 STATE.                    :   State
 COUNT.          Kazakhstan:   Country
 LATI.                     :   Latitude/Northing
 LONG.                     :   Longitude/Easting
 DF  .                     :   DF Elevation
 GL  .                     :   GL Elevation
~PARAMETER INFORMATION
#MNEM  .UNIT          Value:   Description
#---------    -------------   --------------------------
~CURVE INFORMATION
#MNEM  .UNIT           API Code:   Curve Description
#---------       -------------- -------------------------- 
 DEPTH .M                      :   1 Measured depth
 AMF   .OHMM                   :   2 Array Induction Mud Resistivity Fully Calibrated (F13
 AT10  .ohm.m                  :   3 " Array Induction, two foot resolution
 AT20  .ohm.m                  :   4 " Array Induction, two foot resolution
 AT30  .ohm.m                  :   5 " Array Induction, two foot resolution
 AT60  .ohm.m                  :   6 " Array Induction, two foot resolution
 AT90  .ohm.m                  :   7 " Array Induction, two foot resolution
 BSC   .mm                     :   8 Nominal Caliper
 C1    .mm                     :   9 CALIPER DIAMETER 1
 C2    .mm                     :   10 CALIPER DIAMETER 2
 CALI  .mm                     :   11 Caliper
 CFTC  .dec                    :   12 Neutron far
 CNTC  .dec                    :   13 Neutron near
 DT    .uSec/m                 :   14 Sonic travel time
 GR    .uR/h                   :   15 GammaRay  
 HCGR  .GAPI                   :   16 HNGS Computed Gamma Ray {F13.4}
 HMIN  .Ohmm                   :   17 HIP Micro Inverse Resistivity
 HMNO  .Ohmm                   :   18 HIP Micro Normal Resistivity
 HSGR  .GAPI                   :   19 HNGS Standard Gamma-Ray
 HTNP  .m3/m3                  :   20 High Resolution Thermal Neutron Porosity (Ratio Method) in Selected Lithology
 HTPR  .                       :   21 HNGS Formation Thorium Potassium Concentration
 HTUR  .                       :   22 HNGS Formation Thorium Uranium Concentration
 HUPR  .                       :   23 HNGS Formation Uranium Potassium Concentration
 PEFZ  .B/E                    :   24 Formation Photoelectric Factor 
 Perm  .md                     :   25 Permeability
 PHIE  .Dec                    :   26 Effective porosity 
 POTA  .                       :   27 
 RHOZ  .g/cm3                  :   28 Bulk Density 
 RLA1  .ohm.m                  :   29 ShalRes HRLT Borehole Corrected Resistivity 1
 RLA2  .ohm.m                  :   30 MedRes  HRLT Borehole Corrected Resistivity 2
 RLA3  .ohm.m                  :   31 DeepRes HRLT Borehole Corrected Resistivity 3
 RLA4  .ohm.m                  :   32 XDeepRes HRLT Borehole Corrected Resisitivity 4
 RLA5  .ohm.m                  :   33 UltraDeepR HRLT Borehole Corrected Resistivity 5
 RT    .ohm.m                  :   34 
 RXO   .ohm.m                  :   35 HRLT Invaded Zone Resistivity
 RXOZ  .ohm.m                  :   36 MicroRes Invaded Formation Resistivity
 SP    .mV                     :   37 Spontaneous Potential
 SW    .Dec                    :   38 Water saturation
 TEMP  .                       :   39 TEMP
 THOR  .                       :   40 
 TNPH  .V/V                    :   41 Neutron porosity
 URAN  .                       :   42 
 VCLAV .Dec                    :   43 Clay volume
 HAZIM .deg                    :   44 Hole Azimuth
 SDEVM .deg                    :   45 Sonde Deviation
~A Log Data Section - Number of Curves = 45
# ...
472.00  0.1459   18.4200   21.7190   22.3410   28.0720   25.3940 215.9000 214.4570 213.2750 213.8650     467.2523 1723.2462 485.2857  59.7725  35.0062   1.5178   1.9796  49.2522  0.4860  3.9138  2.5957  1.5070      1.8318  9471.6182  0.3657  1.1489      1.9973   21.3560   23.2550   25.3770   26.0720   28.1950   32.1720   21.2420   14.1830  68.0350  0.1041 29.9681  4.4912      0.4803  1.7301  0.1669 185.8329  0.1758
472.10  0.1460   18.9010   20.4780   21.8480   28.6260   26.2570 215.9000 214.5420 213.9250 214.2330     479.6424 1746.1123 483.3809  59.0020  36.4471   1.3079   1.7198  50.6284  0.4725  3.7475  2.6616  1.4104      1.8196  8911.6123  0.3649  1.2168      1.9922   21.2630   22.3300   23.8470   24.9820   26.9600   30.1960   21.7100   13.6530  67.8789  0.1068 29.9902  4.5552      0.4700  1.7119  0.1629 185.5892  0.1754
472.20  0.1461   19.9710   19.0070   20.9970   28.0900   26.2120 215.9000 214.9550 214.6000 214.7770     493.9193 1774.1196 481.1096  59.3800  37.9073   1.0286   1.3713  51.8979  0.4580  3.6550  2.7699  1.3203      1.8149  7984.4150  0.3610  1.2774      1.9895   21.1690   21.6560   22.6310   24.0860   25.9430   28.4810   21.9400   12.7330  67.8336  0.1102 29.9898  4.6684      0.4591  1.6860  0.1648 185.5867  0.1755
472.30  0.1461   19.7690   18.3890   20.9290   26.0180   24.3950 215.9000 216.1060 216.1300 216.1180     506.0755 1813.6423 480.2366  64.1342  38.4266   0.6906   0.9607  52.0417  0.4562  3.6177  2.8746  1.2593      1.8119  6715.1816  0.3503  1.3000      1.9907   21.7550   22.2170   22.8160   24.4000   26.3200   28.4850   22.5830   10.9250  67.8110  0.1125 29.9456  4.7025      0.4568  1.6366  0.1902 184.7985  0.1753
472.40  0.1461   20.9220   20.0940   23.1410   27.4030   26.9350 215.9000 217.1250 217.2400 217.1830     520.3563 1826.3531 480.7198  65.4654  37.9667   0.7480   1.0129  51.2422  0.4427  3.4281  2.7847  1.2305      1.8287  5664.2007  0.3403  1.3107      1.9951   22.3050   22.8130   22.8710   24.4430   26.6130   28.2560   23.3330   10.2280  67.7873  0.1149 29.9694  4.4923      0.4414  1.6128  0.1975 182.2805  0.1734
472.50  0.1461   22.7720   22.9110   26.3200   30.2040   31.4040 215.9000 217.4790 217.5570 217.5180     532.4420 1828.4189 481.7725  65.9516  37.0914   0.9615   1.2506  50.0489  0.4292  3.1869  2.6211  1.2158      1.8510  4916.8086  0.3316  1.3145      1.9994   22.9680   23.5730   23.1180   24.5830   27.1440   28.2800   24.2160   10.0520  67.8416  0.1165 29.9959  4.1895      0.4252  1.5981  0.2002 180.3168  0.1721
472.60  0.1459   25.3020   26.5600   29.8180   33.2890   36.8070 215.9000 215.3770 215.3540 215.3660     532.4427 1829.6118 482.9933  68.3830  36.0777   1.1842   1.5108  48.7480  0.4334  2.9762  2.4653  1.2070      1.8647  4800.5967  0.3271  1.3090      1.9984   24.1370   24.9290   24.3300   25.5370   28.7470   29.6810   25.4560   10.2400  68.2102  0.1144 29.9274  3.8965      0.4259  1.5801  0.2139 179.7827  0.1720
472.70  0.1458   28.0830   35.0280   34.8770   39.7710   38.8420 215.9000 214.3120 213.9020 214.1060     521.2998 1828.3887 483.8999  66.7626  36.5341   1.3054   1.6711  48.4656  0.4493  3.0759  2.7095  1.1434      1.8759  7009.3989  0.3371  1.3108      1.9961   27.6860   29.5610   29.0090   29.8210   34.2610   35.5600   28.5280   11.5560  68.5672  0.1012 29.9465  4.0327      0.4414  1.4986  0.2047 179.6150  0.1719
472.80  0.1457   30.9390   43.5850   39.1630   46.4250   38.6760 215.9000 214.0520 213.0650 213.5580     508.2832 1822.9706 485.5381  63.4605  37.3894   1.3618   1.7650  48.3468  0.4640  3.2880  3.1333  1.0519      1.8819 11207.1602  0.3512  1.3104      1.9921   32.2910   35.7630   35.4490   35.7850   41.6390   43.6510   32.1350   13.3320  68.9163  0.0876 30.0023  4.3087      0.4578  1.3791  0.1865 179.7763  0.1703
472.90  0.1457   33.5440   39.7860   34.9020   44.9860   35.0240 215.9000 215.5980 213.7230 214.6580     514.3658 1800.2238 492.1591  61.4345  36.5851   1.3222   1.7487  46.4397  0.4414  3.3095  3.5083  0.9480      1.8658 13526.8604  0.3517  1.2793      1.9816   36.5400   42.1270   42.6220   42.3760   49.1540   52.3400   33.8920   14.7110  69.2511  0.0799 30.0330  4.2334      0.4398  1.2142  0.1756 180.2450  0.1671
473.00  0.1457   29.4130   33.4910   30.1980   41.7720   30.6760 215.9000 216.1540 215.0340 215.5930     510.9576 1764.7521 495.6627  59.2476  36.5896   1.2207   1.6399  45.1945  0.4310  3.3253  4.0766  0.8280      1.8462 15167.6221  0.3554  1.2772      1.9733   37.9600   44.5950   45.6060   45.0340   51.4620   55.2890   33.4820   14.5220  69.6655  0.0772 29.9871  4.2471      0.4305  1.0564  0.1642 180.8747  0.1651
473.10  0.1456   22.0860   26.3170   25.5630   37.4530   26.0820 215.9000 216.1330 216.6250 216.3790     501.9191 1722.4899 496.9135  57.1018  36.8075   1.0853   1.4755  44.1104  0.4279  3.3583  4.7730  0.7051      1.8252 16377.7354  0.3609  1.2806      1.9669   37.6400   44.5740   45.8770   45.1670   50.4850   54.5890   31.9260   13.5010  70.1162  0.0769 29.9097  4.2973      0.4266  0.9039  0.1532 181.9171  0.1635
473.20  0.1456   21.6120   24.4310   23.8970   32.5780   22.9480 215.9000 216.1330 217.2820 216.7060     492.3726 1686.3732 494.3650  56.1755  34.6706   0.9699   1.2997  40.9778  0.4254  3.5753  5.6021  0.6425      1.8107 15834.9473  0.3628  1.1793      1.9659   36.6090   42.7320   43.8890   43.3650   47.4720   51.3730   31.5240   13.2610  70.4745  0.0791 29.9522  4.2058      0.4258  0.7606  0.1485 183.2092  0.1619
473.30  0.1456   22.9370   26.9570   28.6300   37.6130   23.4410 215.9000 216.2580 218.4810 217.3670     477.4394 1657.1130 493.5106  54.7678  33.6208   0.9593   1.2862  39.0117  0.4356  3.6163  6.4023  0.5701      1.7939 19327.6563  0.3690  1.1375      1.9635   39.1520   46.6760   48.3100   48.1400   51.7330   57.0260   32.7880   12.8900  70.8601  0.0743 30.0017  4.1135      0.4364  0.6485  0.1416 184.0272  0.1599
473.40  0.1455   25.5790   33.4960   38.0950   50.3160   27.1470 215.9000 216.4250 219.7560 218.0840     459.2920 1632.2000 494.0822  52.9318  33.2100   1.0125   1.3726  37.7969  0.4537  3.5393  7.0956  0.4993      1.7762 27940.6797  0.3800  1.1329      1.9598   44.2860   54.8660   57.4540   57.7670   61.3490   69.2270   35.2240   12.4310  71.2755  0.0659 30.0489  4.0090      0.4539  0.5651  0.1327 184.5792  0.1575
473.50  0.1455   28.4330   52.8820   49.1180   70.7160   40.0370 215.9000 215.8480 216.0500 215.9490     451.8990 1597.6086 497.7767  49.8454  30.4768   0.8760   1.1832  35.1171  0.4499  3.6105  6.4412  0.5638      1.7719 37470.8789  0.3870  1.0321      1.9508   49.4610   63.9650   67.8810   68.7830   72.3570   83.3900   37.1530   12.1110  71.8481  0.0593 29.9809  3.7230      0.4506  0.5787  0.1182 185.0339  0.1551
473.60  0.1455   28.2630   53.5010   62.5980   87.4200   47.2350 215.9000 216.8070 215.7010 216.2530     458.5520 1574.9834 500.2873  46.6972  29.6216   0.7487   1.0157  34.0484  0.4284  3.6584  6.6213  0.5540      1.7605 41277.3789  0.3902  0.9977      1.9397   51.1220   66.1760   71.0350   72.2520   75.3900   87.5440   37.9120   11.5130  72.3285  0.0575 29.9852  3.6505      0.4306  0.5518  0.1041 185.3711  0.1523
473.70  0.1455   25.4220   37.5810   77.8970  100.5970   49.3770 215.9000 219.1380 218.3340 218.7350     477.4758 1563.1439 501.7815  43.5436  30.4371   0.6323   0.8710  34.4209  0.3917  3.6844  7.5301  0.4791      1.7431 39234.2734  0.3909  1.0225      1.9267   49.6010   62.1850   67.6170   68.9000   71.2220   82.6570   37.6020   10.6920  72.7274  0.0592 30.0524  3.7671      0.3962  0.4899  0.0906 185.5559  0.1496
473.80  0.1454   23.5640   31.8670   57.4310   89.2200   50.6240 215.9000 222.3900 221.5930 221.9910     478.0795 1568.5354 506.5821  45.2882  31.7897   0.7831   1.0603  36.0288  0.3937  3.5851  7.3171  0.4865      1.7343 28732.4707  0.3897  1.0795      1.9236   41.4570   48.7990   52.1090   52.6410   54.2880   61.2040   34.0640   12.1360  73.1432  0.0688 29.9900  3.8670      0.3961  0.5253  0.0980 185.5197  0.1471
473.90  0.1453   25.5620   29.6330   49.1320   80.2440   48.2960 215.9000 231.8450 225.1860 228.4910     472.2737 1576.1542 508.7198  47.2512  32.4665   0.9041   1.2141  37.6253  0.4066  3.4769  6.3551  0.5703      1.7216 23590.1758  0.3881  1.1150      1.9274   37.7620   42.9770   45.1180   45.1410   46.3980   51.2450   32.3240   12.7870  73.5899  0.0752 29.9761  3.8759      0.4062  0.6369  0.1065 185.2464  0.1449
