~VERSION INFORMATION
 VERS.                  2.0:   CWLS Log Ascii Standard
 WRAP.                   NO:   One line per depth step
~WELL INFORMATION
#MNEM.UNIT        DATA TYPE:   INFORMATION
#---------    -------------   --------------------------
 STRT.M              140.00:   Top Depth
 STOP.M              770.00:   Bottom Depth
 STEP.M                0.10:   Increment
 NULL.              -999.25:   Null Value
 SRVC.                  KPG:   Service Company/Logging company
 DATE.           14.08.2024:   LAS file Creation Date
 WELL.                  353:   Well Name
 COMP.                KMG-B:   Company
 FLD .             Karatube:   Field
 STATE.                    :   State
 COUNT.          Kazakhstan:   Country
 LATI.                     :   Latitude/Northing
 LONG.                     :   Longitude/Easting
 DF  .                     :   DF Elevation
 GL  .                     :   GL Elevation
~PARAMETER INFORMATION
#MNEM  .UNIT          Value:   Description
#---------    -------------   --------------------------
~CURVE INFORMATION
#MNEM  .UNIT           API Code:   Curve Description
#---------       -------------- -------------------------- 
 DEPTH .M                      :   1 Measured depth
 AMF   .OHMM                   :   2 Array Induction Mud Resistivity Fully Calibrated (F13
 AT10  .ohm.m                  :   3 " Array Induction, two foot resolution
 AT20  .ohm.m                  :   4 " Array Induction, two foot resolution
 AT30  .ohm.m                  :   5 " Array Induction, two foot resolution
 AT60  .ohm.m                  :   6 " Array Induction, two foot resolution
 AT90  .ohm.m                  :   7 " Array Induction, two foot resolution
 BSC   .mm                     :   8 Nominal Caliper
 C1    .mm                     :   9 CALIPER DIAMETER 1
 C2    .mm                     :   10 CALIPER DIAMETER 2
 CALI  .mm                     :   11 Caliper
 CFTC  .dec                    :   12 Neutron far
 CNTC  .dec                    :   13 Neutron near
 DT    .uSec/m                 :   14 Sonic travel time
 GR    .uR/h                   :   15 GammaRay  
 HCGR  .GAPI                   :   16 HNGS Computed Gamma Ray {F13.4}
 HMIN  .Ohmm                   :   17 HIP Micro Inverse Resistivity
 HMNO  .Ohmm                   :   18 HIP Micro Normal Resistivity
 HSGR  .GAPI                   :   19 HNGS Standard Gamma-Ray
 HTNP  .m3/m3                  :   20 High Resolution Thermal Neutron Porosity (Ratio Method) in Selected Lithology
 HTPR  .                       :   21 HNGS Formation Thorium Potassium Concentration
 HTUR  .                       :   22 HNGS Formation Thorium Uranium Concentration
 HUPR  .                       :   23 HNGS Formation Uranium Potassium Concentration
 PEFZ  .B/E                    :   24 Formation Photoelectric Factor 
 Perm  .md                     :   25 Permeability
 PHIE  .Dec                    :   26 Effective porosity 
 POTA  .                       :   27 
 RHOZ  .g/cm3                  :   28 Bulk Density 
 RLA1  .ohm.m                  :   29 ShalRes HRLT Borehole Corrected Resistivity 1
 RLA2  .ohm.m                  :   30 MedRes  HRLT Borehole Corrected Resistivity 2
 RLA3  .ohm.m                  :   31 DeepRes HRLT Borehole Corrected Resistivity 3
 RLA4  .ohm.m                  :   32 XDeepRes HRLT Borehole Corrected Resisitivity 4
 RLA5  .ohm.m                  :   33 UltraDeepR HRLT Borehole Corrected Resistivity 5
 RT    .ohm.m                  :   34 
 RXO   .ohm.m                  :   35 HRLT Invaded Zone Resistivity
 RXOZ  .ohm.m                  :   36 MicroRes Invaded Formation Resistivity
 SP    .mV                     :   37 Spontaneous Potential
 SW    .Dec                    :   38 Water saturation
 TEMP  .                       :   39 TEMP
 THOR  .                       :   40 
 TNPH  .V/V                    :   41 Neutron porosity
 URAN  .                       :   42 
 VCLAV .Dec                    :   43 Clay volume
 HAZIM .deg                    :   44 Hole Azimuth
 SDEVM .deg                    :   45 Sonde Deviation
~A Log Data Section - Number of Curves = 45
# ...
348.00  0.1519    3.2350    2.6740    2.5680    2.4220    2.4890 215.9000 303.2630 214.4270 255.0050     391.3604 1463.3575 533.3079 112.7936  72.8167   0.5955   0.6617  91.3464  0.5078  4.9319  4.3256  1.1444      2.8164     0.0000  0.0001  2.1635      2.1070    2.6820    2.4610    2.4030    2.3730    2.3150    2.0830    3.0260    2.8220  60.2134  1.0000 27.9892 10.6671      0.4935  2.4729  0.9351 259.8184  0.2460
348.10  0.1519    3.2830    2.7310    2.6320    2.4650    2.6090 215.9000 291.8700 217.0540 251.6970     377.8042 1442.0300 537.6039 117.3951  74.0934   0.5762   0.6592  91.1908  0.5205  4.8124  4.7218  1.0221      2.8322     0.0000  0.0001  2.2260      2.1096    2.8940    2.6820    2.6300    2.5970    2.5420    2.3200    3.1010    2.8420  60.2214  1.0000 27.9892 10.7101      0.5093  2.2731  0.9765 260.7965  0.2477
348.20  0.1519    3.3270    2.7570    2.6690    2.5020    2.6860 215.9000 282.4430 217.6570 247.9430     378.1213 1425.4731 541.1932 115.9839  74.3709   1.0880   1.1075  91.8889  0.5053  4.7860  4.6256  1.0362      2.8324     0.0000  0.0001  2.2396      2.1102    2.9030    2.7160    2.6710    2.6300    2.5730    2.3720    3.0440    3.2980  60.2610  1.0000 27.9847 10.7189      0.4979  2.3207  0.9638 263.8095  0.2464
348.30  0.1519    3.3130    2.7370    2.6480    2.4940    2.6710 215.9000 276.1760 217.9010 245.3140     385.3555 1411.4984 542.4665 113.5090  74.3397   1.6105   1.5562  92.8023  0.4771  4.7332  4.3634  1.0858      2.8254     0.0000  0.0001  2.2502      2.1110    2.8320    2.6780    2.6390    2.5910    2.5360    2.3630    2.9350    3.7470  60.3196  1.0000 27.9820 10.6475      0.4750  2.4437  0.9415 265.4599  0.2446
348.40  0.1519    3.1290    2.6140    2.4860    2.3620    2.4290 215.9000 277.3250 218.7490 246.3020     401.1395 1401.0426 537.7155 112.8339  74.2319   1.7365   1.6447  93.6429  0.4345  4.5303  4.0240  1.1270      2.8106     0.0000  0.0001  2.2907      2.1139    2.6940    2.5850    2.5490    2.5040    2.4610    2.3280    2.7800    3.8250  60.4070  1.0000 27.9877 10.3751      0.4418  2.5822  0.9354 265.1104  0.2434
348.50  0.1518    3.0170    2.5320    2.3920    2.3040    2.2880 215.9000 276.6780 216.3850 244.6810     411.4852 1410.1378 532.6853 109.7075  76.2742   1.2637   1.2497  95.1689  0.4207  4.5090  4.2325  1.0704      2.8025     0.0000  0.0001  2.3582      2.1182    2.6050    2.5220    2.4820    2.4370    2.4030    2.2880    2.7010    3.5950  60.1690  1.0000 27.9892 10.6349      0.4280  2.5200  0.9073 264.5890  0.2429
348.60  0.1517    2.9560    2.4840    2.3490    2.2890    2.2090 215.9000 269.7410 214.2160 240.3810     415.5064 1421.5237 528.8232 106.4926  78.5978   0.7254   0.8062  96.5269  0.4222  4.5383  4.6340  0.9813      2.7967     0.0000  0.0001  2.4234      2.1230    2.5600    2.4910    2.4480    2.4020    2.3740    2.2680    2.6720    3.2830  59.8410  1.0000 27.9892 10.9978      0.4268  2.3776  0.8783 263.9179  0.2418
348.70  0.1516    2.9880    2.5190    2.4110    2.3380    2.2270 215.9000 241.5220 217.0270 228.9470     402.9238 1415.6849 529.7241 106.1840  79.1383   0.7318   0.8196  96.3471  0.4428  4.5178  5.0367  0.8995      2.7911     0.0000  0.0001  2.4449      2.1283    2.6150    2.5430    2.5050    2.4550    2.4320    2.3280    2.7340    3.0730  59.6046  1.0000 27.9892 11.0452      0.4470  2.1984  0.8755 263.1186  0.2408
348.80  0.1516    2.9990    2.5550    2.4530    2.3630    2.2480 215.9000 239.5580 215.0630 226.9800     381.5491 1415.8445 533.3481 106.7101  77.4811   0.8498   0.9200  95.5011  0.4895  4.4361  4.7458  0.9420      2.7963     0.0000  0.0001  2.4123      2.1293    2.6250    2.5480    2.5160    2.4630    2.4420    2.3380    2.7360    3.2150  59.3727  1.0000 27.9892 10.7047      0.4924  2.2691  0.8803 262.2651  0.2411
348.90  0.1516    2.9950    2.5720    2.4690    2.3650    2.2570 215.9000 249.1110 212.3860 230.0160     359.5960 1418.2889 537.9885 107.3158  75.1629   1.0037   1.0489  94.3512  0.5389  4.3740  4.2635  1.0259      2.8091     0.0000  0.0001  2.3549      2.1270    2.5930    2.5090    2.4820    2.4270    2.4090    2.3030    2.6890    3.4510  59.0922  1.0000 27.9892 10.2979      0.5421  2.4157  0.8857 261.2214  0.2427
349.00  0.1515    2.9690    2.4860    2.3940    2.2980    2.1870 215.9000 257.1970 217.2270 236.3680     355.3451 1418.5804 541.5416 106.3699  74.5580   1.0826   1.1225  93.1775  0.5407  4.5597  4.4121  1.0334      2.8357     0.0000  0.0001  2.2945      2.1179    2.4390    2.3540    2.3170    2.2740    2.2520    2.1410    2.5240    3.3510  58.5451  1.0000 27.9892 10.4577      0.5548  2.3709  0.8772 260.2661  0.2446
349.10  0.1515    2.9220    2.4160    2.3340    2.2190    2.1390 215.9000 254.8020 217.1400 235.2190     369.6925 1426.4348 539.3842 105.6218  75.0955   1.0756   1.0866  92.6549  0.5113  4.6776  4.7640  0.9862      2.8625     0.0000  0.0001  2.2847      2.1139    2.3920    2.3020    2.2550    2.2200    2.1910    2.0680    2.4760    3.1560  58.1555  1.0000 27.9892 10.6876      0.5256  2.2522  0.8705 259.8844  0.2450
349.20  0.1516    2.8890    2.3680    2.2910    2.1460    2.1120 215.9000 248.4060 214.9680 231.0830     393.6218 1435.0656 534.3933 104.9533  76.1532   0.9872   0.9680  92.5117  0.4654  4.7726  5.1832  0.9207      2.8856     0.0000  0.0001  2.2963      2.1133    2.4090    2.3100    2.2530    2.2230    2.1860    2.0490    2.4990    2.8940  57.8336  1.0000 27.9892 10.9582      0.4742  2.1141  0.8644 259.3683  0.2456
349.30  0.1516    3.0570    2.4080    2.3230    2.1620    2.1510 215.9000 255.8880 217.8240 236.0900     411.0990 1418.1956 532.1798 104.0523  76.3131   0.6553   0.6936  92.4639  0.4280  4.9796  5.2578  0.9470      2.8811     0.0000  0.0001  2.2574      2.1153    2.4450    2.3310    2.2720    2.2370    2.2030    2.0490    2.5560    2.5360  57.3588  1.0000 27.9892 11.2373      0.4325  2.1371  0.8563 258.5860  0.2475
349.40  0.1516    3.1640    2.4550    2.3660    2.1950    2.1920 215.9000 268.9240 220.6660 243.6030     422.9677 1417.0994 530.3729 105.1516  76.2904   0.5022   0.5744  92.4941  0.4070  5.1730  5.2399  0.9877      2.8653     0.0000  0.0001  2.2172      2.1198    2.5510    2.4250    2.3700    2.3300    2.3010    2.1390    2.6640    2.5150  56.7698  1.0000 27.9892 11.4655      0.4109  2.1887  0.8662 258.2728  0.2496
349.50  0.1516    3.2250    2.5070    2.4160    2.2410    2.2340 215.9000 284.1220 223.2570 251.8580     430.8600 1427.7697 528.8424 107.3915  76.1650   0.5198   0.6034  92.5541  0.3981  5.3529  5.1896  1.0318      2.8436     0.0000  0.0001  2.1777      2.1261    2.6940    2.5600    2.5130    2.4680    2.4450    2.2810    2.7960    2.7410  56.1194  1.0000 27.9892 11.6566      0.4036  2.2470  0.8864 258.1216  0.2519
349.60  0.1516    3.2320    2.5840    2.4480    2.2950    2.2850 215.9000 276.7720 222.6320 248.2300     437.7036 1449.1324 527.2320 106.3181  76.3610   1.1553   1.1671  92.2909  0.3953  5.4784  5.5645  0.9860      2.8481     0.0000  0.0001  2.1592      2.1340    2.6910    2.5740    2.5270    2.4820    2.4510    2.3020    2.7830    3.1580  55.7059  1.0000 27.9892 11.8277      0.4007  2.1295  0.8767 257.8895  0.2537
349.70  0.1516    3.1850    2.6450    2.4590    2.3220    2.3040 215.9000 264.3910 220.3290 241.3570     436.5887 1458.9330 523.5488 104.3965  76.1869   1.3711   1.3538  92.1847  0.4028  5.6239  5.6391  0.9984      2.8587     0.0000  0.0001  2.1272      2.1379    2.6580    2.5700    2.5260    2.4840    2.4460    2.3250    2.7540    3.5580  55.4403  1.0000 27.9953 11.9593      0.4074  2.1222  0.8594 257.6661  0.2542
349.80  0.1517    3.0930    2.6920    2.4510    2.3280    2.2980 215.9000 247.9940 216.7150 231.8280     428.7886 1459.2234 518.2105 101.7583  75.7365   1.2250   1.2163  92.2198  0.4189  5.7806  5.4662  1.0576      2.8746     0.0000  0.0002  2.0858      2.1385    2.5980    2.5500    2.5130    2.4760    2.4300    2.3510    2.7140    3.9260  55.2996  1.0000 28.0064 12.0571      0.4222  2.2058  0.8357 257.3952  0.2541
349.90  0.1518    3.1140    2.6210    2.4890    2.3600    2.3280 215.9000 244.7850 218.8990 231.4800     425.6061 1476.1438 518.2863  99.4044  77.1861   0.8609   0.9250  92.6229  0.4306  5.6523  5.6913  0.9945      2.8948     0.0000  0.0003  2.1498      2.1448    2.5130    2.4870    2.4570    2.4250    2.3910    2.3560    2.7490    3.4510  55.0999  1.0000 28.0007 12.1472      0.4353  2.1357  0.8145 257.0401  0.2539
