~VERSION INFORMATION
 VERS.                  2.0:   CWLS Log Ascii Standard
 WRAP.                   NO:   One line per depth step
~WELL INFORMATION
#MNEM.UNIT        DATA TYPE:   INFORMATION
#---------    -------------   --------------------------
 STRT.M              140.00:   Top Depth
 STOP.M              770.00:   Bottom Depth
 STEP.M                0.10:   Increment
 NULL.              -999.25:   Null Value
 SRVC.                  KPG:   Service Company/Logging company
 DATE.           14.08.2024:   LAS file Creation Date
 WELL.                  353:   Well Name
 COMP.                KMG-B:   Company
 FLD .             Karatube:   Field
 STATE.                    :   State
 COUNT.          Kazakhstan:   Country
 LATI.                     :   Latitude/Northing
 LONG.                     :   Longitude/Easting
 DF  .                     :   DF Elevation
 GL  .                     :   GL Elevation
~PARAMETER INFORMATION
#MNEM  .UNIT          Value:   Description
#---------    -------------   --------------------------
~CURVE INFORMATION
#MNEM  .UNIT           API Code:   Curve Description
#---------       -------------- -------------------------- 
 DEPTH .M                      :   1 Measured depth
 AMF   .OHMM                   :   2 Array Induction Mud Resistivity Fully Calibrated (F13
 AT10  .ohm.m                  :   3 " Array Induction, two foot resolution
 AT20  .ohm.m                  :   4 " Array Induction, two foot resolution
 AT30  .ohm.m                  :   5 " Array Induction, two foot resolution
 AT60  .ohm.m                  :   6 " Array Induction, two foot resolution
 AT90  .ohm.m                  :   7 " Array Induction, two foot resolution
 BSC   .mm                     :   8 Nominal Caliper
 C1    .mm                     :   9 CALIPER DIAMETER 1
 C2    .mm                     :   10 CALIPER DIAMETER 2
 CALI  .mm                     :   11 Caliper
 CFTC  .dec                    :   12 Neutron far
 CNTC  .dec                    :   13 Neutron near
 DT    .uSec/m                 :   14 Sonic travel time
 GR    .uR/h                   :   15 GammaRay  
 HCGR  .GAPI                   :   16 HNGS Computed Gamma Ray {F13.4}
 HMIN  .Ohmm                   :   17 HIP Micro Inverse Resistivity
 HMNO  .Ohmm                   :   18 HIP Micro Normal Resistivity
 HSGR  .GAPI                   :   19 HNGS Standard Gamma-Ray
 HTNP  .m3/m3                  :   20 High Resolution Thermal Neutron Porosity (Ratio Method) in Selected Lithology
 HTPR  .                       :   21 HNGS Formation Thorium Potassium Concentration
 HTUR  .                       :   22 HNGS Formation Thorium Uranium Concentration
 HUPR  .                       :   23 HNGS Formation Uranium Potassium Concentration
 PEFZ  .B/E                    :   24 Formation Photoelectric Factor 
 Perm  .md                     :   25 Permeability
 PHIE  .Dec                    :   26 Effective porosity 
 POTA  .                       :   27 
 RHOZ  .g/cm3                  :   28 Bulk Density 
 RLA1  .ohm.m                  :   29 ShalRes HRLT Borehole Corrected Resistivity 1
 RLA2  .ohm.m                  :   30 MedRes  HRLT Borehole Corrected Resistivity 2
 RLA3  .ohm.m                  :   31 DeepRes HRLT Borehole Corrected Resistivity 3
 RLA4  .ohm.m                  :   32 XDeepRes HRLT Borehole Corrected Resisitivity 4
 RLA5  .ohm.m                  :   33 UltraDeepR HRLT Borehole Corrected Resistivity 5
 RT    .ohm.m                  :   34 
 RXO   .ohm.m                  :   35 HRLT Invaded Zone Resistivity
 RXOZ  .ohm.m                  :   36 MicroRes Invaded Formation Resistivity
 SP    .mV                     :   37 Spontaneous Potential
 SW    .Dec                    :   38 Water saturation
 TEMP  .                       :   39 TEMP
 THOR  .                       :   40 
 TNPH  .V/V                    :   41 Neutron porosity
 URAN  .                       :   42 
 VCLAV .Dec                    :   43 Clay volume
 HAZIM .deg                    :   44 Hole Azimuth
 SDEVM .deg                    :   45 Sonde Deviation
~A Log Data Section - Number of Curves = 45
# ...
638.00  0.1391    2.2010    1.7960    1.6330    1.5120    1.4600 215.9000 211.7920 211.6240 211.7080     521.4693 1780.6887 346.1524 105.4144  67.3216   1.8907   1.6735  86.0361  0.4221  7.0932  4.3180  1.6440      2.6852     0.0839  0.0727  1.6664      2.2818    2.2380    2.2130    2.1300    2.0660    1.9870    1.8740    2.3980    4.2820  62.8286  1.0000 32.7861 11.8163      0.4239  2.7377  0.5441 143.2749  0.2533
638.10  0.1391    2.2560    1.8310    1.6700    1.5520    1.4930 215.9000 211.9860 211.6240 211.8050     530.4501 1796.0364 344.1885 103.5355  66.2162   2.0775   1.8395  85.8036  0.4171  7.3985  4.1260  1.7963      2.7241     0.1467  0.0825  1.6017      2.2825    2.2040    2.2210    2.1480    2.0970    2.0200    1.9620    2.2990    4.3980  62.8877  1.0000 32.7833 11.8410      0.4178  2.8727  0.5347 143.4041  0.2538
638.20  0.1391    2.3260    1.8500    1.6960    1.5830    1.5230 215.9000 212.5160 211.7190 212.1170     545.4525 1800.4194 343.0132 104.4035  64.0539   2.0754   1.8376  83.9620  0.4002  7.0930  3.8581  1.8371      2.7389     0.0796  0.0718  1.5857      2.2857    2.1170    2.1450    2.1050    2.0610    1.9840    1.9690    2.2060    4.4330  63.0469  1.0000 32.7839 11.2416      0.4009  2.9128  0.5450 143.5935  0.2540
638.30  0.1391    2.4170    1.8730    1.7300    1.6220    1.5620 215.9000 213.1960 211.8660 212.5300     561.5142 1799.3439 342.1617 106.3810  61.2682   1.9235   1.7146  81.0755  0.3792  6.4458  3.5675  1.8068      2.7359     0.0396  0.0613  1.5961      2.2899    2.0360    2.0560    2.0650    2.0240    1.9460    1.9660    2.1530    4.4340  63.2633  1.0000 32.7870 10.2885      0.3811  2.8838  0.5562 143.8753  0.2539
638.40  0.1392    2.6340    2.0440    1.9010    1.7930    1.7140 215.9000 213.2250 211.9270 212.5750     549.3607 1813.9583 339.4875 101.8186  59.0105   1.4803   1.4522  78.0276  0.3931  6.2898  3.5371  1.7781      2.7082     1.4405  0.1387  1.5568      2.2888    2.3840    2.3900    2.4420    2.4120    2.3270    2.3770    2.4670    4.6190  63.4114  1.0000 32.7927  9.7948      0.4005  2.7687  0.4606 144.2599  0.2541
638.50  0.1392    2.9300    2.2630    2.1210    2.0170    1.9220 215.9000 213.6570 212.1670 212.9100     553.1372 1828.7054 338.4870 101.2160  57.2759   1.2720   1.3742  75.3454  0.3930  6.1970  3.6238  1.7126      2.6814     5.2173  0.1661  1.5228      2.2855    2.7150    2.7010    2.7890    2.7840    2.6970    2.7740    2.7510    4.9540  63.7011  0.7809 32.7920  9.4377      0.4011  2.6095  0.3986 144.6716  0.2545
638.60  0.1392    3.2710    2.5080    2.3660    2.2700    2.1650 215.9000 214.3060 212.5080 213.4060     567.5301 1842.8002 338.9322 103.3049  56.0315   1.2853   1.4618  73.0347  0.3840  6.1444  3.8080  1.6145      2.6562    10.3971  0.1816  1.4964      2.2805    3.0040    2.9660    3.0810    3.1110    3.0290    3.1270    2.9860    5.3950  64.0952  0.6738 32.7869  9.1937      0.3890  2.4153  0.3584 144.9988  0.2551
638.70  0.1392    3.2040    2.4660    2.3370    2.2510    2.1540 215.9000 212.5890 211.9110 212.2500     536.3258 1838.7421 342.5112  95.3162  56.6884   2.1854   2.0413  72.7397  0.4268  5.8699  4.1281  1.4291      2.6504     5.2581  0.1672  1.5500      2.2726    2.5900    2.5340    2.6200    2.6760    2.6090    2.6760    2.6100    5.5070  64.3265  0.7898 32.7961  9.0907      0.4273  2.2101  0.4114 145.1835  0.2561
638.80  0.1392    3.1840    2.4610    2.3320    2.2580    2.1670 215.9000 212.0640 211.5070 211.7850     521.2656 1843.9756 344.2907  91.4118  56.4405   2.4706   2.1889  72.8622  0.4513  5.7152  4.0648  1.4136      2.6550     3.9767  0.1613  1.5632      2.2675    2.4490    2.3870    2.4570    2.5360    2.4820    2.5370    2.4790    5.4670  64.5756  0.8394 32.7958  8.9341      0.4485  2.2079  0.4318 145.3658  0.2573
638.90  0.1392    3.2090    2.4880    2.3500    2.2890    2.2010 215.9000 212.6390 211.2840 211.9600     521.1078 1857.7861 344.4091  91.2775  55.3575   2.1880   1.9377  73.3702  0.4591  5.6711  3.6477  1.5550      2.6692     6.3213  0.1720  1.5390      2.2649    2.5610    2.5030    2.5710    2.6690    2.6240    2.6860    2.5750    5.2870  64.8411  0.7666 32.7866  8.7282      0.4537  2.3931  0.4091 145.1633  0.2605
639.00  0.1392    3.3750    2.6630    2.5360    2.4790    2.4020 215.9000 212.6450 211.7270 212.1850     528.7343 1887.9532 343.3411  87.9140  57.1347   2.4317   2.1543  74.4586  0.4560  5.0798  3.7187  1.3680      2.6910    11.0208  0.1846  1.6784      2.2703    2.8310    2.7710    2.8220    2.9330    2.9060    2.9590    2.8420    5.3770  65.3271  0.6784 32.7865  8.4817      0.4545  2.2821  0.3720 144.5678  0.2654
639.10  0.1392    3.4890    2.7990    2.6820    2.6300    2.5700 215.9000 212.4660 212.1680 212.3170     553.1996 1900.2773 342.8726  87.2493  57.7474   2.6392   2.3388  75.3078  0.4281  4.7078  3.6136  1.3063      2.7223    14.0242  0.1902  1.7519      2.2722    2.9750    2.9140    2.9440    3.0540    3.0510    3.0850    2.9910    5.6180  65.7817  0.6424 32.7945  8.2477      0.4289  2.2884  0.3561 144.4562  0.2681
639.20  0.1392    3.5400    2.8890    2.7810    2.7350    2.7000 215.9000 212.0850 212.5990 212.3420     596.5645 1892.2946 343.0935  89.6647  57.0143   2.8001   2.4819  75.8806  0.3723  4.5896  3.3045  1.3895      2.7642     9.0975  0.1777  1.7493      2.2700    2.9760    2.9140    2.9190    3.0130    3.0420    3.0450    3.0050    6.0240  66.1982  0.6863 32.8115  8.0284      0.3737  2.4307  0.3570 144.6920  0.2695
639.30  0.1392    3.3670    2.7990    2.6720    2.6350    2.5810 215.9000 212.0620 212.6250 212.3430     604.8802 1889.9646 342.8620  90.8613  54.8365   2.7144   2.4057  73.7505  0.3644  4.4928  3.0757  1.4636      2.7766     5.9287  0.1674  1.6979      2.2689    2.8220    2.7870    2.7690    2.8340    2.8930    2.8790    2.8530    5.9470  66.4813  0.7460 32.8108  7.6312      0.3640  2.4829  0.3736 144.9564  0.2708
639.40  0.1392    3.2130    2.6860    2.5450    2.5140    2.4490 215.9000 212.2230 212.8100 212.5160     602.1290 1893.4304 342.3742  91.9965  53.8358   2.4221   2.1923  72.5265  0.3698  4.4706  3.0150  1.4841      2.7783     4.9399  0.1640  1.6707      2.2650    2.6970    2.6680    2.6300    2.6710    2.7560    2.7150    2.7440    5.8050  66.8371  0.7809 32.8082  7.4696      0.3682  2.4793  0.3906 145.1613  0.2719
639.50  0.1391    3.1070    2.5580    2.4120    2.3840    2.3190 215.9000 212.6060 213.2520 212.9290     587.1844 1904.4017 341.5723  93.1544  54.5880   1.8663   1.8088  72.7923  0.3894  4.5495  3.1792  1.4314      2.7679     5.6986  0.1689  1.6812      2.2570    2.6270    2.5720    2.5180    2.5410    2.6500    2.5650    2.7110    5.6160  67.3048  0.7757 32.8043  7.6490      0.3874  2.4065  0.4053 145.3373  0.2729
639.60  0.1390    2.9790    2.4610    2.3110    2.2770    2.2130 215.9000 212.6450 213.1020 212.8730     574.5611 1891.6052 344.3460  91.5795  56.1396   2.1438   1.9676  73.8975  0.3998  4.5605  3.3774  1.3530      2.7478     6.4401  0.1726  1.7272      2.2517    2.6160    2.5280    2.4710    2.4870    2.6160    2.5000    2.7250    5.3800  67.6044  0.7653 32.8020  7.8771      0.3975  2.3347  0.4103 145.5427  0.2739
639.70  0.1390    2.8530    2.3710    2.2260    2.1860    2.1260 215.9000 212.3580 212.6400 212.4990     565.6390 1875.3019 347.6624  90.5103  58.3687   2.3518   2.0832  76.1760  0.4051  4.5053  3.4547  1.3042      2.7255     6.2471  0.1725  1.8062      2.2457    2.5670    2.4590    2.4020    2.4080    2.5540    2.4180    2.6950    5.1790  67.7563  0.7758 32.7993  8.1289      0.4023  2.3560  0.4199 145.7617  0.2742
639.80  0.1389    2.7340    2.2860    2.1610    2.1160    2.0670 215.9000 211.5840 211.7560 211.6700     562.5794 1857.5242 351.2263  90.8193  61.5999   2.2837   2.0227  80.2931  0.4036  4.3501  3.3196  1.3105      2.7012     4.5654  0.1655  1.9347      2.2379    2.4420    2.3360    2.2830    2.2710    2.4300    2.2900    2.5790    5.0490  67.6887  0.8287 32.7957  8.4119      0.3998  2.5355  0.4410 145.9782  0.2744
639.90  0.1389    2.7260    2.2610    2.1380    2.0900    2.0440 215.9000 211.4680 211.6240 211.5460     564.8246 1856.5398 353.1346  89.8391  63.0526   2.1722   1.9237  82.0631  0.3999  4.4329  3.3540  1.3216      2.6548     3.5763  0.1601  1.9639      2.2319    2.3550    2.2530    2.2070    2.1850    2.3500    2.2140    2.5070    4.8710  67.7617  0.8707 32.8000  8.7066      0.3968  2.5955  0.4560 146.1883  0.2755
