~VERSION INFORMATION
 VERS.                  2.0:   CWLS Log Ascii Standard
 WRAP.                   NO:   One line per depth step
~WELL INFORMATION
#MNEM.UNIT        DATA TYPE:   INFORMATION
#---------    -------------   --------------------------
 STRT.M              140.00:   Top Depth
 STOP.M              770.00:   Bottom Depth
 STEP.M                0.10:   Increment
 NULL.              -999.25:   Null Value
 SRVC.                  KPG:   Service Company/Logging company
 DATE.           14.08.2024:   LAS file Creation Date
 WELL.                  353:   Well Name
 COMP.                KMG-B:   Company
 FLD .             Karatube:   Field
 STATE.                    :   State
 COUNT.          Kazakhstan:   Country
 LATI.                     :   Latitude/Northing
 LONG.                     :   Longitude/Easting
 DF  .                     :   DF Elevation
 GL  .                     :   GL Elevation
~PARAMETER INFORMATION
#MNEM  .UNIT          Value:   Description
#---------    -------------   --------------------------
~CURVE INFORMATION
#MNEM  .UNIT           API Code:   Curve Description
#---------       -------------- -------------------------- 
 DEPTH .M                      :   1 Measured depth
 AMF   .OHMM                   :   2 Array Induction Mud Resistivity Fully Calibrated (F13
 AT10  .ohm.m                  :   3 " Array Induction, two foot resolution
 AT20  .ohm.m                  :   4 " Array Induction, two foot resolution
 AT30  .ohm.m                  :   5 " Array Induction, two foot resolution
 AT60  .ohm.m                  :   6 " Array Induction, two foot resolution
 AT90  .ohm.m                  :   7 " Array Induction, two foot resolution
 BSC   .mm                     :   8 Nominal Caliper
 C1    .mm                     :   9 CALIPER DIAMETER 1
 C2    .mm                     :   10 CALIPER DIAMETER 2
 CALI  .mm                     :   11 Caliper
 CFTC  .dec                    :   12 Neutron far
 CNTC  .dec                    :   13 Neutron near
 DT    .uSec/m                 :   14 Sonic travel time
 GR    .uR/h                   :   15 GammaRay  
 HCGR  .GAPI                   :   16 HNGS Computed Gamma Ray {F13.4}
 HMIN  .Ohmm                   :   17 HIP Micro Inverse Resistivity
 HMNO  .Ohmm                   :   18 HIP Micro Normal Resistivity
 HSGR  .GAPI                   :   19 HNGS Standard Gamma-Ray
 HTNP  .m3/m3                  :   20 High Resolution Thermal Neutron Porosity (Ratio Method) in Selected Lithology
 HTPR  .                       :   21 HNGS Formation Thorium Potassium Concentration
 HTUR  .                       :   22 HNGS Formation Thorium Uranium Concentration
 HUPR  .                       :   23 HNGS Formation Uranium Potassium Concentration
 PEFZ  .B/E                    :   24 Formation Photoelectric Factor 
 Perm  .md                     :   25 Permeability
 PHIE  .Dec                    :   26 Effective porosity 
 POTA  .                       :   27 
 RHOZ  .g/cm3                  :   28 Bulk Density 
 RLA1  .ohm.m                  :   29 ShalRes HRLT Borehole Corrected Resistivity 1
 RLA2  .ohm.m                  :   30 MedRes  HRLT Borehole Corrected Resistivity 2
 RLA3  .ohm.m                  :   31 DeepRes HRLT Borehole Corrected Resistivity 3
 RLA4  .ohm.m                  :   32 XDeepRes HRLT Borehole Corrected Resisitivity 4
 RLA5  .ohm.m                  :   33 UltraDeepR HRLT Borehole Corrected Resistivity 5
 RT    .ohm.m                  :   34 
 RXO   .ohm.m                  :   35 HRLT Invaded Zone Resistivity
 RXOZ  .ohm.m                  :   36 MicroRes Invaded Formation Resistivity
 SP    .mV                     :   37 Spontaneous Potential
 SW    .Dec                    :   38 Water saturation
 TEMP  .                       :   39 TEMP
 THOR  .                       :   40 
 TNPH  .V/V                    :   41 Neutron porosity
 URAN  .                       :   42 
 VCLAV .Dec                    :   43 Clay volume
 HAZIM .deg                    :   44 Hole Azimuth
 SDEVM .deg                    :   45 Sonde Deviation
~A Log Data Section - Number of Curves = 45
# ...
762.00  0.2242   28.7800 2074.6360  231.7040   91.3810  200.7680 215.9000  55.4280  70.7090  62.6040      -999.25 7239.6992 133.1709  23.9655  18.5595   0.4000   0.5693  20.6584 -999.25  5.0497  5.5075  0.8406     -999.25     0.0000 -999.25  0.5453     -999.25  465.8980 1654.8480 1636.6479 1473.4160 1292.3330 1547.3690   40.2060    5.2060  99.4235 -999.25 32.5608  2.7538     -999.25  0.4584  0.0376  49.1337  0.1584
762.10  0.2239   28.7680 2074.6101  231.6930   91.3730  200.7590 215.9000  55.4280  70.6140  62.5620      -999.25 7239.6992 133.1709  23.9655  18.5595   0.4059   0.5617  20.6584 -999.25  5.0497  5.5075  0.8406     -999.25     0.0000 -999.25  0.5453     -999.25  465.8980 1654.8480 1636.6479 1473.4160 1292.3330 1547.3690   40.2060    4.3770  99.4789 -999.25 32.5608  2.7538     -999.25  0.4584  0.0376  49.1337  0.1584
762.20  0.2228   28.7570 2074.5830  231.6830   91.3640  200.7490 215.9000  55.4280  70.6140  62.5620      -999.25 7239.6992 133.1709  23.9655  18.5595   0.4183   0.5620  20.6584 -999.25  5.0497  5.5075  0.8406     -999.25     0.0000 -999.25  0.5453     -999.25  465.8980 1654.8480 1636.6479 1473.4160 1292.3330 1547.3690   40.2060    3.7770  99.5437 -999.25 32.5608  2.7538     -999.25  0.4584  0.0376  49.1337  0.1584
762.30  0.2218   28.7460 2074.5569  231.6730   91.3560  200.7400 215.9000  55.4280  70.6140  62.5620      -999.25 7239.6992 133.1709  23.9655  18.5595   0.4051   0.5430  20.6584 -999.25  5.0497  5.5075  0.8406     -999.25     0.0000 -999.25  0.5453     -999.25  465.8980 1654.8480 1636.6479 1473.4160 1292.3330 1547.3690   40.2060    3.5850  99.7086 -999.25 32.5608  2.7538     -999.25  0.4584  0.0376  49.1337  0.1584
762.40  0.2228   28.7350 2074.5310  231.6630   91.3480  200.7310 215.9000  55.4280  70.6140  62.5620      -999.25 7239.6992 133.1709  23.9655  18.5595   0.3974   0.5348  20.6584 -999.25  5.0497  5.5075  0.8406     -999.25     0.0000 -999.25  0.5453     -999.25  465.8980 1654.8480 1636.6479 1473.4160 1292.3330 1547.3690   40.2060    3.4850  99.4102 -999.25 32.5608  2.7538     -999.25  0.4584  0.0376  49.1337  0.1584
762.50  0.2255   28.7230 2074.5049  231.6520   91.3390  200.7220 215.9000  55.4280  70.6140  62.5620      -999.25 7239.6992 133.1709  23.9655  18.5595   0.3943   0.5352  20.6584 -999.25  5.0497  5.5075  0.8406     -999.25     0.0000 -999.25  0.5453     -999.25  465.8980 1654.8480 1636.6479 1473.4160 1292.3330 1547.3690   40.2060    3.4620  98.6485 -999.25 32.5608  2.7538     -999.25  0.4584  0.0376  49.1337  0.1584
762.60  0.2282   28.7120 2074.4780  231.6420   91.3310  200.7130 215.9000  55.4280  70.6140  62.5620      -999.25 7239.6992 133.1709  23.9655  18.5595   0.3944   0.5358  20.6584 -999.25  5.0497  5.5075  0.8406     -999.25     0.0000 -999.25  0.5453     -999.25  465.8980 1654.8480 1636.6479 1473.4160 1292.3330 1547.3690   40.2060    3.5310  95.1628 -999.25 32.5608  2.7538     -999.25  0.4584  0.0376  49.1337  0.1584
762.70  0.2435   28.7010 2074.4519  231.6320   91.3230  200.7040 215.9000  55.4280  70.6140  62.5620      -999.25 7239.6992 133.1709  23.9655  18.5595   0.3945   0.5362  20.6584 -999.25  5.0497  5.5075  0.8406     -999.25     0.0000 -999.25  0.5453     -999.25  465.8980 1654.8480 1636.6479 1473.4160 1292.3330 1547.3690   40.2060    3.5720  87.8371 -999.25 32.5608  2.7538     -999.25  0.4584  0.0376  49.1337  0.1584
762.80  0.2715   28.6900 2074.4260  231.6210   91.3140  200.6940 215.9000  55.4280  70.6140  62.5620      -999.25 7239.6992 133.1709  23.9655  18.5595   0.3945   0.5364  20.6584 -999.25  5.0497  5.5075  0.8406     -999.25     0.0000 -999.25  0.5453     -999.25  465.8980 1654.8480 1636.6479 1473.4160 1292.3330 1547.3690   40.2060    3.5850  76.6715 -999.25 32.5608  2.7538     -999.25  0.4584  0.0376  49.1337  0.1584
762.90  0.2996   28.6790 2074.3989  231.6110   91.3060  200.6850 215.9000  55.4280  70.6140  62.5620      -999.25 7239.6992 133.1709  23.9655  18.5595   0.3945   0.5364  20.6584 -999.25  5.0497  5.5075  0.8406     -999.25     0.0000 -999.25  0.5453     -999.25  465.8980 1654.8480 1636.6479 1473.4160 1292.3330 1547.3690   40.2060    3.6300  69.4681 -999.25 32.5608  2.7538     -999.25  0.4584  0.0376  49.1337  0.1584
763.00  0.3234   28.6670 2074.3730  231.6010   91.2980  200.6760 215.9000  55.4280  70.6140  62.5620      -999.25 7239.6992 133.1709  23.9655  18.5595   0.3945   0.5364  20.6584 -999.25  5.0497  5.5075  0.8406     -999.25     0.0000 -999.25  0.5453     -999.25  465.8980 1654.8480 1636.6479 1473.4160 1292.3330 1547.3690   40.2060    3.6540  65.5949 -999.25 32.5608  2.7538     -999.25  0.4584  0.0376  49.1337  0.1584
763.10  0.3421   28.6560 2074.3469  231.5900   91.2890  200.6670 215.9000  55.4280  70.6140  62.5620      -999.25 7239.6992 133.1709  23.9655  18.5595   0.3945   0.5364  20.6584 -999.25  5.0497  5.5075  0.8406     -999.25     0.0000 -999.25  0.5453     -999.25  465.8980 1654.8480 1636.6479 1473.4160 1292.3330 1547.3690   40.2060    3.6540  65.5361 -999.25 32.5608  2.7538     -999.25  0.4584  0.0376  49.1337  0.1584
763.20  0.3608   28.6450 2074.3201  231.5800   91.2810  200.6580 215.9000  55.4280  70.6140  62.5620      -999.25 7239.6992 133.1709  23.9655  18.5595   0.3945   0.5364  20.6584 -999.25  5.0497  5.5075  0.8406     -999.25     0.0000 -999.25  0.5453     -999.25  465.8980 1654.8480 1636.6479 1473.4160 1292.3330 1547.3690   40.2060    3.6540  66.8357 -999.25 32.5608  2.7538     -999.25  0.4584  0.0376  49.1337  0.1584
763.30  0.3719   28.6340 2074.2939  231.5700   91.2720  200.6480 215.9000  55.4280  70.6140  62.5620      -999.25 7239.6992 133.1709  23.9655  18.5595   0.3945   0.5364  20.6584 -999.25  5.0497  5.5075  0.8406     -999.25     0.0000 -999.25  0.5453     -999.25  465.8980 1654.8480 1636.6479 1473.4160 1292.3330 1547.3690   40.2060    3.6540  67.7104 -999.25 32.5608  2.7538     -999.25  0.4584  0.0376  49.1337  0.1584
763.40  0.3719   28.6220 2074.2681  231.5590   91.2640  200.6390 215.9000  55.4280  70.6140  62.5620      -999.25 7239.6992 133.1709  23.9655  18.5595   0.3945   0.5364  20.6584 -999.25  5.0497  5.5075  0.8406     -999.25     0.0000 -999.25  0.5453     -999.25  465.8980 1654.8480 1636.6479 1473.4160 1292.3330 1547.3690   40.2060    3.6540  67.8264 -999.25 32.5608  2.7538     -999.25  0.4584  0.0376  49.1337  0.1584
763.50  0.3719   28.6110 2074.2419  231.5490   91.2560  200.6300 215.9000  55.4280  70.6140  62.5620      -999.25 7239.6992 133.1709  23.9655  18.5595   0.3945   0.5364  20.6584 -999.25  5.0497  5.5075  0.8406     -999.25     0.0000 -999.25  0.5453     -999.25  465.8980 1654.8480 1636.6479 1473.4160 1292.3330 1547.3690   40.2060    3.6540  66.7283 -999.25 32.5608  2.7538     -999.25  0.4584  0.0376  49.1337  0.1584
763.60  0.3718   28.6000 2074.2151  231.5390   91.2470  200.6210 215.9000  55.4280  70.6140  62.5620      -999.25 7239.6992 133.1709  23.9655  -999.25   0.3945   0.5364  -999.25 -999.25 -999.25 -999.25 -999.25     -999.25     0.0000 -999.25 -999.25     -999.25  465.8980 1654.8480 1636.6479 1473.4160 1292.3330 1547.3690   40.2060    3.6540  64.5492 -999.25 -999.25 -999.25     -999.25 -999.25  0.0376  49.1337  0.1584
763.70  0.3716   28.5890 2074.1890  231.5290   91.2390  200.6120 215.9000  55.4280  70.6140  62.5620      -999.25 7239.6992 133.1709  23.9655  -999.25   0.3945   0.5364  -999.25 -999.25 -999.25 -999.25 -999.25     -999.25     0.0000 -999.25 -999.25     -999.25  465.8980 1654.8480 1636.6479 1473.4160 1292.3330 1547.3690   40.2060    3.6540  60.7424 -999.25 -999.25 -999.25     -999.25 -999.25  0.0376  49.1337  0.1584
763.80  0.3714   28.7850 2078.2881  232.0810   91.5120  201.0940 215.9000  55.4280  70.6140  62.5620      -999.25   -999.25 133.1709  -999.25  -999.25  -999.25  -999.25  -999.25 -999.25 -999.25 -999.25 -999.25     -999.25     0.0000 -999.25 -999.25     -999.25  465.8980 1654.8480 1636.6479 1473.4160 1292.3330 1547.3690   40.2060   -999.25  60.1399 -999.25 -999.25 -999.25     -999.25 -999.25 -999.25  -999.25 -999.25
763.90 -999.25   -999.25   -999.25   -999.25   -999.25   -999.25 215.9000  -999.25  -999.25  -999.25      -999.25   -999.25  -999.25  -999.25  -999.25  -999.25  -999.25  -999.25 -999.25 -999.25 -999.25 -999.25     -999.25     0.0000 -999.25 -999.25     -999.25   -999.25   -999.25   -999.25   -999.25   -999.25   -999.25   -999.25   -999.25  -999.25 -999.25 -999.25 -999.25     -999.25 -999.25 -999.25  -999.25 -999.25
