~VERSION INFORMATION
 VERS.                  2.0:   CWLS Log Ascii Standard
 WRAP.                   NO:   One line per depth step
~WELL INFORMATION
#MNEM.UNIT        DATA TYPE:   INFORMATION
#---------    -------------   --------------------------
 STRT.M              140.00:   Top Depth
 STOP.M              770.00:   Bottom Depth
 STEP.M                0.10:   Increment
 NULL.              -999.25:   Null Value
 SRVC.                  KPG:   Service Company/Logging company
 DATE.           14.08.2024:   LAS file Creation Date
 WELL.                  353:   Well Name
 COMP.                KMG-B:   Company
 FLD .             Karatube:   Field
 STATE.                    :   State
 COUNT.          Kazakhstan:   Country
 LATI.                     :   Latitude/Northing
 LONG.                     :   Longitude/Easting
 DF  .                     :   DF Elevation
 GL  .                     :   GL Elevation
~PARAMETER INFORMATION
#MNEM  .UNIT          Value:   Description
#---------    -------------   --------------------------
~CURVE INFORMATION
#MNEM  .UNIT           API Code:   Curve Description
#---------       -------------- -------------------------- 
 DEPTH .M                      :   1 Measured depth
 AMF   .OHMM                   :   2 Array Induction Mud Resistivity Fully Calibrated (F13
 AT10  .ohm.m                  :   3 " Array Induction, two foot resolution
 AT20  .ohm.m                  :   4 " Array Induction, two foot resolution
 AT30  .ohm.m                  :   5 " Array Induction, two foot resolution
 AT60  .ohm.m                  :   6 " Array Induction, two foot resolution
 AT90  .ohm.m                  :   7 " Array Induction, two foot resolution
 BSC   .mm                     :   8 Nominal Caliper
 C1    .mm                     :   9 CALIPER DIAMETER 1
 C2    .mm                     :   10 CALIPER DIAMETER 2
 CALI  .mm                     :   11 Caliper
 CFTC  .dec                    :   12 Neutron far
 CNTC  .dec                    :   13 Neutron near
 DT    .uSec/m                 :   14 Sonic travel time
 GR    .uR/h                   :   15 GammaRay  
 HCGR  .GAPI                   :   16 HNGS Computed Gamma Ray {F13.4}
 HMIN  .Ohmm                   :   17 HIP Micro Inverse Resistivity
 HMNO  .Ohmm                   :   18 HIP Micro Normal Resistivity
 HSGR  .GAPI                   :   19 HNGS Standard Gamma-Ray
 HTNP  .m3/m3                  :   20 High Resolution Thermal Neutron Porosity (Ratio Method) in Selected Lithology
 HTPR  .                       :   21 HNGS Formation Thorium Potassium Concentration
 HTUR  .                       :   22 HNGS Formation Thorium Uranium Concentration
 HUPR  .                       :   23 HNGS Formation Uranium Potassium Concentration
 PEFZ  .B/E                    :   24 Formation Photoelectric Factor 
 Perm  .md                     :   25 Permeability
 PHIE  .Dec                    :   26 Effective porosity 
 POTA  .                       :   27 
 RHOZ  .g/cm3                  :   28 Bulk Density 
 RLA1  .ohm.m                  :   29 ShalRes HRLT Borehole Corrected Resistivity 1
 RLA2  .ohm.m                  :   30 MedRes  HRLT Borehole Corrected Resistivity 2
 RLA3  .ohm.m                  :   31 DeepRes HRLT Borehole Corrected Resistivity 3
 RLA4  .ohm.m                  :   32 XDeepRes HRLT Borehole Corrected Resisitivity 4
 RLA5  .ohm.m                  :   33 UltraDeepR HRLT Borehole Corrected Resistivity 5
 RT    .ohm.m                  :   34 
 RXO   .ohm.m                  :   35 HRLT Invaded Zone Resistivity
 RXOZ  .ohm.m                  :   36 MicroRes Invaded Formation Resistivity
 SP    .mV                     :   37 Spontaneous Potential
 SW    .Dec                    :   38 Water saturation
 TEMP  .                       :   39 TEMP
 THOR  .                       :   40 
 TNPH  .V/V                    :   41 Neutron porosity
 URAN  .                       :   42 
 VCLAV .Dec                    :   43 Clay volume
 HAZIM .deg                    :   44 Hole Azimuth
 SDEVM .deg                    :   45 Sonde Deviation
~A Log Data Section - Number of Curves = 45
# ...
222.00  0.1583    3.1370    3.5450    3.7200    3.8640    3.7150 215.9000 212.3360 212.3980 212.3670     443.3768 1515.0525 467.0002  94.3341  65.6367   1.0366   0.9953  79.9137  0.4307  4.1871  4.3697  0.9584      2.5763     0.0000  0.0010  2.0943      2.0926    3.3340    3.4580    3.5140    3.5540    3.5800    3.7290    3.2180    2.7700  68.4341  1.0000 25.0319  8.7707      0.4249  2.0069  0.7688   4.0903  0.4975
222.10  0.1583    3.1740    3.5730    3.7820    3.8980    3.7060 215.9000 212.3670 212.5690 212.4680     441.8563 1509.9241 467.7109  95.2824  67.3729   1.0383   1.0293  81.7018  0.4315  4.2295  4.5012  0.9404      2.5626     0.0000  0.0008  2.1408      2.0907    3.4490    3.5760    3.6230    3.6780    3.6990    3.8530    3.3230    2.9170  67.7360  1.0000 25.0177  9.0548      0.4249  2.0126  0.7773   4.4552  0.5010
222.20  0.1583    3.1650    3.5050    3.7020    3.8540    3.6320 215.9000 212.7800 212.8550 212.8180     450.3634 1511.9313 466.9084  97.4438  68.7240   1.0621   1.0516  82.5632  0.4171  4.2213  4.7917  0.8826      2.5558     0.0000  0.0005  2.1856      2.0811    3.2920    3.4140    3.4600    3.5130    3.5350    3.6820    3.1700    2.9360  67.6280  1.0000 25.0227  9.2259      0.4126  1.9277  0.7968   4.8423  0.5040
222.30  0.1583    3.1310    3.4210    3.6090    3.7950    3.5820 215.9000 212.8230 212.8300 212.8270     448.7216 1509.1333 467.5519  97.4446  68.7910   1.0771   1.0341  82.5138  0.4158  4.2152  4.8525  0.8689      2.5568     0.0000  0.0005  2.1890      2.0698    3.1690    3.2960    3.3480    3.3890    3.4120    3.5600    3.0420    2.8290  67.3834  1.0000 25.0284  9.2273      0.4138  1.9017  0.7968   5.2308  0.5063
222.40  0.1582    3.0850    3.3330    3.5180    3.7320    3.5470 215.9000 212.6430 212.6200 212.6310     440.3068 1503.3661 469.0847  96.1020  68.0325   1.0824   0.9909  81.8990  0.4238  4.2199  4.7778  0.8832      2.5625     0.0000  0.0007  2.1639      2.0583    3.0800    3.2170    3.2800    3.3020    3.3280    3.4810    2.9460    2.6500  67.0057  1.0000 25.0344  9.1311      0.4243  1.9112  0.7847   5.3884  0.5071
222.50  0.1582    3.0880    3.3310    3.5500    3.7170    3.5140 215.9000 212.6160 212.5590 212.5880     428.6199 1498.7826 470.2137  95.1949  67.2224   1.0423   0.9431  81.4791  0.4423  4.3339  4.8357  0.8962      2.5638     0.0000  0.0008  2.1145      2.0543    3.1480    3.2670    3.3380    3.3530    3.3790    3.5240    3.0370    2.5620  66.1011  1.0000 25.0404  9.1612      0.4417  1.8946  0.7765   5.3370  0.5066
222.60  0.1582    3.1140    3.3960    3.6450    3.7970    3.5690 215.9000 212.8240 212.5320 212.6780     412.1610 1495.7981 470.6755  94.4607  66.2533   1.0278   0.9464  80.9493  0.4692  4.3906  4.7413  0.9271      2.5502     0.0000  0.0010  2.0722      2.0586    3.2940    3.4170    3.4930    3.5060    3.5330    3.6850    3.1750    2.5930  65.5131  1.0000 25.0397  9.0980      0.4704  1.9203  0.7699   5.5330  0.5068
222.70  0.1582    3.1590    3.5110    3.7860    3.9520    3.6900 215.9000 213.2000 212.5440 212.8710     393.7261 1495.2875 470.4125  93.7537  65.2059   1.0332   0.9896  80.3663  0.5000  4.4116  4.5396  0.9717      2.5255     0.0000  0.0011  2.0353      2.0695    3.4910    3.6320    3.7120    3.7280    3.7550    3.9260    3.3420    2.7170  65.1895  1.0000 25.0337  8.9783      0.5054  1.9777  0.7635   5.8089  0.5075
222.80  0.1582    3.1920    3.5950    3.8850    4.0940    3.7890 215.9000 213.2250 212.8280 213.0260     417.8557 1524.0026 465.3356  90.4376  65.2799   1.0346   1.0267  80.5817  0.4706  4.6586  4.6366  1.0044      2.5148     0.0000  0.0022  1.9902      2.0814    3.4060    3.5580    3.6210    3.6520    3.6610    3.8350    3.2570    2.8420  65.2406  1.0000 25.0276  9.2661      0.4733  1.9982  0.7337   6.0197  0.5081
222.90  0.1582    3.2010    3.6670    3.9830    4.2380    3.9220 215.9000 212.5320 212.7060 212.6190     441.0629 1555.5334 461.1544  88.1239  65.9085   1.0694   1.0430  80.7027  0.4447  4.7844  4.9636  0.9696      2.5040     0.0000  0.0052  1.9851      2.0922    3.3540    3.5110    3.5640    3.6070    3.6010    3.7770    3.2070    2.8670  65.0978  1.0000 25.0309  9.4976      0.4469  1.9230  0.6954   6.2393  0.5083
223.00  0.1582    3.1870    3.7290    4.0800    4.3840    4.0860 215.9000 211.1490 212.1950 211.6710     463.3839 1589.7697 457.8339  86.7733  67.0698   1.1362   1.0392  80.7330  0.4220  4.7935  5.5116  0.8699      2.4930     0.0000  0.0088  2.0184      2.1019    3.3360    3.4910    3.5410    3.5930    3.5720    3.7510    3.1930    2.7960  64.7689  1.0000 25.0430  9.6750      0.4260  1.7557  0.6696   6.3979  0.5079
223.10  0.1582    3.1860    3.7810    4.1510    4.4540    4.1810 215.9000 212.4700 212.1980 212.3340     493.9679 1606.3376 457.4801  85.0895  67.7862   1.0291   0.9637  82.4105  0.3845  4.6762  5.2996  0.8827      2.4847     0.0001  0.0163  2.0629      2.1047    3.4570    3.6070    3.6650    3.7160    3.6840    3.8690    3.3230    2.7070  64.1315  1.0000 25.0371  9.6437      0.3908  1.8212  0.6374   6.4586  0.5074
223.20  0.1582    3.1290    3.7330    4.0720    4.3580    4.1280 215.9000 213.3000 212.4340 212.8670     512.2073 1622.6145 457.0206  86.6637  68.1537   0.9633   0.9311  83.4373  0.3662  4.5622  5.1724  0.8820      2.4847     0.0000  0.0092  2.0966      2.1027    3.4950    3.6280    3.7010    3.7460    3.7060    3.8900    3.3570    2.6910  63.7040  1.0000 25.0367  9.5641      0.3724  1.8491  0.6675   6.5237  0.5075
223.30  0.1582    3.0030    3.5670    3.8180    4.0670    3.9000 215.9000 213.5210 212.9370 213.2290     515.8572 1638.7592 456.4018  92.0661  68.1169   0.9480   0.9498  83.6805  0.3704  4.4536  5.1536  0.8642      2.4942     0.0000  0.0016  2.1174      2.0951    3.4350    3.5350    3.6310    3.6660    3.6210    3.7940    3.2770    2.7600  63.5263  1.0000 25.0427  9.4301      0.3740  1.8299  0.7483   6.5577  0.5076
223.40  0.1582    2.8600    3.3250    3.5200    3.7520    3.6240 215.9000 213.7110 213.1700 213.4410     499.5872 1628.6687 460.0539  96.9795  65.6520   1.0832   1.0293  82.1478  0.3888  4.4580  4.6548  0.9644      2.5131     0.0000  0.0005  2.0400      2.0854    3.0880    3.1620    3.2520    3.2590    3.2190    3.3550    2.9850    2.7520  64.1727  1.0000 25.0317  9.0938      0.3912  1.9625  0.7926   6.5484  0.5072
223.50  0.1582    2.7500    3.1580    3.3400    3.5820    3.4910 215.9000 213.4870 212.9930 213.2400     478.0570 1611.9739 463.9803  99.9803  64.9305   1.1430   1.0508  81.2776  0.4124  4.5092  4.6222  0.9825      2.5353     0.0000  0.0003  2.0073      2.0756    2.8930    2.9610    3.0510    3.0370    2.9980    3.1200    2.8170    2.7060  65.0092  1.0000 25.0298  9.0536      0.4146  1.9704  0.8196   6.5679  0.5064
223.60  0.1581    2.6860    3.1030    3.3250    3.6130    3.5600 215.9000 212.6920 212.2700 212.4810     451.0185 1588.4712 467.9090 100.3829  66.8305   1.0854   0.9868  81.4789  0.4420  4.6151  5.2756  0.8768      2.5612     0.0000  0.0002  2.0453      2.0658    2.9330    3.0230    3.1230    3.0970    3.0570    3.1960    2.8390    2.6170  66.0355  1.0000 25.0418  9.4402      0.4453  1.7928  0.8233   6.5972  0.5052
223.70  0.1580    2.6970    3.0610    3.3440    3.6710    3.6780 215.9000 212.4610 212.4450 212.4530     432.8461 1564.3540 469.3487  97.1816  65.7009   1.0689   0.9886  78.9050  0.4581  4.5984  5.8796  0.7871      2.5652     0.0000  0.0005  2.0140      2.0620    3.0080    3.1460    3.2390    3.2090    3.1680    3.3310    2.8540    2.6270  67.1489  1.0000 25.0431  9.2618      0.4650  1.5872  0.7944   6.6052  0.5036
223.80  0.1580    2.6970    3.0200    3.3350    3.7150    3.7570 215.9000 212.5620 212.6820 212.6220     425.9957 1555.8990 469.4725  91.7064  64.1609   1.0523   0.9853  75.9679  0.4620  4.5951  6.4721  0.7121      2.5574     0.0000  0.0017  1.9675      2.0598    3.0300    3.2070    3.2800    3.2480    3.2030    3.3770    2.8370    2.6280  68.4830  1.0000 25.0431  9.0400      0.4728  1.4023  0.7451   6.6106  0.5020
223.90  0.1580    2.6630    2.9760    3.2720    3.7280    3.7590 215.9000 213.1110 212.8370 212.9740     436.5577 1574.2413 467.8796  83.1178  62.5595   1.0272   0.9593  72.9964  0.4480  4.6404  7.0552  0.6587      2.5340     0.0021  0.0313  1.9101      2.0589    2.9530    3.1520    3.1860    3.1530    3.0990    3.2600    2.7670    2.5890  70.1746  1.0000 25.0431  8.8633      0.4625  1.2589  0.5997   6.6302  0.4998
