~VERSION INFORMATION
 VERS.                  2.0:   CWLS Log Ascii Standard
 WRAP.                   NO:   One line per depth step
~WELL INFORMATION
#MNEM.UNIT        DATA TYPE:   INFORMATION
#---------    -------------   --------------------------
 STRT.M              140.00:   Top Depth
 STOP.M              770.00:   Bottom Depth
 STEP.M                0.10:   Increment
 NULL.              -999.25:   Null Value
 SRVC.                  KPG:   Service Company/Logging company
 DATE.           14.08.2024:   LAS file Creation Date
 WELL.                  353:   Well Name
 COMP.                KMG-B:   Company
 FLD .             Karatube:   Field
 STATE.                    :   State
 COUNT.          Kazakhstan:   Country
 LATI.                     :   Latitude/Northing
 LONG.                     :   Longitude/Easting
 DF  .                     :   DF Elevation
 GL  .                     :   GL Elevation
~PARAMETER INFORMATION
#MNEM  .UNIT          Value:   Description
#---------    -------------   --------------------------
~CURVE INFORMATION
#MNEM  .UNIT           API Code:   Curve Description
#---------       -------------- -------------------------- 
 DEPTH .M                      :   1 Measured depth
 AMF   .OHMM                   :   2 Array Induction Mud Resistivity Fully Calibrated (F13
 AT10  .ohm.m                  :   3 " Array Induction, two foot resolution
 AT20  .ohm.m                  :   4 " Array Induction, two foot resolution
 AT30  .ohm.m                  :   5 " Array Induction, two foot resolution
 AT60  .ohm.m                  :   6 " Array Induction, two foot resolution
 AT90  .ohm.m                  :   7 " Array Induction, two foot resolution
 BSC   .mm                     :   8 Nominal Caliper
 C1    .mm                     :   9 CALIPER DIAMETER 1
 C2    .mm                     :   10 CALIPER DIAMETER 2
 CALI  .mm                     :   11 Caliper
 CFTC  .dec                    :   12 Neutron far
 CNTC  .dec                    :   13 Neutron near
 DT    .uSec/m                 :   14 Sonic travel time
 GR    .uR/h                   :   15 GammaRay  
 HCGR  .GAPI                   :   16 HNGS Computed Gamma Ray {F13.4}
 HMIN  .Ohmm                   :   17 HIP Micro Inverse Resistivity
 HMNO  .Ohmm                   :   18 HIP Micro Normal Resistivity
 HSGR  .GAPI                   :   19 HNGS Standard Gamma-Ray
 HTNP  .m3/m3                  :   20 High Resolution Thermal Neutron Porosity (Ratio Method) in Selected Lithology
 HTPR  .                       :   21 HNGS Formation Thorium Potassium Concentration
 HTUR  .                       :   22 HNGS Formation Thorium Uranium Concentration
 HUPR  .                       :   23 HNGS Formation Uranium Potassium Concentration
 PEFZ  .B/E                    :   24 Formation Photoelectric Factor 
 Perm  .md                     :   25 Permeability
 PHIE  .Dec                    :   26 Effective porosity 
 POTA  .                       :   27 
 RHOZ  .g/cm3                  :   28 Bulk Density 
 RLA1  .ohm.m                  :   29 ShalRes HRLT Borehole Corrected Resistivity 1
 RLA2  .ohm.m                  :   30 MedRes  HRLT Borehole Corrected Resistivity 2
 RLA3  .ohm.m                  :   31 DeepRes HRLT Borehole Corrected Resistivity 3
 RLA4  .ohm.m                  :   32 XDeepRes HRLT Borehole Corrected Resisitivity 4
 RLA5  .ohm.m                  :   33 UltraDeepR HRLT Borehole Corrected Resistivity 5
 RT    .ohm.m                  :   34 
 RXO   .ohm.m                  :   35 HRLT Invaded Zone Resistivity
 RXOZ  .ohm.m                  :   36 MicroRes Invaded Formation Resistivity
 SP    .mV                     :   37 Spontaneous Potential
 SW    .Dec                    :   38 Water saturation
 TEMP  .                       :   39 TEMP
 THOR  .                       :   40 
 TNPH  .V/V                    :   41 Neutron porosity
 URAN  .                       :   42 
 VCLAV .Dec                    :   43 Clay volume
 HAZIM .deg                    :   44 Hole Azimuth
 SDEVM .deg                    :   45 Sonde Deviation
~A Log Data Section - Number of Curves = 45
# ...
430.00  0.1483    9.6110    9.8640   10.0020   10.5320    8.5940 215.9000 222.9960 215.2610 219.0940     448.4630 1635.6790 405.3441  93.9777  62.2093   0.9131   1.2395  81.8896  0.4624  4.7075  3.4057  1.3841      2.3575   488.3584  0.2770  1.8873      2.0679    8.9490    9.0050    9.1240    8.9830    9.1330    9.1980    8.8350   12.5690  52.5347  0.2489 29.3883  8.8844      0.4719  2.6124  0.3396 223.6492  0.1742
430.10  0.1483    9.6840   10.5880   10.7660   11.2560    9.3470 215.9000 224.7150 217.6720 221.1660     468.5376 1666.7308 405.4949  92.4438  60.4588   0.7822   1.0883  81.0993  0.4500  4.3991  3.0833  1.4275      2.3617   443.7935  0.2720  1.8894      2.0772    9.1930    9.1830    9.3130    9.1470    9.3040    9.2770    8.8220   12.8710  52.6215  0.2507 29.4546  8.3116      0.4525  2.6973  0.3265 223.7613  0.1743
430.20  0.1482    9.1110   10.0230   10.6230   10.8730    9.3970 215.9000 223.7710 219.3280 221.5380     483.8646 1695.6216 405.1949  93.0670  61.3088   1.3943   1.7993  81.5661  0.4371  4.4619  3.2290  1.3839      2.3831   325.7124  0.2627  1.9042      2.0779    8.5610    8.5260    8.5690    8.4200    8.5470    8.4370    8.1990   12.1470  52.9554  0.2712 29.4632  8.4974      0.4411  2.6348  0.3392 223.9794  0.1742
430.30  0.1482    8.1360    8.7850    9.5650    9.6180    8.7120 215.9000 220.8120 218.4820 219.6440     497.9850 1719.0079 404.8833  93.1648  61.4483   1.8157   2.2692  81.4636  0.4261  4.6922  3.3742  1.3904      2.3902   255.2760  0.2567  1.8692      2.0721    7.9020    7.9010    7.8390    7.7200    7.8160    7.6690    7.5130   11.4700  53.2944  0.2910 29.4632  8.7469      0.4301  2.5922  0.3491 224.1538  0.1745
430.40  0.1481    6.5940    6.6540    7.0580    7.0530    6.8570 215.9000 214.8500 213.2000 214.0230     511.1820 1732.7714 404.6754  91.6885  59.5465   1.6766   2.0517  79.9551  0.4188  5.1306  3.3885  1.5140      2.3658   251.7072  0.2586  1.7383      2.0568    7.4360    7.5660    7.3930    7.3150    7.3900    7.2860    6.8780   11.1670  53.5746  0.2979 29.4632  8.9042      0.4176  2.6277  0.3442 224.2873  0.1748
430.50  0.1480    5.3400    5.1140    5.2590    5.2500    5.1620 215.9000 213.1440 212.7710 212.9580     498.7210 1717.8118 411.9174  92.3089  56.7375   1.8378   2.1021  79.4200  0.4324  5.3283  3.0324  1.7820      2.3073   137.5519  0.2496  1.6265      2.0397    5.3550    5.3820    5.2080    5.1520    5.1890    5.0440    5.1920    8.8400  53.9477  0.3728 29.4632  8.6579      0.4295  2.8800  0.3975 224.4394  0.1745
430.60  0.1478    4.3330    3.9670    3.9430    3.9660    3.8830 215.9000 212.6130 213.2320 212.9220     475.2069 1690.4220 420.6557  92.9438  54.3953   1.9147   2.0550  79.1508  0.4608  5.5234  2.7078  2.0412      2.2405     0.4901  0.1085  1.5325      2.0233    3.5580    3.4590    3.3090    3.2670    3.2730    3.0760    3.7630    6.6090  54.2886  1.0000 29.4632  8.4577      0.4543  3.1244  0.5129 224.6052  0.1736
430.70  0.1476    3.7530    3.4330    3.3910    3.5060    3.4910 215.9000 212.6390 213.2850 212.9620     439.0443 1648.7401 429.0695  92.5384  53.6072   1.6410   1.6433  79.0039  0.5133  5.8352  2.6469  2.2057      2.1717     0.0708  0.0699  1.4700      2.0095    3.2480    3.0940    2.9700    2.9290    2.9290    2.6980    3.4720    5.6380  54.5067  1.0000 29.4632  8.5718      0.4971  3.2392  0.5469 224.7956  0.1721
430.80  0.1476    3.3290    3.0250    2.9690    2.9920    2.9990 215.9000 213.3730 213.4240 213.3980     418.4997 1609.7450 436.6292  94.9612  51.2601   1.4894   1.5002  76.9151  0.5287  6.2764  2.6148  2.4014      2.1125     0.0093  0.0441  1.3569      2.0062    3.1460    2.9690    2.8710    2.8270    2.8220    2.5970    3.2890    4.6150  54.4950  1.0000 29.4190  8.4812      0.5164  3.2433  0.5783 224.9935  0.1704
430.90  0.1476    2.9930    2.6740    2.6040    2.5120    2.5220 215.9000 214.9020 213.7820 214.3410     403.8666 1575.7148 443.9805  96.6434  48.6893   1.3524   1.3816  74.5064  0.5331  6.7739  2.5935  2.6123      2.0620     0.0007  0.0248  1.2368      2.0088    2.9620    2.7880    2.7140    2.6670    2.6570    2.4550    3.0330    3.6500  54.4388  1.0000 29.3695  8.3607      0.5284  3.2237  0.6136 225.1116  0.1694
431.00  0.1476    2.7880    2.3890    2.2990    2.1780    2.1800 215.9000 218.2150 214.7240 216.4630     393.7527 1554.3065 451.4289  93.7105  46.7665   1.1558   1.1093  72.7814  0.5359  7.3309  2.5797  2.8421      2.0296     0.0000  0.0057  1.1379      2.0198    2.3570    2.2390    2.1770    2.1310    2.1150    1.9560    2.4650    2.9060  54.4439  1.0000 29.3417  8.3235      0.5386  3.2265  0.6911 225.1271  0.1689
431.10  0.1476    2.8030    2.3350    2.2430    2.1220    2.1210 215.9000 215.5830 215.4070 215.4950     391.8098 1509.8539 455.5749  91.7433  44.1823   0.9254   0.8764  68.9205  0.5140  8.1321  2.6918  3.0158      1.9902     0.0000  0.0050  1.0170      2.0039    2.2260    2.1660    2.1070    2.0500    2.0300    1.9100    2.3610    2.5650  54.9102  1.0000 29.3254  8.2033      0.5195  3.0556  0.6969 225.1133  0.1676
431.20  0.1476    2.9050    2.4050    2.3270    2.1960    2.1970 215.9000 211.6860 217.1640 214.4070     391.9462 1460.1896 457.2379  89.2666  41.8819   0.7536   0.7306  64.9467  0.4873  8.9720  2.8474  3.1501      1.9453     0.0000  0.0000  0.9057      1.9716    2.3680    2.3760    2.3190    2.2460    2.2190    2.1480    2.4980    2.4450  55.5577  1.0000 29.3279  8.1184      0.4933  2.8522  0.6351 225.0995  0.1659
431.30  0.1475    3.0340    2.6250    2.6080    2.3810    2.3910 215.9000 211.5210 223.6030 217.4780     388.3110 1423.7703 453.8549  83.3233  41.6960   0.8659   0.8750  63.6812  0.4782  9.6050  2.9905  3.2107      1.8889     0.0000  0.0000  0.8649      1.9131    2.8990    3.0220    2.9730    2.8750    2.8360    2.8540    2.9060    2.6190  56.2479  1.0000 29.3885  8.2973      0.4815  2.7760  0.5041 225.1231  0.1643
431.40  0.1475    3.2370    2.8260    2.8710    2.6750    2.6930 215.9000 212.5230 220.2830 216.3680     364.7874 1406.0553 447.8601  80.5817  42.2825   0.9932   1.0477  64.4687  0.5364  9.8712  3.0026  3.2884      1.8094     0.0000  0.0000  0.8616      1.8545    3.2680    3.4790    3.4720    3.3650    3.3290    3.4370    3.0930    3.0700  56.8263  1.0000 29.4326  8.5050      0.5371  2.8337  0.4409 225.1868  0.1630
431.50  0.1475    3.3630    2.9280    3.0190    2.9000    2.9170 215.9000 213.9790 213.5650 213.7720     335.6462 1399.7006 441.5680  79.3511  43.9188   1.0835   1.1783  66.7480  0.6185 10.0161  3.0249  3.3188      1.7276     0.0000  0.0000  0.8863      1.8081    3.3920    3.6540    3.6960    3.5910    3.5680    3.7410    3.0630    3.5070  57.2750  1.0000 29.4632  8.8844      0.6197  2.9368  0.4161 225.1771  0.1619
431.60  0.1475    2.9100    2.5610    2.6070    2.4930    2.4760 215.9000 214.9370 213.1100 214.0210     326.1484 1406.7782 440.1673  78.1432  49.1579   0.9420   1.0185  71.7876  0.6606 10.4308  3.4246  3.0589      1.6898     0.0000  0.0000  0.9664      1.8262    2.6380    2.8140    2.8540    2.7780    2.7670    2.8840    2.4420    3.1820  57.3195  1.0000 29.4632 10.0942      0.6785  2.9471  0.4957 225.0615  0.1611
431.70  0.1475    2.7050    2.3620    2.3580    2.2390    2.2160 215.9000 216.6270 212.6690 214.6390     331.8131 1399.2664 439.8949  80.1640  52.1162   0.7881   0.8449  76.1056  0.6247 10.5246  3.4520  3.0533      1.7081     0.0000  0.0000  1.0197      1.8712    2.2360    2.3480    2.3860    2.3320    2.3260    2.4040    2.1390    2.7780  57.3040  1.0000 29.4632 10.7300      0.6443  3.1166  0.5731 224.9948  0.1613
431.80  0.1475    2.6450    2.2640    2.2130    2.0880    2.0730 215.9000 218.6620 212.2830 215.4490     346.3436 1388.7389 440.4628  83.8524  53.7032   0.6415   0.6798  79.7363  0.5498 10.4081  3.2837  3.1697      1.7671     0.0000  0.0000  1.0583      1.9309    2.0630    2.1220    2.1590    2.1230    2.1190    2.1680    2.0400    2.3590  57.3082  1.0000 29.4632 11.0127      0.5629  3.3537  0.6289 225.3574  0.1651
431.90  0.1474    2.5810    2.1930    2.1540    2.0330    2.0000 215.9000 220.0060 212.2830 216.1100     360.5569 1423.1395 442.4687  85.6928  55.0328   0.6128   0.6479  81.2350  0.5299 10.1142  3.3016  3.0637      1.8886     0.0000  0.0000  1.1047      1.9808    2.0610    2.0690    2.1100    2.0940    2.0900    2.1160    2.0820    2.1850  57.7569  1.0000 29.4632 11.1669      0.5433  3.3822  0.6421 225.9366  0.1706
