~VERSION INFORMATION
 VERS.                  2.0:   CWLS Log Ascii Standard
 WRAP.                   NO:   One line per depth step
~WELL INFORMATION
#MNEM.UNIT        DATA TYPE:   INFORMATION
#---------    -------------   --------------------------
 STRT.M              140.00:   Top Depth
 STOP.M              770.00:   Bottom Depth
 STEP.M                0.10:   Increment
 NULL.              -999.25:   Null Value
 SRVC.                  KPG:   Service Company/Logging company
 DATE.           14.08.2024:   LAS file Creation Date
 WELL.                  353:   Well Name
 COMP.                KMG-B:   Company
 FLD .             Karatube:   Field
 STATE.                    :   State
 COUNT.          Kazakhstan:   Country
 LATI.                     :   Latitude/Northing
 LONG.                     :   Longitude/Easting
 DF  .                     :   DF Elevation
 GL  .                     :   GL Elevation
~PARAMETER INFORMATION
#MNEM  .UNIT          Value:   Description
#---------    -------------   --------------------------
~CURVE INFORMATION
#MNEM  .UNIT           API Code:   Curve Description
#---------       -------------- -------------------------- 
 DEPTH .M                      :   1 Measured depth
 AMF   .OHMM                   :   2 Array Induction Mud Resistivity Fully Calibrated (F13
 AT10  .ohm.m                  :   3 " Array Induction, two foot resolution
 AT20  .ohm.m                  :   4 " Array Induction, two foot resolution
 AT30  .ohm.m                  :   5 " Array Induction, two foot resolution
 AT60  .ohm.m                  :   6 " Array Induction, two foot resolution
 AT90  .ohm.m                  :   7 " Array Induction, two foot resolution
 BSC   .mm                     :   8 Nominal Caliper
 C1    .mm                     :   9 CALIPER DIAMETER 1
 C2    .mm                     :   10 CALIPER DIAMETER 2
 CALI  .mm                     :   11 Caliper
 CFTC  .dec                    :   12 Neutron far
 CNTC  .dec                    :   13 Neutron near
 DT    .uSec/m                 :   14 Sonic travel time
 GR    .uR/h                   :   15 GammaRay  
 HCGR  .GAPI                   :   16 HNGS Computed Gamma Ray {F13.4}
 HMIN  .Ohmm                   :   17 HIP Micro Inverse Resistivity
 HMNO  .Ohmm                   :   18 HIP Micro Normal Resistivity
 HSGR  .GAPI                   :   19 HNGS Standard Gamma-Ray
 HTNP  .m3/m3                  :   20 High Resolution Thermal Neutron Porosity (Ratio Method) in Selected Lithology
 HTPR  .                       :   21 HNGS Formation Thorium Potassium Concentration
 HTUR  .                       :   22 HNGS Formation Thorium Uranium Concentration
 HUPR  .                       :   23 HNGS Formation Uranium Potassium Concentration
 PEFZ  .B/E                    :   24 Formation Photoelectric Factor 
 Perm  .md                     :   25 Permeability
 PHIE  .Dec                    :   26 Effective porosity 
 POTA  .                       :   27 
 RHOZ  .g/cm3                  :   28 Bulk Density 
 RLA1  .ohm.m                  :   29 ShalRes HRLT Borehole Corrected Resistivity 1
 RLA2  .ohm.m                  :   30 MedRes  HRLT Borehole Corrected Resistivity 2
 RLA3  .ohm.m                  :   31 DeepRes HRLT Borehole Corrected Resistivity 3
 RLA4  .ohm.m                  :   32 XDeepRes HRLT Borehole Corrected Resisitivity 4
 RLA5  .ohm.m                  :   33 UltraDeepR HRLT Borehole Corrected Resistivity 5
 RT    .ohm.m                  :   34 
 RXO   .ohm.m                  :   35 HRLT Invaded Zone Resistivity
 RXOZ  .ohm.m                  :   36 MicroRes Invaded Formation Resistivity
 SP    .mV                     :   37 Spontaneous Potential
 SW    .Dec                    :   38 Water saturation
 TEMP  .                       :   39 TEMP
 THOR  .                       :   40 
 TNPH  .V/V                    :   41 Neutron porosity
 URAN  .                       :   42 
 VCLAV .Dec                    :   43 Clay volume
 HAZIM .deg                    :   44 Hole Azimuth
 SDEVM .deg                    :   45 Sonde Deviation
~A Log Data Section - Number of Curves = 45
# ...
514.00  0.1442    2.7080    2.4580    2.3260    2.1970    2.1550 215.9000 214.0820 214.4070 214.2450     469.6390 1633.3123 386.8765 118.0554  79.3000   1.7498   1.5484 109.6182  0.4433  4.5346  2.9312  1.5467      2.2466     0.0000  0.0001  2.4466      2.1803    2.2870    2.1810    2.1350    2.1140    2.1270    2.0000    2.3970    3.8140  62.9454  1.0000 30.7904 11.0865      0.4383  3.7837  0.9825 228.3313  0.0945
514.10  0.1441    2.6850    2.4360    2.3200    2.1910    2.1360 215.9000 214.4420 214.9680 214.7040     453.3942 1594.2557 393.0582 119.4190  77.9220   1.7028   1.5068 107.3716  0.4574  4.6879  3.0403  1.5437      2.2520     0.0000  0.0001  2.3685      2.1915    2.2730    2.1500    2.1250    2.1070    2.1100    1.9890    2.3470    3.8770  62.7915  1.0000 30.7967 11.1028      0.4469  3.6579  0.9948 229.2978  0.0944
514.20  0.1441    2.7050    2.4350    2.3390    2.2110    2.1560 215.9000 214.6320 214.9760 214.8040     441.8386 1575.9833 395.3395 119.3234  75.3253   1.7135   1.5166 102.2180  0.4739  4.6967  3.2783  1.4361      2.2354     0.0000  0.0001  2.2876      2.1965    2.3010    2.1800    2.1610    2.1480    2.1440    2.0320    2.3790    3.8820  62.7558  1.0000 30.8389 10.7439      0.4578  3.2889  0.9939 230.3214  0.0940
514.30  0.1441    2.7710    2.4870    2.3880    2.2590    2.1980 215.9000 214.5840 215.1130 214.8480     420.4045 1532.8054 395.6495 117.7557  69.6743   1.7486   1.5486  92.8978  0.4905  4.6381  3.5589  1.3099      2.1925     0.0000  0.0001  2.1267      2.1736    2.3110    2.2060    2.1980    2.1900    2.1830    2.1050    2.4540    3.8920  63.0149  1.0000 30.8640  9.8754      0.4761  2.8017  0.9798 231.4611  0.0935
514.40  0.1440    2.8680    2.5730    2.4610    2.3290    2.2630 215.9000 214.3670 215.2130 214.7900     394.9292 1474.2845 395.4799 114.6819  61.8742   1.7750   1.5777  80.8292  0.5032  4.5524  3.8356  1.1869      2.1266     0.0000  0.0001  1.9053      2.1273    2.3240    2.2410    2.2480    2.2450    2.2360    2.2010    2.5430    3.9140  63.4628  1.0000 30.8714  8.6718      0.4950  2.2610  0.9521 232.6159  0.0930
514.50  0.1440    2.9900    2.6850    2.5680    2.4470    2.3940 215.9000 213.9550 214.2710 214.1130     387.5719 1415.0604 401.8693 106.1720  51.5788   1.5882   1.4566  67.0094  0.4809  4.5944  3.8430  1.1955      1.9992     0.0000  0.0001  1.5823      2.0231    2.4630    2.3910    2.4010    2.3940    2.3790    2.3290    2.5260    4.0120  63.9841  1.0000 30.8144  7.2636      0.4789  1.8904  0.8754 233.6539  0.0922
514.60  0.1440    3.0910    2.7860    2.6810    2.5660    2.5260 215.9000 213.6860 213.2720 213.4790     371.9473 1375.1794 410.5435  94.6479  44.5652   1.5285   1.4410  57.3257  0.4893  4.4716  3.8836  1.1521      1.8287     0.0000  0.0000  1.3815      1.9036    2.6950    2.6470    2.6600    2.6450    2.6250    2.5810    2.6470    4.2000  64.5911  1.0000 30.7937  6.1924      0.4915  1.5967  0.7716 234.5332  0.0913
514.70  0.1439    3.1520    2.8600    2.7770    2.6630    2.6360 215.9000 214.0490 212.2940 213.1700     351.5676 1351.9962 420.5321  81.1962  40.1774   1.5625   1.5057  50.9872  0.5190  4.2233  3.9361  1.0728      1.6269     0.0000  0.0000  1.2776      1.7764    2.9590    2.9430    2.9580    2.9300    2.9080    2.8820    2.8370    4.4350  65.2917  1.0000 30.8024  5.3943      0.5236  1.3704  0.5630 235.2403  0.0904
514.80  0.1438    2.7600    2.5260    2.4520    2.3490    2.3270 215.9000 224.4400 212.5190 218.3980     354.5896 1379.9358 424.0613  72.5900  40.5263   1.6302   1.6409  51.3035  0.5304  3.8553  3.7605  1.0241      1.4244     0.0000  0.0000  1.3386      1.7105    2.5250    2.5260    2.5270    2.4890    2.4710    2.4490    2.4260    4.3190  66.5935  1.0000 30.8710  5.1495      0.5342  1.3693  0.3985 236.2007  0.0907
514.90  0.1437    2.4290    2.2050    2.1340    2.0430    2.0290 215.9000 223.7480 212.9710 218.2930     363.0761 1402.2943 425.3660  68.5450  43.0403   1.5304   1.5095  54.0989  0.5241  3.6937  3.6845  1.0025      1.3053     0.0000  0.0000  1.4443      1.7078    2.0460    2.0490    2.0410    2.0000    1.9830    1.9590    2.0180    3.8260  67.7026  1.0000 30.8882  5.3363      0.5274  1.4480  0.3354 238.0869  0.0930
515.00  0.1437    2.1520    1.8970    1.8210    1.7460    1.7420 215.9000 213.2270 213.6250 213.4260     376.4086 1419.7035 424.6980  68.5449  47.4744   1.2821   1.1418  59.0928  0.5023  3.7150  3.6970  1.0049      1.2600     0.0000  0.0000  1.5897      1.7611    1.5260    1.5180    1.5060    1.4670    1.4490    1.4180    1.6130    2.9990  68.6406  1.0000 30.8598  5.9057      0.5053  1.5974  0.3354 239.8840  0.0949
515.10  0.1437    2.0580    1.7950    1.7300    1.6530    1.6540 215.9000 212.0430 212.0220 212.0320     415.1770 1493.7478 412.6529  73.3306  50.9703   1.0410   0.9228  63.3653  0.4640  3.8812  3.9638  0.9800      1.3970     0.0000  0.0000  1.6768      1.8662    1.6270    1.6210    1.5930    1.5510    1.5260    1.4830    1.7130    2.5780  69.3036  1.0000 30.8202  6.5157      0.4684  1.6423  0.4127 240.6842  0.0947
515.20  0.1437    1.9610    1.7110    1.6480    1.5710    1.5750 215.9000 211.6280 211.2170 211.4220     448.6086 1564.1272 399.6774  78.7644  53.2351   0.9426   0.8327  66.2059  0.4393  3.9233  4.0730  0.9632      1.5565     0.0000  0.0000  1.7448      1.9596    1.6480    1.6360    1.5970    1.5540    1.5260    1.4690    1.7270    2.2890  69.9963  1.0000 30.7994  6.8433      0.4422  1.6804  0.5165 241.2539  0.0943
515.30  0.1437    1.8610    1.6460    1.5780    1.5010    1.5060 215.9000 212.0450 211.2790 211.6620     476.2586 1630.5363 385.6938  84.9006  54.1662   0.9986   0.8823  67.4952  0.4293  3.8309  4.0116  0.9549      1.7403     0.0002  0.0174  1.7921      2.0402    1.5830    1.5560    1.5100    1.4720    1.4430    1.3690    1.6480    2.1430  70.7210  1.0000 30.7990  6.8649      0.4275  1.7114  0.6338 241.6993  0.0938
515.40  0.1436    1.7840    1.5750    1.5000    1.4300    1.4430 215.9000 211.8760 211.4960 211.6860     494.1766 1698.5122 381.0696  86.6921  55.6012   0.9201   0.8199  69.3808  0.4278  3.6666  3.8233  0.9592      1.8470     0.0000  0.0091  1.8721      2.0544    1.4780    1.4370    1.3880    1.3550    1.3240    1.2390    1.5630    2.0530  71.1373  1.0000 30.8644  6.8566      0.4292  1.7958  0.6680 242.1096  0.0935
515.50  0.1436    1.7290    1.5240    1.4440    1.3760    1.3930 215.9000 211.6690 211.5000 211.5850     505.7551 1733.8855 379.4946  87.5354  57.9216   0.8401   0.7532  71.5818  0.4257  3.5561  3.9282  0.9122      1.9151     0.0000  0.0066  1.9725      2.0558    1.3980    1.3560    1.3070    1.2770    1.2470    1.1610    1.4900    1.9580  71.5109  1.0000 30.9052  7.0123      0.4269  1.7924  0.6841 242.3317  0.0932
515.60  0.1436    1.7010    1.4990    1.4190    1.3440    1.3610 215.9000 211.4470 211.2140 211.3300     509.4673 1725.9550 381.4447  87.3618  61.3877   0.7654   0.6868  74.1681  0.4221  3.5209  4.4287  0.7967      1.9366     0.0000  0.0070  2.0982      2.0441    1.3540    1.3290    1.2820    1.2520    1.2270    1.1540    1.4320    1.8550  71.8449  1.0000 30.9098  7.3869      0.4186  1.6697  0.6808 242.4066  0.0931
515.70  0.1436    1.7530    1.5580    1.4810    1.3990    1.4100 215.9000 211.8050 211.4470 211.6260     502.3698 1694.2899 385.9453  85.8111  62.6372   0.7847   0.7024  76.4535  0.4166  3.4122  4.1586  0.8223      1.9433     0.0000  0.0126  2.1664      2.0272    1.4600    1.4410    1.4000    1.3680    1.3350    1.2740    1.5190    1.8340  72.1770  1.0000 30.8492  7.3879      0.4161  1.7829  0.6512 242.4567  0.0933
515.80  0.1436    1.8400    1.6470    1.5680    1.4800    1.4860 215.9000 212.0620 211.6240 211.8430     487.3255 1645.4847 391.0205  85.7917  62.5211   0.8278   0.7375  77.5339  0.4169  3.3729  3.7707  0.9021      1.9385     0.0000  0.0127  2.1715      2.0035    1.5150    1.4980    1.4680    1.4340    1.3950    1.3430    1.5640    1.8410  72.3281  1.0000 30.8172  7.3209      0.4179  1.9533  0.6508 242.4957  0.0936
515.90  0.1434    1.9680    1.7710    1.6810    1.5850    1.5930 215.9000 212.0620 211.6240 211.8430     461.0597 1572.5436 396.6219  88.4930  60.5345   0.8946   0.7911  76.6969  0.4273  3.4589  3.3147  1.0474      1.9175     0.0000  0.0000  2.0829      1.9694    1.4650    1.4460    1.4310    1.3980    1.3550    1.3110    1.5180    1.8800  72.1842  1.0000 30.8422  7.2030      0.4260  2.1790  0.7024 242.3801  0.0940
