~VERSION INFORMATION
 VERS.                  2.0:   CWLS Log Ascii Standard
 WRAP.                   NO:   One line per depth step
~WELL INFORMATION
#MNEM.UNIT        DATA TYPE:   INFORMATION
#---------    -------------   --------------------------
 STRT.M              140.00:   Top Depth
 STOP.M              770.00:   Bottom Depth
 STEP.M                0.10:   Increment
 NULL.              -999.25:   Null Value
 SRVC.                  KPG:   Service Company/Logging company
 DATE.           14.08.2024:   LAS file Creation Date
 WELL.                  353:   Well Name
 COMP.                KMG-B:   Company
 FLD .             Karatube:   Field
 STATE.                    :   State
 COUNT.          Kazakhstan:   Country
 LATI.                     :   Latitude/Northing
 LONG.                     :   Longitude/Easting
 DF  .                     :   DF Elevation
 GL  .                     :   GL Elevation
~PARAMETER INFORMATION
#MNEM  .UNIT          Value:   Description
#---------    -------------   --------------------------
~CURVE INFORMATION
#MNEM  .UNIT           API Code:   Curve Description
#---------       -------------- -------------------------- 
 DEPTH .M                      :   1 Measured depth
 AMF   .OHMM                   :   2 Array Induction Mud Resistivity Fully Calibrated (F13
 AT10  .ohm.m                  :   3 " Array Induction, two foot resolution
 AT20  .ohm.m                  :   4 " Array Induction, two foot resolution
 AT30  .ohm.m                  :   5 " Array Induction, two foot resolution
 AT60  .ohm.m                  :   6 " Array Induction, two foot resolution
 AT90  .ohm.m                  :   7 " Array Induction, two foot resolution
 BSC   .mm                     :   8 Nominal Caliper
 C1    .mm                     :   9 CALIPER DIAMETER 1
 C2    .mm                     :   10 CALIPER DIAMETER 2
 CALI  .mm                     :   11 Caliper
 CFTC  .dec                    :   12 Neutron far
 CNTC  .dec                    :   13 Neutron near
 DT    .uSec/m                 :   14 Sonic travel time
 GR    .uR/h                   :   15 GammaRay  
 HCGR  .GAPI                   :   16 HNGS Computed Gamma Ray {F13.4}
 HMIN  .Ohmm                   :   17 HIP Micro Inverse Resistivity
 HMNO  .Ohmm                   :   18 HIP Micro Normal Resistivity
 HSGR  .GAPI                   :   19 HNGS Standard Gamma-Ray
 HTNP  .m3/m3                  :   20 High Resolution Thermal Neutron Porosity (Ratio Method) in Selected Lithology
 HTPR  .                       :   21 HNGS Formation Thorium Potassium Concentration
 HTUR  .                       :   22 HNGS Formation Thorium Uranium Concentration
 HUPR  .                       :   23 HNGS Formation Uranium Potassium Concentration
 PEFZ  .B/E                    :   24 Formation Photoelectric Factor 
 Perm  .md                     :   25 Permeability
 PHIE  .Dec                    :   26 Effective porosity 
 POTA  .                       :   27 
 RHOZ  .g/cm3                  :   28 Bulk Density 
 RLA1  .ohm.m                  :   29 ShalRes HRLT Borehole Corrected Resistivity 1
 RLA2  .ohm.m                  :   30 MedRes  HRLT Borehole Corrected Resistivity 2
 RLA3  .ohm.m                  :   31 DeepRes HRLT Borehole Corrected Resistivity 3
 RLA4  .ohm.m                  :   32 XDeepRes HRLT Borehole Corrected Resisitivity 4
 RLA5  .ohm.m                  :   33 UltraDeepR HRLT Borehole Corrected Resistivity 5
 RT    .ohm.m                  :   34 
 RXO   .ohm.m                  :   35 HRLT Invaded Zone Resistivity
 RXOZ  .ohm.m                  :   36 MicroRes Invaded Formation Resistivity
 SP    .mV                     :   37 Spontaneous Potential
 SW    .Dec                    :   38 Water saturation
 TEMP  .                       :   39 TEMP
 THOR  .                       :   40 
 TNPH  .V/V                    :   41 Neutron porosity
 URAN  .                       :   42 
 VCLAV .Dec                    :   43 Clay volume
 HAZIM .deg                    :   44 Hole Azimuth
 SDEVM .deg                    :   45 Sonde Deviation
~A Log Data Section - Number of Curves = 45
140.00 -999.25   -999.25   -999.25   -999.25   -999.25   -999.25  -999.25  -999.25  -999.25  -999.25      -999.25   -999.25  -999.25  -999.25  -999.25  -999.25  -999.25  -999.25 -999.25 -999.25 -999.25 -999.25     -999.25     0.0000 -999.25 -999.25     -999.25   -999.25   -999.25   -999.25   -999.25   -999.25   -999.25   -999.25   -999.25  -999.25 -999.25 -999.25 -999.25     -999.25 -999.25 -999.25  -999.25 -999.25
140.10 -999.25   -999.25   -999.25   -999.25   -999.25   -999.25 228.7000 228.7090 228.6480 228.6780     334.0412 1198.6198 146.0021  52.5014  31.2864   0.0610   0.0416  53.6097  0.4655  5.6029  1.9855  2.8234     10.0000     0.0000  0.0001  0.8757      3.1127    0.0260    0.0220    0.0200    0.0180    0.0160    0.0150    0.0290    0.0780  -999.25  1.0000 23.8654  4.9064      0.4610  2.4722  0.1712  -999.25  0.0740
140.20 -999.25   -999.25   -999.25   -999.25   -999.25   -999.25 228.7000 228.7250 228.6480 228.6860     310.2992 1180.8685 145.8212  54.7607  31.8326   0.0599   0.0406  52.5848  0.5250  5.6823  2.2012  2.5927     10.0000     0.0000  0.0001  0.8848      3.0874    0.0270    0.0220    0.0200    0.0180    0.0170    0.0150    0.0300    0.0760  -999.25  1.0000 23.8654  5.0281      0.5255  2.2930  0.1883  -999.25  0.1229
140.30  0.1559 2564.4700    1.6800 1950.0000   41.5810   88.4850 228.7000 228.8230 228.6210 228.7220     287.8768 1166.3035 145.8498  56.0954  32.8819   0.0669   0.0445  52.6847  0.6209  5.9734  2.4180  2.4714     10.0000     0.0000  0.0001  0.8914      3.0735    0.0280    0.0230    0.0200    0.0180    0.0170    0.0160    0.0310    0.0730 131.6148  1.0000 23.8434  5.3259      0.6244  2.2030  0.1987  -999.25  0.1682
140.40  0.1561 2564.4700    1.7090 1950.0000   30.7700   73.0540 228.7000 228.9970 228.5710 228.7840     266.6725 1154.6796 146.0718  56.5766  34.3957   0.0812   0.0529  53.8229  0.7504  6.4600  2.6358  2.4509     10.0000     0.0000  0.0001  0.8957      3.0702    0.0290    0.0240    0.0210    0.0190    0.0170    0.0160    0.0310    0.0710 131.2725  1.0000 23.8010  5.7863      0.7552  2.1953  0.2024  -999.25  0.2070
140.50  0.1562 2564.4700    1.7400 1950.0000   30.2880   61.8980 228.7000 228.8240 228.6210 228.7230     257.8678 1120.7158 146.3071  56.4791  34.8747   0.0729   0.0470  54.4100  0.7657  6.8799  2.7785  2.4754     10.0000     0.0000  0.0001  0.8785      3.0680    0.0280    0.0230    0.0200    0.0180    0.0170    0.0150    0.0300    0.0700 130.9091  1.0000 23.8371  6.0404      0.7689  2.1745  0.2017  -999.25  0.2363
140.60  0.1563 2564.4700    1.7730 1950.0000   31.3930   55.1050 228.7000 228.7250 228.6240 228.6740     260.4615 1109.1246 146.5174  55.3194  35.4151   0.0747   0.0465  55.8085  0.7266  6.9294  2.6987  2.5793     10.0000     0.0000  0.0001  0.8889      3.0646    0.0270    0.0230    0.0200    0.0180    0.0170    0.0150    0.0300    0.0700 130.3249  1.0000 23.8590  6.1525      0.7260  2.2970  0.1926  -999.25  0.2578
140.70  0.1562 2564.4700    1.8100 1950.0000   34.2870   53.2330 228.7000 228.7090 228.5740 228.6410     275.9086 1122.7621 146.6994  52.9617  36.0245   0.0877   0.0520  58.1219  0.6260  6.5612  2.3679  2.7728     10.0000     0.0000  0.0001  0.9305      3.0595    0.0280    0.0230    0.0210    0.0190    0.0170    0.0160    0.0310    0.0700 129.4917  1.0000 23.8651  6.1045      0.6191  2.5809  0.1746  -999.25  0.2690
140.80  0.1562 2564.4700    1.8460 1950.0000   31.1220   48.2410 228.7000 228.7230 228.6190 228.6710     273.7690 1128.1121 147.3919  52.3340  35.1930   0.0828   0.0501  58.5887  0.6507  7.1009  2.2521  3.1633     10.0000     0.0000  0.0001  0.8727      3.0499    0.0290    0.0240    0.0210    0.0190    0.0170    0.0160    0.0310    0.0730 129.2447  1.0000 23.8654  6.1766      0.6422  2.7467  0.1699  -999.25  0.2699
140.90  0.1562 2564.4700    1.8750 1950.0000   28.8100   45.5760 228.7000 228.7260 228.6260 228.6760     271.0707 1136.6975 147.8861  51.9402  35.7299   0.0796   0.0485  59.0889  0.6879  7.5330  2.3591  3.2250     10.0000     0.0000  0.0001  0.8555      3.0408    0.0290    0.0240    0.0210    0.0190    0.0180    0.0160    0.0320    0.0740 129.0417  1.0000 23.8654  6.4494      0.6788  2.7504  0.1670  -999.25  0.2655
141.00  0.1562 2564.4700    1.8930 1950.0000   28.1160   46.3500 228.7000 228.7100 228.5760 228.6430     268.8792 1150.3533 148.0696  51.7437  38.2610   0.0800   0.0479  59.7694  0.7334  7.7506  2.7583  2.8184     10.0000     0.0000  0.0001  0.9018      3.0329    0.0300    0.0240    0.0220    0.0200    0.0180    0.0160    0.0320    0.0710 128.8570  1.0000 23.8654  6.9905      0.7245  2.5388  0.1656  -999.25  0.2554
141.10  0.1563 2564.4700    1.8770 1950.0000   35.0640   54.3210 228.7000 228.8960 228.6160 228.7560     261.3832 1146.1237 148.0369  51.6355  37.5029   0.0763   0.0460  57.7134  0.7935  7.2501  2.8836  2.5195     10.0000     0.0000  0.0001  0.9181      3.0451    0.0280    0.0230    0.0210    0.0190    0.0170    0.0160    0.0310    0.0680 128.8029  1.0000 23.8600  6.6519      0.7957  2.3110  0.1648  -999.25  0.2446
141.20  0.1563 2564.4700    1.8410 1950.0000   44.9160   64.1730 228.7000 228.9530 228.6480 228.8000     257.3911 1142.2751 147.8669  51.6153  36.6165   0.0681   0.0423  55.8549  0.8156  6.6927  2.9143  2.2952     10.0000     0.0000  0.0001  0.9363      3.0610    0.0270    0.0230    0.0200    0.0180    0.0170    0.0150    0.0300    0.0650 128.8477  1.0000 23.8516  6.2606      0.8294  2.1476  0.1646  -999.25  0.2422
141.30  0.1563 2564.4700    1.7790 1950.0000   58.1210   75.7860 228.7000 228.7610 228.6480 228.7040     260.0775 1142.2913 147.5120  51.7228  36.1172   0.0535   0.0361  54.8145  0.7731  6.1727  2.8399  2.1729     10.0000     0.0000  0.0001  0.9633      3.0793    0.0280    0.0230    0.0210    0.0190    0.0170    0.0160    0.0310    0.0640 129.0300  1.0000 23.8396  5.9429      0.7972  2.0924  0.1654  -999.25  0.2505
141.40  0.1563 2564.4700    1.6970 1950.0000   67.5190   87.4720 228.7000 228.7190 228.4160 228.5670     262.6723 1135.7909 147.5774  52.0729  35.9541   0.0732   0.0441  53.8721  0.7402  6.1532  2.8374  2.1686     10.0000     0.0000  0.0001  0.9603      3.0855    0.0300    0.0240    0.0220    0.0200    0.0180    0.0160    0.0320    0.0650 129.1682  1.0000 23.8532  5.9083      0.7545  2.0823  0.1680  -999.25  0.2663
141.50  0.1563 2564.4700    1.6120 1950.0000   78.9890  101.5200 228.7000 228.7760 228.3220 228.5490     268.1008 1127.3199 147.8127  53.0447  36.0696   0.1107   0.0600  53.5061  0.6882  6.1504  2.8175  2.1831     10.0000     0.0000  0.0001  0.9637      3.0822    0.0300    0.0250    0.0220    0.0200    0.0180    0.0160    0.0320    0.0660 129.3309  1.0000 23.8654  5.9253      0.6919  2.1038  0.1752  -999.25  0.2876
141.60  0.1563 2564.4700    1.5290 1950.0000   96.0290  120.3380 228.7000 228.9800 228.5930 228.7870     279.3155 1117.1827 148.2425  55.1918  36.6303   0.1720   0.0865  54.2748  0.5938  6.0020  2.7365  2.1934     10.0000     0.0000  0.0001  0.9909      3.0639    0.0280    0.0230    0.0210    0.0180    0.0170    0.0160    0.0310    0.0650 129.5586  1.0000 23.8654  5.9460      0.5930  2.1734  0.1916  -999.25  0.3137
141.70  0.1563 2564.4700    1.4590 1950.0000  122.7190  143.3170 228.7000 228.8690 228.6480 228.7580     290.4868 1116.8966 148.3835  57.4681  37.2081   0.1638   0.0816  55.1073  0.5415  6.0860  2.7413  2.2200     10.0000     0.0000  0.0001  0.9993      3.0589    0.0270    0.0220    0.0200    0.0180    0.0170    0.0150    0.0300    0.0670 129.8591  1.0000 23.8654  6.0819      0.5374  2.2184  0.2095  -999.25  0.3409
141.80  0.1563 2564.4700    1.3980 1950.0000  148.8800  165.8090 228.7000 228.7810 228.6340 228.7070     298.2000 1116.9580 148.4788  59.8593  37.7067   0.1367   0.0698  55.9139  0.5110  6.1946  2.7397  2.2617     10.0000     0.0000  0.0001  1.0036      3.0595    0.0280    0.0230    0.0200    0.0180    0.0170    0.0160    0.0310    0.0690 130.1256  1.0000 23.8637  6.2166      0.5050  2.2699  0.2290  -999.25  0.3671
141.90  0.1563 2564.4700    1.3540 1950.0000  167.4770  184.3680 228.7000 228.9550 228.5830 228.7690     297.0491 1111.5804 148.6426  62.4627  37.9905   0.1056   0.0603  56.6126  0.5095  6.2167  2.6663  2.3322     10.0000     0.0000  0.0001  1.0092      3.0655    0.0310    0.0250    0.0220    0.0200    0.0180    0.0170    0.0330    0.0700 130.2580  1.0000 23.8577  6.2743      0.5042  2.3539  0.2509  -999.25  0.3900
