~Version
 VERS              .         3.0                           : CWLS LOG ASCII STANDARD - VERSION 3.0
 WRAP              .         NO                            : ONE LINE PER DEPTH STEP
 DLM               .         SPACE                         : DELIMITING CHARACTER(SPACE TAB OR COMMA)
~Well Information
#_______________________________________________________________________________
#
#PARAMETER_NAME    .UNIT     VALUE                         : DESCRIPTION
#_______________________________________________________________________________
STRT               .M        87                            : First reference value
STOP               .M        972                           : Last reference value
STEP               .M        0.1                           : Step increment
NULL               .         -9999                         : Missing value
COMP               .         ICPetroleum                   : Company
WELL               .         322                           : Well name
FLD                .         Karatobe                      : Field
LOC                .                                       : Location
SRVC               .                                       : Service Company
CTRY               .         KZ                            : Country
DATE               .                                       : Service Date
LATI               .         0                             : Latitude
LONG               .         0                             : Longitude
GDAT               .         WGS 84                        : Geodetic Datum
APDAT              .         -999.250                      : Elevation Above Permanent Datum
CNTY               .         KAZAHKSTAN                    : Country
COORDIN            .                                       : Grid System
COUNTRY            .         Kazakhstan                    : 
COUNTRY            .         Kazakhstan                    : 
DF                 .         -999.250                      : DF Elevation
DRMEA              .         -999.250                      : Drill Measured From
EPDAT              .         -999.250                      : Elevation of Permanent Datum
EREF               .m        144.3                         : 
GL                 .         -999.250                      : GL Elevation
GRP                .                                       : Group name
ISS                .                                       : Well surveys
KB                 .         -999.250                      : KB Elevation
LGMEA              .         -999.250                      : Log Measured from
ORIGINALWELLNAME   .         322                           : 
PROV               .                                       : Province
RWS                .         -999                          : Def_Rw
TIME               .                                       : LOG TIME
UWI                .                                       : Unique Well ID
WST                .         -999                          : Def_Rwt
X                  .km       466344.56                     : 
XCOORD             .                                       : X or East-West Coordinate
Y                  .km       5307588.29                    : 
YCOORD             .                                       : Y or North-South Coordinate
~Parameter Information Block
#_______________________________________________________________________________
#
#PARAMETER_NAME    .UNIT     VALUE                         : DESCRIPTION
#_______________________________________________________________________________
SET                .         Las                           : 
APD                .M        -999.250                      : 
AVST               .DEGC     -999.250                      : 
BHT                .DEGC     -999.250                      : 
BS                 .MM       -999.250                      : 
CBD                .M        -999.250                      : 
CBL                .M        -999.250                      : 
DFD                .G/C3     -999.250                      : 
DFL                .C3       -999.250                      : 
DFPH               .         -999.250                      : 
DFV                .S        -999.250                      : 
DMF                .M        -999.250                      : 
EDF                .M        -999.250                      : 
EGL                .M        -999.250                      : 
EKB                .M        -999.250                      : 
EPD                .M        -999.250                      : 
GSDD               .         DTP                           : DT,0,DEPT,,,,,0
LMF                .M        -999.250                      : 
MCST               .DEGC     -999.250                      : 
MFST               .DEGC     -999.250                      : 
MRT                .DEGC     -999.250                      : 
MST                .DEGC     -999.250                      : 
RMCS               .OHMM     -999.250                      : 
RMFS               .OHMM     -999.250                      : 
RMS                .OHMM     -999.250                      : 
TDD                .M        -999.250                      : 
TDL                .M        -999.250                      : 
TLFamily_DEPT      .         Measured Depth                : 
TLFamily_PHI_FINAL .         Porosity                      : 
TLFamily_SW_AR     .         Water Saturation              : 
TLFamily_VSH_FINAL .         Shale Volume                  : 
~Curve Information
#_______________________________________________________________________________
#
#LOGNAME           .UNIT     LOG_ID                        : DESCRIPTION
#_______________________________________________________________________________
DEPT               .M                                      : Depth curve {F}
PHI_FINAL          .m3/m3                                  : Porosity {F}
SW_AR              .m3/m3                                  :  {F}
VSH_FINAL          .unitless                               : Vshale {F}
~Ascii
# ...
595.6      0.1111915  1          0.5519142 
595.7      0.1118635  1          0.5653988 
595.8      0.09632066 1          0.615804  
595.9      0.09654769 1          0.6108779 
596        0.1148072  1          0.5700379 
596.1      0.1417849  1          0.5055733 
596.2      0.1552911  1          0.4690879 
596.3      0.1359499  1          0.5316271 
596.4      0.1317965  1          0.5603912 
596.5      0.1477313  1          0.5166377 
596.6      0.1587982  1          0.4737093 
596.7      0.1540748  1          0.5020169 
596.8      0.1399348  1          0.5536721 
596.9      0.1406317  1          0.5570518 
597        0.1377509  1          0.5373477 
597.1      0.1412789  1          0.5202678 
597.2      0.1203076  1          0.5646236 
597.3      0.1144676  1          0.5726012 
597.4      0.1255297  1          0.5253701 
597.5      0.114585   1          0.5595874 
597.6      0.1417919  1          0.4829414 
597.7      0.1438873  1          0.4617302 
597.8      0.1333407  1          0.4974231 
597.9      0.1081532  1          0.5631084 
598        0.1117872  1          0.5607114 
598.1      0.1210083  1          0.5465511 
598.2      0.1408135  1          0.4700592 
598.3      0.1599338  1          0.4432101 
598.4      0.1474912  1          0.4607724 
598.5      0.1324223  1          0.4793527 
598.6      0.1401321  1          0.4723925 
598.7      0.1503461  1          0.4498038 
598.8      0.1706234  1          0.3940868 
598.9      0.1735573  1          0.3894006 
599        0.1677702  1          0.4140331 
599.1      0.1669627  1          0.4101639 
599.2      0.1537665  1          0.4477519 
599.3      0.1577638  1          0.4442963 
599.4      0.1388571  1          0.5249655 
599.5      0.1459514  1          0.5005463 
599.6      0.1481161  1          0.4906653 
599.7      0.1403108  1          0.5038806 
599.8      0.1417272  1          0.5126325 
599.9      0.1523714  1          0.471775  
600        0.1567808  1          0.4618241 
600.1      0.1534334  1          0.4517779 
600.2      0.1336669  1          0.4892661 
600.3      0.1196136  1          0.5229588 
600.4      0.1064517  1          0.5496251 
600.5      0.07195266 1          0.6763659 
600.6      0.08086095 1          0.6434442 
600.7      0.0904513  1          0.6155338 
600.8      0.08948492 1          0.6526604 
600.9      0.08655071 1          0.6352036 
601        0.0777799  1          0.6702671 
601.1      0.09753572 1          0.6082438 
601.2      0.08797348 1          0.6373476 
601.3      0.1038563  1          0.585213  
601.4      0.08631737 1          0.6557236 
601.5      0.1073297  1          0.598753  
601.6      0.1274499  1          0.5370375 
601.7      0.1142003  1          0.5814829 
601.8      0.1180239  1          0.5536783 
601.9      0.1150604  1          0.5674875 
602        0.1266758  1          0.5212053 
602.1      0.1461758  1          0.4623114 
602.2      0.131999   1          0.5087916 
602.3      0.1324212  1          0.5087273 
602.4      0.1658917  1          0.4226405 
602.5      0.1596434  1          0.4322862 
602.6      0.159601   1          0.4301224 
602.7      0.16142    1          0.4277056 
602.8      0.1928031  1          0.3599703 
602.9      0.1976488  1          0.3424369 
603        0.210281   1          0.3074546 
603.1      0.2215568  1          0.2728776 
603.2      0.2252729  1          0.2542674 
603.3      0.2250375  1          0.2421747 
603.4      0.2189897  1          0.2652054 
603.5      0.2054319  1          0.3022138 
603.6      0.2110173  1          0.299228  
603.7      0.198875   1          0.3344563 
603.8      0.1996375  1          0.3307943 
603.9      0.2029401  1          0.3393357 
604        0.2022484  1          0.3402736 
604.1      0.1976098  1          0.3395848 
604.2      0.1983263  1          0.3468702 
604.3      0.190434   1          0.3585623 
604.4      0.2005861  1          0.3406641 
604.5      0.2022117  1          0.3317052 
604.6      0.1984503  1          0.3421111 
604.7      0.2134611  1          0.3065871 
604.8      0.2096309  1          0.3022828 
604.9      0.2076708  1          0.3059217 
605        0.1887206  1          0.3308838 
605.1      0.1857968  1          0.3111742 
605.2      0.1879468  1          0.3052247 
605.3      0.1738134  1          0.3245636 
605.4      0.178215   1          0.3203712 
605.5      0.1812167  1          0.3108366 
605.6      0.1974121  1          0.2788693 
605.7      0.2197598  1          0.2516369 
605.8      0.2269931  1          0.2764082 
605.9      0.2317657  1          0.2784105 
606        0.2361892  1          0.2823844 
606.1      0.244184   1          0.2767814 
606.2      0.2384583  1          0.3005463 
606.3      0.2396987  1          0.2863408 
606.4      0.2234618  1          0.3276262 
606.5      0.2205162  1          0.3358754 
606.6      0.2207812  1          0.346154  
606.7      0.2245687  1          0.331426  
606.8      0.2276277  1          0.3185397 
606.9      0.2391475  1          0.2727932 
607        0.2450091  1          0.2598853 
607.1      0.2470988  1          0.2514477 
607.2      0.2503003  1          0.2361958 
607.3      0.2459612  1          0.2361721 
607.4      0.2492458  1          0.2373764 
607.5      0.2530414  1          0.238832  
607.6      0.238854   1          0.2579741 
607.7      0.2395738  1          0.2467045 
607.8      0.2498345  1          0.2310304 
607.9      0.2477482  1          0.2375851 
608        0.2394147  1          0.258217  
608.1      0.2415732  1          0.2591521 
608.2      0.2471301  1          0.2495442 
608.3      0.2447959  1          0.2512248 
608.4      0.2399064  1          0.2494083 
608.5      0.2351562  1          0.2434829 
608.6      0.2335026  1          0.2553631 
608.7      0.2466662  1          0.2363302 
608.8      0.2505918  1          0.2239719 
608.9      0.2620477  1          0.2011304 
609        0.2613661  1          0.2215815 
609.1      0.2541858  1          0.2346877 
609.2      0.2503332  1          0.2291075 
609.3      0.242505   1          0.2432024 
609.4      0.2571187  1          0.2243103 
609.5      0.2611446  1          0.213406  
609.6      0.2579778  1          0.2209062 
609.7      0.2404625  1          0.2507804 
609.8      0.2342665  1          0.2499877 
609.9      0.220337   1          0.2782547 
610        0.2294627  1          0.2584704 
610.1      0.2404681  1          0.2473681 
610.2      0.2370809  1          0.2481037 
610.3      0.2412279  1          0.2498603 
610.4      0.2613529  1          0.2067791 
610.5      0.2637822  1          0.1915475 
610.6      0.2600282  1          0.1783843 
610.7      0.2550134  1          0.1788357 
610.8      0.2699419  1          0.1453651 
610.9      0.2724968  1          0.1370468 
611        0.2748723  1          0.1241064 
611.1      0.2810795  1          0.1175866 
611.2      0.2843516  1          0.1174745 
611.3      0.2841907  1          0.127381  
611.4      0.2838752  1          0.1324277 
611.5      0.2940642  1          0.1388946 
611.6      0.2928219  1          0.1353408 
611.7      0.2842296  1          0.1440877 
611.8      0.27719    1          0.1496517 
611.9      0.277444   1          0.1522673 
612        0.2624086  1          0.1664848 
612.1      0.2520195  1          0.1857128 
612.2      0.246533   1          0.2240043 
612.3      0.2375623  1          0.2517363 
612.4      0.2403129  1          0.2392172 
612.5      0.249139   1          0.2201224 
612.6      0.2477166  1          0.2155699 
612.7      0.2474992  1          0.2160828 
612.8      0.2531289  1          0.1906428 
612.9      0.2632257  1          0.1837975 
613        0.2636809  1          0.1832362 
613.1      0.2685073  1          0.1675944 
613.2      0.2665828  1          0.1712508 
613.3      0.2630961  1          0.1782057 
613.4      0.2574557  1          0.1860358 
613.5      0.2534047  1          0.212879  
613.6      0.2601131  1          0.1995063 
613.7      0.2696969  1          0.1808184 
