~Version
 VERS              .         3.0                           : CWLS LOG ASCII STANDARD - VERSION 3.0
 WRAP              .         NO                            : ONE LINE PER DEPTH STEP
 DLM               .         SPACE                         : DELIMITING CHARACTER(SPACE TAB OR COMMA)
~Well Information
#_______________________________________________________________________________
#
#PARAMETER_NAME    .UNIT     VALUE                         : DESCRIPTION
#_______________________________________________________________________________
STRT               .M        87                            : First reference value
STOP               .M        972                           : Last reference value
STEP               .M        0.1                           : Step increment
NULL               .         -9999                         : Missing value
COMP               .         ICPetroleum                   : Company
WELL               .         322                           : Well name
FLD                .         Karatobe                      : Field
LOC                .                                       : Location
SRVC               .                                       : Service Company
CTRY               .         KZ                            : Country
DATE               .                                       : Service Date
LATI               .         0                             : Latitude
LONG               .         0                             : Longitude
GDAT               .         WGS 84                        : Geodetic Datum
APDAT              .         -999.250                      : Elevation Above Permanent Datum
CNTY               .         KAZAHKSTAN                    : Country
COORDIN            .                                       : Grid System
COUNTRY            .         Kazakhstan                    : 
COUNTRY            .         Kazakhstan                    : 
DF                 .         -999.250                      : DF Elevation
DRMEA              .         -999.250                      : Drill Measured From
EPDAT              .         -999.250                      : Elevation of Permanent Datum
EREF               .m        144.3                         : 
GL                 .         -999.250                      : GL Elevation
GRP                .                                       : Group name
ISS                .                                       : Well surveys
KB                 .         -999.250                      : KB Elevation
LGMEA              .         -999.250                      : Log Measured from
ORIGINALWELLNAME   .         322                           : 
PROV               .                                       : Province
RWS                .         -999                          : Def_Rw
TIME               .                                       : LOG TIME
UWI                .                                       : Unique Well ID
WST                .         -999                          : Def_Rwt
X                  .km       466344.56                     : 
XCOORD             .                                       : X or East-West Coordinate
Y                  .km       5307588.29                    : 
YCOORD             .                                       : Y or North-South Coordinate
~Parameter Information Block
#_______________________________________________________________________________
#
#PARAMETER_NAME    .UNIT     VALUE                         : DESCRIPTION
#_______________________________________________________________________________
SET                .         Las                           : 
APD                .M        -999.250                      : 
AVST               .DEGC     -999.250                      : 
BHT                .DEGC     -999.250                      : 
BS                 .MM       -999.250                      : 
CBD                .M        -999.250                      : 
CBL                .M        -999.250                      : 
DFD                .G/C3     -999.250                      : 
DFL                .C3       -999.250                      : 
DFPH               .         -999.250                      : 
DFV                .S        -999.250                      : 
DMF                .M        -999.250                      : 
EDF                .M        -999.250                      : 
EGL                .M        -999.250                      : 
EKB                .M        -999.250                      : 
EPD                .M        -999.250                      : 
GSDD               .         DTP                           : DT,0,DEPT,,,,,0
LMF                .M        -999.250                      : 
MCST               .DEGC     -999.250                      : 
MFST               .DEGC     -999.250                      : 
MRT                .DEGC     -999.250                      : 
MST                .DEGC     -999.250                      : 
RMCS               .OHMM     -999.250                      : 
RMFS               .OHMM     -999.250                      : 
RMS                .OHMM     -999.250                      : 
TDD                .M        -999.250                      : 
TDL                .M        -999.250                      : 
TLFamily_DEPT      .         Measured Depth                : 
TLFamily_PHI_FINAL .         Porosity                      : 
TLFamily_SW_AR     .         Water Saturation              : 
TLFamily_VSH_FINAL .         Shale Volume                  : 
~Curve Information
#_______________________________________________________________________________
#
#LOGNAME           .UNIT     LOG_ID                        : DESCRIPTION
#_______________________________________________________________________________
DEPT               .M                                      : Depth curve {F}
PHI_FINAL          .m3/m3                                  : Porosity {F}
SW_AR              .m3/m3                                  :  {F}
VSH_FINAL          .unitless                               : Vshale {F}
~Ascii
# ...
541        0.06844347 1          0.5786998 
541.1      0.0687755  1          0.5728446 
541.2      0.07506666 1          0.5210751 
541.3      0.07844055 1          0.5114536 
541.4      0.08183164 1          0.5001247 
541.5      0.08409388 1          0.4899251 
541.6      0.07661252 1          0.5293621 
541.7      0.09585156 1          0.4645066 
541.8      0.1141913  1          0.4175715 
541.9      0.1116595  1          0.4244812 
542        0.1052459  1          0.480406  
542.1      0.1264223  1          0.4752802 
542.2      0.1208782  1          0.4946739 
542.3      0.1225197  1          0.5079526 
542.4      0.1138912  1          0.5404455 
542.5      0.1134062  1          0.5502161 
542.6      0.1153964  1          0.5365072 
542.7      0.1099935  1          0.5395684 
542.8      0.1113547  1          0.5488198 
542.9      0.1190852  1          0.530403  
543        0.1235876  1          0.5246615 
543.1      0.1214802  1          0.5231424 
543.2      0.1364501  1          0.4991093 
543.3      0.1275217  1          0.5310996 
543.4      0.1242147  1          0.5662208 
543.5      0.1259594  1          0.5543665 
543.6      0.1324459  1          0.5323567 
543.7      0.1411645  1          0.5029681 
543.8      0.1289767  1          0.5299346 
543.9      0.111935   1          0.5370606 
544        0.1410255  1          0.4692689 
544.1      0.1399561  1          0.5202092 
544.2      0.1403774  1          0.5103025 
544.3      0.1324979  1          0.5075667 
544.4      0.1210839  1          0.5240155 
544.5      0.123683   1          0.5194558 
544.6      0.123608   1          0.5067419 
544.7      0.1061328  1          0.5154983 
544.8      0.09288555 1          0.5470213 
544.9      0.1112946  1          0.506075  
545        0.1233955  1          0.430831  
545.1      0.1316371  1          0.377003  
545.2      0.1205786  1          0.4183459 
545.3      0.1198871  1          0.3956965 
545.4      0.1385025  1          0.359645  
545.5      0.1477863  1          0.3577295 
545.6      0.1494601  1          0.3800801 
545.7      0.1539704  1          0.4021449 
545.8      0.182822   1          0.3962184 
545.9      0.1957203  1          0.4513082 
546        0.2434525  1          0.4262318 
546.1      0.2746949  1          0.4269892 
546.2      0.2942819  0.9464478  0.4253175 
546.3      0.3437819  0.7836065  0.3237447 
546.4      0.3604209  0.7337325  0.2705229 
546.5      0.3387749  0.7828186  0.2763475 
546.6      0.28789    0.9217248  0.3107026 
546.7      0.2114164  1          0.4132175 
546.8      0.126518   1          0.4807314 
546.9      0.08402598 1          0.5520176 
547        0.07574127 1          0.586659  
547.1      0.08647767 1          0.5242437 
547.2      0.1043387  1          0.4548258 
547.3      0.1213391  1          0.4066507 
547.4      0.1167588  1          0.3768216 
547.5      0.1147272  1          0.3702499 
547.6      0.1212911  1          0.3261798 
547.7      0.1004719  1          0.3472483 
547.8      0.08931735 1          0.3312272 
547.9      0.08748417 1          0.3326168 
548        0.07808769 1          0.3352269 
548.1      0.08380703 1          0.2993011 
548.2      0.07290538 1          0.3147483 
548.3      0.08203593 1          0.3006532 
548.4      0.1029385  1          0.2740724 
548.5      0.1198507  1          0.2520731 
548.6      0.1362064  1          0.2641388 
548.7      0.1603635  1          0.2666915 
548.8      0.1709129  1          0.3156937 
548.9      0.1750004  1          0.3458556 
549        0.174237   1          0.3764684 
549.1      0.1600018  1          0.4344984 
549.2      0.138328   1          0.492801  
549.3      0.1449598  1          0.4815784 
549.4      0.1479689  1          0.493283  
549.5      0.1433519  1          0.5462658 
549.6      0.1715939  1          0.478862  
549.7      0.1685125  1          0.5094682 
549.8      0.1590887  1          0.5437234 
549.9      0.1381979  1          0.6312748 
550        0.1722597  1          0.5525888 
550.1      0.1683016  1          0.5749103 
550.2      0.1375744  1          0.679996  
550.3      0.1357201  1          0.6629494 
550.4      0.1395804  1          0.6866893 
550.5      0.14443    1          0.6953886 
550.6      0.1939567  1          0.5830928 
550.7      0.2033806  1          0.5823101 
550.8      0.1785642  1          0.6284161 
550.9      0.2126474  1          0.5524291 
551        0.2120526  1          0.5428578 
551.1      0.1772991  1          0.5680858 
551.2      0.1230705  1          0.6350532 
551.3      0.08430266 1          0.7303142 
551.4      0.1039139  1          0.6430777 
551.5      0.1002377  1          0.6520578 
551.6      0.1279054  1          0.5742685 
551.7      0.1360192  1          0.5398816 
551.8      0.1484649  1          0.5141975 
551.9      0.1067688  1          0.5857655 
552        0.08337709 1          0.6427315 
552.1      0.07715499 1          0.644753  
552.2      0.06240189 1          0.6611801 
552.3      0.0518113  1          0.6832178 
552.4      0.04259488 1          0.6965876 
552.5      0.03151755 1          0.7299053 
552.6      0.03681504 1          0.7046624 
552.7      0.02963822 1          0.7446332 
552.8      0.02170148 1          0.7765849 
552.9      0.02660272 1          0.7420176 
553        0.03543282 1          0.700528  
553.1      0.04640454 1          0.6607368 
553.2      0.05049822 1          0.6551691 
553.3      0.07067093 1          0.5695017 
553.4      0.09980273 1          0.5020613 
553.5      0.1319184  1          0.4378738 
553.6      0.1315399  1          0.4309939 
553.7      0.138438   1          0.4190133 
553.8      0.1445063  1          0.4029355 
553.9      0.1403271  1          0.4124648 
554        0.1357347  1          0.4128066 
554.1      0.124415   1          0.4341262 
554.2      0.1275682  1          0.4166436 
554.3      0.1130359  1          0.4623097 
554.4      0.1086527  1          0.4893623 
554.5      0.1160443  1          0.4673935 
554.6      0.1176072  1          0.461273  
554.7      0.1160287  1          0.4610712 
554.8      0.1081125  1          0.4843042 
554.9      0.1130915  1          0.4525592 
555        0.1121016  1          0.443543  
555.1      0.1089344  1          0.4269589 
555.2      0.1136462  1          0.3984302 
555.3      0.1224931  1          0.3766813 
555.4      0.1383643  1          0.315344  
555.5      0.1418047  1          0.3177305 
555.6      0.1446797  1          0.3058352 
555.7      0.1344056  1          0.3116853 
555.8      0.1318178  1          0.3051528 
555.9      0.1348835  1          0.3002407 
556        0.1385309  1          0.3431368 
556.1      0.1283153  1          0.396606  
556.2      0.1274043  1          0.4434349 
556.3      0.1250731  1          0.4305049 
556.4      0.1200916  1          0.4528372 
556.5      0.1504231  1          0.390142  
556.6      0.1694679  1          0.3513965 
556.7      0.1969518  1          0.3067927 
556.8      0.2190414  1          0.2527824 
556.9      0.2518326  0.9730806  0.1954968 
557        0.2770935  0.8967378  0.1280399 
557.1      0.3003427  0.8665653  0.061167  
557.2      0.3063619  0.8855947  0.03749774
557.3      0.3188607  0.8764835  0.01491876
557.4      0.3248016  0.8881211  0.009602367
557.5      0.3230233  0.9196292  0         
557.6      0.318325   0.9559857  0.0001272239
557.7      0.3204808  0.9679701  0.001963359
557.8      0.3203814  0.9772513  0.003816998
557.9      0.3293135  0.9500128  0.008076712
558        0.3364809  0.9324352  0.009379841
558.1      0.3422035  0.9317137  0.0104552 
558.2      0.346194   0.9431273  0.01568653
558.3      0.3492301  0.9419566  0.02526302
558.4      0.3540592  0.9128322  0.03803907
558.5      0.349671   0.8634247  0.05706658
558.6      0.353988   0.7963562  0.0807111 
558.7      0.3495362  0.7953738  0.1226458 
558.8      0.3421067  0.8311538  0.2048857 
558.9      0.3113076  0.9191564  0.3030847 
559        0.2727071  0.9912422  0.391216  
559.1      0.2317467  1          0.4325346 
