~Version
 VERS              .         3.0                           : CWLS LOG ASCII STANDARD - VERSION 3.0
 WRAP              .         NO                            : ONE LINE PER DEPTH STEP
 DLM               .         SPACE                         : DELIMITING CHARACTER(SPACE TAB OR COMMA)
~Well Information
#_______________________________________________________________________________
#
#PARAMETER_NAME    .UNIT     VALUE                         : DESCRIPTION
#_______________________________________________________________________________
STRT               .M        87                            : First reference value
STOP               .M        972                           : Last reference value
STEP               .M        0.1                           : Step increment
NULL               .         -9999                         : Missing value
COMP               .         ICPetroleum                   : Company
WELL               .         322                           : Well name
FLD                .         Karatobe                      : Field
LOC                .                                       : Location
SRVC               .                                       : Service Company
CTRY               .         KZ                            : Country
DATE               .                                       : Service Date
LATI               .         0                             : Latitude
LONG               .         0                             : Longitude
GDAT               .         WGS 84                        : Geodetic Datum
APDAT              .         -999.250                      : Elevation Above Permanent Datum
CNTY               .         KAZAHKSTAN                    : Country
COORDIN            .                                       : Grid System
COUNTRY            .         Kazakhstan                    : 
COUNTRY            .         Kazakhstan                    : 
DF                 .         -999.250                      : DF Elevation
DRMEA              .         -999.250                      : Drill Measured From
EPDAT              .         -999.250                      : Elevation of Permanent Datum
EREF               .m        144.3                         : 
GL                 .         -999.250                      : GL Elevation
GRP                .                                       : Group name
ISS                .                                       : Well surveys
KB                 .         -999.250                      : KB Elevation
LGMEA              .         -999.250                      : Log Measured from
ORIGINALWELLNAME   .         322                           : 
PROV               .                                       : Province
RWS                .         -999                          : Def_Rw
TIME               .                                       : LOG TIME
UWI                .                                       : Unique Well ID
WST                .         -999                          : Def_Rwt
X                  .km       466344.56                     : 
XCOORD             .                                       : X or East-West Coordinate
Y                  .km       5307588.29                    : 
YCOORD             .                                       : Y or North-South Coordinate
~Parameter Information Block
#_______________________________________________________________________________
#
#PARAMETER_NAME    .UNIT     VALUE                         : DESCRIPTION
#_______________________________________________________________________________
SET                .         Las                           : 
APD                .M        -999.250                      : 
AVST               .DEGC     -999.250                      : 
BHT                .DEGC     -999.250                      : 
BS                 .MM       -999.250                      : 
CBD                .M        -999.250                      : 
CBL                .M        -999.250                      : 
DFD                .G/C3     -999.250                      : 
DFL                .C3       -999.250                      : 
DFPH               .         -999.250                      : 
DFV                .S        -999.250                      : 
DMF                .M        -999.250                      : 
EDF                .M        -999.250                      : 
EGL                .M        -999.250                      : 
EKB                .M        -999.250                      : 
EPD                .M        -999.250                      : 
GSDD               .         DTP                           : DT,0,DEPT,,,,,0
LMF                .M        -999.250                      : 
MCST               .DEGC     -999.250                      : 
MFST               .DEGC     -999.250                      : 
MRT                .DEGC     -999.250                      : 
MST                .DEGC     -999.250                      : 
RMCS               .OHMM     -999.250                      : 
RMFS               .OHMM     -999.250                      : 
RMS                .OHMM     -999.250                      : 
TDD                .M        -999.250                      : 
TDL                .M        -999.250                      : 
TLFamily_DEPT      .         Measured Depth                : 
TLFamily_PHI_FINAL .         Porosity                      : 
TLFamily_SW_AR     .         Water Saturation              : 
TLFamily_VSH_FINAL .         Shale Volume                  : 
~Curve Information
#_______________________________________________________________________________
#
#LOGNAME           .UNIT     LOG_ID                        : DESCRIPTION
#_______________________________________________________________________________
DEPT               .M                                      : Depth curve {F}
PHI_FINAL          .m3/m3                                  : Porosity {F}
SW_AR              .m3/m3                                  :  {F}
VSH_FINAL          .unitless                               : Vshale {F}
~Ascii
# ...
340.8      0.01209634 1          0.9120007 
340.9      0.009992356 1          0.9483271 
341        0.009501624 1          0.9587358 
341.1      0.0285626  1          0.815855  
341.2      0.03549873 1          0.8138305 
341.3      0.01711214 1          0.9414881 
341.4      0.01286915 1          1         
341.5      0.01440802 1          1         
341.6      0.01543345 1          1         
341.7      0.01489832 1          1         
341.8      0.0143276  1          1         
341.9      0.009316965 1          1         
342        0.007750297 1          1         
342.1      0.0121998  1          0.9386238 
342.2      0.007320922 1          0.9604412 
342.3      0.002523056 1          0.9872057 
342.4      0.01002137 1          0.9362912 
342.5      0.06395154 1          0.8048221 
342.6      0.0796506  1          0.7462794 
342.7      0.1148504  1          0.6098571 
342.8      0.108718   1          0.6223357 
342.9      0.07836787 1          0.705671  
343        0.08828884 1          0.6891829 
343.1      0.06711421 1          0.7576714 
343.2      0.04208369 1          0.8465997 
343.3      0.05228895 1          0.8604868 
343.4      0.03557421 1          0.9392256 
343.5      0.04410711 1          0.9473622 
343.6      0.02698783 1          0.9782119 
343.7      0.03694702 1          0.9510468 
343.8      0.02750456 1          0.9945192 
343.9      0.02467057 1          1         
344        0.06105135 1          0.9137505 
344.1      0.06349171 1          0.9192787 
344.2      0.03777884 1          0.9724123 
344.3      0.02507923 1          0.986557  
344.4      0.04202378 1          0.9366534 
344.5      0.06574265 1          0.8754978 
344.6      0.05056245 1          0.9473706 
344.7      0.04476471 1          0.9506019 
344.8      0.03056327 1          0.9869555 
344.9      0.01766655 1          1         
345        0.01866463 1          1         
345.1      0.01752408 1          1         
345.2      0.01558142 1          1         
345.3      0.022427   1          1         
345.4      0.02754416 1          1         
345.5      0.03361351 1          1         
345.6      0.03575553 1          1         
345.7      0.0286587  1          1         
345.8      0.02578415 1          1         
345.9      0.02544057 1          1         
346        0.02499751 1          1         
346.1      0.02466322 1          1         
346.2      0.02542939 1          1         
346.3      0.02420708 1          1         
346.4      0.02323966 1          1         
346.5      0.02358332 1          1         
346.6      0.02346099 1          1         
346.7      0.02601843 1          0.9740847 
346.8      0.03220237 1          0.9191288 
346.9      0.02397783 1          0.9807121 
347        0.03124311 1          0.9131321 
347.1      0.03421941 1          0.8961443 
347.2      0.04706051 1          0.84221   
347.3      0.0443249  1          0.8453904 
347.4      0.0332645  1          0.8846241 
347.5      0.07878128 1          0.7312209 
347.6      0.07713217 1          0.7221484 
347.7      0.0893788  1          0.6832982 
347.8      0.08749193 1          0.7128242 
347.9      0.1216818  1          0.6317714 
348        0.1186812  1          0.6435135 
348.1      0.1154764  1          0.6449329 
348.2      0.1431792  1          0.5906386 
348.3      0.1408756  1          0.58215   
348.4      0.1154856  1          0.6439759 
348.5      0.1089867  1          0.6789999 
348.6      0.1005852  1          0.6732232 
348.7      0.1005542  1          0.6612419 
348.8      0.09629634 1          0.6730082 
348.9      0.09607954 1          0.6724493 
349        0.08736461 1          0.6945392 
349.1      0.07377581 1          0.7341735 
349.2      0.05218526 1          0.7866598 
349.3      0.04929943 1          0.7808361 
349.4      0.06848773 1          0.7406687 
349.5      0.04185005 1          0.854734  
349.6      0.0359475  1          0.8775315 
349.7      0.02368826 1          0.9088409 
349.8      0.04959655 1          0.8332756 
349.9      0.02432784 1          0.9237301 
350        0.05259831 1          0.8384758 
350.1      0.05602605 1          0.8516233 
350.2      0.03187732 1          0.9166622 
350.3      0.02468378 1          0.9535519 
350.4      0.01733506 1          1         
350.5      0.02512412 1          1         
350.6      0.02002801 1          1         
350.7      0.01081824 1          1         
350.8      0.01408525 1          1         
350.9      0.01078573 1          1         
351        0.01434988 1          1         
351.1      0.01553921 1          1         
351.2      0.01676822 1          1         
351.3      0.01362453 1          1         
351.4      0.01109803 1          1         
351.5      0.006571156 1          1         
351.6      0.004577179 1          1         
351.7      0.004452963 1          1         
351.8      0.007774774 1          0.9596983 
351.9      0.01171705 1          0.9316338 
352        0.0188913  1          0.9058012 
352.1      0.01567994 1          0.9148189 
352.2      0.01317702 1          0.9506705 
352.3      0.04708886 1          0.8362994 
352.4      0.01697376 1          0.9438908 
352.5      0.02582311 1          0.9094394 
352.6      0.05654718 1          0.8543978 
352.7      0.08706228 1          0.7800208 
352.8      0.09837223 1          0.7434159 
352.9      0.1296887  1          0.7020296 
353        0.1796419  0.8066525  0.5901037 
353.1      0.1912271  0.7060284  0.5638775 
353.2      0.1950279  0.6895065  0.5987979 
353.3      0.1503455  0.9178784  0.7405962 
353.4      0.07099006 1          1         
353.5      0.061832   1          1         
353.6      0.06258702 1          1         
353.7      0.05968485 1          1         
353.8      0.05007856 1          1         
353.9      0.03953661 1          1         
354        0.02515893 1          1         
354.1      0.01349998 1          1         
354.2      0.006039817 1          1         
354.3      0.006940389 1          1         
354.4      0.009608825 1          1         
354.5      0.01190262 1          1         
354.6      0.01292652 1          1         
354.7      0.01331835 1          1         
354.8      0.01331825 1          1         
354.9      0.01344789 1          1         
355        0.01349092 1          1         
355.1      0.01709542 1          0.9345745 
355.2      0.03453319 1          0.7938309 
355.3      0.03862485 1          0.776403  
355.4      0.03717094 1          0.8043185 
355.5      0.05974467 1          0.7687693 
355.6      0.0648913  1          0.7719402 
355.7      0.08470213 1          0.7396485 
355.8      0.06712385 1          0.7922553 
355.9      0.03300544 1          0.9073216 
356        0.07594035 1          0.790432  
356.1      0.07081074 1          0.8303888 
356.2      0.07921486 1          0.8264564 
356.3      0.1016661  1          0.7877049 
356.4      0.1069497  1          0.7681319 
356.5      0.1115903  1          0.7569504 
356.6      0.1204484  1          0.7405167 
356.7      0.1229388  1          0.7165283 
356.8      0.107315   1          0.7138039 
356.9      0.1172493  1          0.6615124 
357        0.1011677  1          0.7114466 
357.1      0.0972446  1          0.7153531 
357.2      0.08922162 1          0.7550832 
357.3      0.09603244 1          0.7311625 
357.4      0.09637004 1          0.7310435 
357.5      0.1255997  1          0.6525379 
357.6      0.08813596 1          0.7911798 
357.7      0.08468169 1          0.8136551 
357.8      0.1197073  1          0.686628  
357.9      0.0758213  1          0.8101942 
358        0.1093135  1          0.6976829 
358.1      0.1381871  1          0.5987483 
358.2      0.1423164  1          0.6021049 
358.3      0.1541311  1          0.5817816 
358.4      0.2043486  1          0.4379511 
358.5      0.2050264  1          0.4499302 
358.6      0.2047707  0.9119773  0.465103  
358.7      0.2059702  0.8057327  0.4710871 
358.8      0.2272152  0.6857684  0.424587  
358.9      0.2461701  0.6247353  0.3755552 
