~Version
 VERS              .         3.0                           : CWLS LOG ASCII STANDARD - VERSION 3.0
 WRAP              .         NO                            : ONE LINE PER DEPTH STEP
 DLM               .         SPACE                         : DELIMITING CHARACTER(SPACE TAB OR COMMA)
~Well Information
#_______________________________________________________________________________
#
#PARAMETER_NAME    .UNIT     VALUE                         : DESCRIPTION
#_______________________________________________________________________________
STRT               .M        87                            : First reference value
STOP               .M        972                           : Last reference value
STEP               .M        0.1                           : Step increment
NULL               .         -9999                         : Missing value
COMP               .         ICPetroleum                   : Company
WELL               .         322                           : Well name
FLD                .         Karatobe                      : Field
LOC                .                                       : Location
SRVC               .                                       : Service Company
CTRY               .         KZ                            : Country
DATE               .                                       : Service Date
LATI               .         0                             : Latitude
LONG               .         0                             : Longitude
GDAT               .         WGS 84                        : Geodetic Datum
APDAT              .         -999.250                      : Elevation Above Permanent Datum
CNTY               .         KAZAHKSTAN                    : Country
COORDIN            .                                       : Grid System
COUNTRY            .         Kazakhstan                    : 
COUNTRY            .         Kazakhstan                    : 
DF                 .         -999.250                      : DF Elevation
DRMEA              .         -999.250                      : Drill Measured From
EPDAT              .         -999.250                      : Elevation of Permanent Datum
EREF               .m        144.3                         : 
GL                 .         -999.250                      : GL Elevation
GRP                .                                       : Group name
ISS                .                                       : Well surveys
KB                 .         -999.250                      : KB Elevation
LGMEA              .         -999.250                      : Log Measured from
ORIGINALWELLNAME   .         322                           : 
PROV               .                                       : Province
RWS                .         -999                          : Def_Rw
TIME               .                                       : LOG TIME
UWI                .                                       : Unique Well ID
WST                .         -999                          : Def_Rwt
X                  .km       466344.56                     : 
XCOORD             .                                       : X or East-West Coordinate
Y                  .km       5307588.29                    : 
YCOORD             .                                       : Y or North-South Coordinate
~Parameter Information Block
#_______________________________________________________________________________
#
#PARAMETER_NAME    .UNIT     VALUE                         : DESCRIPTION
#_______________________________________________________________________________
SET                .         Las                           : 
APD                .M        -999.250                      : 
AVST               .DEGC     -999.250                      : 
BHT                .DEGC     -999.250                      : 
BS                 .MM       -999.250                      : 
CBD                .M        -999.250                      : 
CBL                .M        -999.250                      : 
DFD                .G/C3     -999.250                      : 
DFL                .C3       -999.250                      : 
DFPH               .         -999.250                      : 
DFV                .S        -999.250                      : 
DMF                .M        -999.250                      : 
EDF                .M        -999.250                      : 
EGL                .M        -999.250                      : 
EKB                .M        -999.250                      : 
EPD                .M        -999.250                      : 
GSDD               .         DTP                           : DT,0,DEPT,,,,,0
LMF                .M        -999.250                      : 
MCST               .DEGC     -999.250                      : 
MFST               .DEGC     -999.250                      : 
MRT                .DEGC     -999.250                      : 
MST                .DEGC     -999.250                      : 
RMCS               .OHMM     -999.250                      : 
RMFS               .OHMM     -999.250                      : 
RMS                .OHMM     -999.250                      : 
TDD                .M        -999.250                      : 
TDL                .M        -999.250                      : 
TLFamily_DEPT      .         Measured Depth                : 
TLFamily_PHI_FINAL .         Porosity                      : 
TLFamily_SW_AR     .         Water Saturation              : 
TLFamily_VSH_FINAL .         Shale Volume                  : 
~Curve Information
#_______________________________________________________________________________
#
#LOGNAME           .UNIT     LOG_ID                        : DESCRIPTION
#_______________________________________________________________________________
DEPT               .M                                      : Depth curve {F}
PHI_FINAL          .m3/m3                                  : Porosity {F}
SW_AR              .m3/m3                                  :  {F}
VSH_FINAL          .unitless                               : Vshale {F}
~Ascii
# ...
286.2      0.2526207  0.8415846  0.3870967 
286.3      0.2631373  0.8220209  0.3575848 
286.4      0.2763046  0.7932618  0.3260929 
286.5      0.2784142  0.7872246  0.316864  
286.6      0.2804748  0.7753398  0.3123691 
286.7      0.2759676  0.780727   0.3055009 
286.8      0.26728    0.7968419  0.3156201 
286.9      0.2691125  0.7801111  0.3113855 
287        0.2615895  0.7892561  0.3172752 
287.1      0.2718703  0.750631   0.2972142 
287.2      0.2813518  0.7229239  0.290264  
287.3      0.2933086  0.6975379  0.2609195 
287.4      0.3036374  0.6774495  0.2168242 
287.5      0.2983797  0.6877483  0.2234897 
287.6      0.3129496  0.653177   0.1934099 
287.7      0.3191976  0.637311   0.201583  
287.8      0.3210384  0.6322449  0.1896961 
287.9      0.3242292  0.6264371  0.1927425 
288        0.3204109  0.6360005  0.2040884 
288.1      0.3248863  0.6307777  0.2039754 
288.2      0.3326137  0.6198686  0.1789785 
288.3      0.3303845  0.6272578  0.1949762 
288.4      0.3285431  0.6329981  0.201242  
288.5      0.3184294  0.6543406  0.2214193 
288.6      0.3227282  0.6487758  0.2024339 
288.7      0.3105518  0.6766363  0.217888  
288.8      0.3100125  0.6813613  0.2147937 
288.9      0.3069591  0.6905178  0.2265567 
289        0.3155679  0.6738017  0.2152981 
289.1      0.3115911  0.6820279  0.2116817 
289.2      0.3071128  0.6908584  0.2092871 
289.3      0.2987277  0.7078199  0.2276029 
289.4      0.3012626  0.7001625  0.2155666 
289.5      0.3007439  0.701593   0.1971312 
289.6      0.2938871  0.7138446  0.2045094 
289.7      0.2741352  0.7497554  0.2129065 
289.8      0.2602774  0.7538217  0.2265035 
289.9      0.2514044  0.7036664  0.2012436 
290        0.2422506  0.5843379  0.1716462 
290.1      0.2186856  0.4943897  0.1562282 
290.2      0.1836144  0.5540335  0.1570292 
290.3      0.1696611  0.6727439  0.1588064 
290.4      0.08207016 1          0.1823779 
290.5      0.09359849 1          0.1928512 
290.6      0.1218481  1          0.2312185 
290.7      0.1783724  1          0.2282798 
290.8      0.2160494  0.9601124  0.2441923 
290.9      0.2504348  0.8348103  0.2556232 
291        0.2657883  0.7846087  0.2738134 
291.1      0.2685132  0.7747629  0.3063887 
291.2      0.2831893  0.7373252  0.2981053 
291.3      0.2997402  0.7011284  0.258342  
291.4      0.3123901  0.6762696  0.2332422 
291.5      0.3120421  0.6760582  0.2496065 
291.6      0.3235193  0.648844   0.2439524 
291.7      0.3163829  0.6568581  0.2695032 
291.8      0.3122272  0.6586881  0.2849892 
291.9      0.3134764  0.651803   0.2809821 
292        0.3226922  0.6373023  0.2637664 
292.1      0.3108292  0.6654     0.283173  
292.2      0.3131103  0.6576162  0.2522876 
292.3      0.3047853  0.6670579  0.240218  
292.4      0.3046376  0.6659182  0.2207666 
292.5      0.2938044  0.6879842  0.2329315 
292.6      0.3001154  0.6742055  0.2060246 
292.7      0.2985952  0.6804796  0.2120623 
292.8      0.2992618  0.6768838  0.2125863 
292.9      0.2911102  0.689209   0.2310625 
293        0.2852537  0.699612   0.2381171 
293.1      0.2911547  0.6878178  0.2298419 
293.2      0.2943324  0.6842159  0.2102069 
293.3      0.3038583  0.6651662  0.1937711 
293.4      0.2852624  0.7032717  0.213444  
293.5      0.278385   0.7195152  0.2310898 
293.6      0.2847087  0.7066973  0.2085693 
293.7      0.2899674  0.696416   0.2082742 
293.8      0.281447   0.7233458  0.2109675 
293.9      0.2791574  0.7371841  0.2065175 
294        0.2829455  0.7273651  0.2014302 
294.1      0.2848218  0.7148665  0.1954831 
294.2      0.285151   0.7109724  0.2023533 
294.3      0.2837281  0.7194247  0.1965607 
294.4      0.2928183  0.7081656  0.1977517 
294.5      0.2925176  0.7156447  0.199297  
294.6      0.2913511  0.7202107  0.2011141 
294.7      0.2940682  0.7133316  0.1904824 
294.8      0.2925134  0.7131463  0.2013313 
294.9      0.3117908  0.6629349  0.1886682 
295        0.3159187  0.6496302  0.1834863 
295.1      0.300265   0.6820645  0.1939704 
295.2      0.2940894  0.7006202  0.2118948 
295.3      0.3053142  0.6777464  0.186074  
295.4      0.304957   0.6776032  0.1796404 
295.5      0.3032312  0.6797301  0.1747924 
295.6      0.2988445  0.6855757  0.1728669 
295.7      0.2910556  0.6974105  0.1926411 
295.8      0.2919475  0.701525   0.1918532 
295.9      0.2945266  0.7149091  0.1976701 
296        0.2816119  0.761983   0.2133399 
296.1      0.2930318  0.7393529  0.1789319 
296.2      0.2895047  0.7448657  0.2082052 
296.3      0.2674769  0.7958378  0.2581055 
296.4      0.2503507  0.8407466  0.2997475 
296.5      0.2437312  0.8641335  0.3296824 
296.6      0.2215445  0.9501642  0.3820571 
296.7      0.2282322  0.9269415  0.3641093 
296.8      0.2505306  0.8507554  0.3077151 
296.9      0.2587515  0.8276398  0.3119221 
297        0.2677217  0.8053086  0.3034334 
297.1      0.2764704  0.7856147  0.2766709 
297.2      0.2693756  0.8109877  0.2924134 
297.3      0.2629721  0.8390008  0.299161  
297.4      0.2576421  0.8686027  0.3251052 
297.5      0.2509474  0.9115131  0.344146  
297.6      0.2124493  1          0.4517664 
297.7      0.192323   1          0.5083283 
297.8      0.1610005  1          0.5980639 
297.9      0.1242789  1          0.7170563 
298        0.05508911 1          0.911751  
298.1      0.03415109 1          0.987082  
298.2      0.03193789 1          1         
298.3      0.02531658 1          1         
298.4      0.02289133 1          1         
298.5      0.02435559 1          1         
298.6      0.01974407 1          1         
298.7      0.01545233 1          1         
298.8      0.01558117 1          1         
298.9      0.0180027  1          1         
299        0.02197953 1          1         
299.1      0.02567279 1          1         
299.2      0.0316218  1          1         
299.3      0.03450141 1          1         
299.4      0.035796   1          1         
299.5      0.04008287 1          1         
299.6      0.04025703 1          1         
299.7      0.03817836 1          1         
299.8      0.04170639 1          1         
299.9      0.07408106 1          0.8779339 
300        0.07875418 1          0.8692248 
300.1      0.09870178 1          0.8330785 
300.2      0.08441728 1          0.8786494 
300.3      0.1336026  1          0.74702   
300.4      0.09310904 1          0.8520347 
300.5      0.07113051 1          0.8705083 
300.6      0.08601478 1          0.8007469 
300.7      0.09304821 1          0.7475353 
300.8      0.07454095 1          0.7546042 
300.9      0.07903241 1          0.7230808 
301        0.0904974  1          0.6977831 
301.1      0.1389213  1          0.5847716 
301.2      0.1343052  1          0.6288638 
301.3      0.1508303  1          0.5982985 
301.4      0.1433708  1          0.6293187 
301.5      0.1200173  1          0.7051728 
301.6      0.1228198  1          0.6942083 
301.7      0.121834   1          0.7174109 
301.8      0.07947914 1          0.8158096 
301.9      0.09194855 1          0.7865403 
302        0.1081739  1          0.7517774 
302.1      0.08240638 1          0.8338255 
302.2      0.06508474 1          0.8888994 
302.3      0.04150087 1          0.9510867 
302.4      0.0827962  1          0.8359296 
302.5      0.06463512 1          0.8718227 
302.6      0.0642603  1          0.850457  
302.7      0.09359356 1          0.7617314 
302.8      0.1073881  1          0.7048556 
302.9      0.1012249  1          0.6754794 
303        0.07130127 1          0.7237526 
303.1      0.05085362 1          0.7588772 
303.2      0.05059474 1          0.7360119 
303.3      0.05703979 1          0.7318667 
303.4      0.06946375 1          0.6954815 
303.5      0.08933067 1          0.6620992 
303.6      0.1435722  1          0.5217603 
303.7      0.1879104  1          0.4162418 
303.8      0.2211751  0.9675716  0.3429326 
303.9      0.2274908  0.930986   0.359304  
304        0.2359302  0.8958985  0.3648661 
304.1      0.252895   0.8406022  0.3227275 
304.2      0.2476965  0.862417   0.3498755 
304.3      0.2529957  0.853655   0.3374988 
