~Version
 VERS              .         3.0                           : CWLS LOG ASCII STANDARD - VERSION 3.0
 WRAP              .         NO                            : ONE LINE PER DEPTH STEP
 DLM               .         SPACE                         : DELIMITING CHARACTER(SPACE TAB OR COMMA)
~Well Information
#_______________________________________________________________________________
#
#PARAMETER_NAME    .UNIT     VALUE                         : DESCRIPTION
#_______________________________________________________________________________
STRT               .M        87                            : First reference value
STOP               .M        972                           : Last reference value
STEP               .M        0.1                           : Step increment
NULL               .         -9999                         : Missing value
COMP               .         ICPetroleum                   : Company
WELL               .         322                           : Well name
FLD                .         Karatobe                      : Field
LOC                .                                       : Location
SRVC               .                                       : Service Company
CTRY               .         KZ                            : Country
DATE               .                                       : Service Date
LATI               .         0                             : Latitude
LONG               .         0                             : Longitude
GDAT               .         WGS 84                        : Geodetic Datum
APDAT              .         -999.250                      : Elevation Above Permanent Datum
CNTY               .         KAZAHKSTAN                    : Country
COORDIN            .                                       : Grid System
COUNTRY            .         Kazakhstan                    : 
COUNTRY            .         Kazakhstan                    : 
DF                 .         -999.250                      : DF Elevation
DRMEA              .         -999.250                      : Drill Measured From
EPDAT              .         -999.250                      : Elevation of Permanent Datum
EREF               .m        144.3                         : 
GL                 .         -999.250                      : GL Elevation
GRP                .                                       : Group name
ISS                .                                       : Well surveys
KB                 .         -999.250                      : KB Elevation
LGMEA              .         -999.250                      : Log Measured from
ORIGINALWELLNAME   .         322                           : 
PROV               .                                       : Province
RWS                .         -999                          : Def_Rw
TIME               .                                       : LOG TIME
UWI                .                                       : Unique Well ID
WST                .         -999                          : Def_Rwt
X                  .km       466344.56                     : 
XCOORD             .                                       : X or East-West Coordinate
Y                  .km       5307588.29                    : 
YCOORD             .                                       : Y or North-South Coordinate
~Parameter Information Block
#_______________________________________________________________________________
#
#PARAMETER_NAME    .UNIT     VALUE                         : DESCRIPTION
#_______________________________________________________________________________
SET                .         Las                           : 
APD                .M        -999.250                      : 
AVST               .DEGC     -999.250                      : 
BHT                .DEGC     -999.250                      : 
BS                 .MM       -999.250                      : 
CBD                .M        -999.250                      : 
CBL                .M        -999.250                      : 
DFD                .G/C3     -999.250                      : 
DFL                .C3       -999.250                      : 
DFPH               .         -999.250                      : 
DFV                .S        -999.250                      : 
DMF                .M        -999.250                      : 
EDF                .M        -999.250                      : 
EGL                .M        -999.250                      : 
EKB                .M        -999.250                      : 
EPD                .M        -999.250                      : 
GSDD               .         DTP                           : DT,0,DEPT,,,,,0
LMF                .M        -999.250                      : 
MCST               .DEGC     -999.250                      : 
MFST               .DEGC     -999.250                      : 
MRT                .DEGC     -999.250                      : 
MST                .DEGC     -999.250                      : 
RMCS               .OHMM     -999.250                      : 
RMFS               .OHMM     -999.250                      : 
RMS                .OHMM     -999.250                      : 
TDD                .M        -999.250                      : 
TDL                .M        -999.250                      : 
TLFamily_DEPT      .         Measured Depth                : 
TLFamily_PHI_FINAL .         Porosity                      : 
TLFamily_SW_AR     .         Water Saturation              : 
TLFamily_VSH_FINAL .         Shale Volume                  : 
~Curve Information
#_______________________________________________________________________________
#
#LOGNAME           .UNIT     LOG_ID                        : DESCRIPTION
#_______________________________________________________________________________
DEPT               .M                                      : Depth curve {F}
PHI_FINAL          .m3/m3                                  : Porosity {F}
SW_AR              .m3/m3                                  :  {F}
VSH_FINAL          .unitless                               : Vshale {F}
~Ascii
# ...
395.4      0.01271018 1          0.9462209 
395.5      0.05201982 1          0.7750174 
395.6      0.02419292 1          0.8667811 
395.7      0.04899551 1          0.7690668 
395.8      0.04411741 1          0.7699311 
395.9      0.04729033 1          0.7636499 
396        0.01792602 1          0.8420318 
396.1      0.003750708 1          0.9206539 
396.2      0.02049766 1          0.8171638 
396.3      0.01237308 1          0.8594674 
396.4      0.01359626 1          0.8681018 
396.5      0.03726061 1          0.7971656 
396.6      0.02879474 1          0.8260599 
396.7      0.02139331 1          0.849123  
396.8      0.04040064 1          0.7642617 
396.9      0.03415501 1          0.7678275 
397        0.03601887 1          0.7613217 
397.1      0.06442946 1          0.6920668 
397.2      0.06196687 1          0.7226241 
397.3      0.0384815  1          0.7918112 
397.4      0.03887428 1          0.8016166 
397.5      0.02809384 1          0.8399459 
397.6      0.05225078 1          0.7931995 
397.7      0.07402669 1          0.7047607 
397.8      0.08889583 1          0.6477518 
397.9      0.08681635 1          0.6695482 
398        0.1022589  1          0.6456528 
398.1      0.1057673  1          0.6423978 
398.2      0.07350595 1          0.762544  
398.3      0.02608376 1          0.9005768 
398.4      0.02087741 1          0.9179394 
398.5      0.03399454 1          0.8766609 
398.6      0.01191397 1          1         
398.7      0.01353528 1          0.978303  
398.8      0.01505568 1          0.9677472 
398.9      0.02584457 1          0.8985305 
399        0.03787708 1          0.8594282 
399.1      0.02169231 1          0.9328863 
399.2      0.01906073 1          0.9451424 
399.3      0.04878489 1          0.847357  
399.4      0.05622457 1          0.8394478 
399.5      0.04777566 1          0.8465393 
399.6      0.083379   1          0.760833  
399.7      0.08023258 1          0.7844594 
399.8      0.1058166  1          0.7099737 
399.9      0.1046513  1          0.709404  
400        0.1134971  1          0.6981481 
400.1      0.1313709  1          0.641068  
400.2      0.1173023  1          0.6761176 
400.3      0.07897058 1          0.7678131 
400.4      0.07189056 1          0.8100158 
400.5      0.1051324  1          0.7112566 
400.6      0.136293   1          0.6439331 
400.7      0.1535113  1          0.5922012 
400.8      0.1639919  1          0.5459713 
400.9      0.1451296  1          0.5877477 
401        0.1185423  1          0.6603139 
401.1      0.1404873  1          0.6148479 
401.2      0.1339305  1          0.6111366 
401.3      0.1201497  1          0.6373953 
401.4      0.08636918 1          0.7453772 
401.5      0.06832553 1          0.7864397 
401.6      0.06726391 1          0.8089471 
401.7      0.03653256 1          0.8898075 
401.8      0.01398806 1          0.9439237 
401.9      0.005856742 1          1         
402        0.005982016 1          1         
402.1      0.0194833  1          0.9191366 
402.2      0.01442853 1          0.9510136 
402.3      0.01700054 1          0.9571379 
402.4      0.01349897 1          1         
402.5      0.01040396 1          1         
402.6      0.007284097 1          1         
402.7      0.005465611 1          1         
402.8      0.005823843 1          1         
402.9      0.005172505 1          1         
403        0.005477631 1          1         
403.1      0.005868638 1          1         
403.2      0.006087501 1          1         
403.3      0.006309062 1          1         
403.4      0.006415411 1          1         
403.5      0.01078433 1          0.960582  
403.6      0.01409349 1          0.9374982 
403.7      0.02642848 1          0.9157914 
403.8      0.03626899 1          0.8931397 
403.9      0.01213772 1          0.9916801 
404        0.0213355  1          0.9492891 
404.1      0.01086594 1          0.9863929 
404.2      0.0409733  1          0.8659078 
404.3      0.01456827 1          1         
404.4      0.01558713 1          1         
404.5      0.04560597 1          0.9200358 
404.6      0.08175514 1          0.8218033 
404.7      0.09273207 1          0.7592537 
404.8      0.1179365  1          0.6622536 
404.9      0.1041696  1          0.6988951 
405        0.08614955 1          0.7506809 
405.1      0.09511109 1          0.7157565 
405.2      0.08759558 1          0.7618068 
405.3      0.05463076 1          0.8443435 
405.4      0.06229985 1          0.7993734 
405.5      0.02758012 1          0.8928496 
405.6      0.01913551 1          0.8952333 
405.7      0.008199554 1          0.9966642 
405.8      0.01427734 1          0.9574144 
405.9      0.0121959  1          0.9720375 
406        0.04891279 1          0.7674212 
406.1      0.04620748 1          0.7969456 
406.2      0.0325961  1          0.8773155 
406.3      0.0527934  1          0.8323502 
406.4      0.07000615 1          0.7775194 
406.5      0.05696933 1          0.7946592 
406.6      0.06917477 1          0.755264  
406.7      0.07179577 1          0.7132745 
406.8      0.07453289 1          0.7166081 
406.9      0.10973    1          0.6183474 
407        0.1311849  1          0.5676888 
407.1      0.111937   1          0.6224128 
407.2      0.07212154 1          0.7029292 
407.3      0.06716019 1          0.6909245 
407.4      0.06357971 1          0.7033887 
407.5      0.04599969 1          0.7453164 
407.6      0.05733186 1          0.7187031 
407.7      0.07290018 1          0.6326818 
407.8      0.08008513 1          0.6256205 
407.9      0.07843956 1          0.6096053 
408        0.07923753 1          0.5865942 
408.1      0.06392179 1          0.6372548 
408.2      0.0607525  1          0.6560442 
408.3      0.05861685 1          0.6506498 
408.4      0.09364334 1          0.5984838 
408.5      0.1055736  1          0.5766081 
408.6      0.0940626  1          0.6212129 
408.7      0.1123654  1          0.5771974 
408.8      0.1197189  1          0.6067998 
408.9      0.1203634  1          0.6080987 
409        0.1359264  1          0.5733479 
409.1      0.1668785  1          0.4870376 
409.2      0.1714063  1          0.4671695 
409.3      0.1611762  1          0.491672  
409.4      0.1573462  1          0.5102303 
409.5      0.1348857  1          0.5682318 
409.6      0.1044824  1          0.6508381 
409.7      0.09555975 1          0.6684499 
409.8      0.1464896  1          0.5053588 
409.9      0.167788   1          0.4774036 
410        0.1855992  1          0.4532392 
410.1      0.1730683  1          0.4954258 
410.2      0.1746625  1          0.4988558 
410.3      0.1793562  1          0.5007946 
410.4      0.1829258  1          0.4887759 
410.5      0.1897781  1          0.4699733 
410.6      0.1780017  1          0.4889677 
410.7      0.1663342  1          0.4669932 
410.8      0.1584201  1          0.4539762 
410.9      0.1545573  1          0.4462604 
411        0.1613843  1          0.4427164 
411.1      0.1722941  1          0.4479653 
411.2      0.1705755  1          0.4503486 
411.3      0.1515489  1          0.5037844 
411.4      0.1694976  1          0.4497669 
411.5      0.1571871  1          0.486552  
411.6      0.1579487  1          0.4796602 
411.7      0.1404424  1          0.520404  
411.8      0.122148   1          0.5524986 
411.9      0.1080967  1          0.5799872 
412        0.1103406  1          0.55728   
412.1      0.09253841 1          0.6244263 
412.2      0.1062517  1          0.5818266 
412.3      0.1223589  1          0.5510063 
412.4      0.1423528  1          0.5235292 
412.5      0.1508478  1          0.5132767 
412.6      0.1484282  1          0.5108145 
412.7      0.1644485  1          0.4951136 
412.8      0.1673506  1          0.4873043 
412.9      0.1419445  1          0.5598626 
413        0.1468462  1          0.5448421 
413.1      0.1613516  1          0.5202333 
413.2      0.1893518  1          0.4340819 
413.3      0.2105966  1          0.3920902 
413.4      0.2036136  1          0.4580768 
413.5      0.1976328  1          0.4606573 
