~Version
 VERS              .         3.0                           : CWLS LOG ASCII STANDARD - VERSION 3.0
 WRAP              .         NO                            : ONE LINE PER DEPTH STEP
 DLM               .         SPACE                         : DELIMITING CHARACTER(SPACE TAB OR COMMA)
~Well Information
#_______________________________________________________________________________
#
#PARAMETER_NAME    .UNIT     VALUE                         : DESCRIPTION
#_______________________________________________________________________________
STRT               .M        87                            : First reference value
STOP               .M        972                           : Last reference value
STEP               .M        0.1                           : Step increment
NULL               .         -9999                         : Missing value
COMP               .         ICPetroleum                   : Company
WELL               .         322                           : Well name
FLD                .         Karatobe                      : Field
LOC                .                                       : Location
SRVC               .                                       : Service Company
CTRY               .         KZ                            : Country
DATE               .                                       : Service Date
LATI               .         0                             : Latitude
LONG               .         0                             : Longitude
GDAT               .         WGS 84                        : Geodetic Datum
APDAT              .         -999.250                      : Elevation Above Permanent Datum
CNTY               .         KAZAHKSTAN                    : Country
COORDIN            .                                       : Grid System
COUNTRY            .         Kazakhstan                    : 
COUNTRY            .         Kazakhstan                    : 
DF                 .         -999.250                      : DF Elevation
DRMEA              .         -999.250                      : Drill Measured From
EPDAT              .         -999.250                      : Elevation of Permanent Datum
EREF               .m        144.3                         : 
GL                 .         -999.250                      : GL Elevation
GRP                .                                       : Group name
ISS                .                                       : Well surveys
KB                 .         -999.250                      : KB Elevation
LGMEA              .         -999.250                      : Log Measured from
ORIGINALWELLNAME   .         322                           : 
PROV               .                                       : Province
RWS                .         -999                          : Def_Rw
TIME               .                                       : LOG TIME
UWI                .                                       : Unique Well ID
WST                .         -999                          : Def_Rwt
X                  .km       466344.56                     : 
XCOORD             .                                       : X or East-West Coordinate
Y                  .km       5307588.29                    : 
YCOORD             .                                       : Y or North-South Coordinate
~Parameter Information Block
#_______________________________________________________________________________
#
#PARAMETER_NAME    .UNIT     VALUE                         : DESCRIPTION
#_______________________________________________________________________________
SET                .         Las                           : 
APD                .M        -999.250                      : 
AVST               .DEGC     -999.250                      : 
BHT                .DEGC     -999.250                      : 
BS                 .MM       -999.250                      : 
CBD                .M        -999.250                      : 
CBL                .M        -999.250                      : 
DFD                .G/C3     -999.250                      : 
DFL                .C3       -999.250                      : 
DFPH               .         -999.250                      : 
DFV                .S        -999.250                      : 
DMF                .M        -999.250                      : 
EDF                .M        -999.250                      : 
EGL                .M        -999.250                      : 
EKB                .M        -999.250                      : 
EPD                .M        -999.250                      : 
GSDD               .         DTP                           : DT,0,DEPT,,,,,0
LMF                .M        -999.250                      : 
MCST               .DEGC     -999.250                      : 
MFST               .DEGC     -999.250                      : 
MRT                .DEGC     -999.250                      : 
MST                .DEGC     -999.250                      : 
RMCS               .OHMM     -999.250                      : 
RMFS               .OHMM     -999.250                      : 
RMS                .OHMM     -999.250                      : 
TDD                .M        -999.250                      : 
TDL                .M        -999.250                      : 
TLFamily_DEPT      .         Measured Depth                : 
TLFamily_PHI_FINAL .         Porosity                      : 
TLFamily_SW_AR     .         Water Saturation              : 
TLFamily_VSH_FINAL .         Shale Volume                  : 
~Curve Information
#_______________________________________________________________________________
#
#LOGNAME           .UNIT     LOG_ID                        : DESCRIPTION
#_______________________________________________________________________________
DEPT               .M                                      : Depth curve {F}
PHI_FINAL          .m3/m3                                  : Porosity {F}
SW_AR              .m3/m3                                  :  {F}
VSH_FINAL          .unitless                               : Vshale {F}
~Ascii
# ...
886.8      0.1824057  0.5277854  0.03060097
886.9      0.1805024  0.5630176  0.02907208
887        0.1681673  0.6056914  0.02901104
887.1      0.1932137  0.4887225  0.02785361
887.2      0.1948166  0.4744759  0.02440363
887.3      0.2006243  0.4622036  0.02901104
887.4      0.2105098  0.4392715  0.02603368
887.5      0.2027774  0.4654301  0.03133717
887.6      0.1874948  0.5381017  0.04129785
887.7      0.1786284  0.6396361  0.0554436 
887.8      0.1603033  0.8642055  0.07374883
887.9      0.1597478  0.9930866  0.08763769
888        0.1683555  0.941663   0.1023716 
888.1      0.1585067  0.9334544  0.1098576 
888.2      0.1469215  0.9004859  0.105247  
888.3      0.1107676  1          0.09617035
888.4      0.1018056  1          0.07664116
888.5      0.07872395 1          0.06111873
888.6      0.05868179 1          0.05926191
888.7      0.05440313 1          0.05380939
888.8      0.04220874 1          0.04927029
888.9      0.04449142 1          0.05550914
889        0.05023317 1          0.06398754
889.1      0.06357206 1          0.06863504
889.2      0.0613951  1          0.07203698
889.3      0.02238612 1          0.08466715
889.4      0          1          0.108216  
889.5      0          1          0.1262275 
889.6      0          1          0.1487073 
889.7      0.009041295 1          0.1840399 
889.8      0.007794921 1          0.2442774 
889.9      0.03635051 1          0.2871882 
890        0.05345882 1          0.32102   
890.1      0.06684332 1          0.3015127 
890.2      0.07376979 1          0.2759629 
890.3      0.08525518 1          0.2429125 
890.4      0.1145881  1          0.2011809 
890.5      0.1292947  1          0.155178  
890.6      0.1407805  1          0.1341265 
890.7      0.1342333  1          0.1183867 
890.8      0.1319558  1          0.09813046
890.9      0.1405655  1          0.08685765
891        0.1547233  1          0.07272086
891.1      0.1540352  0.953573   0.06506037
891.2      0.130195   1          0.05211713
891.3      0.09029227 1          0.0497863 
891.4      0.0864936  1          0.05270206
891.5      0.06738762 1          0.0476622 
891.6      0.07862074 1          0.0474697 
891.7      0.07803597 1          0.04965723
891.8      0.06660285 1          0.04869058
891.9      0.06314358 1          0.04300558
892        0.03849839 1          0.04028953
892.1      0.001804415 1          0.03213641
892.2      0          1          0.04136094
892.3      0          1          0.0369067 
892.4      0          1          0.04035246
892.5      0          1          0.03622141
892.6      0          1          0.03176731
892.7      0          1          0.02968286
892.8      0.003995815 1          0.02919415
892.9      0.02964458 1          0.02998863
893        0.03017583 1          0.04218235
893.1      0.0506805  1          0.0444665 
893.2      0.05688417 1          0.06191721
893.3      0.03609047 1          0.08622049
893.4      0.01634222 1          0.1163339 
893.5      0.004864234 1          0.1564991 
893.6      0          1          0.2262182 
893.7      0          1          0.3202459 
893.8      0          1          0.419266  
893.9      0          1          0.5002674 
894        0.006918457 1          0.5447379 
894.1      0.0274274  1          0.5080647 
894.2      0.05626174 1          0.4462271 
894.3      0.09900679 1          0.3685957 
894.4      0.1388318  1          0.3179293 
894.5      0.131695   1          0.3030171 
894.6      0.1172387  1          0.2761689 
894.7      0.1159973  1          0.2683896 
894.8      0.1019991  1          0.2679829 
894.9      0.09230669 1          0.2709375 
895        0.1015603  1          0.2674749 
895.1      0.1146033  1          0.253129  
895.2      0.1235219  1          0.2588056 
895.3      0.09786033 1          0.266055  
895.4      0.09822632 1          0.2608105 
895.5      0.1014879  1          0.2857214 
895.6      0.1060706  1          0.2861401 
895.7      0.07854027 1          0.2957434 
895.8      0.06657667 1          0.3084193 
895.9      0.06788214 1          0.2979807 
896        0.0960842  1          0.3040939 
896.1      0.09883428 1          0.3147437 
896.2      0.09572336 1          0.3133207 
896.3      0.09939025 1          0.3148532 
896.4      0.08695363 1          0.3111377 
896.5      0.08359108 1          0.3245702 
896.6      0.07304866 1          0.3144149 
896.7      0.06290174 1          0.2969144 
896.8      0.08729333 1          0.2679829 
896.9      0.08217789 1          0.2493751 
897        0.1057415  1          0.2272591 
897.1      0.1098785  1          0.2074466 
897.2      0.1025378  1          0.2023558 
897.3      0.1052157  1          0.1839526 
897.4      0.1107487  1          0.1753773 
897.5      0.1119352  1          0.1815996 
897.6      0.115532   1          0.1766673 
897.7      0.1216364  1          0.1652588 
897.8      0.1369324  1          0.1487073 
897.9      0.1560482  1          0.1531209 
898        0.1723174  1          0.1482193 
898.1      0.1834239  0.979099   0.1443339 
898.2      0.1967722  0.9194782  0.1420821 
898.3      0.1967987  0.9518173  0.1493586 
898.4      0.1898575  1          0.1604008 
898.5      0.1877174  1          0.1645019 
898.6      0.1690288  1          0.1420821 
898.7      0.1641009  1          0.134837  
898.8      0.1429372  1          0.1287935 
898.9      0.1540091  1          0.1191494 
899        0.165906   1          0.1184629 
899.1      0.1571528  1          0.1230595 
899.2      0.1563779  1          0.1123315 
899.3      0.1445897  1          0.1048773 
899.4      0.1372963  1          0.1084395 
899.5      0.1469481  1          0.1195313 
899.6      0.1526179  1          0.1158789 
899.7      0.157812   1          0.1202194 
899.8      0.1538152  1          0.1298083 
899.9      0.1226762  1          0.1396812 
900        0.0791631  1          0.1456256 
900.1      0.06909702 1          0.1438505 
900.2      0.07585595 1          0.14887   
900.3      0.08022625 1          0.1500108 
900.4      0.09382758 1          0.1317661 
900.5      0.09242918 1          0.1225208 
900.6      0.09724385 1          0.1021512 
900.7      0.08262967 1          0.09783949
900.8      0.07776999 1          0.08636201
900.9      0.06922924 1          0.08340053
901        0.08003369 1          0.1026656 
901.1      0.09838056 1          0.1042864 
901.2      0.09749131 1          0.1133099 
901.3      0.1005186  1          0.1170171 
901.4      0.05606102 1          0.1441727 
901.5      0.04506211 1          0.1615691 
901.6      0.07494694 1          0.1779607 
901.7      0.09666082 1          0.1781334 
901.8      0.08877409 1          0.174948  
901.9      0.06954625 1          0.176323  
902        0.06844563 1          0.1760649 
902.1      0.1570105  1          0.1714417 
902.2      0.1624155  1          0.1645859 
902.3      0.1645803  1          0.1622379 
902.4      0.1415965  1          0.1647541 
902.5      0.1278747  1          0.1486259 
902.6      0.1084888  1          0.1305121 
902.7      0.07859999 1          0.1320802 
902.8      0.04607084 1          0.1914312 
902.9      0.03670541 1          0.2067164 
903        0.07149809 1          0.2009101 
903.1      0.1033381  1          0.19821   
903.2      0.1270044  1          0.1868432 
903.3      0.1291222  1          0.1937404 
903.4      0.1522369  1          0.1785654 
903.5      0.1787567  0.6807237  0.1735768 
903.6      0.1921571  0.5871492  0.1403203 
903.7      0.1968681  0.5418579  0.1195313 
903.8      0.2003308  0.5191138  0.1084395 
903.9      0.191753   0.6045587  0.106358  
904        0.1903118  0.6700459  0.09667767
904.1      0.185372   0.8009892  0.0984216 
904.2      0.1810025  0.8586579  0.1100071 
904.3      0.1779102  0.9163432  0.120449  
904.4      0.1708614  0.9599009  0.1343632 
904.5      0.1593463  0.9598184  0.1540249 
904.6      0.1581928  0.8442887  0.1524645 
904.7      0.1533345  0.824118   0.1593185 
904.8      0.1557531  0.8030227  0.1486259 
904.9      0.1588052  0.8077357  0.139043  
