~Version
 VERS              .         3.0                           : CWLS LOG ASCII STANDARD - VERSION 3.0
 WRAP              .         NO                            : ONE LINE PER DEPTH STEP
 DLM               .         SPACE                         : DELIMITING CHARACTER(SPACE TAB OR COMMA)
~Well Information
#_______________________________________________________________________________
#
#PARAMETER_NAME    .UNIT     VALUE                         : DESCRIPTION
#_______________________________________________________________________________
STRT               .M        87                            : First reference value
STOP               .M        972                           : Last reference value
STEP               .M        0.1                           : Step increment
NULL               .         -9999                         : Missing value
COMP               .         ICPetroleum                   : Company
WELL               .         322                           : Well name
FLD                .         Karatobe                      : Field
LOC                .                                       : Location
SRVC               .                                       : Service Company
CTRY               .         KZ                            : Country
DATE               .                                       : Service Date
LATI               .         0                             : Latitude
LONG               .         0                             : Longitude
GDAT               .         WGS 84                        : Geodetic Datum
APDAT              .         -999.250                      : Elevation Above Permanent Datum
CNTY               .         KAZAHKSTAN                    : Country
COORDIN            .                                       : Grid System
COUNTRY            .         Kazakhstan                    : 
COUNTRY            .         Kazakhstan                    : 
DF                 .         -999.250                      : DF Elevation
DRMEA              .         -999.250                      : Drill Measured From
EPDAT              .         -999.250                      : Elevation of Permanent Datum
EREF               .m        144.3                         : 
GL                 .         -999.250                      : GL Elevation
GRP                .                                       : Group name
ISS                .                                       : Well surveys
KB                 .         -999.250                      : KB Elevation
LGMEA              .         -999.250                      : Log Measured from
ORIGINALWELLNAME   .         322                           : 
PROV               .                                       : Province
RWS                .         -999                          : Def_Rw
TIME               .                                       : LOG TIME
UWI                .                                       : Unique Well ID
WST                .         -999                          : Def_Rwt
X                  .km       466344.56                     : 
XCOORD             .                                       : X or East-West Coordinate
Y                  .km       5307588.29                    : 
YCOORD             .                                       : Y or North-South Coordinate
~Parameter Information Block
#_______________________________________________________________________________
#
#PARAMETER_NAME    .UNIT     VALUE                         : DESCRIPTION
#_______________________________________________________________________________
SET                .         Las                           : 
APD                .M        -999.250                      : 
AVST               .DEGC     -999.250                      : 
BHT                .DEGC     -999.250                      : 
BS                 .MM       -999.250                      : 
CBD                .M        -999.250                      : 
CBL                .M        -999.250                      : 
DFD                .G/C3     -999.250                      : 
DFL                .C3       -999.250                      : 
DFPH               .         -999.250                      : 
DFV                .S        -999.250                      : 
DMF                .M        -999.250                      : 
EDF                .M        -999.250                      : 
EGL                .M        -999.250                      : 
EKB                .M        -999.250                      : 
EPD                .M        -999.250                      : 
GSDD               .         DTP                           : DT,0,DEPT,,,,,0
LMF                .M        -999.250                      : 
MCST               .DEGC     -999.250                      : 
MFST               .DEGC     -999.250                      : 
MRT                .DEGC     -999.250                      : 
MST                .DEGC     -999.250                      : 
RMCS               .OHMM     -999.250                      : 
RMFS               .OHMM     -999.250                      : 
RMS                .OHMM     -999.250                      : 
TDD                .M        -999.250                      : 
TDL                .M        -999.250                      : 
TLFamily_DEPT      .         Measured Depth                : 
TLFamily_PHI_FINAL .         Porosity                      : 
TLFamily_SW_AR     .         Water Saturation              : 
TLFamily_VSH_FINAL .         Shale Volume                  : 
~Curve Information
#_______________________________________________________________________________
#
#LOGNAME           .UNIT     LOG_ID                        : DESCRIPTION
#_______________________________________________________________________________
DEPT               .M                                      : Depth curve {F}
PHI_FINAL          .m3/m3                                  : Porosity {F}
SW_AR              .m3/m3                                  :  {F}
VSH_FINAL          .unitless                               : Vshale {F}
~Ascii
# ...
850.4      0.257917   0.6491879  0.1349951 
850.5      0.259496   0.6430318  0.134679  
850.6      0.2548738  0.6640227  0.139043  
850.7      0.2336105  0.7481079  0.1380078 
850.8      0.2086745  0.8672058  0.1411202 
850.9      0.1930977  0.9603108  0.128248  
851        0.1749311  1          0.1280144 
851.1      0.1564102  1          0.1209852 
851.2      0.1357226  1          0.1073232 
851.3      0.1059686  1          0.0904866 
851.4      0.0623532  1          0.07477944
851.5      0.0321163  1          0.06958466
851.6      0.01221427 1          0.06325167
851.7      0.004170368 1          0.05860088
851.8      0.001875715 1          0.05840281
851.9      0          1          0.0600566 
852        0.006077354 1          0.05211713
852.1      0.03590876 1          0.05669029
852.2      0.04231245 1          0.06291762
852.3      0.05067857 1          0.0664729 
852.4      0.06516711 1          0.08721205
852.5      0.08392163 1          0.09544664
852.6      0.09402791 1          0.09508525
852.7      0.0698312  1          0.08735389
852.8      0.04886695 1          0.08863264
852.9      0.04490484 1          0.08410373
853        0.05930691 1          0.07913682
853.1      0.07086715 1          0.07183205
853.2      0.07075991 1          0.07019634
853.3      0.07787878 1          0.06999235
853.4      0.06049138 1          0.06910956
853.5      0.06061982 1          0.07067274
853.6      0.04591843 1          0.06465771
853.7      0.03991998 1          0.06105227
853.8      0.04240366 1          0.06660769
853.9      0.05831309 1          0.07251557
854        0.07770973 1          0.06856728
854.1      0.08070479 1          0.06238376
854.2      0.1152177  1          0.04503974
854.3      0.1317633  1          0.04478486
854.4      0.1531566  1          0.04804752
854.5      0.157875   1          0.05400512
854.6      0.1441509  1          0.05866693
854.7      0.1422037  1          0.05328787
854.8      0.1293965  1          0.05283216
854.9      0.1422611  1          0.05309252
855        0.1794002  0.9352491  0.04881932
855.1      0.1932144  0.8639397  0.04985084
855.2      0.2075675  0.7964416  0.05505077
855.3      0.2107033  0.7867368  0.05179254
855.4      0.1924743  0.8775067  0.05472369
855.5      0.1681606  1          0.06271735
855.6      0.161025   1          0.06573239
855.7      0.1668078  1          0.06748495
855.8      0.1706852  1          0.06245047
855.9      0.1506655  1          0.06251715
856        0.1393633  1          0.0709452 
856.1      0.1329943  1          0.08059968
856.2      0.1464881  1          0.07272086
856.3      0.1532426  1          0.06775524
856.4      0.1476698  1          0.06870279
856.5      0.1269902  1          0.07101335
856.6      0.1175449  1          0.06512751
856.7      0.1068622  1          0.06944887
856.8      0.1140155  1          0.06512751
856.9      0.09251124 1          0.07224204
857        0.09356692 1          0.07265243
857.1      0.09050745 1          0.07505473
857.2      0.08172102 1          0.0869285 
857.3      0.07704009 1          0.09084404
857.4      0.08093192 1          0.08361138
857.5      0.1059637  1          0.08650355
857.6      0.1330064  1          0.08255828
857.7      0.1498888  1          0.08115831
857.8      0.1422718  1          0.07705605
857.9      0.1383771  1          0.07429817
858        0.1288861  1          0.06856728
858.1      0.1449476  1          0.06795809
858.2      0.1612913  1          0.06438952
858.3      0.1664135  1          0.06897392
858.4      0.1679195  1          0.06385364
858.5      0.1708789  0.9804987  0.05979154
858.6      0.1604793  1          0.05715059
858.7      0.1507381  1          0.05827081
858.8      0.1396233  1          0.04606095
858.9      0.115806   1          0.04503974
859        0.0871575  1          0.04644464
859.1      0.07188328 1          0.05237698
859.2      0.09485699 1          0.05426626
859.3      0.1095739  1          0.06822874
859.4      0.1222925  1          0.0749859 
859.5      0.1295739  1          0.06822874
859.6      0.13957    1          0.07224204
859.7      0.1025136  1          0.07823385
859.8      0.05243426 1          0.08650355
859.9      0.04768529 1          0.07865036
860        0.05787067 1          0.07601967
860.1      0.06823687 1          0.08877493
860.2      0.06907135 1          0.08593766
860.3      0.08412971 1          0.08073924
860.4      0.08886172 1          0.07865036
860.5      0.08372835 1          0.08410373
860.6      0.1002768  1          0.1058392 
860.7      0.09957673 1          0.1202194 
860.8      0.1015084  1          0.1156517 
860.9      0.1227411  1          0.1134606 
861        0.1241661  1          0.1186154 
861.1      0.1367471  1          0.12584   
861.2      0.1685973  1          0.1175492 
861.3      0.1589771  1          0.116258  
861.4      0.1595992  1          0.1201429 
861.5      0.1618581  1          0.1184629 
861.6      0.1519273  1          0.1262275 
861.7      0.1583689  1          0.1283259 
861.8      0.1609557  1          0.1375308 
861.9      0.1612304  1          0.1444146 
862        0.1531314  1          0.1682136 
862.1      0.1539887  1          0.1708455 
862.2      0.1278321  1          0.1601509 
862.3      0.1282883  1          0.1346001 
862.4      0.1172511  1          0.1341265 
862.5      0.1195096  1          0.1244476 
862.6      0.129614   1          0.1280922 
862.7      0.1204829  1          0.1211385 
862.8      0.114191   1          0.1105309 
862.9      0.1078042  1          0.1002458 
863        0.1068295  1          0.09155992
863.1      0.111768   1          0.08276868
863.2      0.1077123  1          0.08255828
863.3      0.1108184  1          0.08199772
863.4      0.09405907 1          0.08297918
863.5      0.09078975 1          0.07809511
863.6      0.08219112 1          0.08333028
863.7      0.05912692 1          0.07774846
863.8      0.06283245 1          0.0711497 
863.9      0.08841737 1          0.06816106
864        0.0757198  1          0.07733286
864.1      0.05379801 1          0.08586698
864.2      0.02734057 1          0.08382229
864.3      0.02993873 1          0.08898849
864.4      0.02985488 1          0.09127341
864.5      0.03973114 1          0.09769409
864.6      0.04868983 1          0.1132345 
864.7      0.05482156 1          0.1183867 
864.8      0.0552826  1          0.1148193 
864.9      0.06973089 1          0.107695  
865        0.05718226 1          0.1043603 
865.1      0.04724383 1          0.1021512 
865.2      0.04008523 1          0.08849031
865.3      0.05429977 1          0.07416077
865.4      0.04626965 1          0.06546342
865.5      0.05689132 1          0.06734984
865.6      0.05652222 1          0.07060464
865.7      0.08105517 1          0.07519243
865.8      0.09759848 1          0.0709452 
865.9      0.09117375 1          0.07278931
866        0.09037931 1          0.07149072
866.1      0.09827136 1          0.06465771
866.2      0.09152563 1          0.05959283
866.3      0.09079697 1          0.05407039
866.4      0.07923116 1          0.05939424
866.5      0.06803766 1          0.06345222
866.6      0.0726544  1          0.06775524
866.7      0.09923053 1          0.06539623
866.8      0.1104701  1          0.05518167
866.9      0.1103859  1          0.05146823
867        0.1135845  1          0.05459294
867.1      0.1219024  1          0.052312  
867.2      0.1190364  1          0.0600566 
867.3      0.1005795  1          0.06680995
867.4      0.08895967 1          0.06231707
867.5      0.08299886 1          0.06258386
867.6      0.07923382 1          0.06338536
867.7      0.06119395 1          0.07272086
867.8      0.04501841 1          0.08171772
867.9      0.05640216 1          0.09501301
868        0.05498124 1          0.08984389
868.1      0.04101255 1          0.07333734
868.2      0.04936318 1          0.0709452 
868.3      0.04954342 1          0.07033239
868.4      0.06056825 1          0.07484824
868.5      0.0849775  1          0.06985639
