~Version
 VERS              .         3.0                           : CWLS LOG ASCII STANDARD - VERSION 3.0
 WRAP              .         NO                            : ONE LINE PER DEPTH STEP
 DLM               .         SPACE                         : DELIMITING CHARACTER(SPACE TAB OR COMMA)
~Well Information
#_______________________________________________________________________________
#
#PARAMETER_NAME    .UNIT     VALUE                         : DESCRIPTION
#_______________________________________________________________________________
STRT               .M        87                            : First reference value
STOP               .M        972                           : Last reference value
STEP               .M        0.1                           : Step increment
NULL               .         -9999                         : Missing value
COMP               .         ICPetroleum                   : Company
WELL               .         322                           : Well name
FLD                .         Karatobe                      : Field
LOC                .                                       : Location
SRVC               .                                       : Service Company
CTRY               .         KZ                            : Country
DATE               .                                       : Service Date
LATI               .         0                             : Latitude
LONG               .         0                             : Longitude
GDAT               .         WGS 84                        : Geodetic Datum
APDAT              .         -999.250                      : Elevation Above Permanent Datum
CNTY               .         KAZAHKSTAN                    : Country
COORDIN            .                                       : Grid System
COUNTRY            .         Kazakhstan                    : 
COUNTRY            .         Kazakhstan                    : 
DF                 .         -999.250                      : DF Elevation
DRMEA              .         -999.250                      : Drill Measured From
EPDAT              .         -999.250                      : Elevation of Permanent Datum
EREF               .m        144.3                         : 
GL                 .         -999.250                      : GL Elevation
GRP                .                                       : Group name
ISS                .                                       : Well surveys
KB                 .         -999.250                      : KB Elevation
LGMEA              .         -999.250                      : Log Measured from
ORIGINALWELLNAME   .         322                           : 
PROV               .                                       : Province
RWS                .         -999                          : Def_Rw
TIME               .                                       : LOG TIME
UWI                .                                       : Unique Well ID
WST                .         -999                          : Def_Rwt
X                  .km       466344.56                     : 
XCOORD             .                                       : X or East-West Coordinate
Y                  .km       5307588.29                    : 
YCOORD             .                                       : Y or North-South Coordinate
~Parameter Information Block
#_______________________________________________________________________________
#
#PARAMETER_NAME    .UNIT     VALUE                         : DESCRIPTION
#_______________________________________________________________________________
SET                .         Las                           : 
APD                .M        -999.250                      : 
AVST               .DEGC     -999.250                      : 
BHT                .DEGC     -999.250                      : 
BS                 .MM       -999.250                      : 
CBD                .M        -999.250                      : 
CBL                .M        -999.250                      : 
DFD                .G/C3     -999.250                      : 
DFL                .C3       -999.250                      : 
DFPH               .         -999.250                      : 
DFV                .S        -999.250                      : 
DMF                .M        -999.250                      : 
EDF                .M        -999.250                      : 
EGL                .M        -999.250                      : 
EKB                .M        -999.250                      : 
EPD                .M        -999.250                      : 
GSDD               .         DTP                           : DT,0,DEPT,,,,,0
LMF                .M        -999.250                      : 
MCST               .DEGC     -999.250                      : 
MFST               .DEGC     -999.250                      : 
MRT                .DEGC     -999.250                      : 
MST                .DEGC     -999.250                      : 
RMCS               .OHMM     -999.250                      : 
RMFS               .OHMM     -999.250                      : 
RMS                .OHMM     -999.250                      : 
TDD                .M        -999.250                      : 
TDL                .M        -999.250                      : 
TLFamily_DEPT      .         Measured Depth                : 
TLFamily_PHI_FINAL .         Porosity                      : 
TLFamily_SW_AR     .         Water Saturation              : 
TLFamily_VSH_FINAL .         Shale Volume                  : 
~Curve Information
#_______________________________________________________________________________
#
#LOGNAME           .UNIT     LOG_ID                        : DESCRIPTION
#_______________________________________________________________________________
DEPT               .M                                      : Depth curve {F}
PHI_FINAL          .m3/m3                                  : Porosity {F}
SW_AR              .m3/m3                                  :  {F}
VSH_FINAL          .unitless                               : Vshale {F}
~Ascii
# ...
195.2      0.2651378  0.6935373  0.3775657 
195.3      0.2663667  0.6914037  0.3711444 
195.4      0.2399431  0.7648741  0.4444563 
195.5      0.248607   0.7435909  0.3889807 
195.6      0.231684   0.7994294  0.3996747 
195.7      0.2415457  0.771253   0.3676279 
195.8      0.2467338  0.7644516  0.3531811 
195.9      0.2456944  0.7819285  0.3739816 
196        0.2635348  0.7358389  0.3460576 
196.1      0.2589371  0.7314919  0.3420473 
196.2      0.2471523  0.7431892  0.3860787 
196.3      0.2354729  0.7708697  0.4256586 
196.4      0.2172082  0.8302875  0.466566  
196.5      0.2383435  0.7599855  0.4236782 
196.6      0.2295653  0.7886997  0.4441448 
196.7      0.2338888  0.7796292  0.4411173 
196.8      0.2652804  0.6971714  0.3724247 
196.9      0.252124   0.7309013  0.4136228 
197        0.2646156  0.6908267  0.4091417 
197.1      0.2730536  0.6660188  0.401324  
197.2      0.2769416  0.6657577  0.3960033 
197.3      0.2983745  0.639618   0.3745645 
197.4      0.3125499  0.6176528  0.3640338 
197.5      0.3245903  0.5888321  0.3547597 
197.6      0.3361338  0.561096   0.3383677 
197.7      0.313975   0.5945664  0.3909767 
197.8      0.2913548  0.6380736  0.4469802 
197.9      0.2860273  0.6516536  0.4313681 
198        0.2936678  0.6406737  0.4068946 
198.1      0.2939526  0.6437446  0.4113895 
198.2      0.2937835  0.6458381  0.4048308 
198.3      0.2876208  0.6584749  0.3977239 
198.4      0.2562783  0.7364892  0.4462101 
198.5      0.2429078  0.7787616  0.4501794 
198.6      0.2412174  0.7874435  0.4309002 
198.7      0.2239109  0.8468558  0.4463504 
198.8      0.2225522  0.8555194  0.4497913 
198.9      0.2113441  0.9048445  0.5021493 
199        0.1998592  0.9635787  0.518936  
199.1      0.1864696  1          0.537021  
199.2      0.1800387  1          0.5363178 
199.3      0.1710132  1          0.5395115 
199.4      0.1618559  1          0.5936896 
199.5      0.164922   1          0.6153917 
199.6      0.1531523  1          0.6375484 
199.7      0.1383759  1          0.7164436 
199.8      0.1521969  1          0.6734162 
199.9      0.1576042  1          0.67982   
200        0.1612992  1          0.710272  
200.1      0.2004997  1          0.61799   
200.2      0.1795253  1          0.6960014 
200.3      0.2079784  1          0.6270943 
200.4      0.2145154  0.9920823  0.613749  
200.5      0.2200634  0.9605462  0.5717184 
200.6      0.1932375  1          0.6527743 
200.7      0.1733782  1          0.7175305 
200.8      0.1820788  1          0.6825178 
200.9      0.1448661  1          0.7933083 
201        0.1641087  1          0.7541521 
201.1      0.1861685  1          0.6984873 
201.2      0.178855   1          0.7347671 
201.3      0.1665164  1          0.7422233 
201.4      0.1407536  1          0.8118498 
201.5      0.1496609  1          0.787531  
201.6      0.1544526  1          0.7649951 
201.7      0.1630112  1          0.7389685 
201.8      0.1639326  1          0.7358578 
201.9      0.156135   1          0.7860891 
202        0.1712827  1          0.7339732 
202.1      0.1909259  1          0.6809477 
202.2      0.1991331  1          0.64205   
202.3      0.2102598  1          0.6035517 
202.4      0.2163153  0.9861205  0.5891155 
202.5      0.1882209  1          0.6837448 
202.6      0.1922779  1          0.6543749 
202.7      0.1788519  1          0.6867943 
202.8      0.1912419  1          0.6526896 
202.9      0.1635247  1          0.7362822 
203        0.1686599  1          0.7020536 
203.1      0.2089288  1          0.5966533 
203.2      0.2037235  1          0.6039816 
203.3      0.1947568  1          0.6413003 
203.4      0.2016653  1          0.6099121 
203.5      0.2153475  0.9993032  0.5677708 
203.6      0.210245   1          0.5674613 
203.7      0.2019426  1          0.6208685 
203.8      0.2005294  1          0.6331553 
203.9      0.1768021  1          0.7037725 
204        0.1764242  1          0.7028702 
204.1      0.1528643  1          0.7763731 
204.2      0.1429095  1          0.798295  
204.3      0.1416398  1          0.7923638 
204.4      0.1539335  1          0.7533422 
204.5      0.1231669  1          0.8357633 
204.6      0.1770529  1          0.7086063 
204.7      0.1841031  1          0.6856289 
204.8      0.1850346  1          0.6844963 
204.9      0.1743706  1          0.6973643 
205        0.1462879  1          0.7770706 
205.1      0.1479574  1          0.7540342 
205.2      0.1413714  1          0.7577609 
205.3      0.1604976  1          0.6881927 
205.4      0.1627092  1          0.6519082 
205.5      0.1734307  1          0.6298882 
205.6      0.165694   1          0.6304834 
205.7      0.1288718  1          0.697399  
205.8      0.1525855  1          0.5959297 
205.9      0.1445974  1          0.6050439 
206        0.1678957  1          0.5317597 
206.1      0.1628207  1          0.5513865 
206.2      0.1481054  1          0.613153  
206.3      0.170601   1          0.5815157 
206.4      0.1585944  1          0.6653914 
206.5      0.1578787  1          0.6635548 
206.6      0.1613892  1          0.661723  
206.7      0.1732591  1          0.6408531 
206.8      0.1797729  1          0.5955881 
206.9      0.1584504  1          0.6643173 
207        0.1602625  1          0.668387  
207.1      0.1794633  1          0.6267521 
207.2      0.170668   1          0.6583443 
207.3      0.2079867  0.966708   0.5509152 
207.4      0.1897383  1          0.592093  
207.5      0.1827313  1          0.6263207 
207.6      0.1740327  1          0.641043  
207.7      0.1837051  1          0.6270375 
207.8      0.181573   1          0.6285635 
207.9      0.200149   1          0.5572697 
208        0.2272552  0.8942381  0.4734174 
208.1      0.1991775  0.9994581  0.5177771 
208.2      0.198677   0.958191   0.4736329 
208.3      0.184122   0.967502   0.4699154 
208.4      0.1789311  0.9434416  0.4184803 
208.5      0.1947567  0.8458493  0.3222005 
208.6      0.2161689  0.747744   0.2661734 
208.7      0.2120019  0.7589508  0.2837581 
208.8      0.2085361  0.7883246  0.2858924 
208.9      0.2009308  0.8398256  0.3327934 
209        0.1947772  0.8828945  0.3717116 
209.1      0.2109283  0.8331287  0.3482606 
209.2      0.2187793  0.8265742  0.3506222 
209.3      0.2168056  0.870969   0.3679825 
209.4      0.2285295  0.8663144  0.3635121 
209.5      0.236882   0.8701748  0.3666928 
209.6      0.2278342  0.9149538  0.3991788 
209.7      0.201018   1          0.4774521 
209.8      0.1479834  1          0.6278024 
209.9      0.1225087  1          0.727051  
210        0.1214371  1          0.7314485 
210.1      0.1410247  1          0.6778773 
210.2      0.1866821  0.9952418  0.5482788 
210.3      0.22322    0.835586   0.4524013 
210.4      0.2276034  0.817419   0.4342164 
210.5      0.2470299  0.7552148  0.4022846 
210.6      0.2487768  0.7503642  0.414627  
210.7      0.267018   0.7023303  0.3532816 
210.8      0.2474061  0.7580187  0.4006741 
210.9      0.2593705  0.7295046  0.3614039 
211        0.2538528  0.7487633  0.3914497 
211.1      0.2535177  0.7515152  0.3906147 
211.2      0.2653487  0.7201958  0.3651935 
211.3      0.2923466  0.6603311  0.302949  
211.4      0.2864353  0.6801457  0.3208868 
211.5      0.2739839  0.7207327  0.357466  
211.6      0.2880162  0.6972596  0.3196079 
211.7      0.3040492  0.6658668  0.2876697 
211.8      0.3211649  0.6313692  0.2512997 
211.9      0.3328704  0.609807   0.2261011 
212        0.3286674  0.6192964  0.2323085 
212.1      0.3372152  0.6067544  0.20138   
212.2      0.3399979  0.6030604  0.1959148 
212.3      0.3425894  0.5992832  0.1892152 
212.4      0.3387958  0.606644   0.2059979 
212.5      0.3333353  0.6165976  0.2101648 
212.6      0.3373255  0.6089879  0.1976507 
212.7      0.3402677  0.6026079  0.1837447 
212.8      0.3419714  0.5978509  0.1742069 
212.9      0.3379544  0.6038004  0.1858038 
213        0.3224852  0.6331821  0.2086949 
213.1      0.3167663  0.6478179  0.231673  
213.2      0.3257324  0.6343138  0.2124853 
213.3      0.3348075  0.6173112  0.1845742 
