~Version
 VERS              .         3.0                           : CWLS LOG ASCII STANDARD - VERSION 3.0
 WRAP              .         NO                            : ONE LINE PER DEPTH STEP
 DLM               .         SPACE                         : DELIMITING CHARACTER(SPACE TAB OR COMMA)
~Well Information
#_______________________________________________________________________________
#
#PARAMETER_NAME    .UNIT     VALUE                         : DESCRIPTION
#_______________________________________________________________________________
STRT               .M        87                            : First reference value
STOP               .M        972                           : Last reference value
STEP               .M        0.1                           : Step increment
NULL               .         -9999                         : Missing value
COMP               .         ICPetroleum                   : Company
WELL               .         322                           : Well name
FLD                .         Karatobe                      : Field
LOC                .                                       : Location
SRVC               .                                       : Service Company
CTRY               .         KZ                            : Country
DATE               .                                       : Service Date
LATI               .         0                             : Latitude
LONG               .         0                             : Longitude
GDAT               .         WGS 84                        : Geodetic Datum
APDAT              .         -999.250                      : Elevation Above Permanent Datum
CNTY               .         KAZAHKSTAN                    : Country
COORDIN            .                                       : Grid System
COUNTRY            .         Kazakhstan                    : 
COUNTRY            .         Kazakhstan                    : 
DF                 .         -999.250                      : DF Elevation
DRMEA              .         -999.250                      : Drill Measured From
EPDAT              .         -999.250                      : Elevation of Permanent Datum
EREF               .m        144.3                         : 
GL                 .         -999.250                      : GL Elevation
GRP                .                                       : Group name
ISS                .                                       : Well surveys
KB                 .         -999.250                      : KB Elevation
LGMEA              .         -999.250                      : Log Measured from
ORIGINALWELLNAME   .         322                           : 
PROV               .                                       : Province
RWS                .         -999                          : Def_Rw
TIME               .                                       : LOG TIME
UWI                .                                       : Unique Well ID
WST                .         -999                          : Def_Rwt
X                  .km       466344.56                     : 
XCOORD             .                                       : X or East-West Coordinate
Y                  .km       5307588.29                    : 
YCOORD             .                                       : Y or North-South Coordinate
~Parameter Information Block
#_______________________________________________________________________________
#
#PARAMETER_NAME    .UNIT     VALUE                         : DESCRIPTION
#_______________________________________________________________________________
SET                .         Las                           : 
APD                .M        -999.250                      : 
AVST               .DEGC     -999.250                      : 
BHT                .DEGC     -999.250                      : 
BS                 .MM       -999.250                      : 
CBD                .M        -999.250                      : 
CBL                .M        -999.250                      : 
DFD                .G/C3     -999.250                      : 
DFL                .C3       -999.250                      : 
DFPH               .         -999.250                      : 
DFV                .S        -999.250                      : 
DMF                .M        -999.250                      : 
EDF                .M        -999.250                      : 
EGL                .M        -999.250                      : 
EKB                .M        -999.250                      : 
EPD                .M        -999.250                      : 
GSDD               .         DTP                           : DT,0,DEPT,,,,,0
LMF                .M        -999.250                      : 
MCST               .DEGC     -999.250                      : 
MFST               .DEGC     -999.250                      : 
MRT                .DEGC     -999.250                      : 
MST                .DEGC     -999.250                      : 
RMCS               .OHMM     -999.250                      : 
RMFS               .OHMM     -999.250                      : 
RMS                .OHMM     -999.250                      : 
TDD                .M        -999.250                      : 
TDL                .M        -999.250                      : 
TLFamily_DEPT      .         Measured Depth                : 
TLFamily_PHI_FINAL .         Porosity                      : 
TLFamily_SW_AR     .         Water Saturation              : 
TLFamily_VSH_FINAL .         Shale Volume                  : 
~Curve Information
#_______________________________________________________________________________
#
#LOGNAME           .UNIT     LOG_ID                        : DESCRIPTION
#_______________________________________________________________________________
DEPT               .M                                      : Depth curve {F}
PHI_FINAL          .m3/m3                                  : Porosity {F}
SW_AR              .m3/m3                                  :  {F}
VSH_FINAL          .unitless                               : Vshale {F}
~Ascii
# ...
486.4      0.1649664  1          0.5183451 
486.5      0.1925577  1          0.4407804 
486.6      0.2011997  1          0.3986914 
486.7      0.2151286  1          0.3369181 
486.8      0.2026227  1          0.3784208 
486.9      0.1904133  1          0.4034522 
487        0.1770503  1          0.4412136 
487.1      0.1867555  1          0.376891  
487.2      0.1797015  1          0.357952  
487.3      0.1844995  1          0.365099  
487.4      0.1803239  1          0.4112622 
487.5      0.1784003  1          0.4404975 
487.6      0.1859171  1          0.4200421 
487.7      0.1931949  1          0.4013168 
487.8      0.1886408  1          0.4257583 
487.9      0.1906756  1          0.4290613 
488        0.2158105  1          0.3331894 
488.1      0.2138225  1          0.3357811 
488.2      0.2162412  1          0.3600594 
488.3      0.2115695  1          0.4043412 
488.4      0.2037845  1          0.4196141 
488.5      0.2167143  1          0.4168141 
488.6      0.2177508  1          0.4289565 
488.7      0.2521909  1          0.358629  
488.8      0.277408   0.9556429  0.3175541 
488.9      0.3179985  0.8749279  0.2735991 
489        0.3618446  0.7551011  0.2244592 
489.1      0.3991712  0.6503786  0.1809362 
489.2      0.4416709  0.5791188  0.1424024 
489.3      0.4796045  0.5488535  0.09607177
489.4      0.4952095  0.5551841  0.09823424
489.5      0.4696198  0.6152107  0.1141733 
489.6      0.4193372  0.7066032  0.1285372 
489.7      0.3627404  0.784519   0.1822041 
489.8      0.3352694  0.8008831  0.2415629 
489.9      0.3025292  0.8568366  0.2493592 
490        0.255196   1          0.284857  
490.1      0.2072997  1          0.2983581 
490.2      0.1950183  1          0.3162679 
490.3      0.1766284  1          0.3729044 
490.4      0.1502916  1          0.4364281 
490.5      0.0981665  1          0.5681028 
490.6      0.07339915 1          0.6810482 
490.7      0.06367368 1          0.7354853 
490.8      0.02738236 1          0.8558687 
490.9      0.01188993 1          0.9391077 
491        0.004372475 1          0.9759578 
491.1      0.002436568 1          1         
491.2      0.002495566 1          1         
491.3      0.002318198 1          1         
491.4      0.002139866 1          1         
491.5      0.002094553 1          0.999755  
491.6      0.004202769 1          0.9623489 
491.7      0.001841023 1          1         
491.8      0.005581569 1          0.9283007 
491.9      0.0111574  1          0.8698992 
492        0.0444293  1          0.7258266 
492.1      0.05931124 1          0.7328248 
492.2      0.07117278 1          0.7498413 
492.3      0.1298026  1          0.6325016 
492.4      0.1448866  1          0.6375134 
492.5      0.2002487  1          0.4952865 
492.6      0.2355022  1          0.4449161 
492.7      0.2626419  1          0.3878712 
492.8      0.3091858  0.8543913  0.3357354 
492.9      0.3376507  0.7892087  0.2712127 
493        0.3539028  0.7648334  0.2359006 
493.1      0.3423498  0.753236   0.2101371 
493.2      0.3127497  0.7256835  0.2092357 
493.3      0.2674621  0.7502986  0.2129097 
493.4      0.2325932  0.8639627  0.1839294 
493.5      0.2129354  1          0.1355947 
493.6      0.1998832  1          0.126635  
493.7      0.188153   1          0.1418679 
493.8      0.1900629  1          0.1825472 
493.9      0.200667   1          0.210043  
494        0.2040973  1          0.2526189 
494.1      0.1896579  1          0.2937878 
494.2      0.1831324  1          0.3124112 
494.3      0.1560873  1          0.3844142 
494.4      0.1220787  1          0.4512704 
494.5      0.1011822  1          0.4712691 
494.6      0.07092366 1          0.5775551 
494.7      0.06768981 1          0.5876489 
494.8      0.04704477 1          0.6768677 
494.9      0.05551462 1          0.6315112 
495        0.06348082 1          0.5932828 
495.1      0.1203038  1          0.4653325 
495.2      0.1735141  1          0.3539028 
495.3      0.1822309  1          0.3298665 
495.4      0.1891502  1          0.3001915 
495.5      0.2028567  1          0.2678334 
495.6      0.1979579  1          0.2867715 
495.7      0.2050807  1          0.2837251 
495.8      0.1857518  1          0.3197727 
495.9      0.1771508  1          0.333819  
496        0.1788853  1          0.324338  
496.1      0.1733625  1          0.3693988 
496.2      0.1776944  1          0.3533574 
496.3      0.1776865  1          0.3816874 
496.4      0.1861857  1          0.3409565 
496.5      0.184699   1          0.33109   
496.6      0.1675701  1          0.3658565 
496.7      0.1473611  1          0.3912255 
496.8      0.1423646  1          0.4101642 
496.9      0.130835   1          0.4407371 
497        0.1172765  1          0.457064  
497.1      0.09515951 1          0.485401  
497.2      0.08752466 1          0.5260811 
497.3      0.07618007 1          0.585876  
497.4      0.06839811 1          0.6133235 
497.5      0.07828354 1          0.6149461 
497.6      0.08850762 1          0.6003676 
497.7      0.1003555  1          0.6010283 
497.8      0.1137366  1          0.5904025 
497.9      0.1310883  1          0.5607184 
498        0.1307071  1          0.6103414 
498.1      0.1521382  1          0.5695682 
498.2      0.1631625  1          0.5816894 
498.3      0.1819739  1          0.5706555 
498.4      0.2197772  1          0.542192  
498.5      0.2415977  1          0.5309804 
498.6      0.2514927  1          0.5134379 
498.7      0.237115   1          0.5162995 
498.8      0.2183047  1          0.4905241 
498.9      0.1882916  1          0.4934338 
499        0.2005888  1          0.3895957 
499.1      0.205777   1          0.3351679 
499.2      0.2143234  1          0.2624778 
499.3      0.2117997  1          0.2591729 
499.4      0.2007025  1          0.2436708 
499.5      0.193603   1          0.2394919 
499.6      0.1866904  1          0.227071  
499.7      0.1931568  1          0.2011072 
499.8      0.2007124  1          0.1939861 
499.9      0.2008695  1          0.1908187 
500        0.1859889  1          0.1957617 
500.1      0.1729524  1          0.2069604 
500.2      0.1753214  1          0.2132392 
500.3      0.1806488  1          0.2114493 
500.4      0.1956039  1          0.201041  
500.5      0.1975826  1          0.2020268 
500.6      0.2152548  1          0.1582949 
500.7      0.2139726  1          0.1428462 
500.8      0.2152275  0.9803932  0.1424647 
500.9      0.2066337  0.9930243  0.1430041 
501        0.2057444  1          0.1490954 
501.1      0.2149522  1          0.1480108 
501.2      0.2443794  0.9348218  0.1305373 
501.3      0.2617859  0.9179605  0.1323331 
501.4      0.2783481  0.9070894  0.1148609 
501.5      0.2872557  0.9232616  0.1291131 
501.6      0.3001158  0.9296759  0.1332944 
501.7      0.3014009  0.9557677  0.1341071 
501.8      0.2971344  0.9817429  0.1513924 
501.9      0.2841688  1          0.1554266 
502        0.2724435  1          0.1534756 
502.1      0.246037   1          0.1878092 
502.2      0.2237421  1          0.1971482 
502.3      0.2178475  1          0.1865235 
502.4      0.2024673  1          0.1977179 
502.5      0.1924487  1          0.1881022 
502.6      0.1932905  1          0.176198  
502.7      0.1860749  1          0.2164881 
502.8      0.1874805  1          0.2445557 
502.9      0.168083   1          0.3086394 
503        0.1467807  1          0.3602475 
503.1      0.1426608  1          0.3552953 
503.2      0.1275894  1          0.4125025 
503.3      0.1443994  1          0.3712062 
503.4      0.1606902  1          0.3164089 
503.5      0.1695626  1          0.3259207 
503.6      0.1556412  1          0.3791568 
503.7      0.1440255  1          0.4240829 
503.8      0.1441023  1          0.4236161 
503.9      0.1278273  1          0.4171391 
504        0.12247    1          0.4280673 
504.1      0.1016421  1          0.4512793 
504.2      0.09636346 1          0.4747852 
504.3      0.1117592  1          0.4455378 
504.4      0.09439544 1          0.4832023 
504.5      0.09396405 1          0.5202622 
