~Version
 VERS              .         3.0                           : CWLS LOG ASCII STANDARD - VERSION 3.0
 WRAP              .         NO                            : ONE LINE PER DEPTH STEP
 DLM               .         SPACE                         : DELIMITING CHARACTER(SPACE TAB OR COMMA)
~Well Information
#_______________________________________________________________________________
#
#PARAMETER_NAME    .UNIT     VALUE                         : DESCRIPTION
#_______________________________________________________________________________
STRT               .M        87                            : First reference value
STOP               .M        972                           : Last reference value
STEP               .M        0.1                           : Step increment
NULL               .         -9999                         : Missing value
COMP               .         ICPetroleum                   : Company
WELL               .         322                           : Well name
FLD                .         Karatobe                      : Field
LOC                .                                       : Location
SRVC               .                                       : Service Company
CTRY               .         KZ                            : Country
DATE               .                                       : Service Date
LATI               .         0                             : Latitude
LONG               .         0                             : Longitude
GDAT               .         WGS 84                        : Geodetic Datum
APDAT              .         -999.250                      : Elevation Above Permanent Datum
CNTY               .         KAZAHKSTAN                    : Country
COORDIN            .                                       : Grid System
COUNTRY            .         Kazakhstan                    : 
COUNTRY            .         Kazakhstan                    : 
DF                 .         -999.250                      : DF Elevation
DRMEA              .         -999.250                      : Drill Measured From
EPDAT              .         -999.250                      : Elevation of Permanent Datum
EREF               .m        144.3                         : 
GL                 .         -999.250                      : GL Elevation
GRP                .                                       : Group name
ISS                .                                       : Well surveys
KB                 .         -999.250                      : KB Elevation
LGMEA              .         -999.250                      : Log Measured from
ORIGINALWELLNAME   .         322                           : 
PROV               .                                       : Province
RWS                .         -999                          : Def_Rw
TIME               .                                       : LOG TIME
UWI                .                                       : Unique Well ID
WST                .         -999                          : Def_Rwt
X                  .km       466344.56                     : 
XCOORD             .                                       : X or East-West Coordinate
Y                  .km       5307588.29                    : 
YCOORD             .                                       : Y or North-South Coordinate
~Parameter Information Block
#_______________________________________________________________________________
#
#PARAMETER_NAME    .UNIT     VALUE                         : DESCRIPTION
#_______________________________________________________________________________
SET                .         Las                           : 
APD                .M        -999.250                      : 
AVST               .DEGC     -999.250                      : 
BHT                .DEGC     -999.250                      : 
BS                 .MM       -999.250                      : 
CBD                .M        -999.250                      : 
CBL                .M        -999.250                      : 
DFD                .G/C3     -999.250                      : 
DFL                .C3       -999.250                      : 
DFPH               .         -999.250                      : 
DFV                .S        -999.250                      : 
DMF                .M        -999.250                      : 
EDF                .M        -999.250                      : 
EGL                .M        -999.250                      : 
EKB                .M        -999.250                      : 
EPD                .M        -999.250                      : 
GSDD               .         DTP                           : DT,0,DEPT,,,,,0
LMF                .M        -999.250                      : 
MCST               .DEGC     -999.250                      : 
MFST               .DEGC     -999.250                      : 
MRT                .DEGC     -999.250                      : 
MST                .DEGC     -999.250                      : 
RMCS               .OHMM     -999.250                      : 
RMFS               .OHMM     -999.250                      : 
RMS                .OHMM     -999.250                      : 
TDD                .M        -999.250                      : 
TDL                .M        -999.250                      : 
TLFamily_DEPT      .         Measured Depth                : 
TLFamily_PHI_FINAL .         Porosity                      : 
TLFamily_SW_AR     .         Water Saturation              : 
TLFamily_VSH_FINAL .         Shale Volume                  : 
~Curve Information
#_______________________________________________________________________________
#
#LOGNAME           .UNIT     LOG_ID                        : DESCRIPTION
#_______________________________________________________________________________
DEPT               .M                                      : Depth curve {F}
PHI_FINAL          .m3/m3                                  : Porosity {F}
SW_AR              .m3/m3                                  :  {F}
VSH_FINAL          .unitless                               : Vshale {F}
~Ascii
# ...
450        0.164752   1          0.2722271 
450.1      0.1684741  1          0.2674481 
450.2      0.1720181  1          0.2675159 
450.3      0.1854338  1          0.270247  
450.4      0.2015245  1          0.2740986 
450.5      0.2187933  1          0.277284  
450.6      0.2389137  0.9978867  0.2919832 
450.7      0.2583005  0.9752414  0.3029299 
450.8      0.2900157  0.9313219  0.2938109 
450.9      0.3057259  0.9301222  0.3180712 
451        0.3350265  0.8746263  0.3344279 
451.1      0.3043418  0.9648103  0.4160806 
451.2      0.2880373  1          0.4632907 
451.3      0.2877821  1          0.4958405 
451.4      0.2888525  1          0.4906078 
451.5      0.2958747  0.9535135  0.4754799 
451.6      0.3184948  0.8746331  0.4101148 
451.7      0.3016086  0.92511    0.460691  
451.8      0.2937345  0.9660018  0.4682953 
451.9      0.2831678  1          0.4512115 
452        0.2419446  1          0.5297099 
452.1      0.198645   1          0.5857522 
452.2      0.1840413  1          0.5845457 
452.3      0.1972443  1          0.5372537 
452.4      0.2092297  1          0.4827662 
452.5      0.1946303  1          0.5087805 
452.6      0.2228641  1          0.4249884 
452.7      0.2181033  1          0.4095319 
452.8      0.1865951  1          0.4550208 
452.9      0.1132863  1          0.5946835 
453        0.06313881 1          0.6304035 
453.1      0.05418864 1          0.643811  
453.2      0.05085171 1          0.6603754 
453.3      0.04390856 1          0.6897549 
453.4      0.04677502 1          0.7003168 
453.5      0.04612076 1          0.6775377 
453.6      0.0569661  1          0.6470025 
453.7      0.07711557 1          0.603725  
453.8      0.08092314 1          0.5944797 
453.9      0.08184183 1          0.6077876 
454        0.09692713 1          0.5457473 
454.1      0.0825552  1          0.580351  
454.2      0.1133117  1          0.4924282 
454.3      0.1375368  1          0.4150524 
454.4      0.1587415  1          0.3852866 
454.5      0.2047522  1          0.3802892 
454.6      0.216406   1          0.3572589 
454.7      0.2193133  1          0.3512252 
454.8      0.2223532  1          0.340276  
454.9      0.2341434  1          0.2817503 
455        0.2318707  1          0.2920562 
455.1      0.2248202  1          0.3000736 
455.2      0.2313623  1          0.3083707 
455.3      0.2480408  1          0.2945827 
455.4      0.2279029  1          0.3390821 
455.5      0.2003541  1          0.4072322 
455.6      0.1801811  1          0.4787902 
455.7      0.1451154  1          0.6139481 
455.8      0.07106585 1          0.8006488 
455.9      0.02052641 1          0.9383791 
456        0.009428854 1          0.9869954 
456.1      0.01031641 1          1         
456.2      0.01652197 1          1         
456.3      0.02040585 1          1         
456.4      0.02409299 1          1         
456.5      0.0598696  1          0.9230223 
456.6      0.1154214  1          0.8168146 
456.7      0.1293796  1          0.8116755 
456.8      0.2019762  1          0.6459841 
456.9      0.2539658  0.9911715  0.561448  
457        0.2928914  0.8573509  0.4487604 
457.1      0.2719962  0.9253345  0.4525743 
457.2      0.2415786  1          0.4501278 
457.3      0.2062813  1          0.4557525 
457.4      0.1578405  1          0.458254  
457.5      0.1041864  1          0.5177379 
457.6      0.08344769 1          0.5558799 
457.7      0.09388387 1          0.5214621 
457.8      0.1086547  1          0.486037  
457.9      0.09955712 1          0.5106216 
458        0.09720182 1          0.5275159 
458.1      0.1010728  1          0.5156363 
458.2      0.0659856  1          0.5984766 
458.3      0.0556456  1          0.6208006 
458.4      0.038388   1          0.6877036 
458.5      0.03878755 1          0.6782003 
458.6      0.05967397 1          0.6125299 
458.7      0.05509683 1          0.6605838 
458.8      0.07235884 1          0.6231    
458.9      0.1022486  1          0.5665294 
459        0.09459605 1          0.6665339 
459.1      0.1455625  1          0.5847296 
459.2      0.1543837  1          0.63946   
459.3      0.194388   1          0.5584717 
459.4      0.23582    1          0.4873645 
459.5      0.2748895  0.967806   0.4207652 
459.6      0.3401288  0.7389628  0.3272818 
459.7      0.4176795  0.5807759  0.2311918 
459.8      0.4570797  0.5588473  0.1966952 
459.9      0.4657964  0.5856789  0.1628864 
460        0.4473182  0.6261972  0.2008947 
460.1      0.3956355  0.7075777  0.2638484 
460.2      0.3414121  0.8362973  0.370944  
460.3      0.2918767  0.9977156  0.4551377 
460.4      0.2367638  1          0.5760717 
460.5      0.1868176  1          0.6604787 
460.6      0.1308187  1          0.7229295 
460.7      0.1145783  1          0.7329842 
460.8      0.06359705 1          0.8616105 
460.9      0.0676954  1          0.8557028 
461        0.06640604 1          0.8057047 
461.1      0.1003755  1          0.6551485 
461.2      0.0746056  1          0.6841807 
461.3      0.07626919 1          0.6431317 
461.4      0.08073945 1          0.5861558 
461.5      0.08404947 1          0.5540755 
461.6      0.07497369 1          0.5980155 
461.7      0.09991825 1          0.5179183 
461.8      0.1003367  1          0.5279668 
461.9      0.08756169 1          0.579253  
462        0.1022882  1          0.5002396 
462.1      0.1011338  1          0.5164638 
462.2      0.1108778  1          0.4994544 
462.3      0.1041123  1          0.5289621 
462.4      0.1192043  1          0.5328176 
462.5      0.1181282  1          0.4963409 
462.6      0.1138093  1          0.484942  
462.7      0.1496574  1          0.4040282 
462.8      0.1586356  1          0.3896936 
462.9      0.1571987  1          0.3981348 
463        0.1514958  1          0.4492007 
463.1      0.1736739  1          0.4783341 
463.2      0.1538173  1          0.5855792 
463.3      0.138126   1          0.6424553 
463.4      0.1313543  1          0.5885795 
463.5      0.148043   1          0.5468901 
463.6      0.1617066  1          0.5190709 
463.7      0.1996396  1          0.445102  
463.8      0.2284117  1          0.3888073 
463.9      0.2646122  0.9602941  0.3277597 
464        0.2924175  0.8971408  0.30025   
464.1      0.3255873  0.8329678  0.261606  
464.2      0.3567054  0.7781458  0.2527828 
464.3      0.3844274  0.7169732  0.2180095 
464.4      0.431004   0.6115758  0.1765424 
464.5      0.4720229  0.5291542  0.1148668 
464.6      0.5145966  0.4757626  0.06593592
464.7      0.5407811  0.4677157  0.0362432 
464.8      0.5561942  0.484968   0.02351915
464.9      0.5608224  0.4876541  0.03429919
465        0.5520012  0.4790935  0.03656719
465.1      0.5410876  0.4780205  0.04360719
465.2      0.5191072  0.5229063  0.06174435
465.3      0.4839424  0.61414    0.08507154
465.4      0.4350049  0.7266241  0.1361214 
465.5      0.3592867  0.9100327  0.2087625 
465.6      0.2934172  1          0.2676302 
465.7      0.2243098  1          0.3396553 
465.8      0.1771664  1          0.3909751 
465.9      0.1366699  1          0.5071813 
466        0.1211941  1          0.5306748 
466.1      0.08251686 1          0.5846437 
466.2      0.09264514 1          0.4865329 
466.3      0.09510118 1          0.441832  
466.4      0.09242091 1          0.4186962 
466.5      0.08347545 1          0.463571  
466.6      0.0801614  1          0.4746964 
466.7      0.06836623 1          0.5099096 
466.8      0.0695659  1          0.5197949 
466.9      0.07735759 1          0.5185536 
467        0.1091495  1          0.4590347 
467.1      0.1182667  1          0.470679  
467.2      0.1409534  1          0.442185  
467.3      0.1478735  1          0.47549   
467.4      0.1520774  1          0.5004503 
467.5      0.1643183  1          0.492665  
467.6      0.1812284  1          0.4875114 
467.7      0.2125407  1          0.4553139 
467.8      0.2409064  1          0.4468104 
467.9      0.2600398  1          0.4868396 
468        0.2751439  1          0.4916939 
468.1      0.2783734  1          0.5099205 
