~Version
 VERS              .         3.0                           : CWLS LOG ASCII STANDARD - VERSION 3.0
 WRAP              .         NO                            : ONE LINE PER DEPTH STEP
 DLM               .         SPACE                         : DELIMITING CHARACTER(SPACE TAB OR COMMA)
~Well Information
#_______________________________________________________________________________
#
#PARAMETER_NAME    .UNIT     VALUE                         : DESCRIPTION
#_______________________________________________________________________________
STRT               .M        87                            : First reference value
STOP               .M        972                           : Last reference value
STEP               .M        0.1                           : Step increment
NULL               .         -9999                         : Missing value
COMP               .         ICPetroleum                   : Company
WELL               .         322                           : Well name
FLD                .         Karatobe                      : Field
LOC                .                                       : Location
SRVC               .                                       : Service Company
CTRY               .         KZ                            : Country
DATE               .                                       : Service Date
LATI               .         0                             : Latitude
LONG               .         0                             : Longitude
GDAT               .         WGS 84                        : Geodetic Datum
APDAT              .         -999.250                      : Elevation Above Permanent Datum
CNTY               .         KAZAHKSTAN                    : Country
COORDIN            .                                       : Grid System
COUNTRY            .         Kazakhstan                    : 
COUNTRY            .         Kazakhstan                    : 
DF                 .         -999.250                      : DF Elevation
DRMEA              .         -999.250                      : Drill Measured From
EPDAT              .         -999.250                      : Elevation of Permanent Datum
EREF               .m        144.3                         : 
GL                 .         -999.250                      : GL Elevation
GRP                .                                       : Group name
ISS                .                                       : Well surveys
KB                 .         -999.250                      : KB Elevation
LGMEA              .         -999.250                      : Log Measured from
ORIGINALWELLNAME   .         322                           : 
PROV               .                                       : Province
RWS                .         -999                          : Def_Rw
TIME               .                                       : LOG TIME
UWI                .                                       : Unique Well ID
WST                .         -999                          : Def_Rwt
X                  .km       466344.56                     : 
XCOORD             .                                       : X or East-West Coordinate
Y                  .km       5307588.29                    : 
YCOORD             .                                       : Y or North-South Coordinate
~Parameter Information Block
#_______________________________________________________________________________
#
#PARAMETER_NAME    .UNIT     VALUE                         : DESCRIPTION
#_______________________________________________________________________________
SET                .         Las                           : 
APD                .M        -999.250                      : 
AVST               .DEGC     -999.250                      : 
BHT                .DEGC     -999.250                      : 
BS                 .MM       -999.250                      : 
CBD                .M        -999.250                      : 
CBL                .M        -999.250                      : 
DFD                .G/C3     -999.250                      : 
DFL                .C3       -999.250                      : 
DFPH               .         -999.250                      : 
DFV                .S        -999.250                      : 
DMF                .M        -999.250                      : 
EDF                .M        -999.250                      : 
EGL                .M        -999.250                      : 
EKB                .M        -999.250                      : 
EPD                .M        -999.250                      : 
GSDD               .         DTP                           : DT,0,DEPT,,,,,0
LMF                .M        -999.250                      : 
MCST               .DEGC     -999.250                      : 
MFST               .DEGC     -999.250                      : 
MRT                .DEGC     -999.250                      : 
MST                .DEGC     -999.250                      : 
RMCS               .OHMM     -999.250                      : 
RMFS               .OHMM     -999.250                      : 
RMS                .OHMM     -999.250                      : 
TDD                .M        -999.250                      : 
TDL                .M        -999.250                      : 
TLFamily_DEPT      .         Measured Depth                : 
TLFamily_PHI_FINAL .         Porosity                      : 
TLFamily_SW_AR     .         Water Saturation              : 
TLFamily_VSH_FINAL .         Shale Volume                  : 
~Curve Information
#_______________________________________________________________________________
#
#LOGNAME           .UNIT     LOG_ID                        : DESCRIPTION
#_______________________________________________________________________________
DEPT               .M                                      : Depth curve {F}
PHI_FINAL          .m3/m3                                  : Porosity {F}
SW_AR              .m3/m3                                  :  {F}
VSH_FINAL          .unitless                               : Vshale {F}
~Ascii
# ...
941.4      0.02677164 1          0         
941.5      0.02538355 1          0         
941.6      0.02710239 1          0         
941.7      0.02950291 1          0         
941.8      0.02995468 1          0         
941.9      0.02657206 1          0         
942        0.01317334 1          0         
942.1      0.0001125471 1          0         
942.2      0.003027627 1          0         
942.3      0.02064078 1          0         
942.4      0.03590939 1          0         
942.5      0.03640503 1          0         
942.6      0.03572712 1          0         
942.7      0.03673843 1          0         
942.8      0.03694781 1          0         
942.9      0.03736649 1          0         
943        0.03908689 1          0         
943.1      0.04147641 1          0         
943.2      0.04182489 1          0         
943.3      0.0381677  1          0         
943.4      0.03430286 1          0         
943.5      0.0338914  1          0         
943.6      0.03573323 1          0         
943.7      0.03732223 1          0         
943.8      0.036246   1          0         
943.9      0.03452071 1          0         
944        0.03440268 1          0         
944.1      0.03626508 1          0         
944.2      0.03933122 1          0         
944.3      0.04017595 1          0         
944.4      0.04074634 1          0         
944.5      0.04148835 1          0         
944.6      0.04066996 1          0         
944.7      0.04019638 1          0         
944.8      0.04241025 1          0         
944.9      0.04535669 1          0         
945        0.04640391 1          0         
945.1      0.04339851 1          0         
945.2      0.03801122 1          0         
945.3      0.03242464 1          0         
945.4      0.03024756 1          0         
945.5      0.03106423 1          0         
945.6      0.03366312 1          0         
945.7      0.0338408  1          0         
945.8      0.03209383 1          0         
945.9      0.03111004 1          0         
946        0.03337914 1          0         
946.1      0.03520517 1          0         
946.2      0.03507128 1          0         
946.3      0.03482373 1          0         
946.4      0.03640464 1          0         
946.5      0.03758667 1          0         
946.6      0.03562859 1          0         
946.7      0.03276351 1          0         
946.8      0.03370085 1          0         
946.9      0.03816506 1          0         
947        0.04261839 1          0         
947.1      0.04334969 1          0         
947.2      0.04063256 1          0         
947.3      0.03627596 1          0         
947.4      0.03304518 1          0         
947.5      0.03259866 1          0         
947.6      0.03419582 1          0         
947.7      0.03658461 1          0         
947.8      0.03766262 1          0         
947.9      0.03702492 1          0         
948        0.03801547 1          0         
948.1      0.03899302 1          0         
948.2      0.04064351 1          0         
948.3      0.04187204 1          0         
948.4      0.04234749 1          0         
948.5      0.04133267 1          0         
948.6      0.04022396 1          0         
948.7      0.03896248 1          0         
948.8      0.03768747 1          0         
948.9      0.03618478 1          0         
949        0.0357614  1          0         
949.1      0.0374287  1          0         
949.2      0.03850335 1          0         
949.3      0.03897062 1          0         
949.4      0.0390662  1          0         
949.5      0.0404035  1          0         
949.6      0.04284578 1          0         
949.7      0.04533572 1          0         
949.8      0.04606572 1          0         
949.9      0.04387047 1          0         
950        0.04180906 1          0         
950.1      0.04125736 1          0         
950.2      0.04320281 1          0         
950.3      0.04517262 1          0         
950.4      0.04624155 1          0         
950.5      0.04467226 1          0         
950.6      0.04084165 1          0         
950.7      0.03704106 1          0         
950.8      0.03499037 1          0         
950.9      0.03649946 1          0         
951        0.03934157 1          0         
951.1      0.04093238 1          0         
951.2      0.04055857 1          0         
951.3      0.03774093 1          0         
951.4      0.03281025 1          0         
951.5      0.0313058  1          0         
951.6      0.0336189  1          0         
951.7      0.03530395 1          0         
951.8      0.03659643 1          0         
951.9      0.03711607 1          0         
952        0.03704667 1          0         
952.1      0.03593259 1          0.0004926558
952.2      0.03103747 1          0.01093316
952.3      0.03421491 1          0.003483071
952.4      0.03674216 1          0         
952.5      0.03748684 1          0         
952.6      0.0369936  1          0         
952.7      0.03647546 1          0         
952.8      0.0369354  1          0         
952.9      0.03924143 1          0         
953        0.04169666 1          0         
953.1      0.04305634 1          0         
953.2      0.0419925  1          0         
953.3      0.03934181 1          0         
953.4      0.03672911 1          0         
953.5      0.03595945 1          0         
953.6      0.0369176  1          0         
953.7      0.03734217 1          0         
953.8      0.03557139 1          0         
953.9      0.03341072 1          0         
954        0.03321958 1          0         
954.1      0.03457937 1          0         
954.2      0.03696975 1          0         
954.3      0.03935071 1          0         
954.4      0.04098623 1          0         
954.5      0.04060689 1          0         
954.6      0.03783004 1          0         
954.7      0.03330969 1          0         
954.8      0.03036359 1          0         
954.9      0.03027336 1          0         
955        0.03204218 1          0         
955.1      0.03292074 1          0         
955.2      0.02836809 1          0         
955.3      0.02306887 1          0         
955.4      0.02404212 1          0         
955.5      0.03090688 1          0         
955.6      0.03668125 1          0         
955.7      0.03543963 1          0         
955.8      0.02976469 1          0         
955.9      0.02515315 1          0         
956        0.0243161  1          0         
956.1      0.02765296 1          0         
956.2      0.02883985 1          0         
956.3      0.02700384 1          0         
956.4      0.0243742  1          0         
956.5      0.02470538 1          0         
956.6      0.02517854 1          0         
956.7      0.0224565  1          0         
956.8      0.01816758 1          0         
956.9      0.0169033  1          0         
957        -9999      -9999      0         
957.1      -9999      -9999      0         
957.2      -9999      -9999      0         
957.3      -9999      -9999      0         
957.4      -9999      -9999      0         
957.5      -9999      -9999      0         
957.6      -9999      -9999      0         
957.7      -9999      -9999      0         
957.8      -9999      -9999      0         
957.9      -9999      -9999      0         
958        -9999      -9999      0         
958.1      -9999      -9999      0         
958.2      -9999      -9999      0         
958.3      -9999      -9999      0         
958.4      -9999      -9999      0         
958.5      -9999      -9999      0         
958.6      -9999      -9999      0         
958.7      -9999      -9999      0         
958.8      -9999      -9999      0         
958.9      -9999      -9999      0         
959        -9999      -9999      0         
959.1      -9999      -9999      0         
959.2      -9999      -9999      0         
959.3      -9999      -9999      0         
959.4      -9999      -9999      0         
959.5      -9999      -9999      0         
