~Version
 VERS              .         3.0                           : CWLS LOG ASCII STANDARD - VERSION 3.0
 WRAP              .         NO                            : ONE LINE PER DEPTH STEP
 DLM               .         SPACE                         : DELIMITING CHARACTER(SPACE TAB OR COMMA)
~Well Information
#_______________________________________________________________________________
#
#PARAMETER_NAME    .UNIT     VALUE                         : DESCRIPTION
#_______________________________________________________________________________
STRT               .M        87                            : First reference value
STOP               .M        972                           : Last reference value
STEP               .M        0.1                           : Step increment
NULL               .         -9999                         : Missing value
COMP               .         ICPetroleum                   : Company
WELL               .         322                           : Well name
FLD                .         Karatobe                      : Field
LOC                .                                       : Location
SRVC               .                                       : Service Company
CTRY               .         KZ                            : Country
DATE               .                                       : Service Date
LATI               .         0                             : Latitude
LONG               .         0                             : Longitude
GDAT               .         WGS 84                        : Geodetic Datum
APDAT              .         -999.250                      : Elevation Above Permanent Datum
CNTY               .         KAZAHKSTAN                    : Country
COORDIN            .                                       : Grid System
COUNTRY            .         Kazakhstan                    : 
COUNTRY            .         Kazakhstan                    : 
DF                 .         -999.250                      : DF Elevation
DRMEA              .         -999.250                      : Drill Measured From
EPDAT              .         -999.250                      : Elevation of Permanent Datum
EREF               .m        144.3                         : 
GL                 .         -999.250                      : GL Elevation
GRP                .                                       : Group name
ISS                .                                       : Well surveys
KB                 .         -999.250                      : KB Elevation
LGMEA              .         -999.250                      : Log Measured from
ORIGINALWELLNAME   .         322                           : 
PROV               .                                       : Province
RWS                .         -999                          : Def_Rw
TIME               .                                       : LOG TIME
UWI                .                                       : Unique Well ID
WST                .         -999                          : Def_Rwt
X                  .km       466344.56                     : 
XCOORD             .                                       : X or East-West Coordinate
Y                  .km       5307588.29                    : 
YCOORD             .                                       : Y or North-South Coordinate
~Parameter Information Block
#_______________________________________________________________________________
#
#PARAMETER_NAME    .UNIT     VALUE                         : DESCRIPTION
#_______________________________________________________________________________
SET                .         Las                           : 
APD                .M        -999.250                      : 
AVST               .DEGC     -999.250                      : 
BHT                .DEGC     -999.250                      : 
BS                 .MM       -999.250                      : 
CBD                .M        -999.250                      : 
CBL                .M        -999.250                      : 
DFD                .G/C3     -999.250                      : 
DFL                .C3       -999.250                      : 
DFPH               .         -999.250                      : 
DFV                .S        -999.250                      : 
DMF                .M        -999.250                      : 
EDF                .M        -999.250                      : 
EGL                .M        -999.250                      : 
EKB                .M        -999.250                      : 
EPD                .M        -999.250                      : 
GSDD               .         DTP                           : DT,0,DEPT,,,,,0
LMF                .M        -999.250                      : 
MCST               .DEGC     -999.250                      : 
MFST               .DEGC     -999.250                      : 
MRT                .DEGC     -999.250                      : 
MST                .DEGC     -999.250                      : 
RMCS               .OHMM     -999.250                      : 
RMFS               .OHMM     -999.250                      : 
RMS                .OHMM     -999.250                      : 
TDD                .M        -999.250                      : 
TDL                .M        -999.250                      : 
TLFamily_DEPT      .         Measured Depth                : 
TLFamily_PHI_FINAL .         Porosity                      : 
TLFamily_SW_AR     .         Water Saturation              : 
TLFamily_VSH_FINAL .         Shale Volume                  : 
~Curve Information
#_______________________________________________________________________________
#
#LOGNAME           .UNIT     LOG_ID                        : DESCRIPTION
#_______________________________________________________________________________
DEPT               .M                                      : Depth curve {F}
PHI_FINAL          .m3/m3                                  : Porosity {F}
SW_AR              .m3/m3                                  :  {F}
VSH_FINAL          .unitless                               : Vshale {F}
~Ascii
# ...
249.8      0.1289587  1          0.7314636 
249.9      0.1487376  1          0.6854119 
250        0.1407756  1          0.7033906 
250.1      0.1228044  1          0.757995  
250.2      0.1438225  1          0.6758088 
250.3      0.1298937  1          0.7133694 
250.4      0.1116843  1          0.7304375 
250.5      0.1126037  1          0.6923319 
250.6      0.09723324 1          0.7071832 
250.7      0.09724241 1          0.7308324 
250.8      0.09050432 1          0.7862031 
250.9      0.08529699 1          0.8379653 
251        0.114333   1          0.8035453 
251.1      0.118455   1          0.7880002 
251.2      0.1044419  1          0.8041044 
251.3      0.1145383  1          0.6983201 
251.4      0.1009584  1          0.6848744 
251.5      0.08362913 1          0.7223375 
251.6      0.07516775 1          0.7485409 
251.7      0.08409711 1          0.7824576 
251.8      0.09587544 1          0.7895144 
251.9      0.06175838 1          0.9257356 
252        0.07205858 1          0.8955055 
252.1      0.06709146 1          0.9221836 
252.2      0.05407647 1          0.9631553 
252.3      0.05637352 1          0.9464527 
252.4      0.06524076 1          0.892666  
252.5      0.05404636 1          0.8949887 
252.6      0.05910639 1          0.9111448 
252.7      0.06657455 1          0.8835179 
252.8      0.04259622 1          1         
252.9      0.08451622 1          0.8949493 
253        0.1128281  1          0.8563495 
253.1      0.1237867  1          0.8238844 
253.2      0.1072863  1          0.8587303 
253.3      0.1079355  1          0.8322828 
253.4      0.1389999  1          0.7105587 
253.5      0.1503933  1          0.6756296 
253.6      0.1604032  1          0.642473  
253.7      0.1566001  1          0.6521215 
253.8      0.1690189  1          0.6224621 
253.9      0.1622888  1          0.6451542 
254        0.1668825  1          0.6626207 
254.1      0.1794245  1          0.666788  
254.2      0.185309   1          0.6256446 
254.3      0.1869615  1          0.6029289 
254.4      0.1697857  1          0.622963  
254.5      0.1506623  1          0.6839305 
254.6      0.1324955  1          0.7215219 
254.7      0.09164643 1          0.8551883 
254.8      0.04523535 1          1         
254.9      0.0730463  1          0.9301853 
255        0.07887497 1          0.9140406 
255.1      0.09427213 1          0.8542672 
255.2      0.1230191  1          0.7533414 
255.3      0.147661   1          0.6825098 
255.4      0.1299207  1          0.7156851 
255.5      0.1256791  1          0.7014788 
255.6      0.1344256  1          0.6540074 
255.7      0.1394408  1          0.6225147 
255.8      0.144838   1          0.5891615 
255.9      0.132825   1          0.6151756 
256        0.144133   1          0.5785924 
256.1      0.138497   1          0.59101   
256.2      0.1373455  1          0.5900578 
256.3      0.1183928  1          0.6279643 
256.4      0.1285499  1          0.5775869 
256.5      0.1239946  1          0.5904098 
256.6      0.1255222  1          0.6017385 
256.7      0.1388248  1          0.5422182 
256.8      0.1067994  1          0.630833  
256.9      0.1171602  1          0.591521  
257        0.1259248  1          0.5612943 
257.1      0.1521001  1          0.4995473 
257.2      0.1406784  1          0.5280606 
257.3      0.1556015  1          0.4988379 
257.4      0.1562868  1          0.499869  
257.5      0.1735326  1          0.449574  
257.6      0.1602485  1          0.4749288 
257.7      0.1462986  1          0.506141  
257.8      0.1808737  1          0.3947895 
257.9      0.174531   1          0.3771819 
258        0.1641691  0.9464666  0.3560282 
258.1      0.1724352  0.8707497  0.3265235 
258.2      0.1769714  0.8936844  0.2798754 
258.3      0.1836072  0.9307048  0.2529297 
258.4      0.1802129  1          0.2957897 
258.5      0.1931067  1          0.3100645 
258.6      0.2168512  1          0.3327082 
258.7      0.2210331  1          0.3936706 
258.8      0.208111   1          0.4874605 
258.9      0.1965242  1          0.5222166 
259        0.2069172  1          0.4869486 
259.1      0.1845141  1          0.5790385 
259.2      0.1991792  1          0.5219702 
259.3      0.1673885  1          0.6049391 
259.4      0.1492995  1          0.6655661 
259.5      0.1647085  1          0.6255319 
259.6      0.1680043  1          0.6517156 
259.7      0.1759937  1          0.6441965 
259.8      0.196412   1          0.5870278 
259.9      0.1783766  1          0.6330112 
260        0.163453   1          0.6691681 
260.1      0.157917   1          0.6412381 
260.2      0.1154117  1          0.7272952 
260.3      0.1181747  1          0.6810696 
260.4      0.1280643  1          0.6228089 
260.5      0.1312706  1          0.589972  
260.6      0.1434858  1          0.5507928 
260.7      0.1357381  1          0.5717097 
260.8      0.1234459  1          0.6150659 
260.9      0.1118988  1          0.6500635 
261        0.0788031  1          0.7478309 
261.1      0.08742104 1          0.7076813 
261.2      0.09540256 1          0.6998416 
261.3      0.1146194  1          0.6643806 
261.4      0.111757   1          0.6919627 
261.5      0.110973   1          0.7213215 
261.6      0.11542    1          0.71663   
261.7      0.1487383  1          0.6025618 
261.8      0.1510601  1          0.6070321 
261.9      0.1355397  1          0.6432096 
262        0.1450299  1          0.6169432 
262.1      0.1204629  1          0.678268  
262.2      0.1037311  1          0.7386954 
262.3      0.1006384  1          0.7617517 
262.4      0.07313503 1          0.8539263 
262.5      0.09749568 1          0.7977561 
262.6      0.09968255 1          0.7920634 
262.7      0.1190046  1          0.7254323 
262.8      0.1230583  1          0.7219919 
262.9      0.120333   1          0.7223763 
263        0.1159691  1          0.7108788 
263.1      0.07702551 1          0.7977407 
263.2      0.08669615 1          0.7557656 
263.3      0.02960861 1          0.9237036 
263.4      0.01883565 1          0.9753969 
263.5      0.02834917 1          0.9599438 
263.6      0.02314856 1          0.9911988 
263.7      0.02095982 1          1         
263.8      0.02034036 1          1         
263.9      0.04676475 1          0.9322533 
264        0.06504506 1          0.8974161 
264.1      0.03811173 1          0.9814848 
264.2      0.09133819 1          0.8344808 
264.3      0.1014235  1          0.7929944 
264.4      0.1463808  1          0.6606874 
264.5      0.1333639  1          0.7020783 
264.6      0.08798186 1          0.8353293 
264.7      0.08736899 1          0.857774  
264.8      0.06806862 1          0.9310173 
264.9      0.07412664 1          0.9318051 
265        0.07995657 1          0.9374141 
265.1      0.09547547 1          0.9002495 
265.2      0.07535767 1          1         
265.3      0.07207064 1          1         
265.4      0.07419973 1          1         
265.5      0.07236582 1          1         
265.6      0.072533   1          1         
265.7      0.06959976 1          1         
265.8      0.05600003 1          1         
265.9      0.03113977 1          1         
266        0.02065081 1          1         
266.1      0.01187017 1          1         
266.2      0.008530949 1          1         
266.3      0.006157994 1          1         
266.4      0.01280473 1          0.9482275 
266.5      0.009884517 1          0.9667509 
266.6      0.007993424 1          0.9708812 
266.7      0.005585105 1          0.9860926 
266.8      0.04032947 1          0.8436469 
266.9      0.0788187  1          0.7327002 
267        0.08154849 1          0.7310325 
267.1      0.1158079  1          0.6633263 
267.2      0.1354055  1          0.6196174 
267.3      0.1488025  1          0.587288  
267.4      0.1711804  1          0.5444726 
267.5      0.1969256  1          0.4801102 
267.6      0.2130305  1          0.4316779 
267.7      0.2147132  1          0.4587341 
267.8      0.2203594  1          0.4761787 
267.9      0.2275959  1          0.4923669 
