~Version
 VERS              .         3.0                           : CWLS LOG ASCII STANDARD - VERSION 3.0
 WRAP              .         NO                            : ONE LINE PER DEPTH STEP
 DLM               .         SPACE                         : DELIMITING CHARACTER(SPACE TAB OR COMMA)
~Well Information
#_______________________________________________________________________________
#
#PARAMETER_NAME    .UNIT     VALUE                         : DESCRIPTION
#_______________________________________________________________________________
STRT               .M        87                            : First reference value
STOP               .M        972                           : Last reference value
STEP               .M        0.1                           : Step increment
NULL               .         -9999                         : Missing value
COMP               .         ICPetroleum                   : Company
WELL               .         322                           : Well name
FLD                .         Karatobe                      : Field
LOC                .                                       : Location
SRVC               .                                       : Service Company
CTRY               .         KZ                            : Country
DATE               .                                       : Service Date
LATI               .         0                             : Latitude
LONG               .         0                             : Longitude
GDAT               .         WGS 84                        : Geodetic Datum
APDAT              .         -999.250                      : Elevation Above Permanent Datum
CNTY               .         KAZAHKSTAN                    : Country
COORDIN            .                                       : Grid System
COUNTRY            .         Kazakhstan                    : 
COUNTRY            .         Kazakhstan                    : 
DF                 .         -999.250                      : DF Elevation
DRMEA              .         -999.250                      : Drill Measured From
EPDAT              .         -999.250                      : Elevation of Permanent Datum
EREF               .m        144.3                         : 
GL                 .         -999.250                      : GL Elevation
GRP                .                                       : Group name
ISS                .                                       : Well surveys
KB                 .         -999.250                      : KB Elevation
LGMEA              .         -999.250                      : Log Measured from
ORIGINALWELLNAME   .         322                           : 
PROV               .                                       : Province
RWS                .         -999                          : Def_Rw
TIME               .                                       : LOG TIME
UWI                .                                       : Unique Well ID
WST                .         -999                          : Def_Rwt
X                  .km       466344.56                     : 
XCOORD             .                                       : X or East-West Coordinate
Y                  .km       5307588.29                    : 
YCOORD             .                                       : Y or North-South Coordinate
~Parameter Information Block
#_______________________________________________________________________________
#
#PARAMETER_NAME    .UNIT     VALUE                         : DESCRIPTION
#_______________________________________________________________________________
SET                .         Las                           : 
APD                .M        -999.250                      : 
AVST               .DEGC     -999.250                      : 
BHT                .DEGC     -999.250                      : 
BS                 .MM       -999.250                      : 
CBD                .M        -999.250                      : 
CBL                .M        -999.250                      : 
DFD                .G/C3     -999.250                      : 
DFL                .C3       -999.250                      : 
DFPH               .         -999.250                      : 
DFV                .S        -999.250                      : 
DMF                .M        -999.250                      : 
EDF                .M        -999.250                      : 
EGL                .M        -999.250                      : 
EKB                .M        -999.250                      : 
EPD                .M        -999.250                      : 
GSDD               .         DTP                           : DT,0,DEPT,,,,,0
LMF                .M        -999.250                      : 
MCST               .DEGC     -999.250                      : 
MFST               .DEGC     -999.250                      : 
MRT                .DEGC     -999.250                      : 
MST                .DEGC     -999.250                      : 
RMCS               .OHMM     -999.250                      : 
RMFS               .OHMM     -999.250                      : 
RMS                .OHMM     -999.250                      : 
TDD                .M        -999.250                      : 
TDL                .M        -999.250                      : 
TLFamily_DEPT      .         Measured Depth                : 
TLFamily_PHI_FINAL .         Porosity                      : 
TLFamily_SW_AR     .         Water Saturation              : 
TLFamily_VSH_FINAL .         Shale Volume                  : 
~Curve Information
#_______________________________________________________________________________
#
#LOGNAME           .UNIT     LOG_ID                        : DESCRIPTION
#_______________________________________________________________________________
DEPT               .M                                      : Depth curve {F}
PHI_FINAL          .m3/m3                                  : Porosity {F}
SW_AR              .m3/m3                                  :  {F}
VSH_FINAL          .unitless                               : Vshale {F}
~Ascii
# ...
650.2      0.09013706 1          0.6301301 
650.3      0.08678013 1          0.6248946 
650.4      0.08701855 1          0.6344363 
650.5      0.07997015 1          0.6711411 
650.6      0.0824435  1          0.6885989 
650.7      0.07386222 1          0.7189928 
650.8      0.07886237 1          0.7420797 
650.9      0.1161929  1          0.6549335 
651        0.1301031  1          0.5841324 
651.1      0.1265833  1          0.6078157 
651.2      0.1223896  1          0.6017202 
651.3      0.1055187  1          0.6681675 
651.4      0.08692112 1          0.7310246 
651.5      0.04314109 1          0.8581239 
651.6      0.08220467 1          0.7373588 
651.7      0.07629398 1          0.7463264 
651.8      0.08031715 1          0.7071808 
651.9      0.09846648 1          0.6485604 
652        0.08649027 1          0.6809776 
652.1      0.1188588  1          0.5763537 
652.2      0.1334242  1          0.5379117 
652.3      0.1535811  1          0.4515576 
652.4      0.1581925  1          0.4440787 
652.5      0.1525568  1          0.4546638 
652.6      0.1399483  1          0.4974566 
652.7      0.1407071  1          0.493783  
652.8      0.1199242  1          0.5449915 
652.9      0.0966718  1          0.5827114 
653        0.04371349 1          0.7302369 
653.1      0.05258593 1          0.6737127 
653.2      0.03674181 1          0.7320702 
653.3      0.0456158  1          0.6961536 
653.4      0.04100322 1          0.7261931 
653.5      0.04191631 1          0.7144623 
653.6      0.05825514 1          0.6835264 
653.7      0.06128082 1          0.681715  
653.8      0.04903181 1          0.7092121 
653.9      0.05914402 1          0.6589722 
654        0.05356668 1          0.6774446 
654.1      0.08130163 1          0.6101117 
654.2      0.08328111 1          0.6060662 
654.3      0.07135582 1          0.6582525 
654.4      0.0663396  1          0.689897  
654.5      0.09056803 1          0.6287189 
654.6      0.1011872  1          0.5575161 
654.7      0.06938031 1          0.6276672 
654.8      0.09232175 1          0.5791459 
654.9      0.09242404 1          0.6065487 
655        0.07273922 1          0.6459111 
655.1      0.0714869  1          0.640212  
655.2      0.0750505  1          0.6170557 
655.3      0.0963373  1          0.554316  
655.4      0.106621   1          0.5331477 
655.5      0.1453845  1          0.4234166 
655.6      0.1508691  1          0.4085614 
655.7      0.1837919  1          0.3240653 
655.8      0.2079138  1          0.2917855 
655.9      0.213101   1          0.292972  
656        0.2040023  1          0.3365298 
656.1      0.1927808  1          0.3891135 
656.2      0.1734185  1          0.4604715 
656.3      0.1270469  1          0.6125233 
656.4      0.11853    1          0.6582688 
656.5      0.1197681  1          0.6799244 
656.6      0.1181624  1          0.6957787 
656.7      0.09230576 1          0.7696297 
656.8      0.1228701  1          0.7138473 
656.9      0.154218   1          0.6684313 
657        0.1986981  1          0.5633571 
657.1      0.1995706  1          0.5794266 
657.2      0.2119101  1          0.5762247 
657.3      0.2367123  1          0.510071  
657.4      0.2339565  1          0.4771233 
657.5      0.1830377  1          0.5605915 
657.6      0.1699711  1          0.5582803 
657.7      0.1602039  1          0.5333104 
657.8      0.122933   1          0.540656  
657.9      0.08413059 1          0.5532966 
658        0.08385616 1          0.521409  
658.1      0.1205579  1          0.4255479 
658.2      0.1350071  1          0.3886589 
658.3      0.1246041  1          0.4117106 
658.4      0.1107673  1          0.4448785 
658.5      0.1135136  1          0.446801  
658.6      0.115422   1          0.4234058 
658.7      0.1185986  1          0.4195889 
658.8      0.1236192  1          0.4075503 
658.9      0.1211972  1          0.3984307 
659        0.1352888  1          0.3976668 
659.1      0.1453986  1          0.3947591 
659.2      0.1568069  1          0.3685847 
659.3      0.1728768  1          0.3711357 
659.4      0.185082   1          0.3673802 
659.5      0.1743831  1          0.3963656 
659.6      0.1526683  1          0.4559231 
659.7      0.1326672  1          0.5222702 
659.8      0.1233725  1          0.5157653 
659.9      0.09291423 1          0.5909745 
660        0.08289856 1          0.6017146 
660.1      0.04466816 1          0.6732697 
660.2      0.02718038 1          0.7179058 
660.3      0.0697763  1          0.5965623 
660.4      0.05174029 1          0.6551629 
660.5      0.04600736 1          0.6890623 
660.6      0.0476326  1          0.675458  
660.7      0.04151909 1          0.685621  
660.8      0.03676791 1          0.7350292 
660.9      0.03040502 1          0.7580287 
661        0.05419884 1          0.7265331 
661.1      0.07260474 1          0.7077354 
661.2      0.09530181 1          0.668165  
661.3      0.09260943 1          0.6499986 
661.4      0.1152132  1          0.5945407 
661.5      0.1351224  1          0.5407978 
661.6      0.1444075  1          0.499518  
661.7      0.1116801  1          0.5695237 
661.8      0.06522548 1          0.6631688 
661.9      0.0640448  1          0.6577236 
662        0.02961384 1          0.7163556 
662.1      0.01133745 1          0.8061746 
662.2      0.0228536  1          0.7322072 
662.3      0.02589448 1          0.7214431 
662.4      0.03458756 1          0.6827325 
662.5      0.05701348 1          0.5928627 
662.6      0.0558324  1          0.5867696 
662.7      0.05905409 1          0.5799082 
662.8      0.05481581 1          0.6036327 
662.9      0.05529458 1          0.581574  
663        0.05977881 1          0.5557681 
663.1      0.05623233 1          0.5536393 
663.2      0.05550217 1          0.5699019 
663.3      0.06134872 1          0.5611333 
663.4      0.07850191 1          0.5339784 
663.5      0.07745203 1          0.550052  
663.6      0.08339509 1          0.5618817 
663.7      0.07607967 1          0.6003844 
663.8      0.0820109  1          0.5948999 
663.9      0.0861818  1          0.5902953 
664        0.09517295 1          0.5733869 
664.1      0.09933268 1          0.5378153 
664.2      0.09247199 1          0.567888  
664.3      0.09495036 1          0.543408  
664.4      0.1222049  1          0.4615221 
664.5      0.1297137  1          0.4249156 
664.6      0.1273115  1          0.4189772 
664.7      0.1117927  1          0.4593355 
664.8      0.1371098  1          0.3777018 
664.9      0.1404911  1          0.3572095 
665        0.1563454  1          0.3075543 
665.1      0.166593   1          0.2724738 
665.2      0.1588148  1          0.2782246 
665.3      0.1570507  1          0.2594357 
665.4      0.1382684  1          0.2485435 
665.5      0.1314079  1          0.2179498 
665.6      0.1213121  1          0.2427883 
665.7      0.1231571  1          0.2414744 
665.8      0.1195637  1          0.2570214 
665.9      0.1218093  1          0.2942264 
666        0.1475912  1          0.2922367 
666.1      0.175634   1          0.2927651 
666.2      0.1896532  1          0.3246721 
666.3      0.1702755  1          0.4389559 
666.4      0.128106   1          0.5796497 
666.5      0.1009966  1          0.678824  
666.6      0.07768755 1          0.7438759 
666.7      0.06735053 1          0.752427  
666.8      0.0249007  1          0.823303  
666.9      0.006210687 1          0.9070299 
667        0.01301858 1          0.8384718 
667.1      0.04126393 1          0.7193519 
667.2      0.05286524 1          0.7001989 
667.3      0.07779178 1          0.6235707 
667.4      0.07841349 1          0.627     
667.5      0.08142557 1          0.6069743 
667.6      0.09116132 1          0.5510004 
667.7      0.09811624 1          0.518344  
667.8      0.05711048 1          0.6403425 
667.9      0.07747845 1          0.5824928 
668        0.04534008 1          0.6858068 
668.1      0.01553079 1          0.7900944 
668.2      0.007823589 1          0.8359125 
668.3      0.008393439 1          0.8467832 
