~Version
 VERS              .         3.0                           : CWLS LOG ASCII STANDARD - VERSION 3.0
 WRAP              .         NO                            : ONE LINE PER DEPTH STEP
 DLM               .         SPACE                         : DELIMITING CHARACTER(SPACE TAB OR COMMA)
~Well Information
#_______________________________________________________________________________
#
#PARAMETER_NAME    .UNIT     VALUE                         : DESCRIPTION
#_______________________________________________________________________________
STRT               .M        87                            : First reference value
STOP               .M        972                           : Last reference value
STEP               .M        0.1                           : Step increment
NULL               .         -9999                         : Missing value
COMP               .         ICPetroleum                   : Company
WELL               .         322                           : Well name
FLD                .         Karatobe                      : Field
LOC                .                                       : Location
SRVC               .                                       : Service Company
CTRY               .         KZ                            : Country
DATE               .                                       : Service Date
LATI               .         0                             : Latitude
LONG               .         0                             : Longitude
GDAT               .         WGS 84                        : Geodetic Datum
APDAT              .         -999.250                      : Elevation Above Permanent Datum
CNTY               .         KAZAHKSTAN                    : Country
COORDIN            .                                       : Grid System
COUNTRY            .         Kazakhstan                    : 
COUNTRY            .         Kazakhstan                    : 
DF                 .         -999.250                      : DF Elevation
DRMEA              .         -999.250                      : Drill Measured From
EPDAT              .         -999.250                      : Elevation of Permanent Datum
EREF               .m        144.3                         : 
GL                 .         -999.250                      : GL Elevation
GRP                .                                       : Group name
ISS                .                                       : Well surveys
KB                 .         -999.250                      : KB Elevation
LGMEA              .         -999.250                      : Log Measured from
ORIGINALWELLNAME   .         322                           : 
PROV               .                                       : Province
RWS                .         -999                          : Def_Rw
TIME               .                                       : LOG TIME
UWI                .                                       : Unique Well ID
WST                .         -999                          : Def_Rwt
X                  .km       466344.56                     : 
XCOORD             .                                       : X or East-West Coordinate
Y                  .km       5307588.29                    : 
YCOORD             .                                       : Y or North-South Coordinate
~Parameter Information Block
#_______________________________________________________________________________
#
#PARAMETER_NAME    .UNIT     VALUE                         : DESCRIPTION
#_______________________________________________________________________________
SET                .         Las                           : 
APD                .M        -999.250                      : 
AVST               .DEGC     -999.250                      : 
BHT                .DEGC     -999.250                      : 
BS                 .MM       -999.250                      : 
CBD                .M        -999.250                      : 
CBL                .M        -999.250                      : 
DFD                .G/C3     -999.250                      : 
DFL                .C3       -999.250                      : 
DFPH               .         -999.250                      : 
DFV                .S        -999.250                      : 
DMF                .M        -999.250                      : 
EDF                .M        -999.250                      : 
EGL                .M        -999.250                      : 
EKB                .M        -999.250                      : 
EPD                .M        -999.250                      : 
GSDD               .         DTP                           : DT,0,DEPT,,,,,0
LMF                .M        -999.250                      : 
MCST               .DEGC     -999.250                      : 
MFST               .DEGC     -999.250                      : 
MRT                .DEGC     -999.250                      : 
MST                .DEGC     -999.250                      : 
RMCS               .OHMM     -999.250                      : 
RMFS               .OHMM     -999.250                      : 
RMS                .OHMM     -999.250                      : 
TDD                .M        -999.250                      : 
TDL                .M        -999.250                      : 
TLFamily_DEPT      .         Measured Depth                : 
TLFamily_PHI_FINAL .         Porosity                      : 
TLFamily_SW_AR     .         Water Saturation              : 
TLFamily_VSH_FINAL .         Shale Volume                  : 
~Curve Information
#_______________________________________________________________________________
#
#LOGNAME           .UNIT     LOG_ID                        : DESCRIPTION
#_______________________________________________________________________________
DEPT               .M                                      : Depth curve {F}
PHI_FINAL          .m3/m3                                  : Porosity {F}
SW_AR              .m3/m3                                  :  {F}
VSH_FINAL          .unitless                               : Vshale {F}
~Ascii
# ...
686.6      0.09261744 1          0.3556951 
686.7      0.06392145 1          0.4504925 
686.8      0.04762982 1          0.5404901 
686.9      0.01750128 1          0.6488817 
687        0.005547368 1          0.7196812 
687.1      0.009307357 1          0.6853056 
687.2      0.03948568 1          0.5275187 
687.3      0.07612032 1          0.3897013 
687.4      0.1077474  1          0.2947657 
687.5      0.1645985  1          0.2172798 
687.6      0.2157923  0.9937081  0.1699107 
687.7      0.2427686  0.8774629  0.1486473 
687.8      0.2546414  0.8264213  0.1534538 
687.9      0.2577737  0.8177131  0.1462498 
688        0.2596723  0.8196023  0.1512932 
688.1      0.259012   0.8304225  0.1546345 
688.2      0.254263   0.8579085  0.1717495 
688.3      0.2470271  0.8823156  0.1881612 
688.4      0.2510026  0.8542361  0.1799646 
688.5      0.2558576  0.8364924  0.1927504 
688.6      0.253795   0.8568677  0.1975032 
688.7      0.2590988  0.8485582  0.1894251 
688.8      0.2569174  0.8573046  0.1845137 
688.9      0.2603141  0.8488974  0.1612563 
689        0.2539699  0.8643703  0.1603465 
689.1      0.2430756  0.8956116  0.1726137 
689.2      0.2452302  0.8967163  0.1641634 
689.3      0.2423242  0.9150702  0.1654237 
689.4      0.2558143  0.8524812  0.1534763 
689.5      0.2653175  0.7924051  0.1407854 
689.6      0.2765701  0.7462685  0.1171779 
689.7      0.2837333  0.7295966  0.1008168 
689.8      0.2848523  0.7383612  0.09883932
689.9      0.2755234  0.7806842  0.1005316 
690        0.2729075  0.8048702  0.1059036 
690.1      0.2714358  0.8214491  0.111337  
690.2      0.2659638  0.845633   0.1145422 
690.3      0.2682942  0.8324623  0.1295865 
690.4      0.2714801  0.8104452  0.1297842 
690.5      0.2674102  0.8269466  0.139685  
690.6      0.2778413  0.8106374  0.1165469 
690.7      0.2726152  0.820861   0.1307964 
690.8      0.2804716  0.7896355  0.1235847 
690.9      0.2638903  0.8397937  0.1346819 
691        0.2682477  0.8409243  0.1260567 
691.1      0.2670423  0.8652243  0.1418601 
691.2      0.2700299  0.8718814  0.1684515 
691.3      0.2716099  0.8653222  0.1549105 
691.4      0.2789729  0.8231823  0.1435918 
691.5      0.2825597  0.7904614  0.1289927 
691.6      0.2845623  0.776202   0.1138852 
691.7      0.2856996  0.7716596  0.0964876 
691.8      0.2876231  0.7659761  0.08587462
691.9      0.2788771  0.7974036  0.09252231
692        0.2730083  0.8356058  0.09212944
692.1      0.2666819  0.8712024  0.09933413
692.2      0.2706943  0.8595524  0.09870335
692.3      0.2716588  0.856097   0.1077102 
692.4      0.2707898  0.8533333  0.1078418 
692.5      0.2726562  0.8293589  0.100736  
692.6      0.2858002  0.7932326  0.09840703
692.7      0.2729127  0.8483052  0.116402  
692.8      0.2665316  0.8848069  0.1352708 
692.9      0.2737947  0.8668824  0.1307188 
693        0.2738352  0.8675076  0.131808  
693.1      0.2758351  0.8642404  0.14124   
693.2      0.2763813  0.8618782  0.1466083 
693.3      0.2941345  0.7973959  0.1083736 
693.4      0.2868738  0.793929   0.1062257 
693.5      0.2939418  0.7634681  0.09896132
693.6      0.2873626  0.7875428  0.09811088
693.7      0.2898365  0.7917937  0.0940773 
693.8      0.2963607  0.7817255  0.102168  
693.9      0.305471   0.7579237  0.09875348
694        0.3083825  0.7560818  0.1043366 
694.1      0.3144744  0.76265    0.09723505
694.2      0.3109701  0.7916899  0.1075515 
694.3      0.314829   0.7885465  0.09546785
694.4      0.3231398  0.7585074  0.08175982
694.5      0.3251702  0.7319635  0.07374531
694.6      0.3340493  0.6938518  0.06373679
694.7      0.3362335  0.6749085  0.05504092
694.8      0.3367237  0.6676872  0.05266425
694.9      0.3337893  0.6752997  0.05216468
695        0.3342935  0.680197   0.04809771
695.1      0.3315845  0.6818493  0.05156501
695.2      0.3271728  0.6814497  0.05172595
695.3      0.3328455  0.6659604  0.051591  
695.4      0.338153   0.6617958  0.04586382
695.5      0.3403388  0.6726488  0.04623891
695.6      0.3354112  0.7010905  0.0480148 
695.7      0.3343083  0.72203    0.05406391
695.8      0.3352257  0.7364575  0.0525961 
695.9      0.333381   0.7409837  0.05236111
696        0.3294797  0.7250014  0.06136657
696.1      0.3333808  0.6741214  0.06062435
696.2      0.3284858  0.6574006  0.05774033
696.3      0.3221291  0.6489599  0.05481356
696.4      0.3218253  0.6353062  0.05053933
696.5      0.3388007  0.6039135  0.04281754
696.6      0.3460457  0.5960002  0.03790914
696.7      0.3518399  0.5907036  0.03843889
696.8      0.3546141  0.5908429  0.03879252
696.9      0.3529961  0.6003915  0.04544256
697        0.3593411  0.6008143  0.04657251
697.1      0.3614837  0.6151197  0.05633893
697.2      0.3537166  0.6562433  0.05498226
697.3      0.3434699  0.7012407  0.06092531
697.4      0.3474233  0.717457   0.05948915
697.5      0.3441061  0.7491581  0.0566299 
697.6      0.3433193  0.7905048  0.05479939
697.7      0.3404501  0.851525   0.06066319
697.8      0.3467891  0.9192545  0.04994038
697.9      0.3517202  0.9730129  0.04535048
698        0.3520476  0.9926582  0.0499338 
698.1      0.3473846  1          0.05414428
698.2      0.3501411  0.9804052  0.05524841
698.3      0.3544865  0.946315   0.04918071
698.4      0.3608576  0.901924   0.03276206
698.5      0.3524377  0.9135556  0.03261905
698.6      0.3528739  0.948597   0.02988806
698.7      0.3582902  1          0.02961143
698.8      0.3610148  1          0.02404342
698.9      0.3580494  1          0.02993763
699        0.3560449  1          0.0267078 
699.1      0.3554922  1          0.02985144
699.2      0.3588608  1          0.03356667
699.3      0.3490801  1          0.04088556
699.4      0.3408284  1          0.04757699
699.5      0.3323055  1          0.05243379
699.6      0.336454   1          0.04959018
699.7      0.3436824  1          0.04542264
699.8      0.3492665  1          0.05828652
699.9      0.3558315  1          0.04871133
700        0.358924   1          0.04861195
700.1      0.3642527  1          0.04435195
700.2      0.366114   1          0.04379205
700.3      0.370448   1          0.04992294
700.4      0.3735915  1          0.04751414
700.5      0.3702731  1          0.04856396
700.6      0.3720848  1          0.05256044
700.7      0.3800373  1          0.05055857
700.8      0.3801477  1          0.05448115
700.9      0.388447   1          0.05924383
701        0.3948222  1          0.05727978
701.1      0.3806638  1          0.06738967
701.2      0.378167   1          0.05530565
701.3      0.3727453  1          0.0588475 
701.4      0.3659838  1          0.06671822
701.5      0.3648795  1          0.06461517
701.6      0.3625058  1          0.05949284
701.7      0.3602639  1          0.06239599
701.8      0.3569988  1          0.05424425
701.9      0.3528433  1          0.03941   
702        0.3530625  1          0.02384164
702.1      0.3531741  1          0.01502365
702.2      0.3482966  1          0.01320367
702.3      0.3423997  1          0.01041243
702.4      0.3392589  1          0.01362433
702.5      0.3424424  1          0.009867543
702.6      0.3440123  1          0.00226763
702.7      0.3536578  1          0         
702.8      0.3627906  1          0         
702.9      0.3683538  1          0.0000973 
703        0.3694132  1          0.0003401508
703.1      0.3687452  1          0.001093341
703.2      0.3693911  1          0.000685322
703.3      0.3668134  1          0.0002186042
703.4      0.3570621  1          0.002038929
703.5      0.3491208  1          0.005047224
703.6      0.3463056  1          0.0009092592
703.7      0.3417837  1          0         
703.8      0.3434347  1          0         
703.9      0.3395035  1          0         
704        0.3342297  1          0         
704.1      0.3333338  1          0         
704.2      0.3365684  1          0         
704.3      0.3430332  1          0         
704.4      0.3473405  1          0         
704.5      0.3515839  1          0         
704.6      0.3549199  1          0         
704.7      0.3577922  1          0         
