~Version
 VERS              .         3.0                           : CWLS LOG ASCII STANDARD - VERSION 3.0
 WRAP              .         NO                            : ONE LINE PER DEPTH STEP
 DLM               .         SPACE                         : DELIMITING CHARACTER(SPACE TAB OR COMMA)
~Well Information
#_______________________________________________________________________________
#
#PARAMETER_NAME    .UNIT     VALUE                         : DESCRIPTION
#_______________________________________________________________________________
STRT               .M        87                            : First reference value
STOP               .M        972                           : Last reference value
STEP               .M        0.1                           : Step increment
NULL               .         -9999                         : Missing value
COMP               .         ICPetroleum                   : Company
WELL               .         322                           : Well name
FLD                .         Karatobe                      : Field
LOC                .                                       : Location
SRVC               .                                       : Service Company
CTRY               .         KZ                            : Country
DATE               .                                       : Service Date
LATI               .         0                             : Latitude
LONG               .         0                             : Longitude
GDAT               .         WGS 84                        : Geodetic Datum
APDAT              .         -999.250                      : Elevation Above Permanent Datum
CNTY               .         KAZAHKSTAN                    : Country
COORDIN            .                                       : Grid System
COUNTRY            .         Kazakhstan                    : 
COUNTRY            .         Kazakhstan                    : 
DF                 .         -999.250                      : DF Elevation
DRMEA              .         -999.250                      : Drill Measured From
EPDAT              .         -999.250                      : Elevation of Permanent Datum
EREF               .m        144.3                         : 
GL                 .         -999.250                      : GL Elevation
GRP                .                                       : Group name
ISS                .                                       : Well surveys
KB                 .         -999.250                      : KB Elevation
LGMEA              .         -999.250                      : Log Measured from
ORIGINALWELLNAME   .         322                           : 
PROV               .                                       : Province
RWS                .         -999                          : Def_Rw
TIME               .                                       : LOG TIME
UWI                .                                       : Unique Well ID
WST                .         -999                          : Def_Rwt
X                  .km       466344.56                     : 
XCOORD             .                                       : X or East-West Coordinate
Y                  .km       5307588.29                    : 
YCOORD             .                                       : Y or North-South Coordinate
~Parameter Information Block
#_______________________________________________________________________________
#
#PARAMETER_NAME    .UNIT     VALUE                         : DESCRIPTION
#_______________________________________________________________________________
SET                .         Las                           : 
APD                .M        -999.250                      : 
AVST               .DEGC     -999.250                      : 
BHT                .DEGC     -999.250                      : 
BS                 .MM       -999.250                      : 
CBD                .M        -999.250                      : 
CBL                .M        -999.250                      : 
DFD                .G/C3     -999.250                      : 
DFL                .C3       -999.250                      : 
DFPH               .         -999.250                      : 
DFV                .S        -999.250                      : 
DMF                .M        -999.250                      : 
EDF                .M        -999.250                      : 
EGL                .M        -999.250                      : 
EKB                .M        -999.250                      : 
EPD                .M        -999.250                      : 
GSDD               .         DTP                           : DT,0,DEPT,,,,,0
LMF                .M        -999.250                      : 
MCST               .DEGC     -999.250                      : 
MFST               .DEGC     -999.250                      : 
MRT                .DEGC     -999.250                      : 
MST                .DEGC     -999.250                      : 
RMCS               .OHMM     -999.250                      : 
RMFS               .OHMM     -999.250                      : 
RMS                .OHMM     -999.250                      : 
TDD                .M        -999.250                      : 
TDL                .M        -999.250                      : 
TLFamily_DEPT      .         Measured Depth                : 
TLFamily_PHI_FINAL .         Porosity                      : 
TLFamily_SW_AR     .         Water Saturation              : 
TLFamily_VSH_FINAL .         Shale Volume                  : 
~Curve Information
#_______________________________________________________________________________
#
#LOGNAME           .UNIT     LOG_ID                        : DESCRIPTION
#_______________________________________________________________________________
DEPT               .M                                      : Depth curve {F}
PHI_FINAL          .m3/m3                                  : Porosity {F}
SW_AR              .m3/m3                                  :  {F}
VSH_FINAL          .unitless                               : Vshale {F}
~Ascii
# ...
741.2      0.03402904 1          0.2910815 
741.3      0.02988254 1          0.3091793 
741.4      0.009612089 1          0.3600992 
741.5      0.009006497 1          0.4001579 
741.6      0.01463319 1          0.4010271 
741.7      0.01586767 1          0.3888299 
741.8      0.02035587 1          0.3715702 
741.9      0          1          0.3825051 
742        0.00878297 1          0.398918  
742.1      0.01843952 1          0.3500859 
742.2      0.03732722 1          0.3138676 
742.3      0.0477918  1          0.2682878 
742.4      0.05719453 1          0.2623185 
742.5      0.0431676  1          0.2560102 
742.6      0.0607604  1          0.2481947 
742.7      0.08056927 1          0.2168448 
742.8      0.07795493 1          0.2197336 
742.9      0.07017281 1          0.2401927 
743        0.06610961 1          0.2600077 
743.1      0.0763159  1          0.2593062 
743.2      0.07013614 1          0.2743173 
743.3      0.07785742 1          0.2380647 
743.4      0.06888    1          0.248588  
743.5      0.07060517 1          0.2467226 
743.6      0.05261733 1          0.2678812 
743.7      0.05343815 1          0.2930904 
743.8      0.04128326 1          0.3044173 
743.9      0.04156851 1          0.2974474 
744        0.03430585 1          0.2861401 
744.1      0.03170323 1          0.2849893 
744.2      0.05476177 1          0.28259   
744.3      0.06483611 1          0.3123374 
744.4      0.056838   1          0.2955308 
744.5      0.04331438 1          0.3155111 
744.6      0.03335794 1          0.3453633 
744.7      0.01625638 1          0.3495082 
744.8      0.02130117 1          0.3363561 
744.9      0.03531929 1          0.3026944 
745        0.0368127  1          0.2856168 
745.1      0.03981544 1          0.2694074 
745.2      0.04333316 1          0.2654475 
745.3      0.05948836 1          0.2625199 
745.4      0.05136789 1          0.2781295 
745.5      0.06182064 1          0.28259   
745.6      0.03326354 1          0.3216841 
745.7      0.02026762 1          0.3658702 
745.8      0.0299895  1          0.3488156 
745.9      0.02159324 1          0.3453633 
746        0.02472928 1          0.3187005 
746.1      0.02365612 1          0.2923495 
746.2      0.04142217 1          0.283945  
746.3      0.02934408 1          0.3070104 
746.4      0.01986538 1          0.325238  
746.5      0.01986696 1          0.3032323 
746.6      0.02139769 1          0.3280281 
746.7      0.01618844 1          0.3497392 
746.8      0.01517848 1          0.3571733 
746.9      0.01601434 1          0.3623312 
747        0.03291858 1          0.3468571 
747.1      0.02411261 1          0.374797  
747.2      0.03374888 1          0.4000338 
747.3      0.007228128 1          0.4702044 
747.4      0          1          0.5199706 
747.5      0          1          0.5919037 
747.6      0          1          0.6275148 
747.7      0          1          0.6724771 
747.8      0          1          0.7371781 
747.9      0          1          0.895725  
748        0          1          0.8880412 
748.1      0          1          0.7571322 
748.2      0          1          0.6021447 
748.3      0          1          0.5501064 
748.4      0          1          0.5839475 
748.5      0          1          0.5263505 
748.6      0          1          0.5241703 
748.7      0          1          0.5011144 
748.8      0          1          0.471157  
748.9      0          1          0.5722182 
749        0          1          0.5915905 
749.1      0          1          0.6283289 
749.2      0          1          0.677259  
749.3      0          1          0.7066097 
749.4      0          1          0.7016885 
749.5      0          1          0.6680571 
749.6      0          1          0.6948726 
749.7      0          1          0.6915686 
749.8      0          1          0.7113774 
749.9      0          1          0.6470774 
750        0          1          0.6499046 
750.1      0          1          0.6599482 
750.2      0          1          0.6661929 
750.3      0          1          0.6709449 
750.4      0          1          0.5908076 
750.5      0          1          0.6046829 
750.6      0          1          0.6137817 
750.7      0          1          0.5855021 
750.8      0          1          0.6301221 
750.9      0          1          0.6360146 
751        0          1          0.5875271 
751.1      0          1          0.4819863 
751.2      0          1          0.3906648 
751.3      0          1          0.3638626 
751.4      0          1          0.3896857 
751.5      0          1          0.4261742 
751.6      0          1          0.4269457 
751.7      0.0009949419 1          0.4393972 
751.8      0.007812924 1          0.4162161 
751.9      0          1          0.4676246 
752        0          1          0.4721107 
752.1      0          1          0.4218173 
752.2      0          1          0.3964446 
752.3      0.004216294 1          0.3964446 
752.4      0.01346035 1          0.4070151 
752.5      0.02047778 1          0.3611555 
752.6      0.02081157 1          0.382021  
752.7      0.02690314 1          0.3973093 
752.8      0.0358504  1          0.4048888 
752.9      0.03638017 1          0.3950877 
753        0.02787119 1          0.4080179 
753.1      0          1          0.4370471 
753.2      0          1          0.4265598 
753.3      0          1          0.4441191 
753.4      0.003190474 1          0.4699325 
753.5      0.005045965 1          0.4956239 
753.6      0.02213619 1          0.453517  
753.7      0.04319118 1          0.3899303 
753.8      0.05021698 1          0.4120426 
753.9      0.04255036 1          0.4321091 
754        0.02347415 1          0.440968  
754.1      0.01918872 1          0.4115383 
754.2      0.03083633 1          0.4139367 
754.3      0.05583179 1          0.3889521 
754.4      0.07630887 1          0.35333   
754.5      0.09052893 1          0.3529816 
754.6      0.09550817 1          0.3460524 
754.7      0.1012119  1          0.3346596 
754.8      0.09481856 1          0.3463972 
754.9      0.08044235 1          0.3752763 
755        0.07071342 1          0.3483543 
755.1      0.05791389 1          0.3438728 
755.2      0.08493902 1          0.3439874 
755.3      0.08860483 1          0.3575236 
755.4      0.07547736 1          0.3421571 
755.5      0.04967759 1          0.3398762 
755.6      0.04391348 1          0.3514743 
755.7      0.03850464 1          0.3598646 
755.8      0.0429347  1          0.362802  
755.9      0.02441532 1          0.391768  
756        0.01543603 1          0.3902975 
756.1      0.0003334327 1          0.3676465 
756.2      0.01745122 1          0.3534461 
756.3      0.03607061 1          0.3281398 
756.4      0.02514412 1          0.35729   
756.5      0.03328346 1          0.3316166 
756.6      0.02845862 1          0.382021  
756.7      0.003824893 1          0.4197756 
756.8      0          1          0.5026697 
756.9      0          1          0.6000873 
757        0          1          0.6163516 
757.1      0          1          0.6190898 
757.2      0          1          0.5751364 
757.3      0          1          0.5474181 
757.4      0          1          0.552353  
757.5      0          1          0.5076375 
757.6      0.0129825  1          0.4066394 
757.7      0.009774677 1          0.3695461 
757.8      0.02263541 1          0.3298199 
757.9      0.01886588 1          0.3086363 
758        0.02508158 1          0.2875029 
758.1      0.07012392 1          0.2663589 
758.2      0.09078929 1          0.2800964 
758.3      0.1168727  1          0.255413  
758.4      0.1131022  1          0.2782329 
758.5      0.09655716 1          0.2824859 
758.6      0.09119166 1          0.2987283 
758.7      0.08009218 1          0.2844669 
758.8      0.07556254 1          0.3138676 
758.9      0.09997472 1          0.266866  
759        0.0840414  1          0.2710396 
759.1      0.08669054 1          0.2920322 
759.2      0.09963337 1          0.2900269 
759.3      0.1021883  1          0.30334   
