~Version
 VERS              .         3.0                           : CWLS LOG ASCII STANDARD - VERSION 3.0
 WRAP              .         NO                            : ONE LINE PER DEPTH STEP
 DLM               .         SPACE                         : DELIMITING CHARACTER(SPACE TAB OR COMMA)
~Well Information
#_______________________________________________________________________________
#
#PARAMETER_NAME    .UNIT     VALUE                         : DESCRIPTION
#_______________________________________________________________________________
STRT               .M        87                            : First reference value
STOP               .M        972                           : Last reference value
STEP               .M        0.1                           : Step increment
NULL               .         -9999                         : Missing value
COMP               .         ICPetroleum                   : Company
WELL               .         322                           : Well name
FLD                .         Karatobe                      : Field
LOC                .                                       : Location
SRVC               .                                       : Service Company
CTRY               .         KZ                            : Country
DATE               .                                       : Service Date
LATI               .         0                             : Latitude
LONG               .         0                             : Longitude
GDAT               .         WGS 84                        : Geodetic Datum
APDAT              .         -999.250                      : Elevation Above Permanent Datum
CNTY               .         KAZAHKSTAN                    : Country
COORDIN            .                                       : Grid System
COUNTRY            .         Kazakhstan                    : 
COUNTRY            .         Kazakhstan                    : 
DF                 .         -999.250                      : DF Elevation
DRMEA              .         -999.250                      : Drill Measured From
EPDAT              .         -999.250                      : Elevation of Permanent Datum
EREF               .m        144.3                         : 
GL                 .         -999.250                      : GL Elevation
GRP                .                                       : Group name
ISS                .                                       : Well surveys
KB                 .         -999.250                      : KB Elevation
LGMEA              .         -999.250                      : Log Measured from
ORIGINALWELLNAME   .         322                           : 
PROV               .                                       : Province
RWS                .         -999                          : Def_Rw
TIME               .                                       : LOG TIME
UWI                .                                       : Unique Well ID
WST                .         -999                          : Def_Rwt
X                  .km       466344.56                     : 
XCOORD             .                                       : X or East-West Coordinate
Y                  .km       5307588.29                    : 
YCOORD             .                                       : Y or North-South Coordinate
~Parameter Information Block
#_______________________________________________________________________________
#
#PARAMETER_NAME    .UNIT     VALUE                         : DESCRIPTION
#_______________________________________________________________________________
SET                .         Las                           : 
APD                .M        -999.250                      : 
AVST               .DEGC     -999.250                      : 
BHT                .DEGC     -999.250                      : 
BS                 .MM       -999.250                      : 
CBD                .M        -999.250                      : 
CBL                .M        -999.250                      : 
DFD                .G/C3     -999.250                      : 
DFL                .C3       -999.250                      : 
DFPH               .         -999.250                      : 
DFV                .S        -999.250                      : 
DMF                .M        -999.250                      : 
EDF                .M        -999.250                      : 
EGL                .M        -999.250                      : 
EKB                .M        -999.250                      : 
EPD                .M        -999.250                      : 
GSDD               .         DTP                           : DT,0,DEPT,,,,,0
LMF                .M        -999.250                      : 
MCST               .DEGC     -999.250                      : 
MFST               .DEGC     -999.250                      : 
MRT                .DEGC     -999.250                      : 
MST                .DEGC     -999.250                      : 
RMCS               .OHMM     -999.250                      : 
RMFS               .OHMM     -999.250                      : 
RMS                .OHMM     -999.250                      : 
TDD                .M        -999.250                      : 
TDL                .M        -999.250                      : 
TLFamily_DEPT      .         Measured Depth                : 
TLFamily_PHI_FINAL .         Porosity                      : 
TLFamily_SW_AR     .         Water Saturation              : 
TLFamily_VSH_FINAL .         Shale Volume                  : 
~Curve Information
#_______________________________________________________________________________
#
#LOGNAME           .UNIT     LOG_ID                        : DESCRIPTION
#_______________________________________________________________________________
DEPT               .M                                      : Depth curve {F}
PHI_FINAL          .m3/m3                                  : Porosity {F}
SW_AR              .m3/m3                                  :  {F}
VSH_FINAL          .unitless                               : Vshale {F}
~Ascii
# ...
795.8      0.0972921  1          0.2059872 
795.9      0.08841492 1          0.2061694 
796        0.07563174 1          0.2016324 
796.1      0.07081458 1          0.2100103 
796.2      0.06199154 1          0.216009  
796.3      0.03676618 1          0.2377751 
796.4      0.02787384 1          0.216009  
796.5      0          1          0.2078122 
796.6      0          1          0.1943639 
796.7      0          1          0.1868432 
796.8      0          1          0.1559207 
796.9      0          1          0.1387243 
797        0          1          0.1365783 
797.1      0          1          0.1351531 
797.2      0          1          0.1480568 
797.3      0          1          0.1582386 
797.4      0          1          0.1600676 
797.5      0          1          0.1664386 
797.6      0          1          0.1742619 
797.7      0          1          0.1933845 
797.8      0.007558878 1          0.2030801 
797.9      0.02563007 1          0.227638  
798        0.03237487 1          0.2587056 
798.1      0.06537915 1          0.2684912 
798.2      0.1004345  1          0.2758598 
798.3      0.1119918  1          0.2600077 
798.4      0.128928   1          0.224425  
798.5      0.1181943  1          0.2229194 
798.6      0.126543   1          0.206534  
798.7      0.136811   1          0.2056229 
798.8      0.1382778  1          0.2086354 
798.9      0.1392712  1          0.2332578 
799        0.1521045  1          0.2536248 
799.1      0.1377776  1          0.2783362 
799.2      0.1155562  1          0.279889  
799.3      0.08864275 1          0.2893949 
799.4      0.07661153 1          0.298301  
799.5      0.06582884 1          0.3089621 
799.6      0.07120369 1          0.3266874 
799.7      0.05980276 1          0.3354508 
799.8      0.07085659 1          0.3138676 
799.9      0.08525778 1          0.3229036 
800        0.07189049 1          0.3263526 
800.1      0.1125248  1          0.314196  
800.2      0.1178968  1          0.2859308 
800.3      0.1030353  1          0.2664604 
800.4      0.09902065 1          0.2561099 
800.5      0.08064999 1          0.2445703 
800.6      0.08056032 1          0.232875  
800.7      0.08513494 1          0.2393212 
800.8      0.08452168 1          0.2594064 
800.9      0.09246736 1          0.2483913 
801        0.1015771  1          0.2394179 
801.1      0.1199983  1          0.2267857 
801.2      0.1167792  1          0.2157307 
801.3      0.0994721  1          0.2205751 
801.4      0.08271848 1          0.2315373 
801.5      0.08128607 1          0.2264073 
801.6      0.0800813  1          0.2345037 
801.7      0.09669706 1          0.2560102 
801.8      0.08996154 1          0.2609108 
801.9      0.07702033 1          0.2609108 
802        0.0808451  1          0.2739066 
802.1      0.102695   1          0.2856168 
802.2      0.0940254  1          0.2850938 
802.3      0.06500282 1          0.3037707 
802.4      0.04963386 1          0.3200249 
802.5      0.03489422 1          0.3281398 
802.6      0.02072005 1          0.3403318 
802.7      0.006629131 1          0.3262411 
802.8      0          1          0.3276926 
802.9      0          1          0.2953181 
803        0          1          0.2870833 
803.1      0          1          0.2726762 
803.2      0          1          0.2691018 
803.3      0          1          0.2822777 
803.4      0          1          0.2772    
803.5      0.003959075 1          0.2833193 
803.6      0.05412107 1          0.2867687 
803.7      0.06638259 1          0.2890792 
803.8      0.0549523  1          0.3019422 
803.9      0.06600137 1          0.3103754 
804        0.06115498 1          0.3088534 
804.1      0.03867633 1          0.3052805 
804.2      0.03598842 1          0.3084193 
804.3      0.03155183 1          0.3315041 
804.4      0.01866861 1          0.3553071 
804.5      0.01678077 1          0.3797254 
804.6      0.01635331 1          0.4211787 
804.7      0.01926846 1          0.4492673 
804.8      0.0149774  1          0.4778568 
804.9      0.03247738 1          0.5063572 
805        0.02527224 1          0.5508547 
805.1      0          1          0.5659533 
805.2      0          1          0.5513039 
805.3      0          1          0.5395501 
805.4      0          1          0.5414734 
805.5      0          1          0.5063572 
805.6      0          1          0.4689814 
805.7      0          1          0.4781315 
805.8      0.003312756 1          0.453517  
805.9      0.007568515 1          0.4370471 
806        0          1          0.4687099 
806.1      0          1          0.5019624 
806.2      0.004742305 1          0.4726562 
806.3      0.01154567 1          0.4695247 
806.4      0.006418868 1          0.478956  
806.5      0.004903616 1          0.4641078 
806.6      0          1          0.4818484 
806.7      0          1          0.4650531 
806.8      0.01528381 1          0.430815  
806.9      0.03140203 1          0.3920133 
807        0.06216535 1          0.3334181 
807.1      0.07736845 1          0.3017275 
807.2      0.1114871  1          0.253724  
807.3      0.1259916  1          0.2604089 
807.4      0.1234598  1          0.2470168 
807.5      0.1280048  1          0.2427178 
807.6      0.120951   1          0.2649417 
807.7      0.09618301 1          0.2817577 
807.8      0.0795696  1          0.2922437 
807.9      0.08010954 1          0.2984078 
808        0.07928042 1          0.3072269 
808.1      0.07208797 1          0.3236808 
808.2      0.08624264 1          0.3035553 
808.3      0.08645626 1          0.316829  
808.4      0.08455348 1          0.3012981 
808.5      0.07576157 1          0.3011909 
808.6      0.07848738 1          0.2879229 
808.7      0.05857966 1          0.2916095 
808.8      0.05829211 1          0.3025869 
808.9      0.0627903  1          0.2872931 
809        0.04674073 1          0.2818617 
809.1      0.05454764 1          0.2953181 
809.2      0.04805074 1          0.2854075 
809.3      0.04811076 1          0.2692037 
809.4      0.05501886 1          0.2777162 
809.5      0.05953835 1          0.2863496 
809.6      0.05907572 1          0.2779228 
809.7      0.05495543 1          0.2639314 
809.8      0.05116755 1          0.2608105 
809.9      0.0519987  1          0.2439846 
810        0.07038065 1          0.2374857 
810.1      0.07286137 1          0.2510516 
810.2      0.09569227 1          0.2534265 
810.3      0.09852187 1          0.2578057 
810.4      0.09103191 1          0.2672718 
810.5      0.09696566 1          0.2770968 
810.6      0.09773355 1          0.2824859 
810.7      0.07775299 1          0.2744201 
810.8      0.06142406 1          0.2939382 
810.9      0.05646509 1          0.3267989 
811        0.05179612 1          0.3406736 
811.1      0.05416645 1          0.3426142 
811.2      0.04888358 1          0.3585761 
811.3      0.04023676 1          0.3879753 
811.4      0.01465061 1          0.4229681 
811.5      0          1          0.4511236 
811.6      0          1          0.4571206 
811.7      0          1          0.4650531 
811.8      0          1          0.4493997 
811.9      0.01439549 1          0.4158357 
812        0.02794557 1          0.3677651 
812.1      0.03424872 1          0.3643345 
812.2      0.02919626 1          0.359513  
812.3      0.04342884 1          0.373122  
812.4      0.05068551 1          0.3804494 
812.5      0.04470927 1          0.4027685 
812.6      0.03431155 1          0.4241208 
812.7      0.01879114 1          0.4248901 
812.8      0          1          0.4243771 
812.9      0.001015146 1          0.4153288 
813        0          1          0.4023951 
813.1      0          1          0.3827474 
813.2      0          1          0.3749169 
813.3      0.001812658 1          0.370617  
813.4      0          1          0.3938564 
813.5      0.01514743 1          0.3592787 
813.6      0.03340524 1          0.3472023 
813.7      0.05587378 1          0.3368093 
813.8      0.04923192 1          0.3313917 
813.9      0.03899535 1          0.314196  
