~Version Information
#-------------------
Vers.            2.0: CWLS log ASCII Standart - VERSION 2.0
WRAP.             NO: One line per depth step
~Well Information Block
#----------------------
#MNEM.UNIT      VALUE: DESCRIPTION
#----.----    -------: -------------
STRT.M            87: First depth in file                  ��
STOP.M           972: Last  depth in file                  ��
STEP.M           0.1: Depth increment                      
NULL.       -999.250: Null  values                         
COMP.           CIOC: Company Name
WELL.            322: Well Name
FLD .       KARATUBE: Field
LOC .               : Location
CNTY.     KAZAHKSTAN: Country
SRVC.               : Service Company
DATE.               : Date
UWI .               : Unique Well ID
~Parameter Information
#---------------------
#MNEM.UNIT      VALUE: DESCRIPTION
#----.----    -------: ---------------
EPD  .M      -999.250: 
APD  .M      -999.250: 
LMF  .M      -999.250: 
DMF  .M      -999.250: 
EKB  .M      -999.250: 
EDF  .M      -999.250: 
EGL  .M      -999.250: 
TDD  .M      -999.250: 
TDL  .M      -999.250: 
CBD  .M      -999.250: 
CBL  .M      -999.250: 
BS   .MM     -999.250: 
DFD  .G/C3   -999.250: 
DFV  .S      -999.250: 
DFPH .       -999.250: 
DFL  .C3     -999.250: 
RMS  .OHMM   -999.250: 
MST  .DEGC   -999.250: 
RMFS .OHMM   -999.250: 
MFST .DEGC   -999.250: 
RMCS .OHMM   -999.250: 
MCST .DEGC   -999.250: 
MRT  .DEGC   -999.250: 
BHT  .DEGC   -999.250: 
AVST .DEGC   -999.250: 
GSDD .           DEPT: DEPT,0,,,,,,1
GSDD .           NGLD: NGLD,0,DEPT,,,,,2
GSDD .             GR: GR,0,DEPT,,,,,2
GSDD .            GZ3: GZ3,0,DEPT,,,,,1
GSDD .           GZ3B: GZ3B,0,DEPT,,,,,1
GSDD .            LL3: LL3,0,DEPT,,,,,1
GSDD .            MLL: MLL,0,DEPT,,,,,1
GSDD .             SP: SP,0,DEPT,,,,,2
GSDD .          7I16R: CILR,0,DEPT,,,,,2
GSDD .          7I16A: CILA,0,DEPT,,,,,2
GSDD .             C1: C1,0,DEPT,,,,,1
GSDD .             C2: C2,0,DEPT,,,,,1
GSDD .           CALI: CALI,0,DEPT,,,,,1
GSDD .             T1: T1,0,DEPT,,,,,1
GSDD .             T2: T2,0,DEPT,,,,,1
GSDD .            BSC: BSC,0,DEPT,,,,,1
GSDD .           C1_1: C1_1,0,DEPT,,,,,2
GSDD .           C2_1: C2_1,0,DEPT,,,,,2
GSDD .           RHOB: RHOB,0,DEPT,,,,,2
GSDD .            TP1: TP1,0,DEPT,,,,,2
GSDD .            TP2: TP2,0,DEPT,,,,,2
GSDD .            DTP: DT,0,DEPT,,,,,0
~Curve Information Block
#-----------------------
#MNEM.UNIT           : CURVE DESCRIPTION
#----.----           : -----------------
DEPT .M              : Depth curve                          
NGLD .C/C            : Neutron-gamma log
GR   .UR/H           : Gamma-ray
GZ3  .OHMM           : App.resistivity by lateral A2.0M0.5N
GZ3B .OHMM           : App.resistivity by lateral N0.5M2.0A
LL3  .OHMM           : Appar.resist.laterolog,3 electrodes
MLL  .OHMM           : Microlaterolog sonde  
SP   .MV             : Spontaneous potential
CILR.MMHO            : Conduct. by sonde 7I1.6,reactive signal
CILA.MMHO            : Conduct. by sonde 7I1.6,active signal
C1   .MM             : Caliper, diameter 1
C2   .MM             : Caliper, diameter 2
CALI .MM             : Caliper
T1   .US             : Travel time 1
T2   .US             : Travel time 2
BSC  .               : Bit size
C1_1 .MM             : Caliper, diameter 1
C2_1 .MM             : Caliper, diameter 2
RHOB .G/C3           : Bulk density by gamma-gamma log
TP1  .US             : Travel time 1
TP2  .US             : Travel time 2
DTP  .US/M           : Interval travel time (P-wave)

~Other Information
#-----------------
~Ascii Log Data
# ...
     678.5      1.287     12.821      2.207       3.61      2.753      2.787    733.173    264.022    229.273    222.699    227.402    225.051       9999       9999      215.9    222.839    219.737       2.29    829.429    992.667    402.092 
     678.6      1.287     12.917      2.209      3.634      2.797      2.689    733.067    262.459    226.442    223.632    225.654    224.642       9999       9999      215.9    223.004    220.046      2.276    830.571        992    401.648 
     678.7       1.32     13.322      2.203      3.643      2.853      2.715    732.918    258.824    225.168    224.165    224.813    224.489       9999       9999      215.9    222.223    221.583      2.296      830.5        992    401.227 
     678.8      1.322      12.91      2.186       3.67      2.872      2.956     732.63    255.838    222.689    223.915    224.911    224.413       9999       9999      215.9    222.177    222.806      2.285      830.8        991    402.566 
     678.9      1.312     13.142       2.17      3.717      2.933      3.241    732.325    252.879    218.643    223.457     224.62    224.038       9999       9999      215.9    222.887    223.276      2.294        830        990    405.174 
       679      1.337     13.024      2.151      3.777      3.057      3.669    732.133     250.39    214.853    223.163    224.843    224.003       9999       9999      215.9    221.662    222.542      2.294        830    988.667    409.008 
     679.1      1.357     12.586      2.144      3.849      3.168      4.243    731.874    247.808    212.366    222.953    225.341    224.147       9999       9999      215.9    221.079    221.958      2.308    827.143    987.333      412.9 
     679.2      1.305     12.074      2.144      3.932      3.201      3.699     731.63    244.625    211.073    223.047     225.99    224.518       9999       9999      215.9    221.054    221.598      2.302        824        986    414.339 
     679.3      1.306     11.601      2.158      4.024      3.175      3.075    731.525    239.401    213.096    223.105    226.232    224.668       9999       9999      215.9    221.327    221.523      2.303        824        987    414.867 
     679.4      1.295     11.193      2.172      4.119      3.219      3.787    731.455    234.712    214.469    222.592    225.479    224.035       9999       9999      215.9    222.403    222.387      2.309    819.333    980.667    415.173 
     679.5      1.245     10.864      2.181      4.218      3.338      4.175    731.393    230.465     210.83    222.009    224.505    223.257       9999       9999      215.9    223.041    222.546      2.297    816.667    980.333    416.839 
     679.6      1.258     10.458      2.183      4.345        3.3      3.387    731.211    225.531    207.908    222.085    225.001    223.543       9999       9999      215.9    222.891    221.491      2.292        819        980     417.04 
     679.7      1.235     10.596      2.179       4.51      3.125      2.797    730.891     222.79    204.447    222.024    225.556     223.79       9999       9999      215.9     220.58    221.719       2.31      818.8        978    416.361 
     679.8      1.292     10.701      2.165       4.75      3.026      2.871     730.45    219.553    199.774    221.581    225.091    223.336       9999       9999      215.9    221.293    221.519      2.327    816.667        980    414.641 
     679.9      1.306     10.832      2.146      5.012       3.11       3.21    729.842    216.584    194.555    221.899    224.628    223.263       9999       9999      215.9     222.74    221.155      2.353      815.6      973.2    414.791 
       680      1.316     10.795      2.148      5.291      3.276      3.329    729.024    213.736    186.014    222.116    224.129    223.122       9999       9999      215.9    221.939    220.867      2.362        818    979.333    414.992 
     680.1       1.31     10.804      2.167      5.601      3.265      3.016    728.242     211.36    177.101    221.942    224.696    223.319       9999       9999      215.9     220.45    219.831      2.391    819.714      982.8    415.026 
     680.2      1.288     10.103      2.213       5.92      3.082      3.203    727.435    209.315    168.487    221.705    225.216    223.461       9999       9999      215.9    219.388    219.489      2.415    820.667      981.2    414.846 
     680.3      1.318      9.486      2.287      6.247      3.227      4.033    726.474    206.692    158.106    221.558     222.33    221.944       9999       9999      215.9    218.907    219.708      2.407    813.164      981.2    416.603 
     680.4      1.329      9.666      2.388      6.559      3.735      4.912     725.39     202.77    150.717    221.332    222.638    221.985       9999       9999      215.9    221.108     220.82      2.365    814.746        982    420.119 
     680.5      1.293      8.989      2.525       6.83      4.265      4.608    724.306    199.176    146.364     222.19    222.265    222.227       9999       9999      215.9     220.41      220.3      2.367    816.328        980    424.074 
     680.6      1.276      8.495      2.695      7.057      4.628      5.683    723.304    195.212      143.7    222.273    222.401    222.337       9999       9999      215.9    219.604    219.672      2.339    819.492      985.4     427.15 
     680.7      1.291      8.088       2.88      7.177       4.75      8.147    722.212    191.819    143.607    222.504     222.73    222.617       9999       9999      215.9    219.414    219.344      2.306    822.656      990.8    430.007 
     680.8      1.324      7.784      3.112      7.174      4.646      4.962    721.011    187.384    147.855    222.111    223.917    223.014       9999       9999      215.9    219.905    219.111       2.29    822.656    988.667    433.303 
     680.9      1.335      7.985      3.327      7.043      4.476      4.632    720.328    183.058    152.863    221.626    224.759    223.193       9999       9999      215.9    219.444     219.17      2.285    822.656    991.333    436.599 
       681       1.34      7.859      3.478      6.873      4.422      4.727    719.753    179.405    158.686    221.395    225.225     223.31       9999       9999      215.9    218.375    219.352      2.244    824.238        988    439.894 
     681.1      1.334      7.727      3.552       6.68      4.399      4.519     719.31    176.128    164.329      221.1    226.259     223.68       9999       9999      215.9     217.37    219.365      2.228     825.82        991     443.19 
     681.2      1.313      7.865      3.547      6.518      4.282      4.227    719.179    174.023    166.493    221.349    226.249    223.799       9999       9999      215.9    218.889    219.471      2.234    822.656    990.352    447.364 
     681.3      1.291      7.738       3.49      6.493      4.166      4.265    719.183    172.581    166.353    221.768    225.905    223.837       9999       9999      215.9    220.564    219.672      2.215    824.238    990.352    451.759 
     681.4      1.313      7.981      3.402      6.689      4.031      3.987    719.227    172.504    164.063    222.731    224.501    223.616       9999       9999      215.9    221.441    220.042      2.196     825.82    990.352    455.714 
     681.5      1.333      8.058      3.301      6.938      3.931      4.153    719.346     173.52    157.567     222.91    222.482    222.696       9999       9999      215.9    221.016    220.796      2.194     825.82    991.934    457.911 
     681.6      1.326      8.014      3.257      7.363       3.91      3.568    719.537    174.006    152.337    222.449    223.378    222.913       9999       9999      215.9    219.394    221.022      2.198     825.82    993.516    457.911 
     681.7      1.329      7.871      3.245      7.852      4.034      3.881    719.573    174.283    144.488    222.567    222.691    222.629       9999       9999      215.9    218.035    220.931      2.188     825.82     996.68    455.274 
