~Version Information
#-------------------
Vers.            2.0: CWLS log ASCII Standart - VERSION 2.0
WRAP.             NO: One line per depth step
~Well Information Block
#----------------------
#MNEM.UNIT      VALUE: DESCRIPTION
#----.----    -------: -------------
STRT.M            87: First depth in file                  ��
STOP.M           972: Last  depth in file                  ��
STEP.M           0.1: Depth increment                      
NULL.       -999.250: Null  values                         
COMP.           CIOC: Company Name
WELL.            322: Well Name
FLD .       KARATUBE: Field
LOC .               : Location
CNTY.     KAZAHKSTAN: Country
SRVC.               : Service Company
DATE.               : Date
UWI .               : Unique Well ID
~Parameter Information
#---------------------
#MNEM.UNIT      VALUE: DESCRIPTION
#----.----    -------: ---------------
EPD  .M      -999.250: 
APD  .M      -999.250: 
LMF  .M      -999.250: 
DMF  .M      -999.250: 
EKB  .M      -999.250: 
EDF  .M      -999.250: 
EGL  .M      -999.250: 
TDD  .M      -999.250: 
TDL  .M      -999.250: 
CBD  .M      -999.250: 
CBL  .M      -999.250: 
BS   .MM     -999.250: 
DFD  .G/C3   -999.250: 
DFV  .S      -999.250: 
DFPH .       -999.250: 
DFL  .C3     -999.250: 
RMS  .OHMM   -999.250: 
MST  .DEGC   -999.250: 
RMFS .OHMM   -999.250: 
MFST .DEGC   -999.250: 
RMCS .OHMM   -999.250: 
MCST .DEGC   -999.250: 
MRT  .DEGC   -999.250: 
BHT  .DEGC   -999.250: 
AVST .DEGC   -999.250: 
GSDD .           DEPT: DEPT,0,,,,,,1
GSDD .           NGLD: NGLD,0,DEPT,,,,,2
GSDD .             GR: GR,0,DEPT,,,,,2
GSDD .            GZ3: GZ3,0,DEPT,,,,,1
GSDD .           GZ3B: GZ3B,0,DEPT,,,,,1
GSDD .            LL3: LL3,0,DEPT,,,,,1
GSDD .            MLL: MLL,0,DEPT,,,,,1
GSDD .             SP: SP,0,DEPT,,,,,2
GSDD .          7I16R: CILR,0,DEPT,,,,,2
GSDD .          7I16A: CILA,0,DEPT,,,,,2
GSDD .             C1: C1,0,DEPT,,,,,1
GSDD .             C2: C2,0,DEPT,,,,,1
GSDD .           CALI: CALI,0,DEPT,,,,,1
GSDD .             T1: T1,0,DEPT,,,,,1
GSDD .             T2: T2,0,DEPT,,,,,1
GSDD .            BSC: BSC,0,DEPT,,,,,1
GSDD .           C1_1: C1_1,0,DEPT,,,,,2
GSDD .           C2_1: C2_1,0,DEPT,,,,,2
GSDD .           RHOB: RHOB,0,DEPT,,,,,2
GSDD .            TP1: TP1,0,DEPT,,,,,2
GSDD .            TP2: TP2,0,DEPT,,,,,2
GSDD .            DTP: DT,0,DEPT,,,,,0
~Curve Information Block
#-----------------------
#MNEM.UNIT           : CURVE DESCRIPTION
#----.----           : -----------------
DEPT .M              : Depth curve                          
NGLD .C/C            : Neutron-gamma log
GR   .UR/H           : Gamma-ray
GZ3  .OHMM           : App.resistivity by lateral A2.0M0.5N
GZ3B .OHMM           : App.resistivity by lateral N0.5M2.0A
LL3  .OHMM           : Appar.resist.laterolog,3 electrodes
MLL  .OHMM           : Microlaterolog sonde  
SP   .MV             : Spontaneous potential
CILR.MMHO            : Conduct. by sonde 7I1.6,reactive signal
CILA.MMHO            : Conduct. by sonde 7I1.6,active signal
C1   .MM             : Caliper, diameter 1
C2   .MM             : Caliper, diameter 2
CALI .MM             : Caliper
T1   .US             : Travel time 1
T2   .US             : Travel time 2
BSC  .               : Bit size
C1_1 .MM             : Caliper, diameter 1
C2_1 .MM             : Caliper, diameter 2
RHOB .G/C3           : Bulk density by gamma-gamma log
TP1  .US             : Travel time 1
TP2  .US             : Travel time 2
DTP  .US/M           : Interval travel time (P-wave)

~Other Information
#-----------------
~Ascii Log Data
# ...
     127.4      0.965      3.939   -999.250   -999.250   -999.250   -999.250   -999.250   -999.250   -999.250    229.299    232.374    230.836       9999       9999      215.9     228.55    226.799   -999.250   -999.250   -999.250   -999.250 
     127.5      0.961       3.86   -999.250   -999.250   -999.250   -999.250   -999.250   -999.250   -999.250    227.358     229.82    228.589       9999       9999      215.9    229.614    226.586   -999.250   -999.250   -999.250   -999.250 
     127.6      0.951      4.149   -999.250   -999.250   -999.250   -999.250   -999.250   -999.250   -999.250    227.543    229.765    228.654       9999       9999      215.9    229.559    226.212   -999.250   -999.250   -999.250   -999.250 
     127.7      0.925      4.325   -999.250   -999.250   -999.250   -999.250   -999.250   -999.250   -999.250    227.785    229.728    228.757       9999       9999      215.9     229.47     226.19   -999.250   -999.250   -999.250   -999.250 
     127.8      0.962      4.178   -999.250   -999.250   -999.250   -999.250   -999.250   -999.250   -999.250    227.551    229.662    228.606       9999       9999      215.9    229.492    226.256   -999.250   -999.250   -999.250   -999.250 
     127.9       0.99        4.1   -999.250   -999.250   -999.250   -999.250   -999.250   -999.250   -999.250     227.85    229.716    228.783       9999       9999      215.9    229.571    226.164   -999.250   -999.250   -999.250   -999.250 
       128      0.964      4.311   -999.250   -999.250   -999.250   -999.250   -999.250   -999.250   -999.250     228.15     229.77     228.96       9999       9999      215.9    229.571    226.084   -999.250   -999.250   -999.250   -999.250 
     128.1          1      4.412   -999.250   -999.250   -999.250   -999.250   -999.250   -999.250   -999.250    227.934    229.759    228.846       9999       9999      215.9    229.537    226.113   -999.250   -999.250   -999.250   -999.250 
     128.2      1.023      4.353   -999.250   -999.250   -999.250   -999.250   -999.250   -999.250   -999.250    227.695    229.681    228.688       9999       9999      215.9    229.622    226.185   -999.250   -999.250   -999.250   -999.250 
     128.3      1.003      4.354   -999.250   -999.250   -999.250   -999.250   -999.250   -999.250   -999.250    227.689    229.627    228.658       9999       9999      215.9    229.586    226.235   -999.250   -999.250   -999.250   -999.250 
     128.4      1.001      4.233   -999.250   -999.250   -999.250   -999.250   -999.250   -999.250   -999.250    227.737    229.422    228.579       9999       9999      215.9    229.569    226.115   -999.250   -999.250   -999.250   -999.250 
     128.5      0.993      4.561   -999.250   -999.250   -999.250   -999.250   -999.250   -999.250   -999.250    227.815    229.414    228.615       9999       9999      215.9    229.658    226.169   -999.250   -999.250   -999.250   -999.250 
     128.6      0.952      4.318   -999.250      0.175   -999.250   -999.250   -999.250   -999.250   -999.250    227.759    229.705    228.732       9999       9999      215.9    229.471     226.24   -999.250   -999.250   -999.250   -999.250 
     128.7       0.96      4.526   -999.250      0.183   -999.250   -999.250   -999.250   -999.250   -999.250    227.549    229.928    228.739       9999       9999      215.9     229.13    226.216   -999.250   -999.250   -999.250   -999.250 
     128.8      0.959      4.493   -999.250      0.185   -999.250   -999.250   -999.250   -999.250   -999.250    227.761    230.026    228.894       9999       9999      215.9    229.107    226.206   -999.250   -999.250   -999.250   -999.250 
     128.9      0.978      4.316   -999.250      0.175   -999.250   -999.250   -999.250   -999.250   -999.250    228.805     230.15    229.478       9999       9999      215.9    229.215    226.172   -999.250   -999.250   -999.250   -999.250 
       129      0.963      4.243   -999.250      0.174   -999.250   -999.250   -999.250   -999.250   -999.250    228.233    230.009    229.121       9999       9999      215.9    229.257    226.173   -999.250   -999.250   -999.250   -999.250 
     129.1      0.935      4.255   -999.250      0.175   -999.250   -999.250   -999.250   -999.250   -999.250     227.66    229.869    228.764       9999       9999      215.9    229.517    226.183   -999.250   -999.250   -999.250   -999.250 
     129.2       0.91      4.325   -999.250      0.183   -999.250   -999.250   -999.250   -999.250   -999.250    227.938    229.792    228.865       9999       9999      215.9    229.624    226.246   -999.250   -999.250   -999.250   -999.250 
     129.3      0.918      4.389   -999.250      0.178   -999.250   -999.250   -999.250   -999.250   -999.250     227.81    229.755    228.783       9999       9999      215.9    229.576    226.239   -999.250   -999.250   -999.250   -999.250 
     129.4       0.96      4.462   -999.250      0.182   -999.250   -999.250   -999.250   -999.250   -999.250    227.562    229.651    228.607       9999       9999      215.9    229.391    226.174   -999.250   -999.250   -999.250   -999.250 
     129.5      0.973      4.703   -999.250      0.182   -999.250   -999.250   -999.250   -999.250   -999.250    227.703    229.634    228.669       9999       9999      215.9    229.082    226.182   -999.250   -999.250   -999.250   -999.250 
     129.6      1.021      4.799   -999.250       0.18   -999.250   -999.250   -999.250   -999.250   -999.250    227.827    229.839    228.833       9999       9999      215.9    228.964     226.22   -999.250   -999.250   -999.250   -999.250 
     129.7      0.991      4.858   -999.250      0.168   -999.250   -999.250   -999.250   -999.250   -999.250    227.579     229.99    228.784       9999       9999      215.9    228.835    226.253   -999.250   -999.250   -999.250   -999.250 
     129.8      0.952       4.98   -999.250      0.169   -999.250   -999.250   -999.250   -999.250   -999.250    227.753     229.77    228.761       9999       9999      215.9    228.924    226.232   -999.250   -999.250   -999.250   -999.250 
     129.9      0.935      4.946   -999.250      0.177   -999.250   -999.250   -999.250   -999.250   -999.250    227.862    229.761    228.812       9999       9999      215.9    229.343    226.215   -999.250   -999.250   -999.250   -999.250 
       130      0.902      5.003   -999.250       0.18   -999.250   -999.250   -999.250   -999.250   -999.250    227.412    229.057    228.234       9999       9999      215.9    229.768    226.197   -999.250   -999.250   -999.250   -999.250 
     130.1      0.971      5.014   -999.250      0.177   -999.250   -999.250   -999.250   -999.250   -999.250    227.545     228.98    228.263       9999       9999      215.9    229.823     226.17   -999.250   -999.250   -999.250   -999.250 
     130.2      0.922      4.847   -999.250      0.174   -999.250   -999.250   -999.250   -999.250   -999.250    227.743    229.074    228.409       9999       9999      215.9    229.635    226.167   -999.250   -999.250   -999.250   -999.250 
     130.3      0.909      4.816   -999.250      0.169   -999.250   -999.250   -999.250   -999.250   -999.250    227.681    229.125    228.403       9999       9999      215.9    229.657    226.131   -999.250   -999.250   -999.250   -999.250 
     130.4      0.927      4.842   -999.250      0.166   -999.250   -999.250   -999.250   -999.250   -999.250    227.844    229.236     228.54       9999       9999      215.9    229.514    226.172   -999.250   -999.250   -999.250   -999.250 
     130.5      0.979      4.698   -999.250      0.169   -999.250   -999.250   -999.250   -999.250   -999.250    228.083    229.372    228.728       9999       9999      215.9    229.314    226.199   -999.250   -999.250   -999.250   -999.250 
     130.6      0.977      4.561   -999.250      0.169   -999.250   -999.250   -999.250   -999.250   -999.250    227.881    229.416    228.649       9999       9999      215.9    229.311    226.173   -999.250   -999.250   -999.250   -999.250 
