~Version Information
#-------------------
Vers.            2.0: CWLS log ASCII Standart - VERSION 2.0
WRAP.             NO: One line per depth step
~Well Information Block
#----------------------
#MNEM.UNIT      VALUE: DESCRIPTION
#----.----    -------: -------------
STRT.M            87: First depth in file                  ��
STOP.M           972: Last  depth in file                  ��
STEP.M           0.1: Depth increment                      
NULL.       -999.250: Null  values                         
COMP.           CIOC: Company Name
WELL.            322: Well Name
FLD .       KARATUBE: Field
LOC .               : Location
CNTY.     KAZAHKSTAN: Country
SRVC.               : Service Company
DATE.               : Date
UWI .               : Unique Well ID
~Parameter Information
#---------------------
#MNEM.UNIT      VALUE: DESCRIPTION
#----.----    -------: ---------------
EPD  .M      -999.250: 
APD  .M      -999.250: 
LMF  .M      -999.250: 
DMF  .M      -999.250: 
EKB  .M      -999.250: 
EDF  .M      -999.250: 
EGL  .M      -999.250: 
TDD  .M      -999.250: 
TDL  .M      -999.250: 
CBD  .M      -999.250: 
CBL  .M      -999.250: 
BS   .MM     -999.250: 
DFD  .G/C3   -999.250: 
DFV  .S      -999.250: 
DFPH .       -999.250: 
DFL  .C3     -999.250: 
RMS  .OHMM   -999.250: 
MST  .DEGC   -999.250: 
RMFS .OHMM   -999.250: 
MFST .DEGC   -999.250: 
RMCS .OHMM   -999.250: 
MCST .DEGC   -999.250: 
MRT  .DEGC   -999.250: 
BHT  .DEGC   -999.250: 
AVST .DEGC   -999.250: 
GSDD .           DEPT: DEPT,0,,,,,,1
GSDD .           NGLD: NGLD,0,DEPT,,,,,2
GSDD .             GR: GR,0,DEPT,,,,,2
GSDD .            GZ3: GZ3,0,DEPT,,,,,1
GSDD .           GZ3B: GZ3B,0,DEPT,,,,,1
GSDD .            LL3: LL3,0,DEPT,,,,,1
GSDD .            MLL: MLL,0,DEPT,,,,,1
GSDD .             SP: SP,0,DEPT,,,,,2
GSDD .          7I16R: CILR,0,DEPT,,,,,2
GSDD .          7I16A: CILA,0,DEPT,,,,,2
GSDD .             C1: C1,0,DEPT,,,,,1
GSDD .             C2: C2,0,DEPT,,,,,1
GSDD .           CALI: CALI,0,DEPT,,,,,1
GSDD .             T1: T1,0,DEPT,,,,,1
GSDD .             T2: T2,0,DEPT,,,,,1
GSDD .            BSC: BSC,0,DEPT,,,,,1
GSDD .           C1_1: C1_1,0,DEPT,,,,,2
GSDD .           C2_1: C2_1,0,DEPT,,,,,2
GSDD .           RHOB: RHOB,0,DEPT,,,,,2
GSDD .            TP1: TP1,0,DEPT,,,,,2
GSDD .            TP2: TP2,0,DEPT,,,,,2
GSDD .            DTP: DT,0,DEPT,,,,,0
~Curve Information Block
#-----------------------
#MNEM.UNIT           : CURVE DESCRIPTION
#----.----           : -----------------
DEPT .M              : Depth curve                          
NGLD .C/C            : Neutron-gamma log
GR   .UR/H           : Gamma-ray
GZ3  .OHMM           : App.resistivity by lateral A2.0M0.5N
GZ3B .OHMM           : App.resistivity by lateral N0.5M2.0A
LL3  .OHMM           : Appar.resist.laterolog,3 electrodes
MLL  .OHMM           : Microlaterolog sonde  
SP   .MV             : Spontaneous potential
CILR.MMHO            : Conduct. by sonde 7I1.6,reactive signal
CILA.MMHO            : Conduct. by sonde 7I1.6,active signal
C1   .MM             : Caliper, diameter 1
C2   .MM             : Caliper, diameter 2
CALI .MM             : Caliper
T1   .US             : Travel time 1
T2   .US             : Travel time 2
BSC  .               : Bit size
C1_1 .MM             : Caliper, diameter 1
C2_1 .MM             : Caliper, diameter 2
RHOB .G/C3           : Bulk density by gamma-gamma log
TP1  .US             : Travel time 1
TP2  .US             : Travel time 2
DTP  .US/M           : Interval travel time (P-wave)

~Other Information
#-----------------
~Ascii Log Data
# ...
     348.5      1.194      11.35      4.271      4.099      3.187      2.656    726.908     192.44    175.136    233.175    223.413    228.294       9999       9999      215.9    217.742    226.422      2.264    901.758   1148.555    550.563 
     348.6      1.201     11.325      4.357       4.08      3.261      2.808    727.111    192.622    174.434    231.275    223.088    227.181       9999       9999      215.9    216.845     226.37      2.293    901.758   1145.391    544.517 
     348.7      1.194     11.272      4.427      4.057      3.344      2.987    727.419     192.85    176.543    229.951    222.134    226.043       9999       9999      215.9    216.857    226.203      2.309     911.25   1142.227    544.042 
     348.8      1.184     11.325       4.49      4.031      3.278      2.842    727.787    193.678    177.268    229.351    221.674    225.512       9999       9999      215.9    216.731    226.272      2.315    908.086   1139.063    545.361 
     348.9      1.189     11.323      4.535      4.019       3.12      2.603    728.275    194.963      176.6    229.189    221.737    225.463       9999       9999      215.9    215.939    226.296      2.314    908.086   1139.063    545.361 
       349      1.198      11.42      4.549      4.013       2.99      2.449    729.014    195.861    177.107    230.392     221.54    225.966       9999       9999      215.9     215.06    226.302      2.314    908.086   1139.063    543.163 
     349.1      1.195     11.587      4.528      4.012      2.957      2.448     729.83    196.355    178.262    231.571    220.236    225.904       9999       9999      215.9    219.407    226.582      2.315    901.758   1140.645    539.209 
     349.2      1.192     11.796      4.505      4.031      2.955      2.489    730.227     197.17    179.383    232.812    219.969    226.391       9999       9999      215.9    221.424    227.059      2.333     895.43   1142.227    534.815 
     349.3      1.238     11.774      4.477      4.076      2.961      2.479    730.434    197.376    181.756    232.901     219.69    226.295       9999       9999      215.9    222.006    227.395      2.325    910.667   1142.227    533.058 
     349.4      1.258     11.615      4.472      4.157       2.99      2.488     730.69    197.351    182.567    231.449    217.834    224.642       9999       9999      215.9    220.842    226.829      2.299      915.6   1142.227    533.498 
     349.5      1.229      12.05      4.496      4.268      3.053      2.549    731.058    197.651    181.464    232.052    217.871    224.961       9999       9999      215.9    219.812    225.777      2.271        913   1142.227    534.377 
     349.6      1.219     12.131      4.538       4.36      3.129      2.524    731.132    198.021    180.602    232.234    220.083    226.158       9999       9999      215.9    219.161    225.347       2.27        914   1142.227    534.494 
     349.7       1.25     12.239      4.596      4.443      3.192      2.663    731.075    197.984    179.168    232.103    222.007    227.055       9999       9999      215.9     219.32    226.655      2.269        915   1142.227    534.456 
     349.8      1.256     11.974      4.677      4.505      3.197       2.59    730.974    198.195     178.21    232.956    221.791    227.374       9999       9999      215.9    222.355    226.095       2.26        912   1142.227    535.198 
     349.9       1.27      12.29      4.747      4.532      3.149      2.587    731.017    198.555    179.018    233.774    220.305    227.039       9999       9999      215.9    222.206    225.828      2.248      918.8   1156.465    534.508 
       350       1.25     11.994      4.792      4.553      3.093       2.54    731.294     199.26    180.317    233.804    219.364    226.584       9999       9999      215.9    218.152    226.318      2.244    916.667   1158.047    531.777 
     350.1      1.234     12.042      4.781      4.575      3.059      2.452     731.63    200.311     180.78    234.258     219.43    226.844       9999       9999      215.9    218.809    226.402       2.22    921.333   1158.047    526.282 
     350.2      1.216     12.268      4.748      4.637      3.041      2.426    731.899    200.641    182.362    236.555    219.763    228.159       9999       9999      215.9    219.922     226.39      2.234        926   1161.211    520.295 
     350.3      1.194      12.39      4.706      4.753       3.01      2.419    732.101    200.318     183.62    235.513    219.837    227.675       9999       9999      215.9     220.88    226.261      2.224      939.6   1164.375    514.106 
     350.4      1.193     12.641      4.657      4.927      2.989      2.401    732.099    200.025    184.435    234.417    218.491    226.454       9999       9999      215.9    218.809    226.239      2.198    955.547   1170.703    510.018 
     350.5      1.168     12.832      4.595      5.091       2.98      2.427    732.237     199.39    186.866    234.615    217.529    226.072       9999       9999      215.9    217.689    226.386      2.179    957.129   1173.867    507.538 
     350.6      1.185     12.631      4.545      5.281      2.954      2.436    732.213    199.312     187.49     234.78    217.841     226.31       9999       9999      215.9    217.205    226.644      2.189    958.711   1177.031    509.734 
     350.7      1.207     12.675      4.502      5.391      2.897      2.388    732.019    199.526    187.549     234.94    219.013    226.977       9999       9999      215.9    217.454    227.895      2.228    960.293   1178.613    511.274 
     350.8        1.2     13.176      4.459      5.429      2.847      2.386    731.578    198.971    188.646    233.855    221.392    227.624       9999       9999      215.9    219.602    227.929      2.216    961.875   1180.195    514.666 
     350.9      1.211     13.465      4.406      5.386      2.809      2.306    731.237    197.915    189.128    233.536    224.087    228.812       9999       9999      215.9    224.019    226.365       2.23    968.203   1186.523    514.867 
       351      1.165     13.199        4.3      5.275      2.763      2.401    731.286    196.909    189.245    235.434    227.084    231.259       9999       9999      215.9    223.245    226.832      2.227    971.367   1188.105    519.713 
     351.1      1.182     13.271       4.16      5.118      2.708      2.332    731.458    195.386    191.101    235.422    227.312    231.367       9999       9999      215.9    225.196    229.005      2.219    974.531   1186.523    522.646 
     351.2       1.18     12.914      4.065      4.927      2.644      2.275    731.234    192.874    191.805    234.532    223.747     229.14       9999       9999      215.9    226.172    230.804      2.214    977.695   1189.688    523.459 
     351.3      1.182     12.858      3.931      4.703      2.608      2.164    730.873    191.031    190.116    234.466    219.913    227.189       9999       9999      215.9    220.633    229.082      2.222    979.277   1192.852    513.946 
     351.4      1.194     13.126      3.776      4.521      2.634      2.245    730.466    188.353    190.425    234.091    217.778    225.935       9999       9999      215.9    218.016    229.762      2.219    980.859   1196.016    497.762 
     351.5      1.195     13.018      3.613      4.438      2.689      2.343    729.842    185.051    189.416     233.99    217.844    225.917       9999       9999      215.9    217.288    230.234      2.227    984.023   1197.598    480.384 
     351.6      1.217     12.889      3.477      4.403      2.768      2.416    729.523    182.244    186.128    235.178    222.226    228.702       9999       9999      215.9    219.265    228.818      2.242    987.188    1199.18    469.894 
     351.7      1.217     12.739      3.375      4.417      2.889      2.539    729.427    179.576     185.15    235.371    226.397    230.884       9999       9999      215.9    223.308    228.164      2.251      983.6    1199.18    468.918 
