~Version Information
#-------------------
Vers.            2.0: CWLS log ASCII Standart - VERSION 2.0
WRAP.             NO: One line per depth step
~Well Information Block
#----------------------
#MNEM.UNIT      VALUE: DESCRIPTION
#----.----    -------: -------------
STRT.M            87: First depth in file                  ��
STOP.M           972: Last  depth in file                  ��
STEP.M           0.1: Depth increment                      
NULL.       -999.250: Null  values                         
COMP.           CIOC: Company Name
WELL.            322: Well Name
FLD .       KARATUBE: Field
LOC .               : Location
CNTY.     KAZAHKSTAN: Country
SRVC.               : Service Company
DATE.               : Date
UWI .               : Unique Well ID
~Parameter Information
#---------------------
#MNEM.UNIT      VALUE: DESCRIPTION
#----.----    -------: ---------------
EPD  .M      -999.250: 
APD  .M      -999.250: 
LMF  .M      -999.250: 
DMF  .M      -999.250: 
EKB  .M      -999.250: 
EDF  .M      -999.250: 
EGL  .M      -999.250: 
TDD  .M      -999.250: 
TDL  .M      -999.250: 
CBD  .M      -999.250: 
CBL  .M      -999.250: 
BS   .MM     -999.250: 
DFD  .G/C3   -999.250: 
DFV  .S      -999.250: 
DFPH .       -999.250: 
DFL  .C3     -999.250: 
RMS  .OHMM   -999.250: 
MST  .DEGC   -999.250: 
RMFS .OHMM   -999.250: 
MFST .DEGC   -999.250: 
RMCS .OHMM   -999.250: 
MCST .DEGC   -999.250: 
MRT  .DEGC   -999.250: 
BHT  .DEGC   -999.250: 
AVST .DEGC   -999.250: 
GSDD .           DEPT: DEPT,0,,,,,,1
GSDD .           NGLD: NGLD,0,DEPT,,,,,2
GSDD .             GR: GR,0,DEPT,,,,,2
GSDD .            GZ3: GZ3,0,DEPT,,,,,1
GSDD .           GZ3B: GZ3B,0,DEPT,,,,,1
GSDD .            LL3: LL3,0,DEPT,,,,,1
GSDD .            MLL: MLL,0,DEPT,,,,,1
GSDD .             SP: SP,0,DEPT,,,,,2
GSDD .          7I16R: CILR,0,DEPT,,,,,2
GSDD .          7I16A: CILA,0,DEPT,,,,,2
GSDD .             C1: C1,0,DEPT,,,,,1
GSDD .             C2: C2,0,DEPT,,,,,1
GSDD .           CALI: CALI,0,DEPT,,,,,1
GSDD .             T1: T1,0,DEPT,,,,,1
GSDD .             T2: T2,0,DEPT,,,,,1
GSDD .            BSC: BSC,0,DEPT,,,,,1
GSDD .           C1_1: C1_1,0,DEPT,,,,,2
GSDD .           C2_1: C2_1,0,DEPT,,,,,2
GSDD .           RHOB: RHOB,0,DEPT,,,,,2
GSDD .            TP1: TP1,0,DEPT,,,,,2
GSDD .            TP2: TP2,0,DEPT,,,,,2
GSDD .            DTP: DT,0,DEPT,,,,,0
~Curve Information Block
#-----------------------
#MNEM.UNIT           : CURVE DESCRIPTION
#----.----           : -----------------
DEPT .M              : Depth curve                          
NGLD .C/C            : Neutron-gamma log
GR   .UR/H           : Gamma-ray
GZ3  .OHMM           : App.resistivity by lateral A2.0M0.5N
GZ3B .OHMM           : App.resistivity by lateral N0.5M2.0A
LL3  .OHMM           : Appar.resist.laterolog,3 electrodes
MLL  .OHMM           : Microlaterolog sonde  
SP   .MV             : Spontaneous potential
CILR.MMHO            : Conduct. by sonde 7I1.6,reactive signal
CILA.MMHO            : Conduct. by sonde 7I1.6,active signal
C1   .MM             : Caliper, diameter 1
C2   .MM             : Caliper, diameter 2
CALI .MM             : Caliper
T1   .US             : Travel time 1
T2   .US             : Travel time 2
BSC  .               : Bit size
C1_1 .MM             : Caliper, diameter 1
C2_1 .MM             : Caliper, diameter 2
RHOB .G/C3           : Bulk density by gamma-gamma log
TP1  .US             : Travel time 1
TP2  .US             : Travel time 2
DTP  .US/M           : Interval travel time (P-wave)

~Other Information
#-----------------
~Ascii Log Data
# ...
     292.4      1.294      8.114      5.287      6.192      4.314      3.092    726.529    157.324    135.114    231.833    226.606    229.219       9999       9999      215.9    221.162    219.226       2.09   1053.633   1227.656    552.111 
     292.5      1.285      8.241      6.113      6.216      4.327      3.221    726.935    157.694    134.921     232.45    225.983    229.216       9999       9999      215.9     219.47    218.951      2.114   1059.961   1246.641    557.204 
     292.6      1.271      7.954      6.781      6.242      4.328      3.408    727.057    157.184     133.94    231.176     224.86    228.018       9999       9999      215.9    218.442    218.493      2.126   1061.543   1240.313    560.889 
     292.7      1.293      8.021      7.535      6.274      4.293      3.403    726.995    157.309    132.722    230.922    225.226    228.074       9999       9999      215.9    218.472    218.021      2.122   1063.125   1290.938    564.862 
     292.8      1.283      8.027      7.979      6.318      4.318      3.282    726.922    157.729    132.449    232.541    225.401    228.971       9999       9999      215.9    219.591    218.171      2.122   1064.707   1290.938    566.611 
     292.9       1.33      8.223      8.226      6.348      4.382      3.376    726.992    157.637    131.623    232.833    224.158    228.496       9999       9999      215.9    219.174    218.541      2.121   1066.289   1290.938     570.22 
       293      1.313      8.295      8.313      6.365      4.416      3.408    726.903     157.61     131.88    232.774    223.901    228.337       9999       9999      215.9    217.514    219.076      2.135   1066.289   1284.609    571.504 
     293.1      1.299      8.211      8.261       6.37      4.397       3.39    726.674    157.672    132.539    234.287    224.448    229.367       9999       9999      215.9    218.486    219.112      2.128   1066.289    1292.52    571.347 
     293.2      1.291      8.002      8.106      6.371      4.357      3.371    726.574    157.667    131.629    234.111     224.41    229.261       9999       9999      215.9    219.526    219.063      2.139   1066.289   1290.938    570.024 
     293.3      1.282      7.816      7.923      6.366      4.342      3.353    726.491    158.062    131.542     232.06    224.019     228.04       9999       9999      215.9    220.373    218.997      2.127       1069   1295.333    566.194 
     293.4      1.327      8.038      7.729      6.362      4.374      3.371    726.365    158.291    131.819    230.379      223.7    227.039       9999       9999      215.9    218.872    219.555      2.153   1071.333       1295    560.878 
     293.5       1.33      8.225      7.618      6.332      4.376      3.381    726.191    158.353    131.399    230.053    223.017    226.535       9999       9999      215.9    219.005    220.305      2.151   1068.667       1290    549.739 
     293.6      1.342      7.985      7.516       6.28       4.35      3.223    726.159    158.639    132.699      228.9    222.142    225.521       9999       9999      215.9    219.644    220.976      2.149     1070.8   1284.667    541.387 
     293.7      1.334      7.982      7.421      6.205      4.329      3.204    726.178    158.796    133.394    227.796    221.839    224.818       9999       9999      215.9    218.539     220.18      2.132   1070.667       1287    534.593 
     293.8      1.389      8.012      7.338      6.105      4.253      3.354    726.392    158.722     132.76    227.922     221.52    224.721       9999       9999      215.9    218.783    219.083      2.145       1064       1280     532.87 
     293.9      1.426      7.963      7.244       5.99      4.167      3.203    726.701    159.564    133.553    227.893    221.754    224.824       9999       9999      215.9    218.954     218.23       2.15       1062     1279.6    531.558 
       294       1.43      7.906      7.106      5.901      4.172      3.224    726.921    159.897    134.346    228.026    222.526    225.276       9999       9999      215.9    217.609    218.245      2.142       1058       1277    528.968 
     294.1      1.392      7.838      7.005       5.83      4.257      3.412    727.076    159.978     134.98    228.504      223.6    226.052       9999       9999      215.9    219.239     219.66      2.146       1057       1278    523.971 
     294.2      1.367      7.917      6.908      5.771      4.291      3.489    727.101    160.525     136.39     228.29    224.324    226.307       9999       9999      215.9    219.967    220.758      2.139       1058   1280.667    516.923 
     294.3      1.361      7.851      6.825      5.704      4.236      3.407    727.182    160.834    136.586    227.432    224.192    225.812       9999       9999      215.9    218.227    220.853      2.148   1059.333       1283    512.412 
     294.4      1.343      7.865      6.759      5.646      4.129      3.263    727.268    161.338    136.252    227.456    225.131    226.294       9999       9999      215.9    217.791    219.678      2.121     1053.2     1282.8    509.022 
     294.5      1.353      7.883      6.708      5.583      4.058      3.165    727.363    162.248    136.843     227.95     226.24    227.095       9999       9999      215.9    217.272    219.852      2.118       1054   1276.667    507.595 
     294.6      1.333      7.904      6.666      5.547      4.039      3.179    727.433    162.627    136.917    227.862     223.95    225.906       9999       9999      215.9     216.63    222.051      2.123   1053.633       1283    507.446 
     294.7      1.388      7.781      6.624      5.513      4.045      3.175    727.481    162.874    137.099    227.224    222.233    224.728       9999       9999      215.9    216.275     219.86      2.119   1050.469   1280.667    513.037 
     294.8      1.396      7.907      6.602      5.473      4.084      3.239     727.56    163.361    138.023    227.235    221.994    224.614       9999       9999      215.9    216.424    218.458      2.116   1047.305   1276.667     522.89 
     294.9      1.367       7.76      6.611      5.413      4.179      3.283    727.724    163.578    137.234    227.959    222.141     225.05       9999       9999      215.9    217.046    218.331      2.081   1047.305       1274    535.132 
       295      1.386      7.698      6.631      5.325      4.239      3.406    727.611    164.076    136.424    228.149    222.958    225.554       9999       9999      215.9    217.142    218.544      2.075   1045.723   1271.333    545.198 
     295.1       1.43      7.823      6.649      5.215      4.234      3.408    727.454    165.037    136.323     228.16    224.186    226.173       9999       9999      215.9    219.097    218.612      2.107   1044.141       1276    551.261 
     295.2      1.424      8.026      6.648      5.091      4.179      3.305    727.443    165.852    135.827    228.764    226.018    227.391       9999       9999      215.9    221.852    218.496      2.109       1059       1274    552.454 
     295.3      1.437       7.73      6.646      4.965      4.162      3.247    727.491    166.599     137.33    229.368    227.799    228.584       9999       9999      215.9    220.132    218.376      2.097   1059.333       1275    546.981 
     295.4      1.421      7.652      6.639      4.852      4.172      3.283    727.426    167.451    138.555      229.4    226.251    227.826       9999       9999      215.9    218.337    217.498      2.103       1063     1276.4    537.685 
     295.5      1.358      7.592      6.648      4.772      4.189      3.343    727.394    168.148    138.123     228.82    223.519    226.169       9999       9999      215.9    216.769    216.076      2.118   1064.667       1278    526.111 
     295.6      1.367      7.568      6.706      4.745      4.229      3.256    727.363    169.354    138.781    228.652    222.611    225.631       9999       9999      215.9    217.913    216.585      2.128   1060.667       1272    518.055 
