~Version Information
#-------------------
Vers.            2.0: CWLS log ASCII Standart - VERSION 2.0
WRAP.             NO: One line per depth step
~Well Information Block
#----------------------
#MNEM.UNIT      VALUE: DESCRIPTION
#----.----    -------: -------------
STRT.M            87: First depth in file                  ��
STOP.M           972: Last  depth in file                  ��
STEP.M           0.1: Depth increment                      
NULL.       -999.250: Null  values                         
COMP.           CIOC: Company Name
WELL.            322: Well Name
FLD .       KARATUBE: Field
LOC .               : Location
CNTY.     KAZAHKSTAN: Country
SRVC.               : Service Company
DATE.               : Date
UWI .               : Unique Well ID
~Parameter Information
#---------------------
#MNEM.UNIT      VALUE: DESCRIPTION
#----.----    -------: ---------------
EPD  .M      -999.250: 
APD  .M      -999.250: 
LMF  .M      -999.250: 
DMF  .M      -999.250: 
EKB  .M      -999.250: 
EDF  .M      -999.250: 
EGL  .M      -999.250: 
TDD  .M      -999.250: 
TDL  .M      -999.250: 
CBD  .M      -999.250: 
CBL  .M      -999.250: 
BS   .MM     -999.250: 
DFD  .G/C3   -999.250: 
DFV  .S      -999.250: 
DFPH .       -999.250: 
DFL  .C3     -999.250: 
RMS  .OHMM   -999.250: 
MST  .DEGC   -999.250: 
RMFS .OHMM   -999.250: 
MFST .DEGC   -999.250: 
RMCS .OHMM   -999.250: 
MCST .DEGC   -999.250: 
MRT  .DEGC   -999.250: 
BHT  .DEGC   -999.250: 
AVST .DEGC   -999.250: 
GSDD .           DEPT: DEPT,0,,,,,,1
GSDD .           NGLD: NGLD,0,DEPT,,,,,2
GSDD .             GR: GR,0,DEPT,,,,,2
GSDD .            GZ3: GZ3,0,DEPT,,,,,1
GSDD .           GZ3B: GZ3B,0,DEPT,,,,,1
GSDD .            LL3: LL3,0,DEPT,,,,,1
GSDD .            MLL: MLL,0,DEPT,,,,,1
GSDD .             SP: SP,0,DEPT,,,,,2
GSDD .          7I16R: CILR,0,DEPT,,,,,2
GSDD .          7I16A: CILA,0,DEPT,,,,,2
GSDD .             C1: C1,0,DEPT,,,,,1
GSDD .             C2: C2,0,DEPT,,,,,1
GSDD .           CALI: CALI,0,DEPT,,,,,1
GSDD .             T1: T1,0,DEPT,,,,,1
GSDD .             T2: T2,0,DEPT,,,,,1
GSDD .            BSC: BSC,0,DEPT,,,,,1
GSDD .           C1_1: C1_1,0,DEPT,,,,,2
GSDD .           C2_1: C2_1,0,DEPT,,,,,2
GSDD .           RHOB: RHOB,0,DEPT,,,,,2
GSDD .            TP1: TP1,0,DEPT,,,,,2
GSDD .            TP2: TP2,0,DEPT,,,,,2
GSDD .            DTP: DT,0,DEPT,,,,,0
~Curve Information Block
#-----------------------
#MNEM.UNIT           : CURVE DESCRIPTION
#----.----           : -----------------
DEPT .M              : Depth curve                          
NGLD .C/C            : Neutron-gamma log
GR   .UR/H           : Gamma-ray
GZ3  .OHMM           : App.resistivity by lateral A2.0M0.5N
GZ3B .OHMM           : App.resistivity by lateral N0.5M2.0A
LL3  .OHMM           : Appar.resist.laterolog,3 electrodes
MLL  .OHMM           : Microlaterolog sonde  
SP   .MV             : Spontaneous potential
CILR.MMHO            : Conduct. by sonde 7I1.6,reactive signal
CILA.MMHO            : Conduct. by sonde 7I1.6,active signal
C1   .MM             : Caliper, diameter 1
C2   .MM             : Caliper, diameter 2
CALI .MM             : Caliper
T1   .US             : Travel time 1
T2   .US             : Travel time 2
BSC  .               : Bit size
C1_1 .MM             : Caliper, diameter 1
C2_1 .MM             : Caliper, diameter 2
RHOB .G/C3           : Bulk density by gamma-gamma log
TP1  .US             : Travel time 1
TP2  .US             : Travel time 2
DTP  .US/M           : Interval travel time (P-wave)

~Other Information
#-----------------
~Ascii Log Data
# ...
     569.6      1.298     11.015      2.155      1.694      1.956      2.416    718.114    369.278     245.66    224.404    218.453    221.428       9999       9999      215.9    214.295    218.264      2.184    879.609   1053.633    434.462 
     569.7      1.325     11.149      2.042       1.67      1.937      2.283     717.17    369.242     242.07    225.406    218.441    221.923       9999       9999      215.9    215.414    219.168      2.172    882.773   1055.215    433.944 
     569.8      1.335     10.796      1.932      1.663      1.909      2.299     716.38    369.856    235.851    225.648    218.917    222.283       9999       9999      215.9    216.373    219.096       2.18    885.938   1056.797    433.258 
     569.9      1.342     11.054      1.838      1.656      1.928      2.393    715.786    370.592    232.324    224.984    219.478    222.231       9999       9999      215.9     214.77    217.396      2.185    892.266   1059.961    432.388 
       570      1.322     10.695      1.761      1.627       1.95      2.437    715.433    372.767    230.445     224.46    219.444    221.952       9999       9999      215.9    214.212    217.337      2.192    892.266   1059.961    432.962 
     570.1      1.343     10.656      1.712      1.586      1.865       2.33    715.237    374.375    232.099     224.18    219.087    221.634       9999       9999      215.9    214.455    218.455      2.202    892.266   1059.961    432.484 
     570.2      1.348     10.935      1.655      1.555      1.728      1.951    715.106    372.598    236.878    223.584    219.223    221.404       9999       9999      215.9     213.93    219.271      2.184     895.43   1063.125    431.403 
     570.3      1.323     10.688      1.603      1.547      1.703      2.037    714.934    368.892    241.847    222.934    219.431    221.182       9999       9999      215.9    213.308    219.417      2.185     895.43   1064.707    429.625 
     570.4      1.321     10.794       1.55      1.553      1.802      2.349    714.933    366.354    245.574    222.583    219.396     220.99       9999       9999      215.9    212.841    219.029      2.174     895.43   1066.289    428.446 
     570.5      1.308     11.219      1.488      1.579      1.897      2.339    715.004    364.828    250.217    222.786    219.481    221.134       9999       9999      215.9    212.553    218.274      2.185    893.848   1071.333    427.776 
     570.6      1.356     11.075      1.442        1.6      1.895      2.283    715.036    364.789    252.033    223.415     219.54    221.478       9999       9999      215.9    214.193    218.094      2.201    892.266       1072    428.126 
     570.7      1.351     10.789      1.416      1.623      1.874      2.199    715.216    364.498    252.216    223.635    219.913    221.774       9999       9999      215.9    214.472    218.038      2.208     895.43       1072     431.33 
     570.8      1.339     10.694      1.413      1.636       1.89      2.213    715.437    362.787    253.189    223.555    220.639    222.097       9999       9999      215.9    213.228    218.046      2.214     895.43       1074    434.064 
     570.9      1.312     10.264      1.386      1.638      1.934      2.272    715.589    361.652    255.142    223.791    220.853    222.322       9999       9999      215.9    212.178    218.072      2.179     895.43     1069.2    435.145 
       571      1.283     10.343      1.346       1.64      1.953      2.181    715.611    361.231    254.466    224.049    220.526    222.288       9999       9999      215.9    211.649     218.07      2.174     895.43       1069    433.103 
     571.1      1.221     10.413      1.306      1.641      1.944      2.127    715.555    361.641     253.47    223.823    220.434    222.128       9999       9999      215.9    211.122    218.114      2.182     895.43   1068.667    436.111 
     571.2       1.26     10.536      1.281      1.636      1.932      2.116     715.56    362.337    254.256    224.076    220.515    222.296       9999       9999      215.9    210.263    218.246      2.175     895.43     1069.2    442.091 
     571.3      1.263     10.242      1.271      1.625      1.908      2.099    715.528    362.346    255.781    224.161    220.459     222.31       9999       9999      215.9    209.201    218.146       2.17     895.43       1070    448.683 
     571.4      1.324      9.986      1.256      1.616      1.868      1.979    715.446    357.592    259.721    223.818      220.5    222.159       9999       9999      215.9     208.74    218.093      2.178     895.43       1069    459.229 
     571.5      1.282     10.163      1.236      1.619      1.844      1.954    715.359    350.933    260.798    224.508    220.791     222.65       9999       9999      215.9    209.351      218.1       2.18     895.43       1066    486.914 
     571.6      1.297     10.268      1.226      1.661      1.855      1.994    715.497    345.173    258.783    225.141    221.126    223.133       9999       9999      215.9    211.473    218.005      2.196     895.43     1070.4    514.599 
     571.7      1.324      9.788      1.238      1.716      1.891      2.074    715.617    337.789     258.24    224.686    221.285    222.986       9999       9999      215.9    211.959    217.938      2.205     895.43   1068.667    524.707 
     571.8      1.332     10.078      1.264       1.82      1.938      2.227    715.758    331.569    259.562    224.151    221.009     222.58       9999       9999      215.9    211.703     217.94      2.185     895.43       1068    497.021 
     571.9      1.284     10.323      1.295      1.897      1.982      2.385    716.061    327.483    260.754    224.058    221.097    222.577       9999       9999      215.9    211.281    218.169      2.204    893.848   1065.429    468.456 
       572       1.28     10.769      1.356      1.928       2.03      2.568    716.562    323.817     263.14    223.578    221.529    222.554       9999       9999      215.9    212.345     218.99      2.249    892.266       1063    447.802 
     572.1      1.288      10.61      1.447       1.91      2.088      2.666    717.103    324.815    264.702    223.339    221.173    222.256       9999       9999      215.9    214.197    219.562      2.267    885.938       1058    443.847 
     572.2      1.306     10.515       1.55      1.831      2.113      2.561    717.595    328.376    263.979    223.734    220.633    222.183       9999       9999      215.9    216.464    219.737      2.282    885.938   1056.286    441.651 
     572.3       1.33     10.592      1.613      1.714      2.064      2.412    717.937     333.93    263.923    224.504    220.337    222.421       9999       9999      215.9    217.279    219.593      2.301    885.938       1056    441.212 
     572.4      1.346     10.298      1.645      1.582      1.995      2.328    717.965    339.128    262.706    225.268    220.311     222.79       9999       9999      215.9    218.475    219.549      2.282    882.773       1058    440.628 
     572.5      1.363     10.024       1.62      1.437      1.946       2.28    717.626    343.176    260.045    224.746    220.289    222.518       9999       9999      215.9     219.47    219.605      2.243    879.609       1059    438.146 
     572.6      1.349     10.023      1.555      1.371      1.919      2.227    716.897    342.901    256.653    222.608    220.438    221.523       9999       9999      215.9    219.408     219.74       2.25    879.609   1047.305    435.756 
     572.7      1.417      9.753      1.441      1.366       1.91       2.19    715.903    341.785    252.291    221.651    220.628     221.14       9999       9999      215.9    217.468    219.734       2.24    876.445   1048.887    434.399 
     572.8       1.47      9.818      1.345      1.403      1.932      2.231    715.161    338.469    244.712    222.667    221.372    222.019       9999       9999      215.9    215.112    219.652       2.24    873.281   1050.469    431.642 
