~Version Information
#-------------------
Vers.            2.0: CWLS log ASCII Standart - VERSION 2.0
WRAP.             NO: One line per depth step
~Well Information Block
#----------------------
#MNEM.UNIT      VALUE: DESCRIPTION
#----.----    -------: -------------
STRT.M            87: First depth in file                  ��
STOP.M           972: Last  depth in file                  ��
STEP.M           0.1: Depth increment                      
NULL.       -999.250: Null  values                         
COMP.           CIOC: Company Name
WELL.            322: Well Name
FLD .       KARATUBE: Field
LOC .               : Location
CNTY.     KAZAHKSTAN: Country
SRVC.               : Service Company
DATE.               : Date
UWI .               : Unique Well ID
~Parameter Information
#---------------------
#MNEM.UNIT      VALUE: DESCRIPTION
#----.----    -------: ---------------
EPD  .M      -999.250: 
APD  .M      -999.250: 
LMF  .M      -999.250: 
DMF  .M      -999.250: 
EKB  .M      -999.250: 
EDF  .M      -999.250: 
EGL  .M      -999.250: 
TDD  .M      -999.250: 
TDL  .M      -999.250: 
CBD  .M      -999.250: 
CBL  .M      -999.250: 
BS   .MM     -999.250: 
DFD  .G/C3   -999.250: 
DFV  .S      -999.250: 
DFPH .       -999.250: 
DFL  .C3     -999.250: 
RMS  .OHMM   -999.250: 
MST  .DEGC   -999.250: 
RMFS .OHMM   -999.250: 
MFST .DEGC   -999.250: 
RMCS .OHMM   -999.250: 
MCST .DEGC   -999.250: 
MRT  .DEGC   -999.250: 
BHT  .DEGC   -999.250: 
AVST .DEGC   -999.250: 
GSDD .           DEPT: DEPT,0,,,,,,1
GSDD .           NGLD: NGLD,0,DEPT,,,,,2
GSDD .             GR: GR,0,DEPT,,,,,2
GSDD .            GZ3: GZ3,0,DEPT,,,,,1
GSDD .           GZ3B: GZ3B,0,DEPT,,,,,1
GSDD .            LL3: LL3,0,DEPT,,,,,1
GSDD .            MLL: MLL,0,DEPT,,,,,1
GSDD .             SP: SP,0,DEPT,,,,,2
GSDD .          7I16R: CILR,0,DEPT,,,,,2
GSDD .          7I16A: CILA,0,DEPT,,,,,2
GSDD .             C1: C1,0,DEPT,,,,,1
GSDD .             C2: C2,0,DEPT,,,,,1
GSDD .           CALI: CALI,0,DEPT,,,,,1
GSDD .             T1: T1,0,DEPT,,,,,1
GSDD .             T2: T2,0,DEPT,,,,,1
GSDD .            BSC: BSC,0,DEPT,,,,,1
GSDD .           C1_1: C1_1,0,DEPT,,,,,2
GSDD .           C2_1: C2_1,0,DEPT,,,,,2
GSDD .           RHOB: RHOB,0,DEPT,,,,,2
GSDD .            TP1: TP1,0,DEPT,,,,,2
GSDD .            TP2: TP2,0,DEPT,,,,,2
GSDD .            DTP: DT,0,DEPT,,,,,0
~Curve Information Block
#-----------------------
#MNEM.UNIT           : CURVE DESCRIPTION
#----.----           : -----------------
DEPT .M              : Depth curve                          
NGLD .C/C            : Neutron-gamma log
GR   .UR/H           : Gamma-ray
GZ3  .OHMM           : App.resistivity by lateral A2.0M0.5N
GZ3B .OHMM           : App.resistivity by lateral N0.5M2.0A
LL3  .OHMM           : Appar.resist.laterolog,3 electrodes
MLL  .OHMM           : Microlaterolog sonde  
SP   .MV             : Spontaneous potential
CILR.MMHO            : Conduct. by sonde 7I1.6,reactive signal
CILA.MMHO            : Conduct. by sonde 7I1.6,active signal
C1   .MM             : Caliper, diameter 1
C2   .MM             : Caliper, diameter 2
CALI .MM             : Caliper
T1   .US             : Travel time 1
T2   .US             : Travel time 2
BSC  .               : Bit size
C1_1 .MM             : Caliper, diameter 1
C2_1 .MM             : Caliper, diameter 2
RHOB .G/C3           : Bulk density by gamma-gamma log
TP1  .US             : Travel time 1
TP2  .US             : Travel time 2
DTP  .US/M           : Interval travel time (P-wave)

~Other Information
#-----------------
~Ascii Log Data
# ...
     790.7       1.42      6.453      1.944       1.93       2.76      2.662    759.599     289.89    240.161      221.2    217.633    219.417   1012.286   1141.333      215.9    219.236    220.899      2.471    700.667    832.667      311.4 
     790.8       1.42      6.357      2.015      1.894      2.711      2.702    759.341    291.027    241.148    220.994    218.514    219.754   1012.286   1141.333      215.9    219.265    220.648      2.504    696.667      832.4      311.2 
     790.9      1.422      6.469      2.064      1.853      2.632      2.841    759.107    292.406    243.653    221.056    219.288    220.172   1012.286   1141.333      215.9    218.877     219.75        2.5        694        830    311.007 
       791      1.399      6.352      2.098      1.812      2.565      2.755    758.768    294.701    245.263    221.278    219.569    220.423   1012.286   1141.333      215.9     219.16    217.273       2.52        694        828     311.25 
     791.1      1.406      6.159      2.119      1.778      2.549      2.605    758.445    297.872    244.054    220.948    219.852      220.4   1012.286   1141.333      215.9    220.025    213.742      2.565        695        826    310.886 
     791.2      1.383      6.156      2.126       1.75      2.564       2.51    758.088    300.442    244.812    221.584    220.668    221.126   1012.286   1141.333      215.9    219.171    213.486      2.542    696.222        830    310.304 
     791.3      1.417       6.07      2.124      1.727      2.574      2.391    757.645    303.116    244.418    223.543    221.556     222.55   1012.286   1141.333      215.9    218.865    214.313      2.514    698.667        828     309.75 
     791.4      1.427      6.206      2.111      1.705       2.57      2.402    757.286    307.264    242.927    223.968    221.607    222.788   1012.286   1141.333      215.9    219.038    215.435      2.516    699.778    828.667    309.816 
     791.5      1.436       6.14      2.109      1.692      2.584      2.437    756.937    310.552    241.582    223.751    220.773    222.262   1012.286   1141.333      215.9    219.047    214.725      2.528        700        828    310.696 
     791.6      1.419      6.263      2.118      1.688      2.602      2.496     756.74    313.809    239.244    224.049    219.854    221.952   1012.286   1141.333      215.9    219.707    217.347      2.535      700.4        826    311.677 
     791.7      1.402      6.381      2.129      1.678       2.57      2.694    756.802    317.596    237.632    223.484    219.964    221.724   1012.286   1141.333      215.9     220.21    218.906       2.54      700.4        828    312.195 
     791.8      1.398      6.395      2.163      1.679      2.512      2.451    756.945    320.211    236.055    222.963    220.503    221.733   1012.286   1141.333      215.9    220.522    218.523      2.543      702.8    832.286    311.325 
     791.9      1.393      6.424      2.212      1.687      2.508       2.37    757.008     323.14    234.678    222.715    221.866     222.29   1012.286   1141.333      215.9     222.19    219.993      2.569      700.4    831.333    309.524 
       792      1.408      6.514      2.258      1.696      2.546      2.476    757.015    327.165     235.34    222.233    222.313    222.273   1012.286   1141.333      215.9    222.635    220.323      2.557      700.5      830.8    308.084 
     792.1      1.436      6.388      2.336      1.692      2.475       2.41    756.857    331.172    234.239    222.711    221.119    221.915   1012.286   1141.511      215.9    221.915    220.479      2.528    700.857        830    308.655 
     792.2      1.421      6.414      2.452       1.69      2.337      2.187    756.547    336.035    233.796    224.239    219.974    222.107   1012.629   1141.976      215.9    219.701     221.37      2.542      703.6        832     310.28 
     792.3      1.426      6.577      2.529       1.69      2.223      2.334    756.293    340.109    234.122    225.751    219.851    222.801   1013.257   1142.723      215.9    218.801    219.809      2.528    706.667      838.4    311.466 
     792.4      1.433      6.672      2.569      1.689       2.11      2.874    756.051    343.903    235.715    226.981    219.926    223.454   1013.924   1143.062      215.9    218.634    219.655      2.526    707.143        836    311.514 
     792.5       1.44      6.518      2.561      1.673      2.131      2.447     755.58    349.677    239.222    225.693    219.884    222.788    1013.79   1141.853      215.9    218.964    220.581      2.482        699        828    310.783 
     792.6      1.478      6.558       2.54      1.645      2.306      2.648    754.831    356.482    243.569    223.228    219.472     221.35   1013.227   1139.094      215.9    219.381    222.784      2.464      701.2        830     309.84 
     792.7      1.468      6.351      2.508      1.627      2.432      2.493    753.663    362.332    246.745    221.567    219.578    220.573   1012.731    1135.93      215.9    218.551    221.339      2.461        703        830    307.782 
     792.8      1.475      6.281      2.458      1.588      2.335      2.216    752.259    369.691    248.238    220.846    219.752    220.299   1012.693   1134.892      215.9    218.079    219.409      2.449      705.2        835    306.671 
     792.9      1.497      6.155      2.382      1.534      2.252      2.344    750.623    375.937    250.021     220.71    219.853    220.281   1011.871   1136.401      215.9     218.61    218.115      2.423    704.667        835    308.002 
       793      1.504      6.165      2.289      1.494      2.201      2.386    748.776    381.977    250.772    221.807    220.069    220.938   1010.211   1139.262      215.9    218.615    218.985      2.427        705        836    311.162 
     793.1      1.493      6.101      2.166      1.458      2.185      2.302    747.028    388.252    252.351    223.951    220.312    222.132   1009.278   1141.215      215.9    218.077    219.579      2.443        708    839.333    313.557 
     793.2      1.471      5.937      1.997      1.452      2.151      2.155      745.6    393.443    255.627    225.576    220.368    222.972   1009.807   1141.265      215.9    217.243    219.909      2.413    712.667      841.2    313.804 
     793.3      1.448      5.697      1.825      1.459      2.103      2.052    744.677    398.484    257.431    225.915    220.366     223.14   1010.427   1140.573      215.9    216.676    219.916      2.435        715        840    315.069 
     793.4      1.467      5.693      1.692      1.465      2.108      2.025    744.184     400.39    260.291    224.043    220.042    222.043    1009.84   1140.828      215.9    217.458    219.435      2.426    713.833        840    318.864 
     793.5      1.457      5.602      1.626      1.462      2.086      2.054    743.579    400.848    264.481    223.321    219.588    221.454   1008.702   1143.093      215.9    217.552    220.445      2.397    712.667        842    324.581 
     793.6      1.437       5.51      1.613      1.449          2      1.992    742.902    401.422    267.698    223.244    219.964    221.604   1008.217   1146.557      215.9    216.086    223.274      2.376    715.143    847.333    329.835 
     793.7      1.429      5.332      1.604      1.427      1.896      2.008    742.032      402.6    271.234    223.422    220.632    222.027   1009.481   1149.441      215.9    217.653    219.557      2.396        717        846    331.609 
     793.8      1.427      5.281      1.578      1.403      1.865      2.267    741.076     407.03    273.417    223.799    220.823    222.311   1012.455   1150.849      215.9    218.848    218.172      2.419        719        846    329.496 
     793.9      1.423      5.294      1.532       1.39      1.898      1.989    739.951    414.099    272.307    225.116    220.749    222.933   1015.981   1151.453      215.9    219.564    218.631      2.412      720.4      854.8    326.273 
