~Version Information
#-------------------
Vers.            2.0: CWLS log ASCII Standart - VERSION 2.0
WRAP.             NO: One line per depth step
~Well Information Block
#----------------------
#MNEM.UNIT      VALUE: DESCRIPTION
#----.----    -------: -------------
STRT.M            87: First depth in file                  ��
STOP.M           972: Last  depth in file                  ��
STEP.M           0.1: Depth increment                      
NULL.       -999.250: Null  values                         
COMP.           CIOC: Company Name
WELL.            322: Well Name
FLD .       KARATUBE: Field
LOC .               : Location
CNTY.     KAZAHKSTAN: Country
SRVC.               : Service Company
DATE.               : Date
UWI .               : Unique Well ID
~Parameter Information
#---------------------
#MNEM.UNIT      VALUE: DESCRIPTION
#----.----    -------: ---------------
EPD  .M      -999.250: 
APD  .M      -999.250: 
LMF  .M      -999.250: 
DMF  .M      -999.250: 
EKB  .M      -999.250: 
EDF  .M      -999.250: 
EGL  .M      -999.250: 
TDD  .M      -999.250: 
TDL  .M      -999.250: 
CBD  .M      -999.250: 
CBL  .M      -999.250: 
BS   .MM     -999.250: 
DFD  .G/C3   -999.250: 
DFV  .S      -999.250: 
DFPH .       -999.250: 
DFL  .C3     -999.250: 
RMS  .OHMM   -999.250: 
MST  .DEGC   -999.250: 
RMFS .OHMM   -999.250: 
MFST .DEGC   -999.250: 
RMCS .OHMM   -999.250: 
MCST .DEGC   -999.250: 
MRT  .DEGC   -999.250: 
BHT  .DEGC   -999.250: 
AVST .DEGC   -999.250: 
GSDD .           DEPT: DEPT,0,,,,,,1
GSDD .           NGLD: NGLD,0,DEPT,,,,,2
GSDD .             GR: GR,0,DEPT,,,,,2
GSDD .            GZ3: GZ3,0,DEPT,,,,,1
GSDD .           GZ3B: GZ3B,0,DEPT,,,,,1
GSDD .            LL3: LL3,0,DEPT,,,,,1
GSDD .            MLL: MLL,0,DEPT,,,,,1
GSDD .             SP: SP,0,DEPT,,,,,2
GSDD .          7I16R: CILR,0,DEPT,,,,,2
GSDD .          7I16A: CILA,0,DEPT,,,,,2
GSDD .             C1: C1,0,DEPT,,,,,1
GSDD .             C2: C2,0,DEPT,,,,,1
GSDD .           CALI: CALI,0,DEPT,,,,,1
GSDD .             T1: T1,0,DEPT,,,,,1
GSDD .             T2: T2,0,DEPT,,,,,1
GSDD .            BSC: BSC,0,DEPT,,,,,1
GSDD .           C1_1: C1_1,0,DEPT,,,,,2
GSDD .           C2_1: C2_1,0,DEPT,,,,,2
GSDD .           RHOB: RHOB,0,DEPT,,,,,2
GSDD .            TP1: TP1,0,DEPT,,,,,2
GSDD .            TP2: TP2,0,DEPT,,,,,2
GSDD .            DTP: DT,0,DEPT,,,,,0
~Curve Information Block
#-----------------------
#MNEM.UNIT           : CURVE DESCRIPTION
#----.----           : -----------------
DEPT .M              : Depth curve                          
NGLD .C/C            : Neutron-gamma log
GR   .UR/H           : Gamma-ray
GZ3  .OHMM           : App.resistivity by lateral A2.0M0.5N
GZ3B .OHMM           : App.resistivity by lateral N0.5M2.0A
LL3  .OHMM           : Appar.resist.laterolog,3 electrodes
MLL  .OHMM           : Microlaterolog sonde  
SP   .MV             : Spontaneous potential
CILR.MMHO            : Conduct. by sonde 7I1.6,reactive signal
CILA.MMHO            : Conduct. by sonde 7I1.6,active signal
C1   .MM             : Caliper, diameter 1
C2   .MM             : Caliper, diameter 2
CALI .MM             : Caliper
T1   .US             : Travel time 1
T2   .US             : Travel time 2
BSC  .               : Bit size
C1_1 .MM             : Caliper, diameter 1
C2_1 .MM             : Caliper, diameter 2
RHOB .G/C3           : Bulk density by gamma-gamma log
TP1  .US             : Travel time 1
TP2  .US             : Travel time 2
DTP  .US/M           : Interval travel time (P-wave)

~Other Information
#-----------------
~Ascii Log Data
# ...
     183.5      1.274      9.552     11.035     15.862      7.118      3.607    714.103    129.736     84.079    228.339    222.048    225.194       9999       9999      215.9    221.261    219.386       2.11    996.667     1196.4    464.241 
     183.6      1.287      9.036     10.857     15.589      7.306      3.564    714.391    129.626     82.369    228.326    221.754     225.04       9999       9999      215.9     220.68    219.473      2.095    996.667       1200    474.446 
     183.7      1.319      8.119     10.626     15.195       7.29      3.474    714.677    130.178     81.134    228.201     221.63    224.915       9999       9999      215.9    219.732    219.559      2.078        996   1196.667    488.256 
     183.8      1.297      7.858     10.396      14.74      7.273      3.653    714.901    129.837     80.924    227.955    221.813    224.884       9999       9999      215.9    217.245     219.57      2.049        996       1203    497.612 
     183.9      1.315      7.468     10.312     14.364       7.29      3.694    714.956    129.811     80.739    228.198    222.041    225.119       9999       9999      215.9    216.003    219.805      2.035    998.667       1203      506.9 
       184      1.295      7.731     10.323     14.168       7.33      3.283     715.06    129.735     80.583     226.67    222.147    224.408       9999       9999      215.9    217.206    220.403      2.002      995.6     1207.6    515.543 
     184.1      1.285      7.948     10.396     14.002      7.389      3.322    715.049    129.573     80.852    226.139    222.686    224.412       9999       9999      215.9    217.704    220.443      1.974        996   1204.667    527.037 
     184.2      1.295      7.922     10.555     13.869      7.434       3.45    715.044    129.835     80.494    225.939     222.87    224.405       9999       9999      215.9    218.063    220.228      1.938   1002.571       1206    535.537 
     184.3      1.281      8.066     10.748     13.775      7.436      3.435    714.991     129.76     80.908    225.882    222.874    224.378       9999       9999      215.9    218.374    219.904      1.922       1007       1214    540.333 
     184.4      1.251      8.147     10.972     13.691      7.378      3.298    715.085    129.763     82.013    226.061    222.933    224.497       9999       9999      215.9    218.805    220.324      1.919       1014   1205.508    542.629 
     184.5      1.231      8.618     11.146     13.611      7.277      3.329    715.228    130.228     82.266    226.264    222.935      224.6       9999       9999      215.9    219.582    220.823      1.908       1024   1208.672    542.519 
     184.6      1.218      8.577     11.354     13.549      7.169      3.323    715.411    130.521     82.727    226.551    222.923    224.737       9999       9999      215.9    220.664    221.264      1.901   1027.714   1211.836    541.204 
     184.7       1.22      8.365     11.592      13.46      7.093      3.144    715.597    131.476     84.533    226.387    223.313     224.85       9999       9999      215.9    221.393    220.493       1.87   1029.333       1215    536.881 
     184.8       1.25       8.01     11.812     13.309      7.125      3.107    715.683    130.828      84.65    226.291    223.779    225.035       9999       9999      215.9    221.573    220.636      1.877   1036.667   1218.164    532.639 
     184.9      1.272      8.344     11.976     13.056      7.216      3.243    715.824    130.069     84.846    226.287    224.851    225.569       9999       9999      215.9    221.499    221.202      1.886       1039   1221.328    545.896 
       185       1.23      8.325      12.07     12.759      7.255      3.303    716.111     127.04     84.582    226.196    226.551    226.374       9999       9999      215.9    221.253    222.055      1.897   1043.143    1230.82    560.723 
     185.1      1.259      8.109     12.113     12.463       7.23      3.282    716.338    127.737     84.975    226.087    226.784    226.436       9999       9999      215.9    221.299    222.149       1.94     1044.4   1244.667    576.134 
     185.2      1.261      7.973     12.129     12.197      7.197      3.366    716.437    132.504     87.973    226.533     226.83    226.682       9999       9999      215.9    221.584    221.778      1.964   1047.714       1246    559.088 
     185.3      1.237      7.809     12.138     11.992      7.157      3.459    716.512    133.258     89.148    225.809    227.094    226.451       9999       9999      215.9    222.041    221.564      1.955   1045.333       1248    541.491 
     185.4      1.258      7.913     12.256     11.875      7.074      3.254    716.772    132.013     88.693    225.449    227.169    226.309       9999       9999      215.9    222.339    221.422       1.98       1043       1246    523.339 
     185.5      1.243       8.08      12.44     11.923      7.013       3.14     717.04    130.897     88.822     225.69     226.36    226.025       9999       9999      215.9    221.915    221.111      1.996       1036       1250    519.974 
     185.6      1.271      8.379     12.782     12.065      6.972      3.127    717.268    131.183     90.599    226.345    226.216     226.28       9999       9999      215.9    220.058    220.295      2.022   1034.667       1250    516.259 
     185.7      1.279      8.823     13.225      12.24      6.943      2.933    717.362    131.394     90.802    227.179    228.961     228.07       9999       9999      215.9    218.948    219.928      2.044       1026       1242    513.356 
     185.8       1.29      9.355     13.658     12.444      6.936       3.15    717.158    130.822     91.456    227.709    225.405    226.557       9999       9999      215.9    218.158    219.754       2.06   1024.667     1243.6    513.842 
     185.9      1.311      9.916     14.031     12.603      6.905      3.156    716.741    131.368     92.513    227.977    224.853    226.415       9999       9999      215.9    218.262    219.695      2.068   1023.333       1238    518.335 
       186      1.266     10.331     14.175     12.716      6.865      3.144    716.365    131.636      92.15    227.985    224.969    226.477       9999       9999      215.9    217.579    219.671       2.08       1020       1240     524.06 
     186.1      1.223     10.539     14.243     12.784      6.852      3.189    716.188    131.573     92.632    227.542    225.179    226.361       9999       9999      215.9    216.471    219.669      2.086       1018     1233.2    527.819 
     186.2      1.188     10.441     14.231     12.822      6.852      3.237     715.98    131.394     93.354    227.622    225.245    226.433       9999       9999      215.9    216.263    219.659      2.077       1015   1224.667    528.912 
     186.3      1.212     10.429     14.161     12.847      6.828      3.256    715.706    131.688     92.995    228.012    224.801    226.407       9999       9999      215.9    216.769    219.737      2.095   1018.828       1232    528.149 
     186.4       1.21     10.305     14.068     12.875      6.799      3.241    715.299    131.571     93.077     227.63    223.773    225.702       9999       9999      215.9    217.645    219.839      2.094   1017.246       1229    528.815 
     186.5        1.2     10.572     13.938     12.887      6.787      3.272     714.69    131.408     93.639    227.796    222.255    225.025       9999       9999      215.9    217.571    219.618      2.084   1015.664   1283.333    528.223 
     186.6       1.19     10.264     13.823     12.877      6.786      3.198    714.139     131.65      93.24    227.807    222.466    225.136       9999       9999      215.9    217.472    219.619      2.073   1018.828    1230.82    529.482 
     186.7      1.169       10.2     13.709     12.852      6.752      3.235    713.592    131.983     93.294    228.069    223.119    225.594       9999       9999      215.9    217.619    219.673      2.057    1020.41    1230.82    528.334 
