~Version Information
#-------------------
Vers.            2.0: CWLS log ASCII Standart - VERSION 2.0
WRAP.             NO: One line per depth step
~Well Information Block
#----------------------
#MNEM.UNIT      VALUE: DESCRIPTION
#----.----    -------: -------------
STRT.M            87: First depth in file                  ��
STOP.M           972: Last  depth in file                  ��
STEP.M           0.1: Depth increment                      
NULL.       -999.250: Null  values                         
COMP.           CIOC: Company Name
WELL.            322: Well Name
FLD .       KARATUBE: Field
LOC .               : Location
CNTY.     KAZAHKSTAN: Country
SRVC.               : Service Company
DATE.               : Date
UWI .               : Unique Well ID
~Parameter Information
#---------------------
#MNEM.UNIT      VALUE: DESCRIPTION
#----.----    -------: ---------------
EPD  .M      -999.250: 
APD  .M      -999.250: 
LMF  .M      -999.250: 
DMF  .M      -999.250: 
EKB  .M      -999.250: 
EDF  .M      -999.250: 
EGL  .M      -999.250: 
TDD  .M      -999.250: 
TDL  .M      -999.250: 
CBD  .M      -999.250: 
CBL  .M      -999.250: 
BS   .MM     -999.250: 
DFD  .G/C3   -999.250: 
DFV  .S      -999.250: 
DFPH .       -999.250: 
DFL  .C3     -999.250: 
RMS  .OHMM   -999.250: 
MST  .DEGC   -999.250: 
RMFS .OHMM   -999.250: 
MFST .DEGC   -999.250: 
RMCS .OHMM   -999.250: 
MCST .DEGC   -999.250: 
MRT  .DEGC   -999.250: 
BHT  .DEGC   -999.250: 
AVST .DEGC   -999.250: 
GSDD .           DEPT: DEPT,0,,,,,,1
GSDD .           NGLD: NGLD,0,DEPT,,,,,2
GSDD .             GR: GR,0,DEPT,,,,,2
GSDD .            GZ3: GZ3,0,DEPT,,,,,1
GSDD .           GZ3B: GZ3B,0,DEPT,,,,,1
GSDD .            LL3: LL3,0,DEPT,,,,,1
GSDD .            MLL: MLL,0,DEPT,,,,,1
GSDD .             SP: SP,0,DEPT,,,,,2
GSDD .          7I16R: CILR,0,DEPT,,,,,2
GSDD .          7I16A: CILA,0,DEPT,,,,,2
GSDD .             C1: C1,0,DEPT,,,,,1
GSDD .             C2: C2,0,DEPT,,,,,1
GSDD .           CALI: CALI,0,DEPT,,,,,1
GSDD .             T1: T1,0,DEPT,,,,,1
GSDD .             T2: T2,0,DEPT,,,,,1
GSDD .            BSC: BSC,0,DEPT,,,,,1
GSDD .           C1_1: C1_1,0,DEPT,,,,,2
GSDD .           C2_1: C2_1,0,DEPT,,,,,2
GSDD .           RHOB: RHOB,0,DEPT,,,,,2
GSDD .            TP1: TP1,0,DEPT,,,,,2
GSDD .            TP2: TP2,0,DEPT,,,,,2
GSDD .            DTP: DT,0,DEPT,,,,,0
~Curve Information Block
#-----------------------
#MNEM.UNIT           : CURVE DESCRIPTION
#----.----           : -----------------
DEPT .M              : Depth curve                          
NGLD .C/C            : Neutron-gamma log
GR   .UR/H           : Gamma-ray
GZ3  .OHMM           : App.resistivity by lateral A2.0M0.5N
GZ3B .OHMM           : App.resistivity by lateral N0.5M2.0A
LL3  .OHMM           : Appar.resist.laterolog,3 electrodes
MLL  .OHMM           : Microlaterolog sonde  
SP   .MV             : Spontaneous potential
CILR.MMHO            : Conduct. by sonde 7I1.6,reactive signal
CILA.MMHO            : Conduct. by sonde 7I1.6,active signal
C1   .MM             : Caliper, diameter 1
C2   .MM             : Caliper, diameter 2
CALI .MM             : Caliper
T1   .US             : Travel time 1
T2   .US             : Travel time 2
BSC  .               : Bit size
C1_1 .MM             : Caliper, diameter 1
C2_1 .MM             : Caliper, diameter 2
RHOB .G/C3           : Bulk density by gamma-gamma log
TP1  .US             : Travel time 1
TP2  .US             : Travel time 2
DTP  .US/M           : Interval travel time (P-wave)

~Other Information
#-----------------
~Ascii Log Data
# ...
     513.5      1.224     11.388      3.595      3.027      2.972      3.202    719.892    234.076    210.043    224.948    219.232     222.09       9999       9999      215.9    217.132    215.111      2.398        865   1042.559    408.294 
     513.6      1.241     12.442      3.533      2.981      2.908      3.091    719.345    233.816    209.049    225.926    219.105    222.516       9999       9999      215.9    217.325      216.1      2.386        867   1037.813    408.273 
     513.7      1.226     13.817      3.481      2.879      2.864       3.07    718.918    234.277     207.69    225.199     218.01    221.604       9999       9999      215.9    217.722     216.41      2.363        866   1037.813    407.373 
     513.8      1.237     15.908      3.424      2.754      2.822      3.193    718.669    235.457    208.968    225.063     217.98    221.522       9999       9999      215.9    217.286    215.986      2.381    864.667   1037.813    405.175 
     513.9      1.321      17.84      3.339      2.592       2.75      3.198     718.48    235.644    210.336    225.744    217.982    221.863       9999       9999      215.9    218.602     215.94       2.37    865.111   1037.813    402.978 
       514      1.317     20.051      3.208      2.417      2.665       3.01    718.256    235.198    210.444     226.38    217.891    222.135       9999       9999      215.9    219.856    216.146      2.356      868.5   1034.648     401.22 
     514.1      1.353     21.699      3.063      2.299      2.615      2.881    717.953    234.158    212.072    226.873    217.764    222.318       9999       9999      215.9    219.891    216.487      2.329        865   1031.484    399.902 
     514.2      1.367     22.409      2.867       2.24       2.64      2.945    717.631    232.276    212.715    227.816    217.318    222.567       9999       9999      215.9    219.365    216.024      2.302        862    1028.32    399.463 
     514.3      1.406     20.678      2.691      2.252      2.751      3.233    717.374    231.012     212.73    228.681    216.795    222.738       9999       9999      215.9    219.268    215.912       2.31        862    1028.32    399.023 
     514.4      1.451     16.427      2.558       2.31      2.863      3.201    717.423     229.53    214.203    229.501    216.901    223.201       9999       9999      215.9    219.757    216.245      2.309    860.286    1028.32    397.705 
     514.5      1.438     13.888      2.548      2.404      2.942      3.331    717.577    227.997    214.819    230.159    216.957    223.558       9999       9999      215.9    220.414    215.607      2.317        858   1025.156    395.947 
     514.6       1.44     11.825      2.608      2.522      2.999      3.329    718.323    227.299    215.624    229.881    217.206    223.543       9999       9999      215.9    220.663     215.44      2.339        856   1021.992     393.75 
     514.7      1.359     10.859       2.73       2.66       3.06      3.324    719.165    227.487    217.752    229.556    217.654    223.605       9999       9999      215.9    220.553    215.609      2.366    847.969   1015.664    391.553 
     514.8      1.322     10.502      2.898      2.774      3.137      3.197    720.121    228.056    219.943     229.79    218.627    224.208       9999       9999      215.9    220.095    215.868      2.395    841.641   1015.664    389.795 
     514.9      1.252     10.118       3.09      2.834      3.197      3.107    720.933    230.262    221.711    228.825    219.462    224.143       9999       9999      215.9    220.529    217.039      2.406    835.313   1015.664    389.795 
       515      1.201     10.252      3.288      2.855      3.204      3.188    721.471      232.7    223.229     226.26    218.974    222.617       9999       9999      215.9    220.101    217.772      2.436    835.313   1009.336    390.674 
     515.1      1.234     10.049      3.437       2.84      3.128      3.325    721.891    234.775    220.901    226.265    219.667    222.966       9999       9999      215.9    217.432    217.245      2.441    835.313   1006.172    390.674 
     515.2      1.175     10.173      3.566      2.789      3.046      3.381    722.149    237.177    217.824    227.365    220.651    224.008       9999       9999      215.9    216.175    217.609      2.463    835.313   1003.008    388.037 
     515.3       1.19     10.389      3.625      2.741      2.998       3.36    722.255    239.463    214.206     229.51    221.558    225.534       9999       9999      215.9    215.918     217.93      2.453     833.73   1003.008    393.108 
     515.4      1.211     10.215      3.608      2.698      2.996      3.305    722.522    241.331    208.655    232.908    221.532     227.22       9999       9999      215.9    216.505    218.111      2.446    832.148   1003.008    408.177 
     515.5      1.179      9.933      3.536      2.707      3.057      3.219     722.82    244.613    205.485    237.455    222.162    229.808       9999       9999      215.9    219.348    219.377      2.471    832.148     996.68    434.653 
     515.6      1.146     10.157      3.426      2.742      3.136      3.319    723.123    246.924     203.94    240.969    223.585    232.277       9999       9999      215.9    221.495    219.247      2.461      838.4    998.262    454.012 
     515.7      1.092     10.153      3.355      2.795      3.179        3.3    723.147    248.695    201.482    241.703    223.531    232.617       9999       9999      215.9    223.948    219.805      2.478    835.313    999.844    463.544 
     515.8      1.155     10.293      3.337      2.842      3.137      3.189    723.172    251.345     200.41    241.122    222.246    231.684       9999       9999      215.9    226.881    221.402      2.513    844.805   1009.336    462.627 
     515.9      1.113     10.298      3.348       2.86      3.057      3.091    723.087    254.733     201.01    241.406    222.118    231.762       9999       9999      215.9    228.193    221.223      2.519    849.551     1012.5    460.712 
       516      1.107     10.597      3.391      2.837      3.029      3.119    722.949     258.56    201.782     243.76    221.087    232.423       9999       9999      215.9    228.931     220.94      2.485    854.297   1015.664     460.06 
     516.1      1.126     10.796      3.455      2.736      3.059      3.268     722.76    263.962    203.077    242.219    220.096    231.158       9999       9999      215.9    229.168    220.732      2.475    855.879   1017.246     460.44 
     516.2      1.092      10.74      3.524      2.613      3.082      3.315    722.187    270.566     204.21    240.629    219.351     229.99       9999       9999      215.9    228.441    220.386      2.432    857.461   1018.828    459.883 
     516.3      1.145     10.791      3.574      2.424      3.027      3.436    721.511    275.111    201.962    240.992    218.183    229.587       9999       9999      215.9     227.94    219.727      2.425    863.789   1021.992    457.244 
     516.4      1.167     10.393      3.588      2.226      2.864       3.38    720.964    282.187    200.088    239.415    216.605     228.01       9999       9999      215.9    227.953    218.581      2.404    865.371   1025.156    452.732 
     516.5      1.241     10.298      3.523      2.067      2.652      3.072    720.097    288.078    198.421    234.771    215.747    225.259       9999       9999      215.9    229.408    216.322      2.362    866.953    1028.32    449.141 
     516.6      1.264     10.471      3.413      1.942      2.491      3.003    719.114    292.388    196.846    232.711    215.392    224.051       9999       9999      215.9     227.32     214.13      2.279    870.117    1028.32    444.993 
     516.7      1.301     11.181      3.253       1.84      2.454      3.069    718.048    297.367     197.42    230.344    216.052    223.198       9999       9999      215.9      224.6    212.784      2.237    871.699   1029.902    440.523 
