~Version Information
#-------------------
Vers.            2.0: CWLS log ASCII Standart - VERSION 2.0
WRAP.             NO: One line per depth step
~Well Information Block
#----------------------
#MNEM.UNIT      VALUE: DESCRIPTION
#----.----    -------: -------------
STRT.M            87: First depth in file                  ��
STOP.M           972: Last  depth in file                  ��
STEP.M           0.1: Depth increment                      
NULL.       -999.250: Null  values                         
COMP.           CIOC: Company Name
WELL.            322: Well Name
FLD .       KARATUBE: Field
LOC .               : Location
CNTY.     KAZAHKSTAN: Country
SRVC.               : Service Company
DATE.               : Date
UWI .               : Unique Well ID
~Parameter Information
#---------------------
#MNEM.UNIT      VALUE: DESCRIPTION
#----.----    -------: ---------------
EPD  .M      -999.250: 
APD  .M      -999.250: 
LMF  .M      -999.250: 
DMF  .M      -999.250: 
EKB  .M      -999.250: 
EDF  .M      -999.250: 
EGL  .M      -999.250: 
TDD  .M      -999.250: 
TDL  .M      -999.250: 
CBD  .M      -999.250: 
CBL  .M      -999.250: 
BS   .MM     -999.250: 
DFD  .G/C3   -999.250: 
DFV  .S      -999.250: 
DFPH .       -999.250: 
DFL  .C3     -999.250: 
RMS  .OHMM   -999.250: 
MST  .DEGC   -999.250: 
RMFS .OHMM   -999.250: 
MFST .DEGC   -999.250: 
RMCS .OHMM   -999.250: 
MCST .DEGC   -999.250: 
MRT  .DEGC   -999.250: 
BHT  .DEGC   -999.250: 
AVST .DEGC   -999.250: 
GSDD .           DEPT: DEPT,0,,,,,,1
GSDD .           NGLD: NGLD,0,DEPT,,,,,2
GSDD .             GR: GR,0,DEPT,,,,,2
GSDD .            GZ3: GZ3,0,DEPT,,,,,1
GSDD .           GZ3B: GZ3B,0,DEPT,,,,,1
GSDD .            LL3: LL3,0,DEPT,,,,,1
GSDD .            MLL: MLL,0,DEPT,,,,,1
GSDD .             SP: SP,0,DEPT,,,,,2
GSDD .          7I16R: CILR,0,DEPT,,,,,2
GSDD .          7I16A: CILA,0,DEPT,,,,,2
GSDD .             C1: C1,0,DEPT,,,,,1
GSDD .             C2: C2,0,DEPT,,,,,1
GSDD .           CALI: CALI,0,DEPT,,,,,1
GSDD .             T1: T1,0,DEPT,,,,,1
GSDD .             T2: T2,0,DEPT,,,,,1
GSDD .            BSC: BSC,0,DEPT,,,,,1
GSDD .           C1_1: C1_1,0,DEPT,,,,,2
GSDD .           C2_1: C2_1,0,DEPT,,,,,2
GSDD .           RHOB: RHOB,0,DEPT,,,,,2
GSDD .            TP1: TP1,0,DEPT,,,,,2
GSDD .            TP2: TP2,0,DEPT,,,,,2
GSDD .            DTP: DT,0,DEPT,,,,,0
~Curve Information Block
#-----------------------
#MNEM.UNIT           : CURVE DESCRIPTION
#----.----           : -----------------
DEPT .M              : Depth curve                          
NGLD .C/C            : Neutron-gamma log
GR   .UR/H           : Gamma-ray
GZ3  .OHMM           : App.resistivity by lateral A2.0M0.5N
GZ3B .OHMM           : App.resistivity by lateral N0.5M2.0A
LL3  .OHMM           : Appar.resist.laterolog,3 electrodes
MLL  .OHMM           : Microlaterolog sonde  
SP   .MV             : Spontaneous potential
CILR.MMHO            : Conduct. by sonde 7I1.6,reactive signal
CILA.MMHO            : Conduct. by sonde 7I1.6,active signal
C1   .MM             : Caliper, diameter 1
C2   .MM             : Caliper, diameter 2
CALI .MM             : Caliper
T1   .US             : Travel time 1
T2   .US             : Travel time 2
BSC  .               : Bit size
C1_1 .MM             : Caliper, diameter 1
C2_1 .MM             : Caliper, diameter 2
RHOB .G/C3           : Bulk density by gamma-gamma log
TP1  .US             : Travel time 1
TP2  .US             : Travel time 2
DTP  .US/M           : Interval travel time (P-wave)

~Other Information
#-----------------
~Ascii Log Data
# ...
     955.7      6.614      1.255     27.435    141.709     36.971     86.822   1018.892       9999       9999    229.551    227.657    228.604    740.364    828.783      215.9   -999.250   -999.250   -999.250   -999.250   -999.250    216.838 
     955.8      6.738      1.301     24.845    141.706     74.753     19.219    1018.52       9999       9999    229.664    225.935    227.799    739.632    826.253      215.9   -999.250   -999.250   -999.250   -999.250   -999.250    213.243 
     955.9      6.855      1.443     23.007    141.689    813.762       10.3   1017.849       9999       9999     225.79    220.119    222.955    739.678    824.897      215.9   -999.250   -999.250   -999.250   -999.250   -999.250    210.438 
       956      6.961      1.462      25.35    141.673   1667.367      9.391   1017.765       9999       9999    204.686     200.23    202.458    739.827    825.055      215.9   -999.250   -999.250   -999.250   -999.250   -999.250    210.455 
     956.1      6.979      1.527     27.074    141.664   2101.429      9.199     1020.3       9999       9999    168.526    168.915     168.72    739.454    825.923      215.9   -999.250   -999.250   -999.250   -999.250   -999.250    212.937 
     956.2      7.089      1.508     28.081    141.687   1972.942      8.869    1022.48       9999       9999    139.339     141.45    140.394     739.25    826.492      215.9   -999.250   -999.250   -999.250   -999.250   -999.250    214.483 
     956.3      7.227      1.343     28.907    141.733   1867.954      6.364   1023.222       9999       9999    137.658    130.025    133.842    739.486    826.421      215.9   -999.250   -999.250   -999.250   -999.250   -999.250     213.87 
     956.4      7.453       1.39     29.993    141.685   1815.179      3.303   1021.598       9999       9999     132.86    124.529    128.694    739.486    826.049      215.9   -999.250   -999.250   -999.250   -999.250   -999.250    213.125 
     956.5       7.56      1.468     29.783    141.569    1790.36      0.286     1016.1       9999       9999    133.328     129.22    131.274    738.858    825.827      215.9   -999.250   -999.250   -999.250   -999.250   -999.250    213.938 
     956.6       7.65      1.488     29.711    141.529   1715.124     -0.032    1012.51       9999       9999    134.379    135.038    134.709    738.487    825.865      215.9   -999.250   -999.250   -999.250   -999.250   -999.250    214.755 
     956.7      7.736      1.449     29.385    141.595   1715.622      0.052    1009.62       9999       9999    129.542    132.859    131.201    739.402    825.987      215.9   -999.250   -999.250   -999.250   -999.250   -999.250     213.17 
     956.8      7.843      1.527     29.458    141.703   1656.103      0.095   1005.953       9999       9999    124.839    128.623    126.731    740.831     826.11      215.9   -999.250   -999.250   -999.250   -999.250   -999.250    210.557 
     956.9      7.985      1.485     29.773    141.699   1685.489      0.046   1000.539       9999       9999    121.203    124.348    122.775    741.035    826.209      215.9   -999.250   -999.250   -999.250   -999.250   -999.250    210.348 
       957      8.035      1.405     29.453    141.733   1990.787      0.043    993.927       9999       9999    120.078    122.758    121.418    740.189      826.4      215.9   -999.250   -999.250   -999.250   -999.250   -999.250    212.421 
     957.1      8.097      1.355      30.05    141.607   1925.984      0.039    984.586       9999       9999    120.167    122.281    121.224    739.711    826.752      215.9   -999.250   -999.250   -999.250   -999.250   -999.250    214.082 
     957.2      8.143       1.33     29.952    141.468   1723.344      0.043    975.118       9999       9999    120.226    122.118    121.172    740.059    826.923      215.9   -999.250   -999.250   -999.250   -999.250   -999.250    213.729 
     957.3      8.187      1.302     29.456    141.449   1617.037      0.045    968.076       9999       9999    120.088    122.487    121.288    740.318    826.567      215.9   -999.250   -999.250   -999.250   -999.250   -999.250      212.5 
     957.4      8.247      1.304     29.254    141.548   1669.636      0.043    968.529       9999       9999    120.071    122.678    121.374    740.108    825.896      215.9   -999.250   -999.250   -999.250   -999.250   -999.250    211.575 
     957.5      8.203      1.368     29.564    141.629   1735.888      0.043     974.02       9999       9999    120.117    122.219    121.168    739.605    825.447      215.9   -999.250   -999.250   -999.250   -999.250   -999.250    211.683 
     957.6      8.202      1.421     30.011    141.559   1841.428      0.041    975.335       9999       9999    119.374    122.635    121.005    738.946    825.399      215.9   -999.250   -999.250   -999.250   -999.250   -999.250    212.904 
     957.7      8.288      1.438         30    141.536   1994.645      0.039     972.18       9999       9999    119.838    122.254    121.046    738.119    825.138      215.9   -999.250   -999.250   -999.250   -999.250   -999.250     214.04 
     957.8      8.279      1.493     29.214    141.619   2262.181      0.043    965.957       9999       9999    120.302    121.873    121.087    737.556    824.298      215.9   -999.250   -999.250   -999.250   -999.250   -999.250    213.483 
     957.9      8.309      1.391     28.801    141.566   2695.346      0.043    961.255       9999       9999    119.852    122.335    121.093     737.79     823.26      215.9   -999.250   -999.250   -999.250   -999.250   -999.250     210.94 
       958      8.315      1.401     28.996    141.429   3371.359      0.041    960.424       9999       9999    120.403    122.452    121.427    738.706    822.641      215.9   -999.250   -999.250   -999.250   -999.250   -999.250    207.869 
     958.1      8.337       1.37     29.729     141.38    3974.66      0.041    963.724       9999       9999    120.675    122.499    121.587    739.719    822.875      215.9   -999.250   -999.250   -999.250   -999.250   -999.250    206.312 
     958.2      8.376      1.302     29.198    141.544   4386.046      0.041    970.641       9999       9999    120.212    122.519    121.366    740.006    823.793      215.9   -999.250   -999.250   -999.250   -999.250   -999.250    207.575 
     958.3      8.396      1.296     29.156    141.521   4547.918      0.043    971.014       9999       9999    120.004    122.452    121.228    739.722    824.851      215.9   -999.250   -999.250   -999.250   -999.250   -999.250    210.258 
     958.4      8.421      1.336      29.17    141.466   4633.351      0.045    969.404       9999       9999    120.174    122.393    121.283    739.467    825.636      215.9   -999.250   -999.250   -999.250   -999.250   -999.250    212.337 
     958.5      8.426      1.343     29.015    141.475   4355.131      0.041    963.347       9999       9999    119.883    122.469    121.176    739.596    826.119      215.9   -999.250   -999.250   -999.250   -999.250   -999.250    213.045 
     958.6      8.355      1.345     28.629    141.526   4030.898      0.048    952.873       9999       9999    119.207    122.518    120.863    740.113    826.494      215.9   -999.250   -999.250   -999.250   -999.250   -999.250    212.761 
     958.7       8.24      1.326     28.919    141.467   3834.624      0.043    938.486       9999       9999    119.827    122.484    121.156    740.712    826.565      215.9   -999.250   -999.250   -999.250   -999.250   -999.250    211.707 
     958.8      8.181      1.303     28.436    141.598   3710.792      0.043    923.408       9999       9999     119.28    122.736    121.008    741.479    826.003      215.9   -999.250   -999.250   -999.250   -999.250   -999.250    209.048 
     958.9        8.2      1.305     28.387    141.535   3456.074      0.045    915.259       9999       9999     120.06    122.579     121.32    741.794    825.087      215.9   -999.250   -999.250   -999.250   -999.250   -999.250    206.587 
