~Version Information
#-------------------
Vers.            2.0: CWLS log ASCII Standart - VERSION 2.0
WRAP.             NO: One line per depth step
~Well Information Block
#----------------------
#MNEM.UNIT      VALUE: DESCRIPTION
#----.----    -------: -------------
STRT.M            87: First depth in file                  ��
STOP.M           972: Last  depth in file                  ��
STEP.M           0.1: Depth increment                      
NULL.       -999.250: Null  values                         
COMP.           CIOC: Company Name
WELL.            322: Well Name
FLD .       KARATUBE: Field
LOC .               : Location
CNTY.     KAZAHKSTAN: Country
SRVC.               : Service Company
DATE.               : Date
UWI .               : Unique Well ID
~Parameter Information
#---------------------
#MNEM.UNIT      VALUE: DESCRIPTION
#----.----    -------: ---------------
EPD  .M      -999.250: 
APD  .M      -999.250: 
LMF  .M      -999.250: 
DMF  .M      -999.250: 
EKB  .M      -999.250: 
EDF  .M      -999.250: 
EGL  .M      -999.250: 
TDD  .M      -999.250: 
TDL  .M      -999.250: 
CBD  .M      -999.250: 
CBL  .M      -999.250: 
BS   .MM     -999.250: 
DFD  .G/C3   -999.250: 
DFV  .S      -999.250: 
DFPH .       -999.250: 
DFL  .C3     -999.250: 
RMS  .OHMM   -999.250: 
MST  .DEGC   -999.250: 
RMFS .OHMM   -999.250: 
MFST .DEGC   -999.250: 
RMCS .OHMM   -999.250: 
MCST .DEGC   -999.250: 
MRT  .DEGC   -999.250: 
BHT  .DEGC   -999.250: 
AVST .DEGC   -999.250: 
GSDD .           DEPT: DEPT,0,,,,,,1
GSDD .           NGLD: NGLD,0,DEPT,,,,,2
GSDD .             GR: GR,0,DEPT,,,,,2
GSDD .            GZ3: GZ3,0,DEPT,,,,,1
GSDD .           GZ3B: GZ3B,0,DEPT,,,,,1
GSDD .            LL3: LL3,0,DEPT,,,,,1
GSDD .            MLL: MLL,0,DEPT,,,,,1
GSDD .             SP: SP,0,DEPT,,,,,2
GSDD .          7I16R: CILR,0,DEPT,,,,,2
GSDD .          7I16A: CILA,0,DEPT,,,,,2
GSDD .             C1: C1,0,DEPT,,,,,1
GSDD .             C2: C2,0,DEPT,,,,,1
GSDD .           CALI: CALI,0,DEPT,,,,,1
GSDD .             T1: T1,0,DEPT,,,,,1
GSDD .             T2: T2,0,DEPT,,,,,1
GSDD .            BSC: BSC,0,DEPT,,,,,1
GSDD .           C1_1: C1_1,0,DEPT,,,,,2
GSDD .           C2_1: C2_1,0,DEPT,,,,,2
GSDD .           RHOB: RHOB,0,DEPT,,,,,2
GSDD .            TP1: TP1,0,DEPT,,,,,2
GSDD .            TP2: TP2,0,DEPT,,,,,2
GSDD .            DTP: DT,0,DEPT,,,,,0
~Curve Information Block
#-----------------------
#MNEM.UNIT           : CURVE DESCRIPTION
#----.----           : -----------------
DEPT .M              : Depth curve                          
NGLD .C/C            : Neutron-gamma log
GR   .UR/H           : Gamma-ray
GZ3  .OHMM           : App.resistivity by lateral A2.0M0.5N
GZ3B .OHMM           : App.resistivity by lateral N0.5M2.0A
LL3  .OHMM           : Appar.resist.laterolog,3 electrodes
MLL  .OHMM           : Microlaterolog sonde  
SP   .MV             : Spontaneous potential
CILR.MMHO            : Conduct. by sonde 7I1.6,reactive signal
CILA.MMHO            : Conduct. by sonde 7I1.6,active signal
C1   .MM             : Caliper, diameter 1
C2   .MM             : Caliper, diameter 2
CALI .MM             : Caliper
T1   .US             : Travel time 1
T2   .US             : Travel time 2
BSC  .               : Bit size
C1_1 .MM             : Caliper, diameter 1
C2_1 .MM             : Caliper, diameter 2
RHOB .G/C3           : Bulk density by gamma-gamma log
TP1  .US             : Travel time 1
TP2  .US             : Travel time 2
DTP  .US/M           : Interval travel time (P-wave)

~Other Information
#-----------------
~Ascii Log Data
# ...
     404.6      1.185     12.214      2.916      3.077      2.526      2.467    733.217     234.16    213.021    223.316    225.335    224.325       9999       9999      215.9    218.887    214.751      2.164    968.203       1160    481.354 
     404.7      1.194     11.966      2.832      3.061      2.543      2.362    733.595    233.833    211.609    224.378    226.029    225.204       9999       9999      215.9    216.796    215.469      2.197    968.203       1160     487.03 
     404.8      1.217     11.542       2.79       3.05      2.488      2.407    733.823    233.804    210.834    227.415    228.546     227.98       9999       9999      215.9     215.03    217.761      2.213    971.367       1160    492.012 
     404.9      1.234     11.709      2.771       3.05      2.419      2.293    733.969    234.519    208.829    227.956    229.248    228.602       9999       9999      215.9      216.4    220.601      2.213    972.949       1160    495.882 
       405      1.234     11.932      2.761       3.06      2.372      2.203    734.343    235.079    208.683    227.913    229.079    228.496       9999       9999      215.9     218.02    222.535      2.217    974.531     1166.8    497.993 
     405.1      1.215     11.784      2.753      3.085      2.364        2.3    735.095    235.342    209.689    228.853    229.443    229.148       9999       9999      215.9    219.535    223.805      2.234    974.531     1168.4    497.003 
     405.2      1.181     11.979      2.752       3.12      2.382       2.38    735.663    235.008    211.344    229.334    229.264    229.299       9999       9999      215.9    220.202    223.967      2.222      978.5   1168.667    493.589 
     405.3      1.186     12.303      2.766      3.162      2.375      2.329    736.039    235.021    213.545    228.092    227.569     227.83       9999       9999      215.9    218.688    222.694      2.236    977.333   1172.667    488.879 
     405.4      1.188     12.131      2.777      3.191      2.358      2.194    736.429    235.488    213.482    227.473    228.618    228.045       9999       9999      215.9    217.464    221.708      2.258      977.2   1171.333    485.837 
     405.5      1.214     12.481      2.779      3.199      2.384      2.256    736.759     236.13    211.991     226.98    229.654    228.317       9999       9999      215.9    218.191    222.226      2.259      975.6       1169    487.219 
     405.6      1.233      12.49      2.768      3.182      2.419       2.33    736.919    235.446    212.793     226.49    229.956    228.223       9999       9999      215.9    218.197    222.028      2.283        977       1172    492.054 
     405.7      1.254     12.833      2.742      3.154      2.399      2.287     736.92    235.095    212.173    226.537    230.097    228.317       9999       9999      215.9    218.271    222.108      2.319    976.667     1174.8    498.232 
     405.8      1.204     12.705      2.697       3.11      2.341      2.181    736.764    235.602    211.875    226.436    230.405     228.42       9999       9999      215.9    218.566    222.724      2.329      974.8   1175.333    502.662 
     405.9      1.217     12.754      2.667      3.078      2.301      2.168    736.563    236.501    213.785    225.361    230.341    227.851       9999       9999      215.9    219.904    222.694      2.339        970       1174    504.399 
       406      1.212     12.006      2.657      3.048      2.281      2.115    736.157     237.54    214.363    223.691    229.209     226.45       9999       9999      215.9     220.46    222.059       2.34        970       1174    503.403 
     406.1      1.175     12.125      2.664      3.022       2.26      2.144    735.666      238.9    215.078    224.663    228.375    226.519       9999       9999      215.9    220.279    221.225      2.346        974       1176    501.989 
     406.2       1.16     12.429      2.677       2.98      2.228      2.158      735.2    239.283    216.329    225.207    227.802    226.504       9999       9999      215.9    219.533    221.025       2.31        978       1173    501.157 
     406.3      1.141     12.263      2.683      2.951      2.212      2.137    734.674    239.186    216.552    225.403     223.98    224.691       9999       9999      215.9    218.134    220.582      2.286    977.333       1168    500.557 
     406.4      1.176     12.049      2.698       2.93       2.24       2.15    734.055    238.434    217.201    225.388    220.781    223.084       9999       9999      215.9    216.958    220.216      2.268      978.5   1164.375    496.093 
     406.5       1.24     12.118      2.716      2.915      2.332      2.283    733.346    237.417    218.325    225.189    219.856    222.523       9999       9999      215.9    216.954    220.276      2.259      973.2   1164.375    487.973 
     406.6      1.206     11.959      2.734      2.894      2.439      2.454    732.625     237.84    217.609    225.068    219.189    222.129       9999       9999      215.9    215.872    220.491      2.272    971.333   1164.375    478.973 
     406.7      1.217     11.781      2.744      2.874      2.497      2.502    732.008    238.309    216.778    225.442    217.793    221.617       9999       9999      215.9    214.844    220.552      2.302        970   1164.375    473.119 
     406.8      1.219     11.796      2.739      2.866      2.495      2.489    731.373    237.544    216.126    225.611    217.585    221.598       9999       9999      215.9    214.569    220.163      2.287      967.6   1164.375     471.06 
     406.9      1.249     11.341      2.734      2.882      2.503      2.499    730.768     237.18    213.333    224.569    218.208    221.388       9999       9999      215.9     214.92    218.912      2.265        965   1164.375    469.635 
       407      1.234     11.081      2.741      2.915      2.558      2.446    730.203    237.425    213.408    222.908    217.987    220.448       9999       9999      215.9    214.873    218.281      2.254        964   1164.375    466.669 
     407.1      1.254     11.362      2.747      2.938      2.582      2.976    729.594    237.584    215.133     223.03    218.487    220.758       9999       9999      215.9    214.514    218.127      2.246        966   1164.375    461.283 
     407.2      1.268     11.738      2.748      2.957      2.474      2.259    729.069    238.905    213.848    224.234    220.018    222.126       9999       9999      215.9    213.588    218.352      2.281        965   1164.375    455.309 
     407.3      1.334     11.685      2.741      2.973      2.344      2.237    728.781    239.028    213.242    224.267    220.866    222.567       9999       9999      215.9    213.456    219.001      2.284        966   1161.211     449.12 
     407.4       1.31     11.741      2.732      2.974      2.346      2.211    728.536    237.622    213.929    224.282    220.656    222.469       9999       9999      215.9    214.015    219.262      2.287      966.8   1158.047    444.286 
     407.5       1.28     11.922      2.718      2.959       2.45      2.339    728.397    236.783    213.647     223.11    220.561    221.835       9999       9999      215.9    214.951    217.955      2.308    963.333   1158.047     441.21 
     407.6      1.251     11.809      2.697      2.942      2.564      2.492    728.452    236.503    214.889    222.831    220.702    221.767       9999       9999      215.9    214.201    218.005      2.311        962   1158.047     441.21 
     407.7      1.265     11.415      2.691      2.944      2.602       2.49    728.505     236.58    215.292    222.652    220.613    221.633       9999       9999      215.9    212.949    218.238      2.349        958   1158.047    440.331 
     407.8      1.246     11.381      2.701      2.961      2.557      2.441    728.533    236.909    214.006    222.648    220.634    221.641       9999       9999      215.9    212.579    216.875      2.339      952.4   1154.883    438.134 
