~Version Information
#-------------------
Vers.            2.0: CWLS log ASCII Standart - VERSION 2.0
WRAP.             NO: One line per depth step
~Well Information Block
#----------------------
#MNEM.UNIT      VALUE: DESCRIPTION
#----.----    -------: -------------
STRT.M            87: First depth in file                  ��
STOP.M           972: Last  depth in file                  ��
STEP.M           0.1: Depth increment                      
NULL.       -999.250: Null  values                         
COMP.           CIOC: Company Name
WELL.            322: Well Name
FLD .       KARATUBE: Field
LOC .               : Location
CNTY.     KAZAHKSTAN: Country
SRVC.               : Service Company
DATE.               : Date
UWI .               : Unique Well ID
~Parameter Information
#---------------------
#MNEM.UNIT      VALUE: DESCRIPTION
#----.----    -------: ---------------
EPD  .M      -999.250: 
APD  .M      -999.250: 
LMF  .M      -999.250: 
DMF  .M      -999.250: 
EKB  .M      -999.250: 
EDF  .M      -999.250: 
EGL  .M      -999.250: 
TDD  .M      -999.250: 
TDL  .M      -999.250: 
CBD  .M      -999.250: 
CBL  .M      -999.250: 
BS   .MM     -999.250: 
DFD  .G/C3   -999.250: 
DFV  .S      -999.250: 
DFPH .       -999.250: 
DFL  .C3     -999.250: 
RMS  .OHMM   -999.250: 
MST  .DEGC   -999.250: 
RMFS .OHMM   -999.250: 
MFST .DEGC   -999.250: 
RMCS .OHMM   -999.250: 
MCST .DEGC   -999.250: 
MRT  .DEGC   -999.250: 
BHT  .DEGC   -999.250: 
AVST .DEGC   -999.250: 
GSDD .           DEPT: DEPT,0,,,,,,1
GSDD .           NGLD: NGLD,0,DEPT,,,,,2
GSDD .             GR: GR,0,DEPT,,,,,2
GSDD .            GZ3: GZ3,0,DEPT,,,,,1
GSDD .           GZ3B: GZ3B,0,DEPT,,,,,1
GSDD .            LL3: LL3,0,DEPT,,,,,1
GSDD .            MLL: MLL,0,DEPT,,,,,1
GSDD .             SP: SP,0,DEPT,,,,,2
GSDD .          7I16R: CILR,0,DEPT,,,,,2
GSDD .          7I16A: CILA,0,DEPT,,,,,2
GSDD .             C1: C1,0,DEPT,,,,,1
GSDD .             C2: C2,0,DEPT,,,,,1
GSDD .           CALI: CALI,0,DEPT,,,,,1
GSDD .             T1: T1,0,DEPT,,,,,1
GSDD .             T2: T2,0,DEPT,,,,,1
GSDD .            BSC: BSC,0,DEPT,,,,,1
GSDD .           C1_1: C1_1,0,DEPT,,,,,2
GSDD .           C2_1: C2_1,0,DEPT,,,,,2
GSDD .           RHOB: RHOB,0,DEPT,,,,,2
GSDD .            TP1: TP1,0,DEPT,,,,,2
GSDD .            TP2: TP2,0,DEPT,,,,,2
GSDD .            DTP: DT,0,DEPT,,,,,0
~Curve Information Block
#-----------------------
#MNEM.UNIT           : CURVE DESCRIPTION
#----.----           : -----------------
DEPT .M              : Depth curve                          
NGLD .C/C            : Neutron-gamma log
GR   .UR/H           : Gamma-ray
GZ3  .OHMM           : App.resistivity by lateral A2.0M0.5N
GZ3B .OHMM           : App.resistivity by lateral N0.5M2.0A
LL3  .OHMM           : Appar.resist.laterolog,3 electrodes
MLL  .OHMM           : Microlaterolog sonde  
SP   .MV             : Spontaneous potential
CILR.MMHO            : Conduct. by sonde 7I1.6,reactive signal
CILA.MMHO            : Conduct. by sonde 7I1.6,active signal
C1   .MM             : Caliper, diameter 1
C2   .MM             : Caliper, diameter 2
CALI .MM             : Caliper
T1   .US             : Travel time 1
T2   .US             : Travel time 2
BSC  .               : Bit size
C1_1 .MM             : Caliper, diameter 1
C2_1 .MM             : Caliper, diameter 2
RHOB .G/C3           : Bulk density by gamma-gamma log
TP1  .US             : Travel time 1
TP2  .US             : Travel time 2
DTP  .US/M           : Interval travel time (P-wave)

~Other Information
#-----------------
~Ascii Log Data
# ...
     734.6      1.451      6.211       2.96      3.093      2.511      1.805     778.29    213.994    204.396    238.751    232.083    235.417       9999       9999      215.9    227.269     231.39      2.423    732.667        866    346.333 
     734.7       1.45      6.017      2.902      3.019      2.531      1.781    774.156    214.172    203.857    238.292     231.25    234.771       9999       9999      215.9    227.559    230.625      2.388        730        872    349.889 
     734.8      1.444      5.872      2.851      2.968      2.545       1.77    774.141    214.273    202.838    238.213    229.508    233.861       9999       9999      215.9    227.958    229.517      2.378      728.4        872    352.296 
     734.9      1.443      5.698      2.814      2.957      2.551      1.798    774.237     214.15    202.413    239.125    229.776     234.45       9999       9999      215.9    227.812    229.847      2.405        740    875.333    353.556 
       735      1.444      5.786      2.793          3      2.557      1.817    774.497    214.249    202.203    238.916    230.603     234.76       9999       9999      215.9    227.013    228.171      2.396        746      874.5    354.259 
     735.1      1.463      5.793      2.814      3.077      2.596      1.827    774.747    214.144    204.005    235.688    230.568    233.128       9999       9999      215.9    226.727    227.477      2.403      742.8        864    354.204 
     735.2      1.481      5.966      2.855      3.135      2.654      1.822    774.996     213.41    205.143     233.91    231.045    232.477       9999       9999      215.9    226.811    228.862      2.417    743.333    866.667    352.352 
     735.3      1.499      5.964      2.913      3.194      2.668       1.79     775.24    213.083     202.96    234.575    233.646     234.11       9999       9999      215.9    222.381    232.714      2.446        746    875.333    348.908 
     735.4      1.467      6.277      2.951      3.271      2.629      1.842    775.271    213.064    200.017    233.824    236.443    235.133       9999       9999      215.9    223.483    232.321      2.472    750.571        882    345.982 
     735.5      1.441      6.685      2.984      3.451      2.595      1.915    775.034     212.44     198.54    234.246    237.196    235.721       9999       9999      215.9     225.02    231.212      2.489        750        886    346.797 
     735.6      1.464      6.837      3.015      3.719      2.657      2.148    774.602    211.748    197.308     234.78    236.717    235.748       9999       9999      215.9    224.349    230.901      2.502        740      879.6    349.686 
     735.7      1.486      7.158      3.076      3.974      2.934      2.533    773.832    211.343    196.243    236.067    231.864    233.965       9999       9999      215.9    225.965    233.743      2.514        733    868.857     351.63 
     735.8      1.497      7.203      3.188      4.102      3.344      3.037    773.164    210.535    195.154    238.895    232.299    235.597       9999       9999      215.9    226.331    232.813      2.556    731.333        868    344.434 
     735.9       1.47      7.155       3.36       4.08      3.346      2.569    772.593    209.974    192.308    242.743    234.616     238.68       9999       9999      215.9    225.834    229.856      2.575        734        870    331.387 
       736      1.473      6.993      3.647      3.958      2.967       1.99    771.916    209.802    192.579    242.932     235.25    239.091       9999       9999      215.9     225.07    231.296       2.59        734        872    318.524 
     736.1      1.468      7.315      3.899      3.766      2.729      1.831    771.348    209.333    193.294    240.189    234.465    237.327       9999       9999      215.9    225.304    232.539      2.589        734    871.333    316.998 
     736.2      1.497      7.292      4.065      3.677      2.822      2.085    770.619    207.984    191.155    238.011    235.426    236.719       9999       9999      215.9    224.914    234.113      2.579    732.667    868.667    322.323 
     736.3      1.508      6.616      4.084      3.652      3.088      2.599    770.003    206.855     189.37     235.59    237.824    236.707       9999       9999      215.9    223.649    236.067      2.605        726        868    328.611 
     736.4       1.54      6.414      3.969      3.702      3.204      2.518    769.703    205.732    189.394    235.779    238.805    237.292       9999       9999      215.9    226.442    235.211      2.628      729.2    871.333    327.741 
     736.5      1.524      5.994      3.817      3.812      3.095       1.95    769.256    205.844    189.105    235.433    241.427     238.43       9999       9999      215.9    226.138    236.237      2.638        724        864    323.722 
     736.6      1.507      5.915      3.662      3.922       3.03      2.153    768.804    207.072    190.481     233.48     242.42     237.95       9999       9999      215.9     225.63    237.891      2.661      722.8    864.667    319.519 
     736.7      1.523      5.758      3.585      3.913       3.11      2.475    768.473    207.775    191.909    231.876    243.223    237.549       9999       9999      215.9     227.74    239.128      2.668        720      862.8    319.778 
     736.8      1.479      5.822      3.648      3.858      3.133      2.388    768.248    207.753    190.801    233.267     244.91    239.089       9999       9999      215.9    226.899    239.853      2.649        722        864    320.461 
     736.9      1.507      5.647      3.736       3.72      2.836      1.883    768.138    207.616    191.491    234.469    245.645    240.057       9999       9999      215.9    225.249    239.261      2.646        727        866    322.551 
       737      1.469      5.948      3.763      3.588      2.619      1.651    768.214    207.549    193.853    235.572    246.923    241.247       9999       9999      215.9     224.17    238.077      2.616        726        863    323.937 
     737.1      1.429      6.225       3.74      3.481      2.543       1.59    768.401    207.142    194.201    235.617    247.337    241.477       9999       9999      215.9    225.655    239.273      2.588      724.4    862.667    329.199 
     737.2      1.424      6.404      3.628      3.417      2.552       1.63    768.754    207.472    194.953    233.991    244.538    239.264       9999       9999      215.9    226.682    240.369      2.545        716        854    333.923 
     737.3      1.432      6.771      3.499       3.42      2.599      1.797     768.99    207.884    196.345    235.889    244.515    240.202       9999       9999      215.9    227.236     241.93      2.539        716    860.667    338.119 
     737.4      1.419      6.748      3.317      3.454      2.635      1.708    769.153    208.291    197.021    236.099    246.638    241.368       9999       9999      215.9     227.52    243.614      2.525        720        862    338.294 
     737.5        1.4      6.747      3.191      3.511      2.581      1.684    769.365    209.149    198.752     236.23    246.239    241.235       9999       9999      215.9    227.843     241.83      2.503      729.2      862.8    338.765 
     737.6        1.4      6.901      3.097      3.596       2.53      1.686    769.549    210.201    199.935    239.381    242.624    241.002       9999       9999      215.9    226.947    242.183      2.465    734.571        854    340.268 
     737.7      1.398      7.108      3.064      3.704      2.584      1.734    769.819    211.326    199.225    236.396    240.365    238.381       9999       9999      215.9    226.339    244.101      2.453        730    854.667    345.381 
     737.8      1.421       7.09      3.065      3.841      2.692      1.854    770.119    212.292    197.376     237.06     241.42     239.24       9999       9999      215.9    230.141    246.578      2.496      722.8    852.667    349.624 
