~Version Information
#-------------------
Vers.            2.0: CWLS log ASCII Standart - VERSION 2.0
WRAP.             NO: One line per depth step
~Well Information Block
#----------------------
#MNEM.UNIT      VALUE: DESCRIPTION
#----.----    -------: -------------
STRT.M            87: First depth in file                  ��
STOP.M           972: Last  depth in file                  ��
STEP.M           0.1: Depth increment                      
NULL.       -999.250: Null  values                         
COMP.           CIOC: Company Name
WELL.            322: Well Name
FLD .       KARATUBE: Field
LOC .               : Location
CNTY.     KAZAHKSTAN: Country
SRVC.               : Service Company
DATE.               : Date
UWI .               : Unique Well ID
~Parameter Information
#---------------------
#MNEM.UNIT      VALUE: DESCRIPTION
#----.----    -------: ---------------
EPD  .M      -999.250: 
APD  .M      -999.250: 
LMF  .M      -999.250: 
DMF  .M      -999.250: 
EKB  .M      -999.250: 
EDF  .M      -999.250: 
EGL  .M      -999.250: 
TDD  .M      -999.250: 
TDL  .M      -999.250: 
CBD  .M      -999.250: 
CBL  .M      -999.250: 
BS   .MM     -999.250: 
DFD  .G/C3   -999.250: 
DFV  .S      -999.250: 
DFPH .       -999.250: 
DFL  .C3     -999.250: 
RMS  .OHMM   -999.250: 
MST  .DEGC   -999.250: 
RMFS .OHMM   -999.250: 
MFST .DEGC   -999.250: 
RMCS .OHMM   -999.250: 
MCST .DEGC   -999.250: 
MRT  .DEGC   -999.250: 
BHT  .DEGC   -999.250: 
AVST .DEGC   -999.250: 
GSDD .           DEPT: DEPT,0,,,,,,1
GSDD .           NGLD: NGLD,0,DEPT,,,,,2
GSDD .             GR: GR,0,DEPT,,,,,2
GSDD .            GZ3: GZ3,0,DEPT,,,,,1
GSDD .           GZ3B: GZ3B,0,DEPT,,,,,1
GSDD .            LL3: LL3,0,DEPT,,,,,1
GSDD .            MLL: MLL,0,DEPT,,,,,1
GSDD .             SP: SP,0,DEPT,,,,,2
GSDD .          7I16R: CILR,0,DEPT,,,,,2
GSDD .          7I16A: CILA,0,DEPT,,,,,2
GSDD .             C1: C1,0,DEPT,,,,,1
GSDD .             C2: C2,0,DEPT,,,,,1
GSDD .           CALI: CALI,0,DEPT,,,,,1
GSDD .             T1: T1,0,DEPT,,,,,1
GSDD .             T2: T2,0,DEPT,,,,,1
GSDD .            BSC: BSC,0,DEPT,,,,,1
GSDD .           C1_1: C1_1,0,DEPT,,,,,2
GSDD .           C2_1: C2_1,0,DEPT,,,,,2
GSDD .           RHOB: RHOB,0,DEPT,,,,,2
GSDD .            TP1: TP1,0,DEPT,,,,,2
GSDD .            TP2: TP2,0,DEPT,,,,,2
GSDD .            DTP: DT,0,DEPT,,,,,0
~Curve Information Block
#-----------------------
#MNEM.UNIT           : CURVE DESCRIPTION
#----.----           : -----------------
DEPT .M              : Depth curve                          
NGLD .C/C            : Neutron-gamma log
GR   .UR/H           : Gamma-ray
GZ3  .OHMM           : App.resistivity by lateral A2.0M0.5N
GZ3B .OHMM           : App.resistivity by lateral N0.5M2.0A
LL3  .OHMM           : Appar.resist.laterolog,3 electrodes
MLL  .OHMM           : Microlaterolog sonde  
SP   .MV             : Spontaneous potential
CILR.MMHO            : Conduct. by sonde 7I1.6,reactive signal
CILA.MMHO            : Conduct. by sonde 7I1.6,active signal
C1   .MM             : Caliper, diameter 1
C2   .MM             : Caliper, diameter 2
CALI .MM             : Caliper
T1   .US             : Travel time 1
T2   .US             : Travel time 2
BSC  .               : Bit size
C1_1 .MM             : Caliper, diameter 1
C2_1 .MM             : Caliper, diameter 2
RHOB .G/C3           : Bulk density by gamma-gamma log
TP1  .US             : Travel time 1
TP2  .US             : Travel time 2
DTP  .US/M           : Interval travel time (P-wave)

~Other Information
#-----------------
~Ascii Log Data
# ...
     236.3      1.102     10.126      4.302      5.853      3.785      2.834     722.01    178.736    161.453    227.426    225.712    226.569       9999       9999      215.9     218.42    221.815      2.302   1056.797   1267.207      579.2 
     236.4       1.12      9.838      4.319       5.81      3.755      2.867      722.1    179.176    162.035    227.525    225.483    226.504       9999       9999      215.9    219.135    221.506      2.299   1056.797   1268.789    577.881 
     236.5      1.142     10.094      4.306      5.746      3.666      2.786    722.258    178.508    161.721    227.127    224.899    226.013       9999       9999      215.9    219.844    221.216      2.294   1056.797   1271.953     578.32 
     236.6      1.113       9.88      4.281      5.642      3.585      2.831    722.365    178.283    163.706    226.524    224.332    225.428       9999       9999      215.9    220.179    220.782      2.282   1053.633   1273.535    580.077 
     236.7      1.117     10.258      4.248      5.503      3.581      2.851    722.457     178.35    165.673    226.398     224.11    225.254       9999       9999      215.9     219.04      219.7      2.247   1050.469   1275.117    582.713 
     236.8      1.106     10.346       4.22      5.376      3.602      2.901    722.508    177.565    164.695    226.514    223.857    225.185       9999       9999      215.9    218.535    219.314      2.228   1050.469   1275.117     585.35 
     236.9      1.084     10.009      4.186      5.297       3.62      2.993    722.436    177.365    164.357    226.568    223.724    225.146       9999       9999      215.9    218.425    219.225      2.211   1050.469   1275.117    586.229 
       237      1.082       10.2      4.168      5.286      3.643      2.868    722.564      177.1     163.97    226.472    223.671    225.072       9999       9999      215.9    219.262    219.629      2.206   1050.469   1271.953    583.592 
     237.1      1.079     10.358      4.174      5.295      3.643      2.947    722.888     176.29    162.792     226.59    223.639    225.114       9999       9999      215.9    220.261     219.49      2.205   1047.305   1271.953    578.319 
     237.2      1.128     10.513      4.195      5.328      3.601      2.806    723.389    175.951    163.365    226.401    223.803    225.102       9999       9999      215.9    220.745    219.289      2.195   1044.141   1271.953    573.046 
     237.3      1.155     10.685      4.226      5.372      3.537      2.767     723.85    175.719    164.456    226.429    224.035    225.232       9999       9999      215.9    220.396      219.2      2.182   1031.484   1268.789    566.893 
     237.4      1.184     10.584      4.268      5.433      3.463      2.776    724.186    175.395      163.9    227.309    224.239    225.774       9999       9999      215.9    221.111    218.926      2.187   1029.902   1264.043    558.544 
     237.5      1.193     10.959      4.319      5.495      3.423      2.759    724.336    175.347    164.482    228.316    224.668    226.492       9999       9999      215.9    221.776    218.719       2.18    1028.32   1259.297    546.679 
     237.6      1.186     11.255      4.369      5.565      3.398      2.739    724.445    175.591    165.366    228.258    225.199    226.729       9999       9999      215.9    221.705    218.776      2.152   1023.574   1256.133    537.451 
     237.7      1.178     11.193      4.415      5.624      3.382      2.753    724.537    175.161    164.843    228.663    225.262    226.963       9999       9999      215.9    222.292    218.452      2.165   1018.828   1252.969    531.738 
     237.8      1.198     11.185      4.448      5.648      3.398      2.766    724.608    174.877    165.478    228.767      225.1    226.934       9999       9999      215.9    222.772    218.135      2.185     1012.5   1240.313    532.177 
     237.9      1.191     10.931      4.457      5.638       3.44      2.716    724.835    174.215    166.054    228.677     225.42    227.048       9999       9999      215.9     222.62    218.054      2.182   1007.754    1238.73    534.814 
       238      1.163     10.647      4.466      5.587      3.471      2.803    724.922    173.307    163.259    228.897    225.317    227.107       9999       9999      215.9    223.955    217.501      2.179   1003.008   1237.148    538.769 
     238.1      1.178     10.832      4.475      5.546      3.479      2.727    725.083    173.262    161.787    229.214    224.228    226.721       9999       9999      215.9    225.319    217.285        2.2    999.844    1230.82    538.329 
     238.2      1.182     11.133      4.514      5.553      3.529      2.755    725.193    173.156    160.311    228.679    223.771    226.225       9999       9999      215.9    226.477    217.655      2.207     996.68    1230.82    534.374 
     238.3      1.164     11.001      4.571      5.624      3.605      2.883    725.124    171.633    157.343    228.554    223.941    226.247       9999       9999      215.9    225.465     217.81      2.211    993.516    1230.82    527.783 
     238.4      1.143     10.869      4.682      5.747      3.743      2.869    724.899    171.402     155.78    228.728    224.041    226.385       9999       9999      215.9    224.621    217.858      2.239    993.516   1227.656    524.267 
     238.5      1.138      10.91      4.819      5.882      3.933      2.948    724.575    171.827     153.27    228.528     224.14    226.334       9999       9999      215.9    225.435    217.783      2.269    993.516   1224.492    523.828 
     238.6       1.15     10.788       5.04      6.022      4.139      3.138    724.256    171.493     149.57    228.928    224.245    226.587       9999       9999      215.9    224.651    218.064      2.297     996.68   1224.492    524.267 
     238.7       1.15     10.531      5.266      6.134      4.319      3.487    724.102    171.776     148.67    229.623    224.414    227.019       9999       9999      215.9    224.263    218.602      2.317     996.68   1224.492    522.509 
     238.8      1.169     10.423      5.509      6.077      4.324      4.458    723.971    173.229    149.101    229.283     225.11    227.197       9999       9999      215.9    224.735     219.47      2.305     996.68   1224.492    517.236 
     238.9       1.13     10.931      5.745       5.84      4.045      3.151    723.853     173.97    150.501    226.933    226.967     226.95       9999       9999      215.9    220.738    219.397      2.288     996.68   1211.836    511.963 
       239      1.129     11.087      5.772      5.572      3.798      2.891    723.718    175.235    154.218    227.556    227.378    227.467       9999       9999      215.9    220.164    220.658      2.265     996.68   1210.254    508.447 
     239.1      1.104     11.239      5.679      5.292      3.711      2.822    723.525    175.772    157.339    227.455    228.967    228.211       9999       9999      215.9    221.871    222.808       2.25     996.68   1208.672    508.447 
     239.2      1.124     11.421      5.459      5.025      3.769      2.828    723.319    176.602    158.377    226.371    231.982    229.176       9999       9999      215.9    222.635    224.227      2.214     996.68   1208.672    509.766 
     239.3      1.153     11.587      5.195      4.834      3.871      2.941    723.086    178.327    159.645    225.136     235.95    230.543       9999       9999      215.9    221.215    224.864      2.164     996.68   1208.672    510.644 
     239.4      1.139     11.434      4.967      4.732      3.895      3.031    723.049    179.186    159.106    223.494    239.242    231.368       9999       9999      215.9     218.57     225.26      2.129     996.68       1215    513.281 
     239.5      1.142     11.476      4.875      4.715      3.878      2.987    723.268    179.557    158.093    221.359    240.521     230.94       9999       9999      215.9    217.998    228.165      2.121    998.262       1215    518.555 
