~Version Information
#-------------------
Vers.            2.0: CWLS log ASCII Standart - VERSION 2.0
WRAP.             NO: One line per depth step
~Well Information Block
#----------------------
#MNEM.UNIT      VALUE: DESCRIPTION
#----.----    -------: -------------
STRT.M            87: First depth in file                  ��
STOP.M           972: Last  depth in file                  ��
STEP.M           0.1: Depth increment                      
NULL.       -999.250: Null  values                         
COMP.           CIOC: Company Name
WELL.            322: Well Name
FLD .       KARATUBE: Field
LOC .               : Location
CNTY.     KAZAHKSTAN: Country
SRVC.               : Service Company
DATE.               : Date
UWI .               : Unique Well ID
~Parameter Information
#---------------------
#MNEM.UNIT      VALUE: DESCRIPTION
#----.----    -------: ---------------
EPD  .M      -999.250: 
APD  .M      -999.250: 
LMF  .M      -999.250: 
DMF  .M      -999.250: 
EKB  .M      -999.250: 
EDF  .M      -999.250: 
EGL  .M      -999.250: 
TDD  .M      -999.250: 
TDL  .M      -999.250: 
CBD  .M      -999.250: 
CBL  .M      -999.250: 
BS   .MM     -999.250: 
DFD  .G/C3   -999.250: 
DFV  .S      -999.250: 
DFPH .       -999.250: 
DFL  .C3     -999.250: 
RMS  .OHMM   -999.250: 
MST  .DEGC   -999.250: 
RMFS .OHMM   -999.250: 
MFST .DEGC   -999.250: 
RMCS .OHMM   -999.250: 
MCST .DEGC   -999.250: 
MRT  .DEGC   -999.250: 
BHT  .DEGC   -999.250: 
AVST .DEGC   -999.250: 
GSDD .           DEPT: DEPT,0,,,,,,1
GSDD .           NGLD: NGLD,0,DEPT,,,,,2
GSDD .             GR: GR,0,DEPT,,,,,2
GSDD .            GZ3: GZ3,0,DEPT,,,,,1
GSDD .           GZ3B: GZ3B,0,DEPT,,,,,1
GSDD .            LL3: LL3,0,DEPT,,,,,1
GSDD .            MLL: MLL,0,DEPT,,,,,1
GSDD .             SP: SP,0,DEPT,,,,,2
GSDD .          7I16R: CILR,0,DEPT,,,,,2
GSDD .          7I16A: CILA,0,DEPT,,,,,2
GSDD .             C1: C1,0,DEPT,,,,,1
GSDD .             C2: C2,0,DEPT,,,,,1
GSDD .           CALI: CALI,0,DEPT,,,,,1
GSDD .             T1: T1,0,DEPT,,,,,1
GSDD .             T2: T2,0,DEPT,,,,,1
GSDD .            BSC: BSC,0,DEPT,,,,,1
GSDD .           C1_1: C1_1,0,DEPT,,,,,2
GSDD .           C2_1: C2_1,0,DEPT,,,,,2
GSDD .           RHOB: RHOB,0,DEPT,,,,,2
GSDD .            TP1: TP1,0,DEPT,,,,,2
GSDD .            TP2: TP2,0,DEPT,,,,,2
GSDD .            DTP: DT,0,DEPT,,,,,0
~Curve Information Block
#-----------------------
#MNEM.UNIT           : CURVE DESCRIPTION
#----.----           : -----------------
DEPT .M              : Depth curve                          
NGLD .C/C            : Neutron-gamma log
GR   .UR/H           : Gamma-ray
GZ3  .OHMM           : App.resistivity by lateral A2.0M0.5N
GZ3B .OHMM           : App.resistivity by lateral N0.5M2.0A
LL3  .OHMM           : Appar.resist.laterolog,3 electrodes
MLL  .OHMM           : Microlaterolog sonde  
SP   .MV             : Spontaneous potential
CILR.MMHO            : Conduct. by sonde 7I1.6,reactive signal
CILA.MMHO            : Conduct. by sonde 7I1.6,active signal
C1   .MM             : Caliper, diameter 1
C2   .MM             : Caliper, diameter 2
CALI .MM             : Caliper
T1   .US             : Travel time 1
T2   .US             : Travel time 2
BSC  .               : Bit size
C1_1 .MM             : Caliper, diameter 1
C2_1 .MM             : Caliper, diameter 2
RHOB .G/C3           : Bulk density by gamma-gamma log
TP1  .US             : Travel time 1
TP2  .US             : Travel time 2
DTP  .US/M           : Interval travel time (P-wave)

~Other Information
#-----------------
~Ascii Log Data
# ...
     625.7      1.206     11.903      2.129      2.548      2.746      2.881    736.788    250.935    224.426    231.223    230.568    230.896       9999       9999      215.9    229.795    234.572      2.431        890     1093.2     412.63 
     625.8      1.256     11.894      2.143      2.522      2.771      3.067    736.568    252.864    223.329    227.387    230.211    228.799       9999       9999      215.9    228.353    235.185       2.44      888.4     1064.1    405.731 
     625.9      1.259     11.361      2.146       2.51      2.787      3.082    736.502    253.194    222.663    225.544    233.687    229.616       9999       9999      215.9    227.579    231.932      2.457    891.333       1035    401.981 
       626      1.254     11.072      2.141      2.509      2.776       3.07     736.44    253.936    221.522    224.444     238.45    231.447       9999       9999      215.9    230.338    226.108      2.502        884       1038    397.954 
     626.1      1.176     11.605      2.142      2.512      2.759      3.098    736.396    254.417    221.967    222.995    237.852    230.424       9999       9999      215.9    233.652    224.727      2.541        873       1040      395.5 
     626.2      1.165     11.716      2.156      2.515      2.738      2.848    736.171    255.548    220.857    223.318    236.766    230.042       9999       9999      215.9    235.193    223.694      2.555    868.286       1038    393.139 
     626.3      1.182     11.687      2.185      2.507       2.69      2.922    735.769    257.929    218.082    224.891    237.655    231.273       9999       9999      215.9    232.274    220.887      2.534    867.667   1047.333    392.111 
     626.4      1.158     11.841      2.215      2.494      2.623      2.789    735.259    259.922    217.226    225.332    238.977    232.155       9999       9999      215.9    232.558     224.35      2.505        861   1046.571    391.611 
     626.5       1.16     11.846      2.245      2.473      2.584      2.885    734.888    260.328    217.071    223.895      239.1    231.498       9999       9999      215.9    233.271    225.769      2.497        858       1038    392.222 
     626.6      1.177     11.647      2.265       2.45      2.586      2.879    734.654      260.3    217.445    223.037    238.742    230.889       9999       9999      215.9    233.753    223.231      2.487      851.6   1031.143        395 
     626.7      1.182     11.543      2.284      2.411      2.614      2.896    734.516    261.193    218.752    219.929    237.189    228.559       9999       9999      215.9    231.154    222.001      2.476        842       1018    400.074 
     626.8      1.176     11.353      2.308       2.36      2.654      2.998    734.279      261.9    219.471    219.172     235.92    227.546       9999       9999      215.9    229.185    220.901      2.485        838       1014    405.056 
     626.9      1.168     11.601       2.34      2.321      2.695      3.084    733.888    263.598    218.976    219.301     233.72     226.51       9999       9999      215.9    227.401    219.867      2.511    832.222     1007.6    406.243 
       627      1.196     11.798      2.389      2.298      2.711      3.057    733.368    265.466    219.324    218.616    230.999    224.807       9999       9999      215.9    224.866    218.914      2.563        830       1002    414.936 
     627.1      1.198     11.499      2.444      2.277      2.704      2.985     732.88    266.077     219.84    217.616    228.849    223.232       9999       9999      215.9    220.032    219.232      2.555        829        998    423.406 
     627.2      1.208     11.558      2.498      2.257      2.683      2.794    732.411    267.159    220.538    216.776    227.631    222.204       9999       9999      215.9    216.733    219.674       2.55    827.333      991.6    436.992 
     627.3      1.224     11.002      2.515      2.234      2.685      2.951    731.835    268.703     222.34    216.234    227.014    221.624       9999       9999      215.9    216.597    219.826      2.552    826.667        986    431.593 
     627.4       1.22     11.262      2.513      2.203      2.714      3.063    731.103    270.705    222.525    216.212    223.604    219.908       9999       9999      215.9    217.527    218.837      2.566        822        986    426.554 
     627.5      1.185     11.161      2.501      2.177      2.726      3.103    730.409    274.352    221.798    216.836    219.603    218.219       9999       9999      215.9    217.965    218.393      2.536      826.5      983.6    418.361 
     627.6      1.189     11.495      2.499      2.159      2.693      3.109    729.757    277.586    222.765    216.906     219.32    218.113       9999       9999      215.9    217.704    218.766      2.499        824        982     419.24 
     627.7      1.207     11.307      2.496      2.153      2.662      3.018    729.168    278.662    223.188    216.997    219.759    218.378       9999       9999      215.9    217.678    219.084      2.501        826        984     419.24 
     627.8      1.214     10.994      2.485      2.138      2.652      3.078    728.432    280.684    224.522    217.634    218.826     218.23       9999       9999      215.9    218.306     218.94      2.477      826.4        982    419.679 
     627.9      1.238     10.854      2.467      2.104      2.656      3.184    727.615    282.543    225.856    217.946    217.967    217.956       9999       9999      215.9    218.779    218.908      2.455        826        983    420.996 
       628      1.229     10.994      2.442      2.082      2.659      3.343    726.611    284.136    225.046    217.637     218.54    218.088       9999       9999      215.9    218.835    219.114      2.455        826      982.8    423.193 
     628.1      1.238     10.731      2.413       2.08      2.675      3.335    725.627    285.896    223.978    217.956    220.152    219.054       9999       9999      215.9    218.232    219.266      2.474        826        982     425.39 
     628.2      1.261      10.88      2.381      2.097      2.707      3.083    724.622    286.839    224.266    219.614    220.868    220.241       9999       9999      215.9    217.528    219.221      2.486    823.333    983.333    426.708 
     628.3      1.267     10.624      2.351      2.128      2.736      3.148    723.573    286.239    224.346    221.157    220.788    220.972       9999       9999      215.9    217.076    218.968      2.487        821      984.4    430.663 
     628.4      1.229     10.308      2.329       2.16      2.778      3.145    722.527    286.811    226.584    222.779    220.544    221.662       9999       9999      215.9    219.794    218.634       2.46    819.333        984    437.255 
     628.5      1.267     10.261       2.33      2.209      2.843      3.154    721.574    285.899    229.854    224.547    220.971    222.759       9999       9999      215.9     221.28    217.316      2.448        818    980.667    446.483 
     628.6      1.236     10.322      2.345      2.268      2.986      3.117    720.404    286.111     230.32    225.261    223.161    224.211       9999       9999      215.9    222.106    216.411      2.441    816.328    972.667    450.438 
     628.7      1.231     10.404      2.381      2.318      3.271      3.812    719.361    289.414    230.706    224.847    226.424    225.635       9999       9999      215.9    221.525    218.141      2.451    821.074   1021.429     449.12 
     628.8      1.243     10.024      2.431      2.337      3.447      4.017    717.954    292.319    232.723     223.96    226.968    225.464       9999       9999      215.9    221.607    220.416      2.458     825.82    990.352    442.528 
     628.9      1.265      9.592      2.494       2.31      3.146      3.693    716.047    294.451    234.199    223.245     223.33    223.287       9999       9999      215.9    221.499    220.585      2.509    822.656    990.352    435.497 
