~Version Information
#-------------------
Vers.            2.0: CWLS log ASCII Standart - VERSION 2.0
WRAP.             NO: One line per depth step
~Well Information Block
#----------------------
#MNEM.UNIT      VALUE: DESCRIPTION
#----.----    -------: -------------
STRT.M            87: First depth in file                  ��
STOP.M           972: Last  depth in file                  ��
STEP.M           0.1: Depth increment                      
NULL.       -999.250: Null  values                         
COMP.           CIOC: Company Name
WELL.            322: Well Name
FLD .       KARATUBE: Field
LOC .               : Location
CNTY.     KAZAHKSTAN: Country
SRVC.               : Service Company
DATE.               : Date
UWI .               : Unique Well ID
~Parameter Information
#---------------------
#MNEM.UNIT      VALUE: DESCRIPTION
#----.----    -------: ---------------
EPD  .M      -999.250: 
APD  .M      -999.250: 
LMF  .M      -999.250: 
DMF  .M      -999.250: 
EKB  .M      -999.250: 
EDF  .M      -999.250: 
EGL  .M      -999.250: 
TDD  .M      -999.250: 
TDL  .M      -999.250: 
CBD  .M      -999.250: 
CBL  .M      -999.250: 
BS   .MM     -999.250: 
DFD  .G/C3   -999.250: 
DFV  .S      -999.250: 
DFPH .       -999.250: 
DFL  .C3     -999.250: 
RMS  .OHMM   -999.250: 
MST  .DEGC   -999.250: 
RMFS .OHMM   -999.250: 
MFST .DEGC   -999.250: 
RMCS .OHMM   -999.250: 
MCST .DEGC   -999.250: 
MRT  .DEGC   -999.250: 
BHT  .DEGC   -999.250: 
AVST .DEGC   -999.250: 
GSDD .           DEPT: DEPT,0,,,,,,1
GSDD .           NGLD: NGLD,0,DEPT,,,,,2
GSDD .             GR: GR,0,DEPT,,,,,2
GSDD .            GZ3: GZ3,0,DEPT,,,,,1
GSDD .           GZ3B: GZ3B,0,DEPT,,,,,1
GSDD .            LL3: LL3,0,DEPT,,,,,1
GSDD .            MLL: MLL,0,DEPT,,,,,1
GSDD .             SP: SP,0,DEPT,,,,,2
GSDD .          7I16R: CILR,0,DEPT,,,,,2
GSDD .          7I16A: CILA,0,DEPT,,,,,2
GSDD .             C1: C1,0,DEPT,,,,,1
GSDD .             C2: C2,0,DEPT,,,,,1
GSDD .           CALI: CALI,0,DEPT,,,,,1
GSDD .             T1: T1,0,DEPT,,,,,1
GSDD .             T2: T2,0,DEPT,,,,,1
GSDD .            BSC: BSC,0,DEPT,,,,,1
GSDD .           C1_1: C1_1,0,DEPT,,,,,2
GSDD .           C2_1: C2_1,0,DEPT,,,,,2
GSDD .           RHOB: RHOB,0,DEPT,,,,,2
GSDD .            TP1: TP1,0,DEPT,,,,,2
GSDD .            TP2: TP2,0,DEPT,,,,,2
GSDD .            DTP: DT,0,DEPT,,,,,0
~Curve Information Block
#-----------------------
#MNEM.UNIT           : CURVE DESCRIPTION
#----.----           : -----------------
DEPT .M              : Depth curve                          
NGLD .C/C            : Neutron-gamma log
GR   .UR/H           : Gamma-ray
GZ3  .OHMM           : App.resistivity by lateral A2.0M0.5N
GZ3B .OHMM           : App.resistivity by lateral N0.5M2.0A
LL3  .OHMM           : Appar.resist.laterolog,3 electrodes
MLL  .OHMM           : Microlaterolog sonde  
SP   .MV             : Spontaneous potential
CILR.MMHO            : Conduct. by sonde 7I1.6,reactive signal
CILA.MMHO            : Conduct. by sonde 7I1.6,active signal
C1   .MM             : Caliper, diameter 1
C2   .MM             : Caliper, diameter 2
CALI .MM             : Caliper
T1   .US             : Travel time 1
T2   .US             : Travel time 2
BSC  .               : Bit size
C1_1 .MM             : Caliper, diameter 1
C2_1 .MM             : Caliper, diameter 2
RHOB .G/C3           : Bulk density by gamma-gamma log
TP1  .US             : Travel time 1
TP2  .US             : Travel time 2
DTP  .US/M           : Interval travel time (P-wave)

~Other Information
#-----------------
~Ascii Log Data
# ...
     457.4      1.139     10.645      3.294      3.151      2.853      2.654    732.204    223.562    201.083    224.151    221.504    222.828       9999       9999      215.9    215.361    217.417      2.316    987.188   1186.523    435.938 
     457.5      1.235     11.019      2.992      3.006      2.815      2.563    731.585    223.727     202.82    223.163    221.551    222.357       9999       9999      215.9    216.243    219.219      2.385    990.352   1183.359    441.187 
     457.6      1.262      11.24      2.811      2.881      2.814      2.561    731.281    223.673    203.733    222.413     220.94    221.677       9999       9999      215.9    216.859    220.002      2.404    977.695   1170.703    446.473 
     457.7       1.26     11.042       2.67       2.76      2.843       2.64    731.088    223.425    204.129    221.085    220.361    220.723       9999       9999      215.9    216.942    220.008       2.41    972.949     1164.4      449.5 
     457.8      1.195     10.826      2.574      2.721      2.835      2.597     731.03    222.878    206.102     221.93    221.426    221.678       9999       9999      215.9    216.286    220.035      2.431    968.203       1162    456.344 
     457.9      1.192     10.978      2.493      2.724      2.788      2.531    731.089    222.855    207.494    222.626    221.698    222.162       9999       9999      215.9    215.247    219.784       2.44    961.875       1150    464.911 
       458      1.176     11.079      2.464       2.76      2.743       2.58    731.368    221.971    206.024    223.308    221.864    222.586       9999       9999      215.9    214.257     219.44      2.441    957.129   1148.667    472.988 
     458.1      1.148     11.009      2.476      2.822      2.723      2.645    731.685    221.059    204.577    224.044     222.28    223.162       9999       9999      215.9    216.008     219.94      2.459    952.383       1144    467.068 
     458.2      1.216     11.474      2.531      2.906      2.727      2.612    732.231    220.521    203.858    224.145     223.11    223.628       9999       9999      215.9    216.577     220.72      2.495    944.473       1136    457.486 
     458.3      1.238      11.59      2.619      2.984      2.741      2.616    733.253    220.195    201.947    223.561    224.331    223.946       9999       9999      215.9    216.479     220.83      2.505    936.563       1120    450.794 
     458.4      1.251     11.916      2.713      3.038      2.747      2.625    734.261    219.951    201.291    223.415    224.663    224.039       9999       9999      215.9    215.516    219.217      2.507    917.578       1114    454.741 
     458.5      1.269     11.872      2.801      3.063       2.74      2.582    735.229    220.811    201.237    224.236    224.605     224.42       9999       9999      215.9    215.269    219.231      2.523     911.25       1106    461.668 
     458.6      1.242     11.549      2.882      3.082      2.718       2.57    735.906     221.63    200.043    223.372    225.101    224.236       9999       9999      215.9    215.934    219.523      2.508    904.922   1099.143    467.018 
     458.7      1.218     11.789      2.964      3.096       2.69      2.566    736.487    222.049    199.522    222.379    226.694    224.537       9999       9999      215.9    217.256    219.963       2.47        900       1092    468.061 
     458.8       1.17     11.604      3.037      3.119      2.666      2.483    736.857    223.272    200.376    222.122    226.594    224.358       9999       9999      215.9     217.01    220.849       2.45        901       1084    465.281 
     458.9      1.179     11.305      3.094      3.136      2.609      2.413    737.141    224.361    200.255    221.955    225.558    223.756       9999       9999      215.9    215.999    220.668      2.372    904.667       1086    457.408 
       459      1.176     11.819      3.141      3.159      2.531      2.303    737.416     225.16    202.323        221    226.259    223.629       9999       9999      215.9    214.633    219.615      2.284        907       1086    450.668 
     459.1      1.177     11.405       3.19      3.199      2.472      2.167    737.749    226.329     204.39    219.985    228.285    224.135       9999       9999      215.9    216.976    220.326      2.201        914       1086    447.908 
     459.2      1.138     11.688      3.255      3.287      2.465      2.241    737.804    227.521    205.072     221.29    226.632    223.961       9999       9999      215.9    216.951    221.182      2.094      913.2       1090    452.553 
     459.3      1.125     11.262      3.347      3.415      2.484      2.314    737.816      226.6    205.518    221.765    226.463    224.114       9999       9999      215.9    215.367    221.974      2.041        922       1093    458.654 
     459.4      1.121     10.841      3.458      3.617      2.496      2.213    737.767    224.951    206.333    222.502     226.31    224.406       9999       9999      215.9    213.857    222.117      1.953    922.364       1094    463.412 
     459.5      1.099     10.396      3.619       3.86      2.613      2.365    737.605    223.383    204.821    223.639    224.854    224.246       9999       9999      215.9    214.996    221.966      1.884        924       1102    465.508 
     459.6      1.038       9.66      3.752      4.058      2.956      2.823    737.601    222.268     201.34    224.818    223.166    223.992       9999       9999      215.9    216.243     221.47       1.77    927.333       1107    469.201 
     459.7      0.938      8.703      3.911      4.174      3.216      3.129    737.623    223.034    199.937    225.074     222.72    223.897       9999       9999      215.9    215.274    219.887      1.652        932   1112.667    477.051 
     459.8      0.905      8.286      3.988      4.109      2.955       2.69    737.551    224.856    199.059    221.322    222.387    221.854       9999       9999      215.9    216.043    219.353       1.55    942.667       1122     485.78 
     459.9      0.949      7.824      3.969       3.98      2.629      2.097    737.369    226.598    198.158    214.911    220.499    217.705       9999       9999      215.9    216.223    219.339      1.513      950.8       1131    492.865 
       460      0.961       8.34      3.886      3.827      2.497      2.123    737.022     228.21    196.619    219.736    219.272    219.504       9999       9999      215.9    214.869    219.712      1.537    936.563       1140    498.673 
     460.1      0.985      9.059      3.697      3.684       2.47      2.491     736.67    229.786    195.354    221.165    223.981    222.573       9999       9999      215.9    214.894    219.675      1.697    957.129       1144    507.698 
     460.2      0.969     10.025      3.488      3.568       2.35       1.99    736.404    231.711    196.801    215.142    216.688    215.915       9999       9999      215.9    215.106    220.828      1.837    977.695   1156.667    518.546 
     460.3      1.009     10.636      3.296      3.519      2.234      1.964    736.301     233.86    203.559    211.638    219.033    215.336       9999       9999      215.9    215.395    223.154      1.916    987.188       1163    523.531 
     460.4      1.024     11.364      3.122      3.496      2.191       1.95    736.173    235.178    208.443    211.766    221.927    216.846       9999       9999      215.9    216.083    224.929      1.995     988.77       1170    521.688 
     460.5      1.032     11.797      3.049      3.477      2.172      1.978    736.065     235.78    210.483    214.052    219.841    216.947       9999       9999      215.9    216.741    225.396      2.116    990.352     1178.5    517.146 
     460.6      1.065     12.087      2.956       3.41      2.143      1.937    735.902    236.333    213.551    216.648    217.728    217.188       9999       9999      215.9     217.19    224.392      2.207    993.516       1180    519.247 
