~Version Information
#-------------------
Vers.            2.0: CWLS log ASCII Standart - VERSION 2.0
WRAP.             NO: One line per depth step
~Well Information Block
#----------------------
#MNEM.UNIT      VALUE: DESCRIPTION
#----.----    -------: -------------
STRT.M            87: First depth in file                  ��
STOP.M           972: Last  depth in file                  ��
STEP.M           0.1: Depth increment                      
NULL.       -999.250: Null  values                         
COMP.           CIOC: Company Name
WELL.            322: Well Name
FLD .       KARATUBE: Field
LOC .               : Location
CNTY.     KAZAHKSTAN: Country
SRVC.               : Service Company
DATE.               : Date
UWI .               : Unique Well ID
~Parameter Information
#---------------------
#MNEM.UNIT      VALUE: DESCRIPTION
#----.----    -------: ---------------
EPD  .M      -999.250: 
APD  .M      -999.250: 
LMF  .M      -999.250: 
DMF  .M      -999.250: 
EKB  .M      -999.250: 
EDF  .M      -999.250: 
EGL  .M      -999.250: 
TDD  .M      -999.250: 
TDL  .M      -999.250: 
CBD  .M      -999.250: 
CBL  .M      -999.250: 
BS   .MM     -999.250: 
DFD  .G/C3   -999.250: 
DFV  .S      -999.250: 
DFPH .       -999.250: 
DFL  .C3     -999.250: 
RMS  .OHMM   -999.250: 
MST  .DEGC   -999.250: 
RMFS .OHMM   -999.250: 
MFST .DEGC   -999.250: 
RMCS .OHMM   -999.250: 
MCST .DEGC   -999.250: 
MRT  .DEGC   -999.250: 
BHT  .DEGC   -999.250: 
AVST .DEGC   -999.250: 
GSDD .           DEPT: DEPT,0,,,,,,1
GSDD .           NGLD: NGLD,0,DEPT,,,,,2
GSDD .             GR: GR,0,DEPT,,,,,2
GSDD .            GZ3: GZ3,0,DEPT,,,,,1
GSDD .           GZ3B: GZ3B,0,DEPT,,,,,1
GSDD .            LL3: LL3,0,DEPT,,,,,1
GSDD .            MLL: MLL,0,DEPT,,,,,1
GSDD .             SP: SP,0,DEPT,,,,,2
GSDD .          7I16R: CILR,0,DEPT,,,,,2
GSDD .          7I16A: CILA,0,DEPT,,,,,2
GSDD .             C1: C1,0,DEPT,,,,,1
GSDD .             C2: C2,0,DEPT,,,,,1
GSDD .           CALI: CALI,0,DEPT,,,,,1
GSDD .             T1: T1,0,DEPT,,,,,1
GSDD .             T2: T2,0,DEPT,,,,,1
GSDD .            BSC: BSC,0,DEPT,,,,,1
GSDD .           C1_1: C1_1,0,DEPT,,,,,2
GSDD .           C2_1: C2_1,0,DEPT,,,,,2
GSDD .           RHOB: RHOB,0,DEPT,,,,,2
GSDD .            TP1: TP1,0,DEPT,,,,,2
GSDD .            TP2: TP2,0,DEPT,,,,,2
GSDD .            DTP: DT,0,DEPT,,,,,0
~Curve Information Block
#-----------------------
#MNEM.UNIT           : CURVE DESCRIPTION
#----.----           : -----------------
DEPT .M              : Depth curve                          
NGLD .C/C            : Neutron-gamma log
GR   .UR/H           : Gamma-ray
GZ3  .OHMM           : App.resistivity by lateral A2.0M0.5N
GZ3B .OHMM           : App.resistivity by lateral N0.5M2.0A
LL3  .OHMM           : Appar.resist.laterolog,3 electrodes
MLL  .OHMM           : Microlaterolog sonde  
SP   .MV             : Spontaneous potential
CILR.MMHO            : Conduct. by sonde 7I1.6,reactive signal
CILA.MMHO            : Conduct. by sonde 7I1.6,active signal
C1   .MM             : Caliper, diameter 1
C2   .MM             : Caliper, diameter 2
CALI .MM             : Caliper
T1   .US             : Travel time 1
T2   .US             : Travel time 2
BSC  .               : Bit size
C1_1 .MM             : Caliper, diameter 1
C2_1 .MM             : Caliper, diameter 2
RHOB .G/C3           : Bulk density by gamma-gamma log
TP1  .US             : Travel time 1
TP2  .US             : Travel time 2
DTP  .US/M           : Interval travel time (P-wave)

~Other Information
#-----------------
~Ascii Log Data
# ...
     899.6      1.788      4.454      3.017      3.803      2.644      2.252    754.862     242.37    202.946    225.592     231.09    228.341     906.77   1030.301      215.9    215.549    221.104      2.413    610.664    768.867    280.903 
     899.7      1.771      4.511      3.043      3.778      2.596      2.852     754.65     244.62    203.504     224.57    230.298    227.434    898.615   1028.359      215.9    216.286    219.092      2.402      607.5    765.703    292.217 
     899.8      1.726      4.635      3.058      3.749      2.537      2.094    754.538    246.411    201.049    225.768    232.168    228.968    895.266   1027.087      215.9    218.933    218.389      2.404    598.008    762.539    300.058 
     899.9      1.712       4.76      3.053      3.724      2.425      2.182    754.446    247.142    201.745     227.58    251.843    239.711    894.707   1023.529      215.9    220.179    219.814      2.452    601.172    762.539    301.029 
       900      1.697      4.834      3.023      3.719      2.341      2.265    754.515    244.998    202.734    228.592      267.8    248.196    896.202   1019.281      215.9    218.966    219.821      2.523    601.172    762.539    296.922 
     900.1      1.637      4.812      3.002      3.863      2.264      1.828    754.488     242.18    200.139     228.47    240.463    234.467    899.012   1016.717      215.9    217.269    219.018      2.541    601.172    762.539    288.964 
     900.2      1.608      4.874       3.05      4.178       2.37      1.359    754.352    240.749    184.257    228.625    223.138    225.882    901.059   1018.347      215.9    214.608    219.558      2.527    601.172    900.667    280.269 
     900.3      1.603      4.888      3.301       4.53      2.759      2.605    754.087    239.819    178.837    228.759    221.937    225.348    904.557   1020.265      215.9    213.179    219.712      2.519    601.172        902    277.638 
     900.4      1.655       4.66      3.567      4.836      3.494      3.012    753.971    239.376    177.028    227.257    224.733    225.995    910.168    1021.57      215.9    212.736    218.967      2.505    601.172    903.333    269.417 
     900.5      1.693      4.541      3.834      5.068      4.356      8.462    753.544    240.309    179.472    226.785    222.751    224.768    916.808    1022.16      215.9    209.691    217.207      2.512    601.172        904    260.683 
     900.6      1.743       4.27      3.941      5.154      4.949      6.156    752.738    242.234    183.622    224.472    223.659    224.066    922.134   1023.732      215.9    205.865    217.906      2.514    601.172    900.667    252.419 
     900.7      1.775      4.211      4.004      5.035      4.545       3.58    751.981      242.8    189.019    221.416    225.898    223.657    925.021   1025.131      215.9    205.653    217.104      2.541    598.008    900.667    245.343 
     900.8      1.797      4.051      4.053      4.843      3.938      2.992    751.443    242.208    192.725    223.734    226.549    225.142    923.062   1024.373      215.9    206.833    213.847      2.555    598.008    907.333    242.749 
     900.9      1.809      4.009      4.089      4.641      3.718       2.88    746.671     241.57    195.811    224.841    225.697    225.269    917.079   1022.377      215.9    203.677    213.922      2.571    598.008        902    243.951 
       901      1.815      4.277      4.092      4.475      3.652      3.263    743.284    244.247    201.187    226.143    225.276    225.709    910.405   1020.443      215.9    203.582    214.092      2.543    598.008        902    249.044 
     901.1       1.81      4.299      4.175      4.349      3.512      2.944    738.882    244.565    204.506    228.017    227.038    227.527    906.987   1019.374      215.9    201.383     214.58      2.511    596.426    896.667    254.889 
     901.2      1.754       4.42      4.285      4.235      2.898      2.267    733.835    244.952    208.089    227.867    229.758    228.813    905.021   1016.014      215.9    201.168    215.926      2.508    594.844        906    263.881 
     901.3      1.724      4.469      4.261      4.072      2.426      1.686     728.92    245.369    213.749    225.664    232.034    228.849    901.548   1013.474      215.9    197.471    218.184      2.501    594.844        898    265.808 
     901.4      1.673      4.816      4.062      3.896      2.132      1.404    722.392    246.105    220.235    224.819    236.742    230.781    897.581   1012.291      215.9    194.557    221.224      2.563    594.844    903.333    268.956 
     901.5      1.635      5.028      3.871      3.731      2.003      1.025    719.263    246.697    227.333    229.412    248.823    239.118    893.029   1011.995      215.9    199.096    216.423      2.573    594.844        900    272.847 
     901.6      1.559      5.221      3.859      3.575       1.95      1.046    720.294    245.893    230.253    232.671    266.221    249.446    889.264   1010.676      215.9    197.894    215.981      2.514    594.844    904.667    284.852 
     901.7      1.529      5.223      3.748      3.444      1.904      0.895     725.68     245.09    228.334    232.813    263.591    248.202    887.322   1010.162      215.9    196.563    218.463      2.477    594.844        904    287.298 
     901.8      1.497      5.186      3.588      3.355      1.866      0.982    735.353    244.162    223.794    248.303    268.901    258.602    888.105   1011.797      215.9    195.348     216.97      2.492    594.844        897    287.619 
     901.9      1.438      5.202      3.396       3.29       1.86      1.086    745.776    213.439    213.312    265.768    249.682    257.725    890.609   1013.671      215.9    197.432    215.801      2.524    593.262        902    289.578 
       902      1.427      5.199      3.281      3.296      1.861      0.939     750.18    209.153    208.443    256.081    237.167    246.624    894.144   1017.007      215.9    195.637    215.859      2.526     591.68        904    288.947 
     902.1      1.432      5.145       3.15      3.395      1.926      1.152     751.31    206.968    204.139    236.462    232.826    234.644    898.569   1023.391      215.9    196.084    214.623   -999.250    590.098    903.333    288.749 
     902.2      1.442      5.064      3.118      3.567      2.069      1.519    750.818    204.716    197.836    230.259    230.868    230.564    904.234   1029.957      215.9    193.802    217.625   -999.250    588.516        902    290.708 
     902.3      1.479      5.036      3.138      3.789       2.13      1.635    749.269    203.385    195.439    229.642    232.092    230.867    909.898    1023.75      215.9    194.478    218.647   -999.250    588.516    903.333    291.609 
     902.4       1.52      5.066      3.155      4.033      2.154      1.548    747.729    203.283    194.231     228.53    237.622    233.076    917.297   1020.574      215.9    194.638     200.99   -999.250    586.934    900.667    276.417 
     902.5       1.55      4.871      3.244      4.204      2.175      1.592    747.739    200.888    190.587    226.754    250.287     238.52    925.815    1024.53      215.9     194.65    189.021   -999.250    585.352    900.667    263.628 
     902.6      1.605      4.644        3.3      4.333      2.176      1.674    747.873    201.128    190.428    226.931     251.36    239.146    934.453   1028.326      215.9    195.691    186.143   -999.250    585.352        906    247.995 
     902.7       1.61      4.664      3.454      4.392      2.171      1.448    747.253    201.446    191.658    231.158      244.9    238.029    940.102   1032.162      215.9    194.465     169.89   -999.250    585.352        902    232.084 
     902.8      1.611      5.375      3.603      4.419      2.132      1.061    746.141    200.679    193.424    235.385    238.439    236.912     942.54   1036.099      215.9    189.077    146.425   -999.250    585.352        900    226.949 
