~Version Information
#-------------------
Vers.            2.0: CWLS log ASCII Standart - VERSION 2.0
WRAP.             NO: One line per depth step
~Well Information Block
#----------------------
#MNEM.UNIT      VALUE: DESCRIPTION
#----.----    -------: -------------
STRT.M            87: First depth in file                  ��
STOP.M           972: Last  depth in file                  ��
STEP.M           0.1: Depth increment                      
NULL.       -999.250: Null  values                         
COMP.           CIOC: Company Name
WELL.            322: Well Name
FLD .       KARATUBE: Field
LOC .               : Location
CNTY.     KAZAHKSTAN: Country
SRVC.               : Service Company
DATE.               : Date
UWI .               : Unique Well ID
~Parameter Information
#---------------------
#MNEM.UNIT      VALUE: DESCRIPTION
#----.----    -------: ---------------
EPD  .M      -999.250: 
APD  .M      -999.250: 
LMF  .M      -999.250: 
DMF  .M      -999.250: 
EKB  .M      -999.250: 
EDF  .M      -999.250: 
EGL  .M      -999.250: 
TDD  .M      -999.250: 
TDL  .M      -999.250: 
CBD  .M      -999.250: 
CBL  .M      -999.250: 
BS   .MM     -999.250: 
DFD  .G/C3   -999.250: 
DFV  .S      -999.250: 
DFPH .       -999.250: 
DFL  .C3     -999.250: 
RMS  .OHMM   -999.250: 
MST  .DEGC   -999.250: 
RMFS .OHMM   -999.250: 
MFST .DEGC   -999.250: 
RMCS .OHMM   -999.250: 
MCST .DEGC   -999.250: 
MRT  .DEGC   -999.250: 
BHT  .DEGC   -999.250: 
AVST .DEGC   -999.250: 
GSDD .           DEPT: DEPT,0,,,,,,1
GSDD .           NGLD: NGLD,0,DEPT,,,,,2
GSDD .             GR: GR,0,DEPT,,,,,2
GSDD .            GZ3: GZ3,0,DEPT,,,,,1
GSDD .           GZ3B: GZ3B,0,DEPT,,,,,1
GSDD .            LL3: LL3,0,DEPT,,,,,1
GSDD .            MLL: MLL,0,DEPT,,,,,1
GSDD .             SP: SP,0,DEPT,,,,,2
GSDD .          7I16R: CILR,0,DEPT,,,,,2
GSDD .          7I16A: CILA,0,DEPT,,,,,2
GSDD .             C1: C1,0,DEPT,,,,,1
GSDD .             C2: C2,0,DEPT,,,,,1
GSDD .           CALI: CALI,0,DEPT,,,,,1
GSDD .             T1: T1,0,DEPT,,,,,1
GSDD .             T2: T2,0,DEPT,,,,,1
GSDD .            BSC: BSC,0,DEPT,,,,,1
GSDD .           C1_1: C1_1,0,DEPT,,,,,2
GSDD .           C2_1: C2_1,0,DEPT,,,,,2
GSDD .           RHOB: RHOB,0,DEPT,,,,,2
GSDD .            TP1: TP1,0,DEPT,,,,,2
GSDD .            TP2: TP2,0,DEPT,,,,,2
GSDD .            DTP: DT,0,DEPT,,,,,0
~Curve Information Block
#-----------------------
#MNEM.UNIT           : CURVE DESCRIPTION
#----.----           : -----------------
DEPT .M              : Depth curve                          
NGLD .C/C            : Neutron-gamma log
GR   .UR/H           : Gamma-ray
GZ3  .OHMM           : App.resistivity by lateral A2.0M0.5N
GZ3B .OHMM           : App.resistivity by lateral N0.5M2.0A
LL3  .OHMM           : Appar.resist.laterolog,3 electrodes
MLL  .OHMM           : Microlaterolog sonde  
SP   .MV             : Spontaneous potential
CILR.MMHO            : Conduct. by sonde 7I1.6,reactive signal
CILA.MMHO            : Conduct. by sonde 7I1.6,active signal
C1   .MM             : Caliper, diameter 1
C2   .MM             : Caliper, diameter 2
CALI .MM             : Caliper
T1   .US             : Travel time 1
T2   .US             : Travel time 2
BSC  .               : Bit size
C1_1 .MM             : Caliper, diameter 1
C2_1 .MM             : Caliper, diameter 2
RHOB .G/C3           : Bulk density by gamma-gamma log
TP1  .US             : Travel time 1
TP2  .US             : Travel time 2
DTP  .US/M           : Interval travel time (P-wave)

~Other Information
#-----------------
~Ascii Log Data
# ...
     846.8      1.608      3.318      3.598      3.488      3.298      2.664    771.948    209.689      185.2    239.306    229.254     234.28   1031.782   1156.599      215.9    221.085    228.471      2.625    680.273        810    258.345 
     846.9      1.572      3.329      3.535        3.3      3.119       2.84    771.886     213.16    188.562    242.551    232.051    237.301   1028.904   1147.507      215.9    223.844    224.733      2.602    678.691    805.254    268.003 
       847       1.55      3.373      3.417      3.148      3.105      2.953    771.542    215.772    190.353    248.455    234.166    241.311   1022.694   1142.366      215.9    230.516     232.81       2.61    677.109    800.508    267.524 
     847.1       1.53      3.396      3.312      3.008      3.197      2.167    771.125    217.784    190.043    249.935    240.467    245.201   1014.362    1140.54      215.9     230.15    231.929      2.574    648.633     794.18    267.876 
     847.2      1.568      3.467      3.214       2.89      3.177      1.743    770.678    219.755    190.123    243.619    256.136    249.878   1005.486   1139.771      215.9    224.803    224.202      2.512    643.887        838    270.531 
     847.3      1.568        3.4      3.122      2.764      2.935      2.003    770.237    222.156    194.173    237.725    266.224    251.975    998.465   1130.409      215.9    223.661    221.402      2.486    639.141        774    270.954 
     847.4      1.569      3.316      3.034      2.676      2.755      2.481    769.965    224.868    196.951    235.673    260.389    248.031    992.035   1114.856      215.9    227.052    226.219      2.537    634.395    792.667    283.391 
     847.5      1.531      3.324      2.968      2.603      2.757      2.222    769.739    226.907    194.434    234.351    249.146    241.749    982.974   1103.005      215.9    229.822    231.909      2.547    626.484    811.333    309.861 
     847.6      1.501      3.409      2.915      2.563      2.868       1.63    769.602    227.532    193.552    232.866    245.475    239.171     972.97   1095.577      215.9     228.75    234.017       2.57    626.484    755.333     323.97 
     847.7      1.496      3.548      2.868      2.572      2.921      1.803    769.427    227.802    195.429    231.917    241.851    236.884    966.062   1090.506      215.9    226.733    231.335      2.571    621.738        760    338.267 
     847.8      1.497      3.509      2.837       2.64      2.918      2.008    769.386    227.712    199.611    229.468    237.241    233.355    961.018   1081.775      215.9    226.374    230.088      2.555    616.992      829.5    346.194 
     847.9      1.471      3.564      2.862      2.723      2.982      2.056    769.452    228.278    204.053    230.945    239.404    235.175    956.791    1074.15      215.9    227.495    230.462      2.514    616.992      744.4    343.798 
       848       1.48      3.784      2.965      2.798      3.015      1.912    769.711    229.447    206.676    235.553      241.4    238.477    955.355   1070.291      215.9    226.092    227.747      2.509    616.992    805.333    344.164 
     848.1      1.477      3.924      3.144      2.857      2.814      1.657    769.895    230.791    209.047    235.396    242.156    238.776    957.721    1068.65      215.9    227.352     226.43      2.505    616.992    747.333    352.487 
     848.2      1.445      4.177      3.319      2.896      2.459      1.935    769.915    232.856    215.757     234.02    242.717    238.368    955.588   1068.745      215.9    231.663    227.954      2.523        642        750    360.082 
     848.3      1.401      4.347      3.467      2.938      2.248      1.768    769.755    236.117    223.546    237.333     239.82    238.577    942.992   1067.535      215.9    238.953    233.938      2.498      649.2        761    361.241 
     848.4      1.369      4.358       3.56      2.984      2.158      1.366    769.543    238.999    225.429    243.532    237.233    240.383    927.311   1060.476      215.9    233.642    227.621      2.494        658    740.391    358.822 
     848.5      1.335      4.512      3.593       3.06      2.101      1.264    769.173    242.745    221.054    248.354    240.997    244.675    917.546   1047.418      215.9    231.664    226.863      2.477    681.333    760.957    346.992 
     848.6       1.31      4.597      3.571      3.191      1.999      1.164    768.756     246.86    217.008    247.909    242.763    245.336    915.755   1037.948      215.9    233.266    230.599      2.469    686.602    781.523     324.23 
     848.7      1.284      4.617      3.542      3.394      1.966      1.211    768.198    247.148    214.095    240.391    243.331    241.861    916.515   1039.159      215.9    237.081    224.814      2.481    686.602    787.852    295.558 
     848.8      1.286      4.693      3.519      3.641      2.147      1.443    767.524    244.756     211.25    245.576    260.525     253.05    918.338    1049.38      215.9    234.728    222.471      2.452    688.184    792.598    281.206 
     848.9      1.292      4.701      3.565      3.837      2.517      1.282    767.109    242.248    205.904    260.044    282.334    271.189    920.981   1060.621      215.9    230.753    222.117      2.401    689.766    797.344    285.191 
       849      1.331        4.5      3.661      3.914      2.686      1.157    766.763    239.539    201.485    266.251    293.543    279.897    923.419   1067.779      215.9    226.589    224.388       2.36     692.93    806.836    295.777 
     849.1      1.358      4.109      3.772       3.86      2.522      1.677    766.553    238.818    201.571    265.504    290.905    278.205    925.096   1071.769      215.9    230.652    232.717      2.324    697.676    813.333    307.549 
     849.2      1.362      4.003      3.855      3.719      2.398      1.439    766.568    238.757    204.502    258.298     272.78    265.539    928.034   1073.257      215.9    242.399    244.568      2.313    702.422        818    308.979 
     849.3      1.392      3.847      3.879      3.529      2.443      1.218    766.681    238.345    206.848    249.805    252.028    250.917    937.536   1075.822      215.9    255.124    255.522      2.267    707.168    875.333    314.407 
     849.4      1.407      3.975      3.831      3.375       2.57      1.071    766.793    237.739    206.964    253.074    246.793    249.934    949.708   1081.832      215.9    236.033    241.322      2.253    711.914    873.917     330.58 
     849.5       1.42      4.121      3.708      3.252      2.568      0.904    766.801    238.064    207.522    261.979    256.593    259.286    957.775   1087.619      215.9    228.678     233.08      2.299    715.078      872.5    345.337 
     849.6      1.368      4.234       3.55      3.181      2.398      1.238    766.922    238.917    210.384    268.619    265.272    266.945    960.183   1090.489      215.9    230.784    236.041      2.306    718.242        879    355.736 
     849.7      1.343      4.237      3.416      3.118      2.301      1.273     767.27    240.285    214.671    269.762    261.676    265.719    966.306   1090.142      215.9    239.654    250.895      2.256    721.406        887    354.449 
     849.8      1.335        4.3      3.319      3.055      2.284      1.168    767.993    241.488      217.2    265.211    254.415    259.813    978.117   1090.561      215.9    236.003    277.809      2.224     724.57    884.667    349.246 
     849.9      1.338      4.396      3.252      2.998      2.294      1.097    768.977    240.417    217.812    265.891    253.982    259.937    987.841   1093.128      215.9        239    288.847      2.177    734.063    881.333    347.345 
       850      1.325      4.463      3.196      2.939       2.27      1.164    769.841    240.376    217.248    271.105    255.296      263.2    987.567   1097.624      215.9    245.364    294.736      2.188    737.227        888     352.55 
