~Version
 VERS              .         3.0                           : CWLS LOG ASCII STANDARD - VERSION 3.0
 WRAP              .         NO                            : ONE LINE PER DEPTH STEP
 DLM               .         SPACE                         : DELIMITING CHARACTER(SPACE TAB OR COMMA)
~Well Information
#_______________________________________________________________________________
#
#PARAMETER_NAME    .UNIT     VALUE                         : DESCRIPTION
#_______________________________________________________________________________
STRT               .M        4                             : First reference value
STOP               .M        853                           : Last reference value
STEP               .M        0.1                           : Step increment
NULL               .         -9999                         : Missing value
COMP               .         ICPetroleum                   : Company
WELL               .         307                           : Well name
FLD                .         Karatobe                      : Field
LOC                .                                       : Location
SRVC               .                                       : Service Company
CTRY               .         KZ                            : Country
DATE               .         03-04.12.21                   : Service Date
LATI               .         0                             : Latitude
LONG               .         0                             : Longitude
GDAT               .         WGS 84                        : Geodetic Datum
CNTY               .                                       : 
COORDIN            .                                       : Grid System
COUNT              .         KAZAKHSTAN                    : Country
COUNTRY            .         Kazakhstan                    : 
COUNTRY            .         Kazakhstan                    : 
EREF               .m        138.3                         : 
KB                 .         137.7                         : KB Elevation
ORIGINALWELLNAME   .         307                           : 
PROV               .                                       : Province
RWS                .         -999                          : Def_Rw
STAT               .                                       : 
UWI                .         1_307                         : Unique Well Identifier (UWI)
WST                .         -999                          : Def_Rwt
X                  .km       466769.49                     : 
XCOORD             .                                       : X or East-West Coordinate
Y                  .km       5308384.04                    : 
YCOORD             .                                       : Y or North-South Coordinate
~Parameter Information Block
#_______________________________________________________________________________
#
#PARAMETER_NAME    .UNIT     VALUE                         : DESCRIPTION
#_______________________________________________________________________________
SET                .         Las                           : 
BS                 .MM       215.9                         : Bit Size
DFD                .G/C3     1.15                          : Drilling Fluid Density
TDD                .M        847.0                         : Total Depth Driller
TLFamily_DEPT      .         Measured Depth                : 
TLFamily_PHI_FINAL .         Porosity                      : 
TLFamily_SW_AR     .         Water Saturation              : 
TLFamily_VSH_FINAL .         Shale Volume                  : 
~Curve Information
#_______________________________________________________________________________
#
#LOGNAME           .UNIT     LOG_ID                        : DESCRIPTION
#_______________________________________________________________________________
DEPT               .M                                      : Depth Curve {F}
PHI_FINAL          .m3/m3                                  : Porosity {F}
SW_AR              .m3/m3                                  :  {F}
VSH_FINAL          .unitless                               : Vshale {F}
~Ascii
# ...
420.3      0.08607616 1          0.7046804 
420.4      0.08088335 1          0.7186241 
420.5      0.03732721 1          0.8425289 
420.6      0.03735879 1          0.8423869 
420.7      0.04573299 1          0.8230816 
420.8      0.03077427 1          0.9099173 
420.9      0.03792338 1          0.9007313 
421        0.05185108 1          0.8836216 
421.1      0.05190143 1          0.8834711 
421.2      0.04504071 1          0.8821819 
421.3      0.04212872 1          0.8589932 
421.4      0.03584943 1          0.8401647 
421.5      0.0334562  1          0.8493164 
421.6      0.03348796 1          0.8491734 
421.7      0.04856412 1          0.8343208 
421.8      0.056511   1          0.8472413 
421.9      0.08795617 1          0.7969934 
422        0.1250881  1          0.7595798 
422.1      0.1251319  1          0.7594557 
422.2      0.1543015  1          0.6958653 
422.3      0.2528138  1          0.52941   
422.4      0.2989128  0.8381839  0.4374707 
422.5      0.3403081  0.7275318  0.3523657 
422.6      0.3403237  0.7275003  0.35232   
422.7      0.3884715  0.635345   0.2565089 
422.8      0.4015834  0.60793    0.2286076 
422.9      0.3677465  0.677558   0.2556497 
423        0.3408496  0.7533082  0.3018747 
423.1      0.3408626  0.7532811  0.3018373 
423.2      0.2583183  0.9973983  0.4859886 
423.3      0.1119722  1          0.7907679 
423.4      0.06330416 1          0.8721132 
423.5      0.02567812 1          0.9799283 
423.6      0.02573513 1          0.9797562 
423.7      0.05697722 1          0.8596674 
423.8      0.05129297 1          0.8375985 
423.9      0.02641448 1          0.9001554 
424        0.03833868 1          0.8550834 
424.1      0.03838685 1          0.854939  
424.2      0.0348408  1          0.8748663 
424.3      0.06851728 1          0.7754656 
424.4      0.0843766  1          0.7472831 
424.5      0.05117132 1          0.8635034 
424.6      0.05122249 1          0.8633572 
424.7      0.05882789 1          0.8598784 
424.8      0.04857822 1          0.9165365 
424.9      0.04385152 1          0.9249359 
425        0.0677534  1          0.8486997 
425.1      0.06780081 1          0.8485569 
425.2      0.08299103 1          0.7988586 
425.3      0.09796961 1          0.7365018 
425.4      0.1019903  1          0.7412137 
425.5      0.1084725  1          0.7160526 
425.6      0.1085109  1          0.7159379 
425.7      0.1319473  1          0.6377515 
425.8      0.1255308  1          0.6092198 
425.9      0.1307074  1          0.6282992 
426        0.08929823 1          0.7234956 
426.1      0.0893397  1          0.7233794 
426.2      0.1151228  1          0.6496349 
426.3      0.08736157 1          0.7457154 
426.4      0.09264288 1          0.7419524 
426.5      0.1170637  1          0.6870504 
426.6      0.1171     1          0.6869417 
426.7      0.147948   1          0.5881788 
426.8      0.165852   1          0.5527933 
426.9      0.2032682  1          0.4575929 
427        0.2131515  1          0.4607122 
427.1      0.2131742  1          0.4606476 
427.2      0.2372227  1          0.4686205 
427.3      0.2486116  1          0.4798397 
427.4      0.2458689  1          0.5132729 
427.5      0.2499394  1          0.5261108 
427.6      0.2499659  1          0.5260341 
427.7      0.2782064  0.975956   0.5273886 
427.8      0.3871054  0.708134   0.3237195 
427.9      0.4390168  0.6358699  0.2304836 
428        0.4905765  0.5648752  0.1123846 
428.1      0.4905801  0.5648713  0.112374  
428.2      0.5169267  0.5168395  0.06226344
428.3      0.53978    0.4999464  0.04214668
428.4      0.5293322  0.5225191  0.04943281
428.5      0.499614   0.5668223  0.06084883
428.6      0.4996158  0.5668204  0.06084384
428.7      0.477861   0.5923991  0.09850249
428.8      0.3689552  0.7762419  0.2245122 
428.9      0.2785681  1          0.344413  
429        0.2067576  1          0.458468  
429.1      0.2067802  1          0.4584039 
429.2      0.1838681  1          0.4805266 
429.3      0.1607714  1          0.5428121 
429.4      0.1509209  1          0.586574  
429.5      0.1448105  1          0.5955742 
429.6      0.1448418  1          0.595484  
429.7      0.1334738  1          0.624225  
429.8      0.1574329  1          0.5915376 
429.9      0.1753942  1          0.5814427 
430        0.1969121  1          0.6005109 
430.1      0.1969443  1          0.6004198 
430.2      0.2093147  1          0.5977309 
430.3      0.2541106  1          0.4787888 
430.4      0.264382   1          0.4563055 
430.5      0.2117883  1          0.5167457 
430.6      0.211815   1          0.5166708 
430.7      0.2054217  1          0.5371373 
430.8      0.1773569  1          0.5961931 
430.9      0.1375071  1          0.6427868 
431        0.1279769  1          0.6927973 
431.1      0.1280157  1          0.6926877 
431.2      0.123114   1          0.6894052 
431.3      0.1278739  1          0.6460091 
431.4      0.1412916  1          0.6330066 
431.5      0.1790021  1          0.5781102 
431.6      0.1790311  1          0.5780235 
431.7      0.1982409  1          0.5043893 
431.8      0.1025491  1          0.4503948 
431.9      0.1070007  1          0.4087982 
432        0.1194499  1          0.4466921 
432.1      0.1194723  1          0.4466301 
432.2      0.1277193  1          0.4963471 
432.3      0.1344037  1          0.6710281 
432.4      0.07227787 1          0.8409417 
432.5      0.05924604 1          0.8612972 
432.6      0.05929731 1          0.8611522 
432.7      0.03652781 1          0.8921649 
432.8      0.09721335 1          0.6983377 
432.9      0.0820571  1          0.7233008 
433        0.09805826 1          0.6293648 
433.1      0.09809291 1          0.6292683 
433.2      0.0803007  1          0.6323029 
433.3      0.08018562 1          0.4865023 
433.4      0.08212981 1          0.4747326 
433.5      0.09685431 1          0.4648073 
433.6      0.09687678 1          0.4647422 
433.7      0.05240345 1          0.5596547 
433.8      0.1030325  1          0.6350714 
433.9      0.1338006  1          0.5735385 
434        0.1422794  1          0.5385336 
434.1      0.1423078  1          0.5384547 
434.2      0.1577081  1          0.5266827 
434.3      0.1774321  1          0.4560322 
434.4      0.1641435  1          0.4750413 
434.5      0.1770593  1          0.4439147 
434.6      0.1770799  1          0.4438535 
434.7      0.160558   1          0.4719144 
434.8      0.1586137  1          0.4928219 
434.9      0.1436113  1          0.5431067 
435        0.1252692  1          0.5961863 
435.1      0.1252993  1          0.5960966 
435.2      0.08912476 1          0.6982006 
435.3      0.1293246  1          0.5841233 
435.4      0.1295903  1          0.5701559 
435.5      0.1317804  1          0.5945489 
435.6      0.1318113  1          0.5944593 
435.7      0.1298889  1          0.6298824 
435.8      0.1397216  1          0.6532653 
435.9      0.13811    1          0.6820884 
436        0.1202974  1          0.7270302 
436.1      0.1203381  1          0.7269139 
436.2      0.1536332  1          0.6846752 
436.3      0.2320601  1          0.5316809 
436.4      0.2614311  1          0.4769639 
436.5      0.2766549  1          0.4762434 
436.6      0.2766781  1          0.4761762 
436.7      0.3217857  0.9370489  0.3819457 
436.8      0.3834251  0.7387781  0.2368127 
436.9      0.3921601  0.6895365  0.2421484 
437        0.3600377  0.75302    0.2909935 
437.1      0.3600501  0.7529955  0.290958  
437.2      0.3289624  0.8581544  0.3756336 
437.3      0.306072   0.9760805  0.4609127 
437.4      0.3272863  0.9236062  0.4257086 
437.5      0.3462359  0.8656975  0.3830358 
437.6      0.3462532  0.8656566  0.3829852 
437.7      0.3612144  0.8342955  0.3602692 
437.8      0.3940866  0.7235383  0.2567211 
437.9      0.3890409  0.6878206  0.2661306 
438        0.3639464  0.7100824  0.3015822 
438.1      0.3639592  0.7100589  0.3015451 
438.2      0.3340815  0.7908058  0.3860886 
438.3      0.3084948  0.8747129  0.4466652 
438.4      0.3303922  0.7984999  0.3894167 
