~Version
 VERS              .         3.0                           : CWLS LOG ASCII STANDARD - VERSION 3.0
 WRAP              .         NO                            : ONE LINE PER DEPTH STEP
 DLM               .         SPACE                         : DELIMITING CHARACTER(SPACE TAB OR COMMA)
~Well Information
#_______________________________________________________________________________
#
#PARAMETER_NAME    .UNIT     VALUE                         : DESCRIPTION
#_______________________________________________________________________________
STRT               .M        4                             : First reference value
STOP               .M        853                           : Last reference value
STEP               .M        0.1                           : Step increment
NULL               .         -9999                         : Missing value
COMP               .         ICPetroleum                   : Company
WELL               .         307                           : Well name
FLD                .         Karatobe                      : Field
LOC                .                                       : Location
SRVC               .                                       : Service Company
CTRY               .         KZ                            : Country
DATE               .         03-04.12.21                   : Service Date
LATI               .         0                             : Latitude
LONG               .         0                             : Longitude
GDAT               .         WGS 84                        : Geodetic Datum
CNTY               .                                       : 
COORDIN            .                                       : Grid System
COUNT              .         KAZAKHSTAN                    : Country
COUNTRY            .         Kazakhstan                    : 
COUNTRY            .         Kazakhstan                    : 
EREF               .m        138.3                         : 
KB                 .         137.7                         : KB Elevation
ORIGINALWELLNAME   .         307                           : 
PROV               .                                       : Province
RWS                .         -999                          : Def_Rw
STAT               .                                       : 
UWI                .         1_307                         : Unique Well Identifier (UWI)
WST                .         -999                          : Def_Rwt
X                  .km       466769.49                     : 
XCOORD             .                                       : X or East-West Coordinate
Y                  .km       5308384.04                    : 
YCOORD             .                                       : Y or North-South Coordinate
~Parameter Information Block
#_______________________________________________________________________________
#
#PARAMETER_NAME    .UNIT     VALUE                         : DESCRIPTION
#_______________________________________________________________________________
SET                .         Las                           : 
BS                 .MM       215.9                         : Bit Size
DFD                .G/C3     1.15                          : Drilling Fluid Density
TDD                .M        847.0                         : Total Depth Driller
TLFamily_DEPT      .         Measured Depth                : 
TLFamily_PHI_FINAL .         Porosity                      : 
TLFamily_SW_AR     .         Water Saturation              : 
TLFamily_VSH_FINAL .         Shale Volume                  : 
~Curve Information
#_______________________________________________________________________________
#
#LOGNAME           .UNIT     LOG_ID                        : DESCRIPTION
#_______________________________________________________________________________
DEPT               .M                                      : Depth Curve {F}
PHI_FINAL          .m3/m3                                  : Porosity {F}
SW_AR              .m3/m3                                  :  {F}
VSH_FINAL          .unitless                               : Vshale {F}
~Ascii
# ...
820.7      0.111348   -9999      0         
820.8      0.04339321 -9999      0         
820.9      0.04419465 -9999      0         
821        0.05722933 -9999      0         
821.1      0.02935878 -9999      0         
821.2      0.04382527 -9999      0         
821.3      0.05737089 -9999      0         
821.4      0.01330141 -9999      0         
821.5      0.04335262 -9999      0         
821.6      0.05639743 -9999      0         
821.7      0.02856643 -9999      0         
821.8      0.02905909 -9999      0         
821.9      0.0438171  -9999      0         
822        0.0127934  -9999      0         
822.1      0.02873062 -9999      0         
822.2      0.04329583 -9999      0         
822.3      0.04276302 -9999      0         
822.4      0.05685915 -9999      0         
822.5      0.0134342  -9999      0         
822.6      0.04328772 -9999      0         
822.7      0.04332016 -9999      0         
822.8      0.04407126 -9999      0         
822.9      0.02976518 -9999      0         
823        0.0436945  -9999      0         
823.1      0.0432634  -9999      0         
823.2      0.02948452 -9999      0         
823.3      0.01251017 -9999      0         
823.4      0.01193792 -9999      0         
823.5      0.0276105  -9999      0         
823.6      0.04301269 -9999      0         
823.7      0          -9999      0         
823.8      0.04373534 -9999      0         
823.9      0.05647038 -9999      0         
824        0.02819952 -9999      0         
824.1      0.02790021 -9999      0         
824.2      0.05584009 -9999      0         
824.3      0.04239442 -9999      0         
824.4      0.009358792 -9999      0         
824.5      0.04237046 -9999      0         
824.6      0.02810297 -9999      0         
824.7      0.04286759 -9999      0         
824.8      0.0565142  -9999      0         
824.9      0.02899145 -9999      0         
825        0.02821883 -9999      0         
825.1      0.05550357 -9999      0         
825.2      0.02816089 -9999      0         
825.3      0.02791952 -9999      0         
825.4      0.06850824 -9999      0         
825.5      0.06818733 -9999      0         
825.6      0.04273891 -9999      0         
825.7      0.04198833 -9999      0         
825.8      0.04245037 -9999      0         
825.9      0.04252238 -9999      0         
826        0.009314117 -9999      0         
826.1      0.02763947 -9999      0         
826.2      0.0420042  -9999      0         
826.3      0.02817055 -9999      0         
826.4      0.04288369 -9999      0         
826.5      0.04317432 -9999      0         
826.6      0.02855678 -9999      0         
826.7      0.04273891 -9999      0         
826.8      0.04347449 -9999      0         
826.9      0.05685177 -9999      0         
827        0.05647038 -9999      0         
827.1      0.02762982 -9999      0         
827.2      0.04240241 -9999      0         
827.3      0.0428354  -9999      0         
827.4      0.01016531 -9999      0         
827.5      0          -9999      0         
827.6      0.04297234 -9999      0         
827.7      0.04229066 -9999      0         
827.8      0.04210749 -9999      0         
827.9      0.02712737 -9999      0         
828        0.02658544 -9999      0         
828.1      0.02766845 -9999      0         
828.2      0.04239442 -9999      0         
828.3      0.04209159 -9999      0         
828.4      0.02746561 -9999      0         
828.5      0.04256242 -9999      0         
828.6      0.009625318 -9999      0         
828.7      0.0272337  -9999      0         
828.8      0.02748493 -9999      0         
828.9      0.04149815 -9999      0         
829        0          -9999      0         
829.1      0.04241839 -9999      0         
829.2      0.02840228 -9999      0         
829.3      0.02843125 -9999      0         
829.4      0.02939746 -9999      0         
829.5      0.06886614 -9999      0         
829.6      0          -9999      0         
829.7      0.04267467 -9999      0         
829.8      0.04159273 -9999      0         
829.9      0.05571089 -9999      0         
830        0.02855678 -9999      0         
830.1      0.02793883 -9999      0         
830.2      0.01065301 -9999      0         
830.3      0.04302076 -9999      0         
830.4      0.1208879  -9999      0         
830.5      0.1212573  -9999      0         
830.6      0.02892381 -9999      0         
830.7      0.04300461 -9999      0         
830.8      0          -9999      0         
830.9      0.02789055 -9999      0         
831        0.02766845 -9999      0         
831.1      0.0558329  -9999      0         
831.2      0.02830572 -9999      0         
831.3      0.02815124 -9999      0         
831.4      0.02880789 -9999      0         
831.5      0.01379098 -9999      0         
831.6      0.01315493 -9999      0         
831.7      0.04445877 -9999      0         
831.8      0.04423584 -9999      0         
831.9      0.04376803 -9999      0         
832        0.01322157 -9999      0         
832.1      0.04440089 -9999      0         
832.2      0.04450843 -9999      0         
832.3      0.04457471 -9999      0         
832.4      0.01472411 -9999      0         
832.5      0.0146556  -9999      0         
832.6      0          -9999      0         
832.7      0.01975209 -9999      0         
832.8      0.03681907 -9999      0         
832.9      0.06429783 -9999      0         
833        0.03923728 -9999      0         
833.1      0.02551342 -9999      0         
833.2      0.00858777 -9999      0         
833.3      0.0236749  -9999      0         
833.4      0.0371588  -9999      0         
833.5      0.04876876 -9999      0         
833.6      0.04555306 -9999      0         
833.7      0.07050026 -9999      0         
833.8      0.04390715 -9999      0         
833.9      0.04315004 -9999      0         
834        0.04255441 -9999      0         
834.1      0.05591925 -9999      0         
834.2      0.05615764 -9999      0         
834.3      0.06824727 -9999      0         
834.4      0.05581134 -9999      0         
834.5      0.05595528 -9999      0         
834.6      0.05597691 -9999      0         
834.7      0.05551784 -9999      0         
834.8      0.06786285 -9999      0         
834.9      0.04194073 -9999      0         
835        0.04315004 -9999      0         
835.1      0          -9999      0         
835.2      0.01095053 -9999      0         
835.3      0.02816089 -9999      0         
835.4      0.02818021 -9999      0         
835.5      0.01103505 -9999      0         
835.6      0.01048176 -9999      0         
835.7      0.01082336 -9999      0         
835.8      0          -9999      0         
835.9      0.01019422 -9999      0         
836        0.0271467  -9999      0         
836.1      0.04275499 -9999      0         
836.2      0.04264258 -9999      0         
836.3      0.01106317 -9999      0         
836.4      0.02917507 -9999      0         
836.5      0.02817055 -9999      0         
836.6      0.04293204 -9999      0         
836.7      0.04298848 -9999      0         
836.8      0.02871129 -9999      0         
836.9      0.04371084 -9999      0         
837        0.04356403 -9999      0         
837.1      0.02874027 -9999      0         
837.2      0.02889483 -9999      0         
837.3      0.04343384 -9999      0         
837.4      0.02891415 -9999      0         
837.5      0.0105675  -9999      0         
837.6      0.02810297 -9999      0         
837.7      0.04337697 -9999      0         
837.8      0.01063878 -9999      0         
837.9      0.02877891 -9999      0         
838        0.0443761  -9999      0         
838.1      0.04393994 -9999      0         
838.2      0.01177289 -9999      0         
838.3      0.04292398 -9999      0         
838.4      0.02901078 -9999      0         
838.5      0.04292398 -9999      0         
838.6      0.04415349 -9999      0         
838.7      0.01135711 -9999      0         
838.8      0.04310961 -9999      0         
