~Version
 VERS              .         3.0                           : CWLS LOG ASCII STANDARD - VERSION 3.0
 WRAP              .         NO                            : ONE LINE PER DEPTH STEP
 DLM               .         SPACE                         : DELIMITING CHARACTER(SPACE TAB OR COMMA)
~Well Information
#_______________________________________________________________________________
#
#PARAMETER_NAME    .UNIT     VALUE                         : DESCRIPTION
#_______________________________________________________________________________
STRT               .M        4                             : First reference value
STOP               .M        853                           : Last reference value
STEP               .M        0.1                           : Step increment
NULL               .         -9999                         : Missing value
COMP               .         ICPetroleum                   : Company
WELL               .         307                           : Well name
FLD                .         Karatobe                      : Field
LOC                .                                       : Location
SRVC               .                                       : Service Company
CTRY               .         KZ                            : Country
DATE               .         03-04.12.21                   : Service Date
LATI               .         0                             : Latitude
LONG               .         0                             : Longitude
GDAT               .         WGS 84                        : Geodetic Datum
CNTY               .                                       : 
COORDIN            .                                       : Grid System
COUNT              .         KAZAKHSTAN                    : Country
COUNTRY            .         Kazakhstan                    : 
COUNTRY            .         Kazakhstan                    : 
EREF               .m        138.3                         : 
KB                 .         137.7                         : KB Elevation
ORIGINALWELLNAME   .         307                           : 
PROV               .                                       : Province
RWS                .         -999                          : Def_Rw
STAT               .                                       : 
UWI                .         1_307                         : Unique Well Identifier (UWI)
WST                .         -999                          : Def_Rwt
X                  .km       466769.49                     : 
XCOORD             .                                       : X or East-West Coordinate
Y                  .km       5308384.04                    : 
YCOORD             .                                       : Y or North-South Coordinate
~Parameter Information Block
#_______________________________________________________________________________
#
#PARAMETER_NAME    .UNIT     VALUE                         : DESCRIPTION
#_______________________________________________________________________________
SET                .         Las                           : 
BS                 .MM       215.9                         : Bit Size
DFD                .G/C3     1.15                          : Drilling Fluid Density
TDD                .M        847.0                         : Total Depth Driller
TLFamily_DEPT      .         Measured Depth                : 
TLFamily_PHI_FINAL .         Porosity                      : 
TLFamily_SW_AR     .         Water Saturation              : 
TLFamily_VSH_FINAL .         Shale Volume                  : 
~Curve Information
#_______________________________________________________________________________
#
#LOGNAME           .UNIT     LOG_ID                        : DESCRIPTION
#_______________________________________________________________________________
DEPT               .M                                      : Depth Curve {F}
PHI_FINAL          .m3/m3                                  : Porosity {F}
SW_AR              .m3/m3                                  :  {F}
VSH_FINAL          .unitless                               : Vshale {F}
~Ascii
# ...
565.9      0.133839   1          0.616993  
566        0.13387    1          0.6169061 
566.1      0.1083249  1          0.6379032 
566.2      0.1337227  1          0.6021592 
566.3      0.1337527  1          0.6020752 
566.4      0.1176214  1          0.6182598 
566.5      0.1176526  1          0.6181727 
566.6      0.1373123  1          0.5389466 
566.7      0.125459   1          0.5765398 
566.8      0.1254875  1          0.5764605 
566.9      0.1298948  1          0.5788757 
567        0.1299234  1          0.5787957 
567.1      0.1192099  1          0.5855321 
567.2      0.1558248  1          0.5195313 
567.3      0.1558496  1          0.5194619 
567.4      0.1519037  1          0.5027345 
567.5      0.1519276  1          0.5026681 
567.6      0.1537983  1          0.5018126 
567.7      0.1695839  1          0.4668858 
567.8      0.1696056  1          0.4668253 
567.9      0.1742604  1          0.4572163 
568        0.1742814  1          0.4571576 
568.1      0.1750286  1          0.4309666 
568.2      0.1646632  1          0.4486637 
568.3      0.164684   1          0.4486063 
568.4      0.1866778  1          0.3994038 
568.5      0.1866955  1          0.3993544 
568.6      0.1856357  1          0.3664303 
568.7      0.2254662  1          0.2744022 
568.8      0.2254771  1          0.2743718 
568.9      0.2926119  1          0.1746583 
569        0.2926175  1          0.1746414 
569.1      0.3073949  1          0.1263663 
569.2      0.3293247  1          0.08527209
569.3      0.329327   1          0.08526517
569.4      0.3139259  1          0.06217052
569.5      0.3139276  1          0.06216581
569.6      0.3260054  1          0.05414281
569.7      0.3320667  1          0.04086669
569.8      0.3320677  1          0.04086381
569.9      0.3686037  1          0.03747314
570        0.3686046  1          0.03747053
570.1      0.3780645  1          0.03103019
570.2      0.380215   1          0.03569484
570.3      0.3802159  1          0.03569238
570.4      0.3652343  1          0.0259825 
570.5      0.3652349  1          0.02598077
570.6      0.3577236  1          0.0258325 
570.7      0.3583709  1          0.02325504
570.8      0.3583715  1          0.02325352
570.9      0.3611218  1          0.03113617
571        0.3611225  1          0.03113406
571.1      0.3737297  1          0.03682775
571.2      0.3687414  1          0.03503338
571.3      0.3687423  1          0.03503097
571.4      0.3646657  1          0.04222471
571.5      0.3646667  1          0.04222171
571.6      0.3698925  1          0.04034669
571.7      0.3531614  1          0.07754339
571.8      0.3531635  1          0.07753724
571.9      0.338457   1          0.1294527 
572        0.3384609  1          0.1294411 
572.1      0.3097238  1          0.1794968 
572.2      0.2144453  1          0.3974079 
572.3      0.2144616  1          0.3973591 
572.4      0.08104839 1          0.7270478 
572.5      0.08108529 1          0.7269408 
572.6      0.01581977 1          0.8945097 
572.7      0.01700016 1          0.903343  
572.8      0.01702308 1          0.9032018 
572.9      0.0169315  1          0.8758789 
573        0.01695179 1          0.8757429 
573.1      0.01990212 1          0.8600199 
573.2      0.01533758 1          0.8007567 
573.3      0.01535575 1          0.8006355 
573.4      0.0004689594 1          0.7227251 
573.5      0.0004753854 1          0.7226192 
573.6      0.04052215 1          0.5373791 
573.7      0.05625246 1          0.5113675 
573.8      0.05627537 1          0.5112997 
573.9      0.1119473  1          0.4886848 
574        0.1119689  1          0.4886211 
574.1      0.09094162 1          0.5854454 
574.2      0.1200834  1          0.572212  
574.3      0.1201098  1          0.5721336 
574.4      0.1170336  1          0.5803756 
574.5      0.1170605  1          0.5802959 
574.6      0.1023875  1          0.5839666 
574.7      0.03493485 1          0.7076446 
574.8      0.03497193 1          0.7075413 
574.9      0.0392896  1          0.7591398 
575        0.03932971 1          0.7590271 
575.1      0.03593144 1          0.8275624 
575.2      0.005932241 1          1         
575.3      0.005932241 1          1         
575.4      0          1          1         
575.5      0          1          1         
575.6      0.00136639 1          0.9606729 
575.7      0.0045314  1          0.9510426 
575.8      0.004538266 1          0.9508916 
575.9      0.001894254 1          0.9808494 
576        0.001919732 1          0.9806923 
576.1      0.00779059 1          0.9096767 
576.2      0          1          1         
576.3      0          1          1         
576.4      0.003398164 1          1         
576.5      0.003398164 1          1         
576.6      0.002063934 1          1         
576.7      0.000891928 1          1         
576.8      0.000891928 1          1         
576.9      0.00518202 1          1         
577        0.00518202 1          1         
577.1      0.002053849 1          1         
577.2      0          1          1         
577.3      0          1          1         
577.4      0.002943333 1          0.9570911 
577.5      0.002950247 1          0.956939  
577.6      0.01765255 1          0.8677415 
577.7      0.01763395 1          0.8788854 
577.8      0.01765421 1          0.8787492 
577.9      0          1          0.9723312 
578        0          1          0.972176  
578.1      0.002209487 1          0.8819543 
578.2      0.002299216 1          0.9227334 
578.3      0.002307697 1          0.9225887 
578.4      0.007146862 1          0.8314643 
578.5      0.007162701 1          0.8313375 
578.6      0.02820034 1          0.749164  
578.7      0.04580839 1          0.6980792 
578.8      0.04584223 1          0.6979783 
578.9      0.1024827  1          0.5885703 
579        0.10251    1          0.5884894 
579.1      0.120896   1          0.5268607 
579.2      0.1225615  1          0.5140249 
579.3      0.1225845  1          0.5139568 
579.4      0.1207481  1          0.4916191 
579.5      0.1207696  1          0.4915551 
579.6      0.115911   1          0.4934939 
579.7      0.12747    1          0.4414477 
579.8      0.1274888  1          0.4413919 
579.9      0.1289193  1          0.4238097 
580        0.1289371  1          0.4237568 
580.1      0.1267815  1          0.4249261 
580.2      0.120351   1          0.4439823 
580.3      0.1203698  1          0.443926  
580.4      0.1243499  1          0.4416186 
580.5      0.1243685  1          0.4415629 
580.6      0.1367332  1          0.4076985 
580.7      0.1141513  1          0.4627826 
580.8      0.1141711  1          0.4627233 
580.9      0.1236241  1          0.4407789 
581        0.1236427  1          0.4407234 
581.1      0.1332015  1          0.4082351 
581.2      0.1161317  1          0.4480883 
581.3      0.1161507  1          0.4480314 
581.4      0.1433292  1          0.3961474 
581.5      0.1433456  1          0.3960989 
581.6      0.135074   1          0.4045811 
581.7      0.1327118  1          0.3948508 
581.8      0.132728   1          0.3948025 
581.9      0.1316035  1          0.4235658 
582        0.1316213  1          0.4235129 
582.1      0.112226   1          0.4703221 
582.2      0.09878025 1          0.5255044 
582.3      0.09880372 1          0.5254345 
582.4      0.07642116 1          0.6217157 
582.5      0.07645036 1          0.6216287 
582.6      0.06831479 1          0.6398535 
582.7      0.06737242 1          0.6292167 
582.8      0.06740195 1          0.6291286 
582.9      0.06860551 1          0.6520476 
583        0.06863625 1          0.6519552 
583.1      0.09286029 1          0.5735015 
583.2      0.1351104  1          0.4862933 
583.3      0.1351317  1          0.4862303 
583.4      0.1613354  1          0.4607506 
583.5      0.1613558  1          0.4606917 
583.6      0.1225433  1          0.5759209 
583.7      0.1178216  1          0.5530174 
583.8      0.1178481  1          0.5529428 
583.9      0.1259996  1          0.5469521 
584        0.1260261  1          0.5468785 
