~Version
 VERS              .         3.0                           : CWLS LOG ASCII STANDARD - VERSION 3.0
 WRAP              .         NO                            : ONE LINE PER DEPTH STEP
 DLM               .         SPACE                         : DELIMITING CHARACTER(SPACE TAB OR COMMA)
~Well Information
#_______________________________________________________________________________
#
#PARAMETER_NAME    .UNIT     VALUE                         : DESCRIPTION
#_______________________________________________________________________________
STRT               .M        4                             : First reference value
STOP               .M        853                           : Last reference value
STEP               .M        0.1                           : Step increment
NULL               .         -9999                         : Missing value
COMP               .         ICPetroleum                   : Company
WELL               .         307                           : Well name
FLD                .         Karatobe                      : Field
LOC                .                                       : Location
SRVC               .                                       : Service Company
CTRY               .         KZ                            : Country
DATE               .         03-04.12.21                   : Service Date
LATI               .         0                             : Latitude
LONG               .         0                             : Longitude
GDAT               .         WGS 84                        : Geodetic Datum
CNTY               .                                       : 
COORDIN            .                                       : Grid System
COUNT              .         KAZAKHSTAN                    : Country
COUNTRY            .         Kazakhstan                    : 
COUNTRY            .         Kazakhstan                    : 
EREF               .m        138.3                         : 
KB                 .         137.7                         : KB Elevation
ORIGINALWELLNAME   .         307                           : 
PROV               .                                       : Province
RWS                .         -999                          : Def_Rw
STAT               .                                       : 
UWI                .         1_307                         : Unique Well Identifier (UWI)
WST                .         -999                          : Def_Rwt
X                  .km       466769.49                     : 
XCOORD             .                                       : X or East-West Coordinate
Y                  .km       5308384.04                    : 
YCOORD             .                                       : Y or North-South Coordinate
~Parameter Information Block
#_______________________________________________________________________________
#
#PARAMETER_NAME    .UNIT     VALUE                         : DESCRIPTION
#_______________________________________________________________________________
SET                .         Las                           : 
BS                 .MM       215.9                         : Bit Size
DFD                .G/C3     1.15                          : Drilling Fluid Density
TDD                .M        847.0                         : Total Depth Driller
TLFamily_DEPT      .         Measured Depth                : 
TLFamily_PHI_FINAL .         Porosity                      : 
TLFamily_SW_AR     .         Water Saturation              : 
TLFamily_VSH_FINAL .         Shale Volume                  : 
~Curve Information
#_______________________________________________________________________________
#
#LOGNAME           .UNIT     LOG_ID                        : DESCRIPTION
#_______________________________________________________________________________
DEPT               .M                                      : Depth Curve {F}
PHI_FINAL          .m3/m3                                  : Porosity {F}
SW_AR              .m3/m3                                  :  {F}
VSH_FINAL          .unitless                               : Vshale {F}
~Ascii
# ...
693.3      0.07858711 1          0.374464  
693.4      0.09167732 1          0.379957  
693.5      0.09313416 1          0.3938776 
693.6      0.08896029 1          0.3991951 
693.7      0.07847105 1          0.4208587 
693.8      0.07673303 1          0.4227677 
693.9      0.06083793 1          0.4528109 
694        0.06018095 1          0.4530448 
694.1      0.04248763 1          0.4832023 
694.2      0.05675    1          0.46471   
694.3      0.05066904 1          0.4713853 
694.4      0.0567518  1          0.4427041 
694.5      0.05601222 1          0.4472185 
694.6      0.06742645 1          0.4204102 
694.7      0.06870773 1          0.440054  
694.8      0.06566489 1          0.4618662 
694.9      0.05268394 1          0.4805345 
695        0.06857105 1          0.4754656 
695.1      0.07389612 1          0.4572667 
695.2      0.06764495 1          0.4615115 
695.3      0.0789171  1          0.4249071 
695.4      0.08983171 1          0.3773108 
695.5      0.1022296  1          0.3452053 
695.6      0.1064636  1          0.337185  
695.7      0.1082818  1          0.3503685 
695.8      0.09707032 1          0.3736228 
695.9      0.08360429 1          0.3726775 
696        0.07548511 1          0.3926892 
696.1      0.06496444 1          0.4031267 
696.2      0.05867657 1          0.4141595 
696.3      0.06399511 1          0.4348954 
696.4      0.06096433 1          0.4567965 
696.5      0.06479809 1          0.4573843 
696.6      0.06766789 1          0.4315893 
696.7      0.06314655 1          0.4489618 
696.8      0.0960023  1          0.3982155 
696.9      0.08672719 1          0.4188426 
697        0.08293778 1          0.4020325 
697.1      0.09533861 1          0.3739381 
697.2      0.09333994 1          0.3663042 
697.3      0.0881218  1          0.3843182 
697.4      0.09198365 1          0.3747798 
697.5      0.08880356 1          0.3757279 
697.6      0.09879076 1          0.3590617 
697.7      0.09885409 1          0.349556  
697.8      0.07826661 1          0.3675534 
697.9      0.07619178 1          0.3526079 
698        0.07701457 1          0.3458107 
698.1      0.07493384 1          0.3748851 
698.2      0.08119875 1          0.3415843 
698.3      0.07646438 1          0.339681  
698.4      0.06260455 1          0.3688048 
698.5      0.08585238 1          0.3677618 
698.6      0.07706759 1          0.4076303 
698.7      0.09128129 1          0.3808059 
698.8      0.09093132 1          0.3564934 
698.9      0.0921654  1          0.3602979 
699        0.08753732 1          0.3580333 
699.1      0.08733828 1          0.3527099 
699.2      0.08802478 1          0.3502669 
699.3      0.08277813 1          0.3462146 
699.4      0.06789387 1          0.3468209 
699.5      0.06952982 1          0.3172585 
699.6      0.06201977 1          0.3227927 
699.7      0.04413996 1          0.3415843 
699.8      0.04783091 1          0.3310349 
699.9      0.0573713  1          0.3225977 
700        0.05193075 1          0.3350955 
700.1      0.05937514 1          0.3657844 
700.2      0.06394188 1          0.3722578 
700.3      0.06030509 1          0.4086225 
700.4      0.05685361 1          0.4423579 
700.5      0.0616598  1          0.4660168 
700.6      0.06921602 1          0.4583258 
700.7      0.04501072 1          0.4746238 
700.8      0.07155868 1          0.4504758 
700.9      0.07275859 1          0.4619845 
701        0.05280705 1          0.5041161 
701.1      0.04661775 1          0.5217423 
701.2      0.02724724 1          0.530309  
701.3      0.02096575 1          0.4976624 
701.4      0.02234955 1          0.4955635 
701.5      0.02861241 1          0.484053  
701.6      0.03949684 1          0.4680407 
701.7      0.03911641 1          0.4754656 
701.8      0.0523514  1          0.4345527 
701.9      0.04587877 1          0.4382159 
702        0.03846298 1          0.4578549 
702.1      0.02486204 1          0.4924864 
702.2      0.02223223 1          0.4996428 
702.3      0.02963932 1          0.5239078 
702.4      0.02082767 1          0.5536213 
702.5      0.02394968 1          0.5305662 
702.6      0.01361866 1          0.5542815 
702.7      0.04136856 1          0.5010071 
702.8      0.03159676 1          0.4822312 
702.9      0.03408153 1          0.473783  
703        0.04539489 1          0.4293175 
703.1      0.06119416 1          0.3855997 
703.2      0.05534919 1          0.3654726 
703.3      0.06718459 1          0.3312324 
703.4      0.05272707 1          0.3363882 
703.5      0.05709164 1          0.3175485 
703.6      0.056845   1          0.3423873 
703.7      0.05359784 1          0.3698494 
703.8      0.05216968 1          0.3682831 
703.9      0.03576376 1          0.3800631 
704        0.06208548 1          0.3745693 
704.1      0.05071019 1          0.4252454 
704.2      0.04215688 1          0.4563265 
704.3      0.05890094 1          0.4433968 
704.4      0.08918511 1          0.4224305 
704.5      0.08494939 1          0.4108323 
704.6      0.08542642 1          0.4052103 
704.7      0.0797115  1          0.3906411 
704.8      0.04749651 1          0.4181718 
704.9      0.04257445 1          0.4249071 
705        0.05311478 1          0.4330696 
705.1      0.06629095 1          0.4142706 
705.2      0.06947193 1          0.4034553 
705.3      0.06418615 1          0.4494273 
705.4      0.04993934 1          0.4618662 
705.5      0.06299801 1          0.4354669 
705.6      0.06129758 1          0.4312481 
705.7      0.05508845 1          0.4503593 
705.8      0.0433334  1          0.4563265 
705.9      0.04691188 1          0.4681599 
706        0.04167228 1          0.4559743 
706.1      0.03990205 1          0.4519928 
706.2      0.05317666 1          0.4408596 
706.3      0.06393014 1          0.4282974 
706.4      0.07472243 1          0.4136039 
706.5      0.06465698 1          0.4138261 
706.6      0.05694835 1          0.4260355 
706.7      0.03834946 1          0.4152718 
706.8      0.03218941 1          0.4382159 
706.9      0.03636772 1          0.4500096 
707        0.02758099 1          0.4298848 
707.1      0          1          0.4530448 
707.2      0.02311228 1          0.4490782 
707.3      0.01647571 1          0.4516425 
707.4      0.02827651 1          0.4075201 
707.5      0.01753776 1          0.4480315 
707.6      0.03955885 1          0.4131598 
707.7      0.04942095 1          0.3716287 
707.8      0.05257253 1          0.3329135 
707.9      0.0548204  1          0.2972708 
708        0.06989746 1          0.2600088 
708.1      0.06448624 1          0.2564066 
708.2      0.06843071 1          0.2809955 
708.3      0.07098098 1          0.2923246 
708.4      0.06288126 1          0.3038638 
708.5      0.06262107 1          0.3207483 
708.6      0.06503034 1          0.3145571 
708.7      0.08552318 1          0.3388813 
708.8      0.07961095 1          0.3409827 
708.9      0.06688897 1          0.3482377 
709        0.064394   1          0.3667203 
709.1      0.07373615 1          0.354957  
709.2      0.06802301 1          0.3383819 
709.3      0.06121591 1          0.3535262 
709.4      0.04538054 1          0.3553664 
709.5      0.03825993 1          0.3595765 
709.6      0.03899262 1          0.3370854 
709.7      0.03309875 1          0.3471243 
709.8      0.02617254 1          0.3506734 
709.9      0.03912051 1          0.3546502 
710        0.03535463 1          0.3494545 
710.1      0.04469974 1          0.339681  
710.2      0.04660004 1          0.35322   
710.3      0.0500787  1          0.3433924 
710.4      0.03932298 1          0.3499621 
710.5      0.04388005 1          0.3724677 
710.6      0.05228743 1          0.3278828 
710.7      0.0300466  1          0.3635017 
710.8      0.05229577 1          0.3667203 
710.9      0.06788029 1          0.339581  
711        0.05963344 1          0.3308374 
711.1      0.03946324 1          0.3034852 
711.2      0.03553516 1          0.2848406 
711.3      0.03748619 1          0.2302072 
711.4      0.0590972  1          0.1887294 
