~Version
 VERS              .         3.0                           : CWLS LOG ASCII STANDARD - VERSION 3.0
 WRAP              .         NO                            : ONE LINE PER DEPTH STEP
 DLM               .         SPACE                         : DELIMITING CHARACTER(SPACE TAB OR COMMA)
~Well Information
#_______________________________________________________________________________
#
#PARAMETER_NAME    .UNIT     VALUE                         : DESCRIPTION
#_______________________________________________________________________________
STRT               .M        4                             : First reference value
STOP               .M        853                           : Last reference value
STEP               .M        0.1                           : Step increment
NULL               .         -9999                         : Missing value
COMP               .         ICPetroleum                   : Company
WELL               .         307                           : Well name
FLD                .         Karatobe                      : Field
LOC                .                                       : Location
SRVC               .                                       : Service Company
CTRY               .         KZ                            : Country
DATE               .         03-04.12.21                   : Service Date
LATI               .         0                             : Latitude
LONG               .         0                             : Longitude
GDAT               .         WGS 84                        : Geodetic Datum
CNTY               .                                       : 
COORDIN            .                                       : Grid System
COUNT              .         KAZAKHSTAN                    : Country
COUNTRY            .         Kazakhstan                    : 
COUNTRY            .         Kazakhstan                    : 
EREF               .m        138.3                         : 
KB                 .         137.7                         : KB Elevation
ORIGINALWELLNAME   .         307                           : 
PROV               .                                       : Province
RWS                .         -999                          : Def_Rw
STAT               .                                       : 
UWI                .         1_307                         : Unique Well Identifier (UWI)
WST                .         -999                          : Def_Rwt
X                  .km       466769.49                     : 
XCOORD             .                                       : X or East-West Coordinate
Y                  .km       5308384.04                    : 
YCOORD             .                                       : Y or North-South Coordinate
~Parameter Information Block
#_______________________________________________________________________________
#
#PARAMETER_NAME    .UNIT     VALUE                         : DESCRIPTION
#_______________________________________________________________________________
SET                .         Las                           : 
BS                 .MM       215.9                         : Bit Size
DFD                .G/C3     1.15                          : Drilling Fluid Density
TDD                .M        847.0                         : Total Depth Driller
TLFamily_DEPT      .         Measured Depth                : 
TLFamily_PHI_FINAL .         Porosity                      : 
TLFamily_SW_AR     .         Water Saturation              : 
TLFamily_VSH_FINAL .         Shale Volume                  : 
~Curve Information
#_______________________________________________________________________________
#
#LOGNAME           .UNIT     LOG_ID                        : DESCRIPTION
#_______________________________________________________________________________
DEPT               .M                                      : Depth Curve {F}
PHI_FINAL          .m3/m3                                  : Porosity {F}
SW_AR              .m3/m3                                  :  {F}
VSH_FINAL          .unitless                               : Vshale {F}
~Ascii
# ...
474.9      0.3003144  0.1237077  0.1895019 
475        0.2883331  0.1344161  0.191743  
475.1      0.2883401  0.134413   0.1917228 
475.2      0.2965552  0.1424716  0.1802101 
475.3      0.2998018  0.1499819  0.2091995 
475.4      0.2948705  0.1514189  0.2004053 
475.5      0.3236618  0.1526877  0.1733472 
475.6      0.3236679  0.1526849  0.1733295 
475.7      0.3268656  0.1634604  0.1673236 
475.8      0.305579   0.2031368  0.1897111 
475.9      0.2981079  0.2225578  0.2037074 
476        0.2949446  0.2323463  0.1886636 
476.1      0.2949516  0.2323411  0.1886439 
476.2      0.3066041  0.2360521  0.1566396 
476.3      0.3204522  0.2452872  0.1397796 
476.4      0.3178748  0.2656068  0.1541651 
476.5      0.2993037  0.306135   0.1802674 
476.6      0.2993099  0.306129   0.1802488 
476.7      0.2957095  0.3388906  0.2005311 
476.8      0.2666327  0.4487122  0.2507324 
476.9      0.2565913  0.4854436  0.2670475 
477        0.2610983  0.4765129  0.2577771 
477.1      0.2611082  0.4764958  0.2577475 
477.2      0.2661612  0.4680812  0.2625021 
477.3      0.2289252  0.5661101  0.3004996 
477.4      0.2165055  0.6216611  0.3400142 
477.5      0.2303753  0.621123   0.3362578 
477.6      0.2303903  0.6210849  0.3362161 
477.7      0.2268511  0.6626682  0.3395266 
477.8      0.2353124  0.6555138  0.2870346 
477.9      0.2220491  0.7076679  0.2955167 
478        0.2147128  0.74874    0.2812244 
478.1      0.214724   0.7487032  0.2811913 
478.2      0.2192246  0.7465972  0.2576168 
478.3      0.1760579  1          0.3554258 
478.4      0.1358043  1          0.4222129 
478.5      0.1405047  1          0.4351033 
478.6      0.1405242  1          0.4350451 
478.7      0.1242725  1          0.4885301 
478.8      0.1390527  1          0.4889503 
478.9      0.1440562  1          0.4782532 
479        0.1623078  1          0.4652586 
479.1      0.162329   1          0.4651951 
479.2      0.1674546  1          0.4547928 
479.3      0.1825393  1          0.4274799 
479.4      0.1712974  1          0.4563531 
479.5      0.1662677  1          0.4613722 
479.6      0.1662885  1          0.4613094 
479.7      0.1595572  1          0.4986609 
479.8      0.1383958  1          0.5866032 
479.9      0.1508813  1          0.5491784 
480        0.1468081  1          0.5575957 
480.1      0.1468347  1          0.5575157 
480.2      0.1407651  1          0.5866413 
480.3      0.1367389  1          0.5863654 
480.4      0.1438542  1          0.5312693 
480.5      0.1351988  1          0.5383873 
480.6      0.1352242  1          0.5383108 
480.7      0.1399653  1          0.539647  
480.8      0.1671411  1          0.4714694 
480.9      0.1634571  1          0.461422  
481        0.16775    1          0.4602787 
481.1      0.1677708  1          0.4602162 
481.2      0.1639306  1          0.4660445 
481.3      0.1551551  1          0.4709901 
481.4      0.1250562  1          0.5218723 
481.5      0.125086   1          0.5200848 
481.6      0.1251103  1          0.5200117 
481.7      0.139908   1          0.4693205 
481.8      0.1707572  1          0.4488026 
481.9      0.1665494  1          0.47502   
482        0.1724093  1          0.4452234 
482.1      0.1724292  1          0.4451637 
482.2      0.1768863  1          0.4381092 
482.3      0.1999577  1          0.4506157 
482.4      0.2129029  1          0.4399168 
482.5      0.2185601  1          0.4256687 
482.6      0.2185788  1          0.4256123 
482.7      0.2193425  1          0.4287389 
482.8      0.2150565  1          0.4352537 
482.9      0.2047651  1          0.4487416 
483        0.2062976  1          0.4269751 
483.1      0.2063164  1          0.4269185 
483.2      0.1999266  1          0.4212554 
483.3      0.1795443  1          0.4186334 
483.4      0.1658666  1          0.4334397 
483.5      0.1728818  1          0.4342609 
483.6      0.1729011  1          0.434203  
483.7      0.184299   1          0.391049  
483.8      0.1735267  1          0.4107433 
483.9      0.1732206  1          0.394318  
484        0.19151    1          0.3523985 
484.1      0.1915247  1          0.3523543 
484.2      0.1890499  1          0.34936   
484.3      0.2040122  1          0.3106165 
484.4      0.2048764  1          0.3145013 
484.5      0.1971288  1          0.344965  
484.6      0.1971432  1          0.3449221 
484.7      0.2102293  1          0.3168712 
484.8      0.2058792  1          0.3416972 
484.9      0.2171948  1          0.3391367 
485        0.2232796  1          0.3101321 
485.1      0.2232922  1          0.3100947 
485.2      0.2370626  1          0.2612719 
485.3      0.2537505  1          0.2399946 
485.4      0.265326   0.9666358  0.1982093 
485.5      0.2945929  0.8391091  0.1477669 
485.6      0.2945977  0.8390961  0.1477525 
485.7      0.3208092  0.7467492  0.09458166
485.8      0.3571489  0.6351226  0.04328887
485.9      0.3741089  0.6024892  0.03179623
486        0.3711717  0.6124956  0.03153433
486.1      0.3711725  0.6124945  0.03153208
486.2      0.3661162  0.6446179  0.03130318
486.3      0.3642624  0.8085235  0.02140537
486.4      0.3557205  0.9288992  0.01863476
486.5      0.3564794  0.970122   0.02190584
486.6      0.35648    0.9701206  0.02190434
486.7      0.3418886  1          0.01820062
486.8      0.310693   1          0.01842869
486.9      0.3200481  1          0.02294358
487        0.2706823  1          0.01629717
487.1      0.2706826  1          0.01629608
487.2      0.2445846  1          0.0222222 
487.3      0.1267197  1          0.01590155
487.4      0.1948577  1          0.01782073
487.5      0.2321714  0.9524737  0.02094601
487.6      0.2321719  0.9524717  0.02094459
487.7      0.1396003  1          0.01838886
487.8      0.2235267  0.9077725  0.0113888 
487.9      0.1720354  1          0.01668115
488        0.2350893  1          0.01475457
488.1      0.2350897  1          0.0147536 
488.2      0.2438388  1          0.0138177 
488.3      0.2766087  1          0.01918694
488.4      0.2895595  1          0.01746748
488.5      0.3136712  1          0.01837897
488.6      0.3136716  1          0.01837774
488.7      0.3446366  1          0.01210498
488.8      0.321496   1          0.01037347
488.9      0.3148216  1          0.007643496
489        0.3019344  1          0.009610261
489.1      0.3019347  1          0.009609642
489.2      0.2520957  1          0.007616437
489.3      0.1623001  1          0         
489.4      0.214341   1          0.002517709
489.5      0.2553208  1          0.007180958
489.6      0.255321   1          0.007180502
489.7      0.2503286  1          0.009162428
489.8      0.1324799  1          0.006570504
489.9      0.1250746  1          0.01052442
490        0.1350667  1          0.01551083
490.1      0.1350669  1          0.0155098 
490.2      0.2061826  1          0.02026424
490.3      0.2928532  1          0.03568199
490.4      0.315194   1          0.05099515
490.5      0.3324856  1          0.07598699
490.6      0.3324877  1          0.0759807 
490.7      0.3385755  1          0.09679051
490.8      0.2976458  1          0.1664818 
490.9      0.2829763  1          0.2223217 
491        0.2469822  1          0.2884432 
491.1      0.2469936  1          0.2884094 
491.2      0.225428   1          0.3225484 
491.3      0.2369133  1          0.2898111 
491.4      0.2388887  1          0.2925214 
491.5      0.2418918  1          0.3050863 
491.6      0.2419044  1          0.3050498 
491.7      0.2510987  1          0.3074286 
491.8      0.248714   1          0.2858765 
491.9      0.2351609  1          0.3021065 
492        0.235173   1          0.3020706 
492.1      0.2282952  1          0.3030131 
492.2      0.2351076  1          0.2989712 
492.3      0.2318677  1          0.312302  
492.4      0.2364052  1          0.3208251 
492.5      0.2364186  1          0.3207863 
492.6      0.2214186  1          0.3462166 
492.7      0.1965458  1          0.3978037 
492.8      0.1384479  1          0.5769512 
492.9      0.08262127 1          0.7262403 
493        0.08265875 1          0.7261285 
