~Version
 VERS              .         3.0                           : CWLS LOG ASCII STANDARD - VERSION 3.0
 WRAP              .         NO                            : ONE LINE PER DEPTH STEP
 DLM               .         SPACE                         : DELIMITING CHARACTER(SPACE TAB OR COMMA)
~Well Information
#_______________________________________________________________________________
#
#PARAMETER_NAME    .UNIT     VALUE                         : DESCRIPTION
#_______________________________________________________________________________
STRT               .M        4                             : First reference value
STOP               .M        853                           : Last reference value
STEP               .M        0.1                           : Step increment
NULL               .         -9999                         : Missing value
COMP               .         ICPetroleum                   : Company
WELL               .         307                           : Well name
FLD                .         Karatobe                      : Field
LOC                .                                       : Location
SRVC               .                                       : Service Company
CTRY               .         KZ                            : Country
DATE               .         03-04.12.21                   : Service Date
LATI               .         0                             : Latitude
LONG               .         0                             : Longitude
GDAT               .         WGS 84                        : Geodetic Datum
CNTY               .                                       : 
COORDIN            .                                       : Grid System
COUNT              .         KAZAKHSTAN                    : Country
COUNTRY            .         Kazakhstan                    : 
COUNTRY            .         Kazakhstan                    : 
EREF               .m        138.3                         : 
KB                 .         137.7                         : KB Elevation
ORIGINALWELLNAME   .         307                           : 
PROV               .                                       : Province
RWS                .         -999                          : Def_Rw
STAT               .                                       : 
UWI                .         1_307                         : Unique Well Identifier (UWI)
WST                .         -999                          : Def_Rwt
X                  .km       466769.49                     : 
XCOORD             .                                       : X or East-West Coordinate
Y                  .km       5308384.04                    : 
YCOORD             .                                       : Y or North-South Coordinate
~Parameter Information Block
#_______________________________________________________________________________
#
#PARAMETER_NAME    .UNIT     VALUE                         : DESCRIPTION
#_______________________________________________________________________________
SET                .         Las                           : 
BS                 .MM       215.9                         : Bit Size
DFD                .G/C3     1.15                          : Drilling Fluid Density
TDD                .M        847.0                         : Total Depth Driller
TLFamily_DEPT      .         Measured Depth                : 
TLFamily_PHI_FINAL .         Porosity                      : 
TLFamily_SW_AR     .         Water Saturation              : 
TLFamily_VSH_FINAL .         Shale Volume                  : 
~Curve Information
#_______________________________________________________________________________
#
#LOGNAME           .UNIT     LOG_ID                        : DESCRIPTION
#_______________________________________________________________________________
DEPT               .M                                      : Depth Curve {F}
PHI_FINAL          .m3/m3                                  : Porosity {F}
SW_AR              .m3/m3                                  :  {F}
VSH_FINAL          .unitless                               : Vshale {F}
~Ascii
# ...
347.5      0.07110312 1          0.7839503 
347.6      0.07115133 1          0.783815  
347.7      0.09543971 1          0.7456908 
347.8      0.0656362  1          0.8751162 
347.9      0.03224917 1          0.9667343 
348        0.02903928 1          1         
348.1      0.02903928 1          1         
348.2      0.02745322 1          1         
348.3      0.02638192 1          1         
348.4      0.02361974 1          1         
348.5      0.0220036  1          1         
348.6      0.0220036  1          1         
348.7      0.02483187 1          1         
348.8      0.02124125 1          1         
348.9      0.02255438 1          1         
349        0.0238511  1          1         
349.1      0.0238511  1          1         
349.2      0.0237501  1          1         
349.3      0.02167986 1          1         
349.4      0.01819329 1          1         
349.5      0.02248796 1          1         
349.6      0.02248796 1          1         
349.7      0.02430613 1          1         
349.8      0.02629177 1          1         
349.9      0.02316044 1          1         
350        0.02536626 1          1         
350.1      0.02536626 1          1         
350.2      0.02134227 1          1         
350.3      0.02354807 1          1         
350.4      0.02341774 1          1         
350.5      0.02260967 1          1         
350.6      0.02260967 1          1         
350.7      0.02240761 1          1         
350.8      0.0218309  1          1         
350.9      0.02313026 1          1         
351        0.02139754 1          1         
351.1      0.02139754 1          1         
351.2      0.02987743 1          1         
351.3      0.0249622  1          1         
351.4      0.02789706 1          1         
351.5      0.03237262 1          1         
351.6      0.03237262 1          1         
351.7      0.03348372 1          1         
351.8      0.1290877  1          0.7194602 
351.9      0.1311718  1          0.7041506 
352        0.1465089  1          0.6590359 
352.1      0.1465472  1          0.6589278 
352.2      0.1182957  1          0.7354562 
352.3      0.09886841 1          0.7895042 
352.4      0.1114948  1          0.749193  
352.5      0.07632508 1          0.8614035 
352.6      0.07637814 1          0.8612508 
352.7      0.03075913 1          1         
352.8      0.01942308 1          1         
352.9      0.022529   1          0.9572861 
353        0.02175323 1          0.9596775 
353.1      0.02177911 1          0.9595025 
353.2      0.05651827 1          0.860627  
353.3      0.1038128  1          0.6789187 
353.4      0.08908675 1          0.7479202 
353.5      0.08857417 1          0.767989  
353.6      0.08861822 1          0.7678577 
353.7      0.1130086  1          0.6895695 
353.8      0.1393996  1          0.6276231 
353.9      0.1308474  1          0.6881527 
354        0.1342713  1          0.6593911 
354.1      0.1343082  1          0.6592833 
354.2      0.1282308  1          0.6774426 
354.3      0.1332833  1          0.6394619 
354.4      0.1197314  1          0.6725543 
354.5      0.1110462  1          0.7115464 
354.6      0.1110855  1          0.7114275 
354.7      0.07930082 1          0.8087275 
354.8      0.06474283 1          0.8669232 
354.9      0.04599393 1          0.8803058 
355        0.02775925 1          0.9306097 
355.1      0.0278151  1          0.9304418 
355.2      0.01800472 1          0.9823699 
355.3      0.02159307 1          0.9649671 
355.4      0.01695308 1          1         
355.5      0.0253948  1          0.956911  
355.6      0.02542052 1          0.956737  
355.7      0.02812263 1          0.9572021 
355.8      0.02577294 1          0.9640868 
355.9      0.02213393 1          1         
356        0.03684234 1          0.9218005 
356.1      0.03687875 1          0.9216343 
356.2      0.05616112 1          0.8443177 
356.3      0.07403453 1          0.8094981 
356.4      0.04979878 1          0.9024873 
356.5      0.03511574 1          0.9683345 
356.6      0.03515441 1          0.9681575 
356.7      0.05804173 1          0.8745473 
356.8      0.06770094 1          0.842575  
356.9      0.0585003  1          0.8819144 
357        0.04816866 1          0.9260151 
357.1      0.04822755 1          0.9258481 
357.2      0.06384342 1          0.9096975 
357.3      0.06255537 1          0.9083158 
357.4      0.06138092 1          0.9063285 
357.5      0.05940476 1          0.8989021 
357.6      0.05946141 1          0.8987414 
357.7      0.06003639 1          0.889281  
357.8      0.0256061  1          0.9845619 
357.9      0.05020197 1          0.8994657 
358        0.08285704 1          0.8208852 
358.1      0.08290473 1          0.8207422 
358.2      0.049931   1          0.8986822 
358.3      0.02506879 1          1         
358.4      0.02344706 1          1         
358.5      0.03611187 1          0.9287821 
358.6      0.03617057 1          0.9286146 
358.7      0.03584748 1          0.9284471 
358.8      0.0264507  1          0.9636384 
358.9      0.0583561  1          0.8445886 
359        0.03485907 1          0.9668247 
359.1      0.03489758 1          0.9666488 
359.2      0.04511486 1          0.9300946 
359.3      0.04796455 1          0.9519118 
359.4      0.0300406  1          0.9981345 
359.5      0.06145581 1          0.8775587 
359.6      0.06150988 1          0.8774034 
359.7      0.05021106 1          0.9246114 
359.8      0.09227857 1          0.813909  
359.9      0.09232501 1          0.8137678 
360        0.07399306 1          0.8498009 
360.1      0.07404291 1          0.8496516 
360.2      0.04445848 1          0.9188544 
360.3      0.04801619 1          0.9119568 
360.4      0.06557176 1          0.8738117 
360.5      0.07836982 1          0.8568006 
360.6      0.07841971 1          0.8566501 
360.7      0.05044833 1          0.8910964 
360.8      0.06811375 1          0.7613317 
360.9      0.06265733 1          0.7909452 
361        0.05464854 1          0.86182   
361.1      0.05469927 1          0.8616685 
361.2      0.04626387 1          0.8894104 
361.3      0.07042436 1          0.8289545 
361.4      0.0700641  1          0.8285306 
361.5      0.04619548 1          0.887746  
361.6      0.0462483  1          0.8875882 
361.7      0.05716565 1          0.8785555 
361.8      0.02131207 1          1         
361.9      0.01969593 1          1         
362        0.02289608 1          0.9802792 
362.1      0.02292255 1          0.9801    
362.2      0.01904999 1          0.9513498 
362.3      0.02520912 1          0.9160137 
362.4      0.01071856 1          1         
362.5      0.04388499 1          0.8581069 
362.6      0.04393758 1          0.8579559 
362.7      0.05808527 1          0.8489215 
362.8      0.09467665 1          0.7283989 
362.9      0.06249163 1          0.8247038 
363        0.06338227 1          0.8159921 
363.1      0.06343026 1          0.8158507 
363.2      0.05752154 1          0.8456175 
363.3      0.07311489 1          0.8062701 
363.4      0.08551115 1          0.767293  
363.5      0.07019163 1          0.8174871 
363.6      0.07023905 1          0.8173454 
363.7      0.08742031 1          0.7455972 
363.8      0.01659675 1          1         
363.9      0.01948386 1          0.987311  
364        0.04066831 1          0.9008195 
364.1      0.04072145 1          0.9006591 
364.2      0.03081015 1          0.9561434 
364.3      0.04326124 1          0.9000375 
364.4      0.04727073 1          0.8864487 
364.5      0.05427827 1          0.8436987 
364.6      0.05432771 1          0.8435513 
364.7      0.03457517 1          0.8931119 
364.8      0.06749057 1          0.7926044 
364.9      0.05822827 1          0.7924688 
365        0.06827494 1          0.7649506 
365.1      0.0683185  1          0.764821  
365.2      0.07572648 1          0.7582404 
365.3      0.06290822 1          0.7975572 
365.4      0.04143342 1          0.8908124 
365.5      0.04571692 1          0.8764815 
365.6      0.04577096 1          0.8763271 
