~Version
 VERS              .         3.0                           : CWLS LOG ASCII STANDARD - VERSION 3.0
 WRAP              .         NO                            : ONE LINE PER DEPTH STEP
 DLM               .         SPACE                         : DELIMITING CHARACTER(SPACE TAB OR COMMA)
~Well Information
#_______________________________________________________________________________
#
#PARAMETER_NAME    .UNIT     VALUE                         : DESCRIPTION
#_______________________________________________________________________________
STRT               .M        4                             : First reference value
STOP               .M        853                           : Last reference value
STEP               .M        0.1                           : Step increment
NULL               .         -9999                         : Missing value
COMP               .         ICPetroleum                   : Company
WELL               .         307                           : Well name
FLD                .         Karatobe                      : Field
LOC                .                                       : Location
SRVC               .                                       : Service Company
CTRY               .         KZ                            : Country
DATE               .         03-04.12.21                   : Service Date
LATI               .         0                             : Latitude
LONG               .         0                             : Longitude
GDAT               .         WGS 84                        : Geodetic Datum
CNTY               .                                       : 
COORDIN            .                                       : Grid System
COUNT              .         KAZAKHSTAN                    : Country
COUNTRY            .         Kazakhstan                    : 
COUNTRY            .         Kazakhstan                    : 
EREF               .m        138.3                         : 
KB                 .         137.7                         : KB Elevation
ORIGINALWELLNAME   .         307                           : 
PROV               .                                       : Province
RWS                .         -999                          : Def_Rw
STAT               .                                       : 
UWI                .         1_307                         : Unique Well Identifier (UWI)
WST                .         -999                          : Def_Rwt
X                  .km       466769.49                     : 
XCOORD             .                                       : X or East-West Coordinate
Y                  .km       5308384.04                    : 
YCOORD             .                                       : Y or North-South Coordinate
~Parameter Information Block
#_______________________________________________________________________________
#
#PARAMETER_NAME    .UNIT     VALUE                         : DESCRIPTION
#_______________________________________________________________________________
SET                .         Las                           : 
BS                 .MM       215.9                         : Bit Size
DFD                .G/C3     1.15                          : Drilling Fluid Density
TDD                .M        847.0                         : Total Depth Driller
TLFamily_DEPT      .         Measured Depth                : 
TLFamily_PHI_FINAL .         Porosity                      : 
TLFamily_SW_AR     .         Water Saturation              : 
TLFamily_VSH_FINAL .         Shale Volume                  : 
~Curve Information
#_______________________________________________________________________________
#
#LOGNAME           .UNIT     LOG_ID                        : DESCRIPTION
#_______________________________________________________________________________
DEPT               .M                                      : Depth Curve {F}
PHI_FINAL          .m3/m3                                  : Porosity {F}
SW_AR              .m3/m3                                  :  {F}
VSH_FINAL          .unitless                               : Vshale {F}
~Ascii
# ...
201.9      0.2906486  0.6867439  0.2267983 
202        0.3011159  0.6649663  0.2202622 
202.1      0.2933745  0.681468   0.2238884 
202.2      0.2987276  0.6709129  0.2035537 
202.3      0.2902674  0.6851345  0.2256197 
202.4      0.2810807  0.7005312  0.2416238 
202.5      0.2919647  0.6689276  0.215485  
202.6      0.281077   0.6835358  0.2441231 
202.7      0.2878823  0.6603122  0.2217232 
202.8      0.2853476  0.6618874  0.2285463 
202.9      0.2520288  0.7392472  0.1956387 
203        0.2693869  0.6925741  0.1972388 
203.1      0.3083855  0.613915   0.1759233 
203.2      0.3015192  0.6253147  0.1715113 
203.3      0.3036157  0.61496    0.1381918 
203.4      0.3123047  0.5962923  0.1260403 
203.5      0.3250498  0.5760905  0.1229044 
203.6      0.3365782  0.5604711  0.1109975 
203.7      0.3378313  0.5669923  0.101918  
203.8      0.3448159  0.5728136  0.08060445
203.9      0.3383567  0.5964102  0.08513243
204        0.3382078  0.5963612  0.07925142
204.1      0.330019   0.5986573  0.09462636
204.2      0.3328396  0.5737986  0.1004158 
204.3      0.318993   0.5886832  0.1164921 
204.4      0.3130387  0.6008556  0.1270435 
204.5      0.3210006  0.5977208  0.1218545 
204.6      0.3189851  0.6244111  0.1444191 
204.7      0.3426358  0.622154   0.1208498 
204.8      0.3508634  0.6528513  0.1097293 
204.9      0.3449404  0.6872354  0.09896806
205        0.3418768  0.6792787  0.08834025
205.1      0.348652   0.6502557  0.08445462
205.2      0.3498071  0.648725   0.07993259
205.3      0.3518734  0.6392188  0.06582668
205.4      0.3703502  0.6147287  0.0640521 
205.5      0.373611   0.6342691  0.05146152
205.6      0.3685248  0.652819   0.04627937
205.7      0.3693267  0.6309128  0.04944723
205.8      0.3726735  0.6088482  0.05259962
205.9      0.3146082  0.7095441  0.06307064
206        0.3212512  0.7139132  0.06128061
206.1      0.3354368  0.7176409  0.08047245
206.2      0.3622049  0.679939   0.08776374
206.3      0.3553449  0.6840604  0.085095  
206.4      0.3481252  0.7065573  0.09445838
206.5      0.3432226  0.7198541  0.1004201 
206.6      0.3442796  0.7039773  0.09909992
206.7      0.3466702  0.6786591  0.1063111 
206.8      0.3470966  0.6708052  0.1182196 
206.9      0.3427341  0.6945709  0.1417202 
207        0.3390965  0.7154032  0.1634652 
207.1      0.3339058  0.7187656  0.1961175 
207.2      0.3018467  0.7619878  0.2067617 
207.3      0.2709031  0.8121059  0.2506695 
207.4      0.2835031  0.7555865  0.2750367 
207.5      0.3051497  0.6944125  0.2697876 
207.6      0.3024059  0.6945465  0.2785167 
207.7      0.3103437  0.6696743  0.2529296 
207.8      0.2931175  0.6993519  0.2943017 
207.9      0.2902473  0.6998059  0.2645065 
208        0.2920915  0.6906813  0.2585984 
208.1      0.3006729  0.666806   0.2447634 
208.2      0.3020697  0.6524985  0.2099695 
208.3      0.3041473  0.6341664  0.1713102 
208.4      0.3078553  0.6204907  0.1578787 
208.5      0.2958737  0.6414657  0.1362419 
208.6      0.3337061  0.570077   0.09291709
208.7      0.3357694  0.5633016  0.08975977
208.8      0.3335234  0.5624198  0.1069744 
208.9      0.3313859  0.5624223  0.09451307
209        0.3288343  0.5614197  0.09498748
209.1      0.3371231  0.5454087  0.08802507
209.2      0.3395542  0.5451019  0.106218  
209.3      0.3375985  0.5592384  0.104156  
209.4      0.3354336  0.5788744  0.1141528 
209.5      0.3224241  0.6250324  0.1366832 
209.6      0.3138846  0.6656278  0.1653096 
209.7      0.3059813  0.6750332  0.190493  
209.8      0.2742118  0.7231124  0.2605236 
209.9      0.2400703  0.8071798  0.3084489 
210        0.2054212  0.9366497  0.3833894 
210.1      0.2001505  0.9553861  0.4280365 
210.2      0.184305   1          0.4505355 
210.3      0.1735824  1          0.503989  
210.4      0.1535335  1          0.5740927 
210.5      0.1405538  1          0.5976558 
210.6      0.1540834  1          0.5652354 
210.7      0.1637905  1          0.5364674 
210.8      0.1782313  1          0.4753395 
210.9      0.1612725  1          0.4981228 
211        0.1759772  1          0.4736668 
211.1      0.1795268  1          0.4973646 
211.2      0.1659287  1          0.5268184 
211.3      0.140496   1          0.6429255 
211.4      0.1237822  1          0.6839092 
211.5      0.1478665  1          0.6186762 
211.6      0.1003369  1          0.7448822 
211.7      0.1047885  1          0.7617984 
211.8      0.08837884 1          0.7887813 
211.9      0.1254845  1          0.66197   
212        0.1128843  1          0.6904852 
212.1      0.1084558  1          0.6869499 
212.2      0.09867433 1          0.7290086 
212.3      0.1318974  1          0.65821   
212.4      0.1477807  1          0.6227066 
212.5      0.1418345  1          0.6557103 
212.6      0.1287787  1          0.7010974 
212.7      0.1244242  1          0.7181977 
212.8      0.1627346  1          0.5870053 
212.9      0.1946773  1          0.4904002 
213        0.1865011  1          0.5335361 
213.1      0.171161   1          0.582617  
213.2      0.1704436  1          0.6008416 
213.3      0.1715831  1          0.6282024 
213.4      0.1586709  1          0.6657491 
213.5      0.1710099  1          0.6082253 
213.6      0.1597472  1          0.6244968 
213.7      0.1620702  1          0.6313833 
213.8      0.1370188  1          0.6934677 
213.9      0.1350785  1          0.6970382 
214        0.1480408  1          0.688225  
214.1      0.1531929  1          0.6215477 
214.2      0.1532256  1          0.6420497 
214.3      0.1198511  1          0.7408509 
214.4      0.08802775 1          0.8188087 
214.5      0.08787596 1          0.7187965 
214.6      0.08483198 1          0.6825214 
214.7      0.1193667  1          0.6137608 
214.8      0.1116632  1          0.5739533 
214.9      0.120146   1          0.4702789 
215        0.150604   1          0.3766993 
215.1      0.1457879  1          0.4004609 
215.2      0.1539696  0.9636015  0.480077  
215.3      0.1699438  0.9430315  0.5613296 
215.4      0.1474309  1          0.6851648 
215.5      0.1404798  1          0.7013526 
215.6      0.1614746  1          0.6299762 
215.7      0.1892943  0.8860947  0.5557269 
215.8      0.1712669  0.9700791  0.6043686 
215.9      0.143613   1          0.6950159 
216        0.1521519  1          0.6505979 
216.1      0.1097062  1          0.7259398 
216.2      0.1276386  1          0.6776961 
216.3      0.1639754  0.9711558  0.5856995 
216.4      0.1607319  0.9957319  0.6192591 
216.5      0.1465304  1          0.6617778 
216.6      0.1631589  0.9912099  0.5931357 
216.7      0.1571885  1          0.6177431 
216.8      0.1662456  0.9642106  0.6089094 
216.9      0.152231   1          0.6090366 
217        0.1557228  1          0.5762237 
217.1      0.1393223  1          0.6223038 
217.2      0.1527128  0.9982629  0.5751323 
217.3      0.1291231  1          0.6187497 
217.4      0.1374081  1          0.55844   
217.5      0.1403059  1          0.5518647 
217.6      0.143127   0.9632394  0.5124362 
217.7      0.1546849  0.8535458  0.4826902 
217.8      0.1221763  1          0.5930382 
217.9      0.105276   1          0.6608654 
218        0.1043509  1          0.6876454 
218.1      0.05863598 1          0.7331378 
218.2      0.07251981 1          0.6622716 
218.3      0.07429355 1          0.6167106 
218.4      0.1203685  1          0.5069432 
218.5      0.1208225  1          0.4822484 
218.6      0.1215129  1          0.6161478 
218.7      0.0911706  1          0.7669526 
218.8      0.09893119 1          0.7562418 
218.9      0.0791906  1          0.7823215 
219        0.08760116 1          0.8037938 
219.1      0.1164509  1          0.7467911 
219.2      0.1147187  1          0.7772124 
219.3      0.1354874  1          0.7251998 
219.4      0.1212235  1          0.7772099 
219.5      0.1177525  1          0.7718468 
219.6      0.1193008  1          0.7865613 
219.7      0.15076    1          0.7025898 
219.8      0.09949227 1          0.851137  
219.9      0.1301475  1          0.7840617 
220        0.1514267  1          0.7539806 
