~Version
 VERS              .         3.0                           : CWLS LOG ASCII STANDARD - VERSION 3.0
 WRAP              .         NO                            : ONE LINE PER DEPTH STEP
 DLM               .         SPACE                         : DELIMITING CHARACTER(SPACE TAB OR COMMA)
~Well Information
#_______________________________________________________________________________
#
#PARAMETER_NAME    .UNIT     VALUE                         : DESCRIPTION
#_______________________________________________________________________________
STRT               .M        4                             : First reference value
STOP               .M        853                           : Last reference value
STEP               .M        0.1                           : Step increment
NULL               .         -9999                         : Missing value
COMP               .         ICPetroleum                   : Company
WELL               .         307                           : Well name
FLD                .         Karatobe                      : Field
LOC                .                                       : Location
SRVC               .                                       : Service Company
CTRY               .         KZ                            : Country
DATE               .         03-04.12.21                   : Service Date
LATI               .         0                             : Latitude
LONG               .         0                             : Longitude
GDAT               .         WGS 84                        : Geodetic Datum
CNTY               .                                       : 
COORDIN            .                                       : Grid System
COUNT              .         KAZAKHSTAN                    : Country
COUNTRY            .         Kazakhstan                    : 
COUNTRY            .         Kazakhstan                    : 
EREF               .m        138.3                         : 
KB                 .         137.7                         : KB Elevation
ORIGINALWELLNAME   .         307                           : 
PROV               .                                       : Province
RWS                .         -999                          : Def_Rw
STAT               .                                       : 
UWI                .         1_307                         : Unique Well Identifier (UWI)
WST                .         -999                          : Def_Rwt
X                  .km       466769.49                     : 
XCOORD             .                                       : X or East-West Coordinate
Y                  .km       5308384.04                    : 
YCOORD             .                                       : Y or North-South Coordinate
~Parameter Information Block
#_______________________________________________________________________________
#
#PARAMETER_NAME    .UNIT     VALUE                         : DESCRIPTION
#_______________________________________________________________________________
SET                .         Las                           : 
BS                 .MM       215.9                         : Bit Size
DFD                .G/C3     1.15                          : Drilling Fluid Density
TDD                .M        847.0                         : Total Depth Driller
TLFamily_DEPT      .         Measured Depth                : 
TLFamily_PHI_FINAL .         Porosity                      : 
TLFamily_SW_AR     .         Water Saturation              : 
TLFamily_VSH_FINAL .         Shale Volume                  : 
~Curve Information
#_______________________________________________________________________________
#
#LOGNAME           .UNIT     LOG_ID                        : DESCRIPTION
#_______________________________________________________________________________
DEPT               .M                                      : Depth Curve {F}
PHI_FINAL          .m3/m3                                  : Porosity {F}
SW_AR              .m3/m3                                  :  {F}
VSH_FINAL          .unitless                               : Vshale {F}
~Ascii
# ...
256.5      0.1128355  1          0.6717569 
256.6      0.1075414  1          0.6676199 
256.7      0.1059374  1          0.6611241 
256.8      0.1042412  1          0.6640272 
256.9      0.09847819 1          0.6704686 
257        0.1021559  1          0.6781076 
257.1      0.09927397 1          0.6724827 
257.2      0.09985622 1          0.6547371 
257.3      0.1085793  1          0.6328907 
257.4      0.1119503  1          0.6115706 
257.5      0.1325683  1          0.5946596 
257.6      0.1282369  1          0.5901415 
257.7      0.1181547  1          0.596837  
257.8      0.09245256 1          0.6116613 
257.9      0.07718916 1          0.6251611 
258        0.06611717 1          0.634179  
258.1      0.05259681 1          0.6399309 
258.2      0.04414979 1          0.6455558 
258.3      0.06023351 1          0.65109   
258.4      0.0803624  1          0.6539024 
258.5      0.07891811 1          0.651725  
258.6      0.1018179  1          0.6414732 
258.7      0.1130701  1          0.6302416 
258.8      0.1234025  1          0.6234373 
258.9      0.1210329  1          0.6210603 
259        0.1206484  1          0.6196994 
259.1      0.1296401  1          0.6097924 
259.2      0.1250471  1          0.5960931 
259.3      0.1458784  1          0.5772588 
259.4      0.1575187  1          0.559368  
259.5      0.1673569  1          0.5390095 
259.6      0.1649442  1          0.5177619 
259.7      0.177636   1          0.5054235 
259.8      0.1825491  1          0.5076734 
259.9      0.1746758  1          0.5274513 
260        0.1738286  1          0.5562652 
260.1      0.1547082  1          0.5944056 
260.2      0.1331333  1          0.634179  
260.3      0.1125604  1          0.6743153 
260.4      0.09974166 1          0.6966697 
260.5      0.1013616  1          0.7015507 
260.6      0.1161058  1          0.6966334 
260.7      0.1065254  1          0.7000083 
260.8      0.1096075  1          0.7159939 
260.9      0.1038085  1          0.7354451 
261        0.08843976 1          0.7498702 
261.1      0.07500926 1          0.7593418 
261.2      0.07137472 1          0.7649486 
261.3      0.07779525 1          0.7744202 
261.4      0.07944975 1          0.7830571 
261.5      0.08349501 1          0.782168  
261.6      0.1049919  1          0.7712448 
261.7      0.1106569  1          0.7595233 
261.8      0.1161518  1          0.7646583 
261.9      0.1015481  1          0.7760714 
262        0.1073005  1          0.7815511 
262.1      0.1040711  1          0.7696844 
262.2      0.1047166  1          0.7385479 
262.3      0.1319424  1          0.7088267 
262.4      0.1376615  1          0.6859098 
262.5      0.1486836  0.9257367  0.6749504 
262.6      0.1620685  0.8106972  0.6558076 
262.7      0.157998   0.7961242  0.6314754 
262.8      0.1567195  0.7652956  0.6118246 
262.9      0.144733   0.8051928  0.608613  
263        0.1072865  1          0.6185926 
263.1      0.09206898 1          0.6361749 
263.2      0.06717627 1          0.6571684 
263.3      0.0721359  1          0.6699606 
263.4      0.08947632 1          0.6811377 
263.5      0.1316876  0.9845059  0.6846578 
263.6      0.1451964  0.9155565  0.6750411 
263.7      0.154135   0.8144832  0.6589648 
263.8      0.1639178  0.7266513  0.643832  
263.9      0.1610986  0.716225   0.6396769 
264        0.157943   0.7224009  0.6303686 
264.1      0.1579681  0.7231402  0.6151088 
264.2      0.1692474  0.6857921  0.6014821 
264.3      0.1765096  0.6702304  0.593462  
264.4      0.1766982  0.6181369  0.5902686 
264.5      0.1722691  0.5712214  0.5785652 
264.6      0.1808576  0.5485404  0.5636683 
264.7      0.1732318  0.5943357  0.5385014 
264.8      0.1925398  0.5689934  0.5139515 
264.9      0.2218967  0.4975175  0.4871335 
265        0.2264379  0.4692862  0.4667388 
265.1      0.2233648  0.4584278  0.4542551 
265.2      0.2043216  0.4798176  0.4395578 
265.3      0.2066829  0.4531967  0.430939  
265.4      0.2118128  0.4153036  0.4378885 
265.5      0.2136996  0.3845918  0.4565051 
265.6      0.2060094  0.3715937  0.4740148 
265.7      0.2025646  0.3557784  0.4721822 
265.8      0.2061675  0.3240835  0.4695331 
265.9      0.213944   0.2783734  0.466013  
266        0.2195993  0.2312676  0.472654  
266.1      0.2132304  0.1835963  0.4843937 
266.2      0.1982415  0.1554165  0.5117197 
266.3      0.1668105  0.1630522  0.5434368 
266.4      0.1166967  0.2267786  0.5755713 
266.5      0.06563534 0.380795   0.5921738 
266.6      0.04129231 0.5623189  0.5956032 
266.7      0.03976407 0.55256    0.581051  
266.8      0.05175782 0.4297976  0.5545596 
266.9      0.1103282  0.2294085  0.5191773 
267        0.1682302  0.1731056  0.4816901 
267.1      0.1985389  0.1513619  0.4511342 
267.2      0.2042542  0.1436062  0.4311205 
267.3      0.2011248  0.14173    0.424171  
267.4      0.1999775  0.1405892  0.4208324 
267.5      0.2072954  0.1318413  0.4184736 
267.6      0.2072491  0.1301856  0.4156974 
267.7      0.2153416  0.1238257  0.4112338 
267.8      0.2122507  0.12421    0.4047198 
267.9      0.208168   0.1257669  0.399476  
268        0.2107159  0.121345   0.3945043 
268.1      0.2128441  0.1149344  0.3898048 
268.2      0.2145455  0.1093286  0.3802788 
268.3      0.2201531  0.1032783  0.3668335 
268.4      0.2363324  0.09625068 0.3522269 
268.5      0.2369426  0.09687586 0.3358421 
268.6      0.2188623  0.1042596  0.3146853 
268.7      0.2693814  0.08487108 0.2803372 
268.8      0.2728224  0.08394244 0.2461342 
268.9      0.2700132  0.08531275 0.2236347 
269        0.2768761  0.08347862 0.2165945 
269.1      0.2773462  0.08380642 0.2103889 
269.2      0.2623934  0.08896291 0.2012077 
269.3      0.2751141  0.08536649 0.1933329 
269.4      0.2928063  0.08081325 0.185077  
269.5      0.2895198  0.08204058 0.1795972 
269.6      0.3022797  0.0793069  0.1701075 
269.7      0.3031865  0.08214116 0.1589847 
269.8      0.3033819  0.08823751 0.1515817 
269.9      0.302752   0.09234878 0.154503  
270        0.2628547  0.104722   0.1687829 
270.1      0.193893   0.1360758  0.1784904 
270.2      0.1515297  0.1639561  0.1841697 
270.3      0.1545495  0.1503629  0.1873269 
270.4      0.1594543  0.1407984  0.1901394 
270.5      0.2090801  0.1179239  0.1979779 
270.6      0.2440064  0.1160276  0.2155421 
270.7      0.2679018  0.1160383  0.2407089 
270.8      0.258779   0.1224463  0.2622831 
270.9      0.261418   0.1217994  0.2761276 
271        0.2546614  0.1265869  0.2913511 
271.1      0.2468513  0.1315321  0.3032904 
271.2      0.2452259  0.1322899  0.3110745 
271.3      0.2418744  0.1352669  0.3154655 
271.4      0.2459647  0.134988   0.3205824 
271.5      0.2423678  0.1394717  0.3161913 
271.6      0.2490323  0.1383894  0.2951252 
271.7      0.2577138  0.1361504  0.2619928 
271.8      0.2836978  0.1323553  0.2115865 
271.9      0.3000406  0.1329247  0.1606541 
272        0.3154108  0.1360603  0.1204633 
272.1      0.3180351  0.1344296  0.1155098 
272.2      0.3091232  0.1367583  0.1320941 
272.3      0.2977461  0.147294   0.153124  
272.4      0.2889614  0.1624741  0.165916  
272.5      0.2900217  0.1735463  0.1785993 
272.6      0.2809872  0.1895578  0.1981049 
272.7      0.2751535  0.1997279  0.2292777 
272.8      0.2656131  0.2164667  0.2597247 
272.9      0.2562049  0.2386385  0.2875407 
273        0.2441929  0.2678626  0.3093144 
273.1      0.2424881  0.2782993  0.3284209 
273.2      0.2318327  0.3068478  0.3450779 
273.3      0.2267916  0.322036   0.3573437 
273.4      0.2150509  0.3383684  0.3665794 
273.5      0.2224402  0.3464613  0.3727306 
273.6      0.2115294  0.3854277  0.3776659 
273.7      0.2209009  0.380574   0.3798977 
273.8      0.2260215  0.3902897  0.3756518 
273.9      0.218277   0.4278772  0.3670512 
274        0.227646   0.4343954  0.3572167 
274.1      0.2265134  0.458169   0.3486161 
274.2      0.2396915  0.4531413  0.3435718 
274.3      0.2352574  0.4781139  0.3376929 
274.4      0.232968   0.4901781  0.3308886 
274.5      0.2562799  0.4449075  0.3201469 
274.6      0.2600148  0.4416852  0.3030726 
