~Version
 VERS              .         3.0                           : CWLS LOG ASCII STANDARD - VERSION 3.0
 WRAP              .         NO                            : ONE LINE PER DEPTH STEP
 DLM               .         SPACE                         : DELIMITING CHARACTER(SPACE TAB OR COMMA)
~Well Information
#_______________________________________________________________________________
#
#PARAMETER_NAME    .UNIT     VALUE                         : DESCRIPTION
#_______________________________________________________________________________
STRT               .M        4                             : First reference value
STOP               .M        853                           : Last reference value
STEP               .M        0.1                           : Step increment
NULL               .         -9999                         : Missing value
COMP               .         ICPetroleum                   : Company
WELL               .         307                           : Well name
FLD                .         Karatobe                      : Field
LOC                .                                       : Location
SRVC               .                                       : Service Company
CTRY               .         KZ                            : Country
DATE               .         03-04.12.21                   : Service Date
LATI               .         0                             : Latitude
LONG               .         0                             : Longitude
GDAT               .         WGS 84                        : Geodetic Datum
CNTY               .                                       : 
COORDIN            .                                       : Grid System
COUNT              .         KAZAKHSTAN                    : Country
COUNTRY            .         Kazakhstan                    : 
COUNTRY            .         Kazakhstan                    : 
EREF               .m        138.3                         : 
KB                 .         137.7                         : KB Elevation
ORIGINALWELLNAME   .         307                           : 
PROV               .                                       : Province
RWS                .         -999                          : Def_Rw
STAT               .                                       : 
UWI                .         1_307                         : Unique Well Identifier (UWI)
WST                .         -999                          : Def_Rwt
X                  .km       466769.49                     : 
XCOORD             .                                       : X or East-West Coordinate
Y                  .km       5308384.04                    : 
YCOORD             .                                       : Y or North-South Coordinate
~Parameter Information Block
#_______________________________________________________________________________
#
#PARAMETER_NAME    .UNIT     VALUE                         : DESCRIPTION
#_______________________________________________________________________________
SET                .         Las                           : 
BS                 .MM       215.9                         : Bit Size
DFD                .G/C3     1.15                          : Drilling Fluid Density
TDD                .M        847.0                         : Total Depth Driller
TLFamily_DEPT      .         Measured Depth                : 
TLFamily_PHI_FINAL .         Porosity                      : 
TLFamily_SW_AR     .         Water Saturation              : 
TLFamily_VSH_FINAL .         Shale Volume                  : 
~Curve Information
#_______________________________________________________________________________
#
#LOGNAME           .UNIT     LOG_ID                        : DESCRIPTION
#_______________________________________________________________________________
DEPT               .M                                      : Depth Curve {F}
PHI_FINAL          .m3/m3                                  : Porosity {F}
SW_AR              .m3/m3                                  :  {F}
VSH_FINAL          .unitless                               : Vshale {F}
~Ascii
# ...
638.7      0.2097916  0.4626837  0.2746496 
638.8      0.2098015  0.4626631  0.2746204 
638.9      0.1977906  0.4885041  0.291358  
639        0.1978013  0.4884792  0.2913265 
639.1      0.1963273  0.4904292  0.2822976 
639.2      0.1775484  0.5233309  0.3179396 
639.3      0.1775604  0.5232975  0.3179044 
639.4      0.1601058  0.5522596  0.334601  
639.5      0.1601185  0.5522181  0.3345635 
639.6      0.165252   0.5203379  0.3224934 
639.7      0.1703991  0.4812829  0.3068195 
639.8      0.1704106  0.4812523  0.3067858 
639.9      0.1863939  0.4280981  0.2608767 
640        0.1864031  0.4280781  0.2608494 
640.1      0.1911472  0.4164972  0.2648483 
640.2      0.1902517  0.4043282  0.2831951 
640.3      0.190262   0.4043075  0.2831648 
640.4      0.2005793  0.3505372  0.2589667 
640.5      0.2005884  0.3505221  0.2589397 
640.6      0.1936364  0.3390079  0.2689618 
640.7      0.1871188  0.3074255  0.2594167 
640.8      0.187128   0.3074113  0.2593896 
640.9      0.1932202  0.2832392  0.2696055 
641        0.1932298  0.283226   0.269577  
641.1      0.1973166  0.2712216  0.2521272 
641.2      0.2042154  0.248485   0.2454959 
641.3      0.2042239  0.2484752  0.2454707 
641.4      0.2006658  0.2361623  0.2405575 
641.5      0.2006742  0.236153   0.240533  
641.6      0.1898884  0.2415722  0.2637142 
641.7      0.2014365  0.2101344  0.2599432 
641.8      0.2014457  0.2101254  0.2599162 
641.9      0.1887544  0.2087105  0.2705072 
642        0.1887641  0.2087004  0.2704786 
642.1      0.2001968  0.1888486  0.2639345 
642.2      0.2157563  0.1531309  0.2342368 
642.3      0.2157643  0.1531256  0.2342132 
642.4      0.2229772  0.1253852  0.2339437 
642.5      0.2229853  0.1253809  0.2339201 
642.6      0.2257644  0.1098426  0.232997  
642.7      0.2497519  0.08108986 0.2094106 
642.8      0.2497592  0.0810876  0.20939   
642.9      0.2619143  0.05954009 0.1926482 
643        0.2619209  0.05953868 0.1926298 
643.1      0.2683248  0.0501048  0.1669757 
643.2      0.2887319  0.04297592 0.1229446 
643.3      0.2887356  0.04297541 0.1229342 
643.4      0.3184415  0.02824674 0.06742979
643.5      0.3184433  0.02824659 0.0674248 
643.6      0.3306095  0.02528211 0.04437654
643.7      0.3355306  0.01723575 0.03969313
643.8      0.3355316  0.0172357  0.03969046
643.9      0.3389578  0.01970235 0.04296136
644        0.3389588  0.01970229 0.04295844
644.1      0.344672   0.02063192 0.0356033 
644.2      0.3474378  0.02776046 0.03977483
644.3      0.3474387  0.02776039 0.03977215
644.4      0.3327675  0.03875257 0.04721051
644.5      0.3327686  0.03875244 0.04720726
644.6      0.3388628  0.04176454 0.04447771
644.7      0.3374788  0.0462642  0.03250855
644.8      0.3374795  0.0462641  0.03250642
644.9      0.3550853  0.04733597 0.03040762
645        0.355086   0.04733588 0.03040565
645.1      0.350413   0.0523     0.03279842
645.2      0.350322   0.0612416  0.03414836
645.3      0.3503228  0.06124147 0.03414611
645.4      0.3469069  0.07024461 0.03336086
645.5      0.3469076  0.07024447 0.03335868
645.6      0.3536045  0.07289902 0.03254904
645.7      0.3535498  0.09088389 0.03819349
645.8      0.3535507  0.09088367 0.03819093
645.9      0.3448981  0.1237899  0.04225528
646        0.3448991  0.1237896  0.04225242
646.1      0.3279995  0.135498   0.04661927
646.2      0.305904   0.1584068  0.05545995
646.3      0.3059053  0.1584062  0.05545601
646.4      0.2973968  0.1754425  0.06616136
646.5      0.2973984  0.1754416  0.06615651
646.6      0.3145542  0.1673908  0.05512339
646.7      0.3358258  0.1862241  0.06676318
646.8      0.3358276  0.1862232  0.06675826
646.9      0.329583   0.2034715  0.06787681
647        0.3295849  0.2034704  0.06787179
647.1      0.3411606  0.196751   0.0773682 
647.2      0.3397235  0.2083184  0.07148103
647.3      0.3397254  0.2083173  0.07147569
647.4      0.3293301  0.2163362  0.07274924
647.5      0.3293321  0.216335   0.0727438 
647.6      0.3277541  0.2228033  0.08400016
647.7      0.3140546  0.2575463  0.1281113 
647.8      0.3140584  0.2575434  0.1281004 
647.9      0.2804449  0.3114916  0.1887749 
648        0.2804509  0.3114853  0.188757  
648.1      0.2618221  0.3392873  0.2053971 
648.2      0.2396793  0.4234218  0.2319296 
648.3      0.2396872  0.4234087  0.2319063 
648.4      0.210793   0.5606585  0.3032212 
648.5      0.2108041  0.5606305  0.3031882 
648.6      0.2155846  0.5503097  0.2883338 
648.7      0.227215   0.4654293  0.240107  
648.8      0.2272235  0.4654129  0.2400827 
648.9      0.2332062  0.4415487  0.2336358 
649        0.2332142  0.4415345  0.2336123 
649.1      0.2303945  0.4659808  0.2276152 
649.2      0.2067824  0.5093414  0.2586271 
649.3      0.2067915  0.5093203  0.2586003 
649.4      0.2172516  0.4634858  0.2295516 
649.5      0.2172594  0.4634701  0.2295286 
649.6      0.2227637  0.4532672  0.2194571 
649.7      0.2476819  0.3977123  0.1902051 
649.8      0.247688   0.397703   0.1901871 
649.9      0.256672   0.3610069  0.185224  
650        0.2566779  0.3609991  0.1852065 
650.1      0.2434703  0.3911885  0.1838814 
650.2      0.2464589  0.386216   0.1640429 
650.3      0.246464   0.3862084  0.164028  
650.4      0.2408835  0.3521773  0.1544193 
650.5      0.2408881  0.3521708  0.1544055 
650.6      0.2359511  0.3457929  0.1632221 
650.7      0.2303836  0.3297803  0.1835034 
650.8      0.2303894  0.3297725  0.1834861 
650.9      0.2462793  0.318191   0.1877515 
651        0.2462853  0.3181837  0.1877337 
651.1      0.235199   0.3417882  0.1972062 
651.2      0.2196676  0.3802594  0.2041154 
651.3      0.2196742  0.3802485  0.2040956 
651.4      0.2079699  0.3904446  0.2210931 
651.5      0.2079774  0.3904314  0.2210712 
651.6      0.2106583  0.3499692  0.219568  
651.7      0.2284134  0.2925161  0.2171451 
651.8      0.2284211  0.2925067  0.2171237 
651.9      0.2516374  0.2419071  0.2112216 
652        0.2516444  0.2419008  0.211201  
652.1      0.2580806  0.2273088  0.169728  
652.2      0.2627274  0.1970883  0.1341608 
652.3      0.2627314  0.1970854  0.1341492 
652.4      0.2628431  0.1923295  0.1301575 
652.5      0.2628469  0.1923268  0.1301464 
652.6      0.2631068  0.1900258  0.1348409 
652.7      0.2587336  0.1912773  0.1440862 
652.8      0.258738   0.1912742  0.1440735 
652.9      0.267203   0.1936402  0.1376781 
653        0.267207   0.1936375  0.1376662 
653.1      0.2723574  0.1959944  0.134615  
653.2      0.2682332  0.2146893  0.1420491 
653.3      0.2682375  0.2146861  0.1420367 
653.4      0.2809442  0.2108421  0.1606079 
653.5      0.2809492  0.2108385  0.1605934 
653.6      0.282749   0.2108879  0.1502948 
653.7      0.2926658  0.2008422  0.1246666 
653.8      0.2926693  0.2008399  0.1246561 
653.9      0.2992842  0.2054714  0.1109386 
654        0.2992873  0.2054694  0.1109295 
654.1      0.2957971  0.2178811  0.1139809 
654.2      0.2834707  0.2194422  0.1025839 
654.3      0.2834735  0.2194401  0.1025757 
654.4      0.287331   0.2172787  0.09819048
654.5      0.2873337  0.2172768  0.09818264
654.6      0.3005847  0.2122655  0.09444758
654.7      0.3103369  0.2040631  0.08315799
654.8      0.310339   0.2040618  0.08315162
654.9      0.3074636  0.2343931  0.09342647
655        0.3074663  0.2343912  0.0934191 
655.1      0.3080678  0.2449055  0.09532297
655.2      0.268782   0.3039164  0.1139278 
655.3      0.2687854  0.3039128  0.1139184 
655.4      0.2699246  0.3144661  0.1250205 
655.5      0.279071   0.3124277  0.1280736 
655.6      0.2920972  0.3018752  0.1175086 
655.7      0.2862873  0.3156035  0.1212357 
655.8      0.2921182  0.3221489  0.1132161 
655.9      0.2936842  0.3261007  0.1088285 
656        0.3086865  0.3106929  0.09470745
656.1      0.3079036  0.3194266  0.09297689
656.2      0.311953   0.3182164  0.08680842
656.3      0.3172759  0.3174992  0.08022785
656.4      0.333418   0.3095563  0.08296455
656.5      0.3107071  0.3362156  0.100644  
656.6      0.290512   0.3681521  0.09997806
656.7      0.3023522  0.3695722  0.107191  
656.8      0.2948485  0.3958379  0.1112717 
