~Version
 VERS              .         3.0                           : CWLS LOG ASCII STANDARD - VERSION 3.0
 WRAP              .         NO                            : ONE LINE PER DEPTH STEP
 DLM               .         SPACE                         : DELIMITING CHARACTER(SPACE TAB OR COMMA)
~Well Information
#_______________________________________________________________________________
#
#PARAMETER_NAME    .UNIT     VALUE                         : DESCRIPTION
#_______________________________________________________________________________
STRT               .M        4                             : First reference value
STOP               .M        853                           : Last reference value
STEP               .M        0.1                           : Step increment
NULL               .         -9999                         : Missing value
COMP               .         ICPetroleum                   : Company
WELL               .         307                           : Well name
FLD                .         Karatobe                      : Field
LOC                .                                       : Location
SRVC               .                                       : Service Company
CTRY               .         KZ                            : Country
DATE               .         03-04.12.21                   : Service Date
LATI               .         0                             : Latitude
LONG               .         0                             : Longitude
GDAT               .         WGS 84                        : Geodetic Datum
CNTY               .                                       : 
COORDIN            .                                       : Grid System
COUNT              .         KAZAKHSTAN                    : Country
COUNTRY            .         Kazakhstan                    : 
COUNTRY            .         Kazakhstan                    : 
EREF               .m        138.3                         : 
KB                 .         137.7                         : KB Elevation
ORIGINALWELLNAME   .         307                           : 
PROV               .                                       : Province
RWS                .         -999                          : Def_Rw
STAT               .                                       : 
UWI                .         1_307                         : Unique Well Identifier (UWI)
WST                .         -999                          : Def_Rwt
X                  .km       466769.49                     : 
XCOORD             .                                       : X or East-West Coordinate
Y                  .km       5308384.04                    : 
YCOORD             .                                       : Y or North-South Coordinate
~Parameter Information Block
#_______________________________________________________________________________
#
#PARAMETER_NAME    .UNIT     VALUE                         : DESCRIPTION
#_______________________________________________________________________________
SET                .         Las                           : 
BS                 .MM       215.9                         : Bit Size
DFD                .G/C3     1.15                          : Drilling Fluid Density
TDD                .M        847.0                         : Total Depth Driller
TLFamily_DEPT      .         Measured Depth                : 
TLFamily_PHI_FINAL .         Porosity                      : 
TLFamily_SW_AR     .         Water Saturation              : 
TLFamily_VSH_FINAL .         Shale Volume                  : 
~Curve Information
#_______________________________________________________________________________
#
#LOGNAME           .UNIT     LOG_ID                        : DESCRIPTION
#_______________________________________________________________________________
DEPT               .M                                      : Depth Curve {F}
PHI_FINAL          .m3/m3                                  : Porosity {F}
SW_AR              .m3/m3                                  :  {F}
VSH_FINAL          .unitless                               : Vshale {F}
~Ascii
# ...
165.5      0.1268633  0.7680364  0.742725  
165.6      0.1386958  0.7036947  0.7098463 
165.7      0.1312867  0.737981   0.7369386 
165.8      0.1660898  0.5889768  0.6640948 
165.9      0.1596294  0.6042235  0.6582125 
166        0.1655239  0.5797629  0.6375286 
166.1      0.1815468  0.5444933  0.5891899 
166.2      0.1865541  0.5422618  0.584608  
166.3      0.1779101  0.5686858  0.6384418 
166.4      0.2066235  0.4931412  0.5661143 
166.5      0.1976747  0.5135117  0.5852306 
166.6      0.1806419  0.5587263  0.5981688 
166.7      0.1760614  0.5693884  0.6216827 
166.8      0.1633253  0.6032241  0.629538  
166.9      0.1605871  0.6095062  0.6595892 
167        0.1507275  0.6452478  0.6521958 
167.1      0.1679818  0.5787712  0.6337091 
167.2      0.1645698  0.5898706  0.624833  
167.3      0.1803565  0.5396972  0.6024479 
167.4      0.1859308  0.5201958  0.6023383 
167.5      0.1992127  0.4861558  0.5606923 
167.6      0.1703758  0.5637319  0.6427475 
167.7      0.1757756  0.5440503  0.6421189 
167.8      0.190169   0.5022668  0.5932949 
167.9      0.1931233  0.4925699  0.5893984 
168        0.1803034  0.5184143  0.5954585 
168.1      0.2061075  0.4527464  0.5175329 
168.2      0.1985384  0.4685415  0.5270054 
168.3      0.2419343  0.3801959  0.4438479 
168.4      0.2342276  0.3878047  0.4430351 
168.5      0.2380309  0.3944946  0.4487164 
168.6      0.2394322  0.4026187  0.4555913 
168.7      0.2467715  0.3960265  0.4329426 
168.8      0.2172859  0.4455604  0.4988635 
168.9      0.1974023  0.4830031  0.5356265 
169        0.1990579  0.4717729  0.5220085 
169.1      0.177007   0.520327   0.5762202 
169.2      0.1739987  0.5296429  0.599413  
169.3      0.1688737  0.5457406  0.5741665 
169.4      0.1877908  0.5047316  0.5449923 
169.5      0.202352   0.4750001  0.5095869 
169.6      0.2019866  0.4780942  0.5201928 
169.7      0.2010455  0.4841281  0.4934243 
169.8      0.2142347  0.458599   0.484316  
169.9      0.2181678  0.45447    0.4781007 
170        0.1981844  0.5029926  0.5191975 
170.1      0.2106931  0.4785378  0.4714859 
170.2      0.2081776  0.489803   0.4739388 
170.3      0.1990766  0.5142248  0.4977839 
170.4      0.2112375  0.4915443  0.4360816 
170.5      0.2151664  0.4917292  0.447412  
170.6      0.2182492  0.4944365  0.4495728 
170.7      0.2013361  0.5484735  0.5087391 
170.8      0.1766425  0.6410902  0.5853862 
170.9      0.1764793  0.6565639  0.5539579 
171        0.1838068  0.6365298  0.5212533 
171.1      0.2208078  0.5364959  0.4319578 
171.2      0.2131664  0.5531939  0.4684825 
171.3      0.2395188  0.4897157  0.4291179 
171.4      0.2411929  0.4817542  0.4192775 
171.5      0.2244582  0.5163361  0.4524519 
171.6      0.2300641  0.5091904  0.4233792 
171.7      0.2091206  0.5623885  0.4746892 
171.8      0.2001891  0.5872286  0.5241328 
171.9      0.2041818  0.5801039  0.5045931 
172        0.2376251  0.5096688  0.4232801 
172.1      0.2376125  0.5124304  0.4214419 
172.2      0.256053   0.4744252  0.3800813 
172.3      0.2707097  0.446299   0.3519004 
172.4      0.2765568  0.4380174  0.3512378 
172.5      0.2863093  0.4267944  0.3308569 
172.6      0.3016053  0.4062909  0.3136504 
172.7      0.2848919  0.4253801  0.3472944 
172.8      0.283646   0.4237668  0.3275341 
172.9      0.291687   0.4131304  0.2948203 
173        0.2713005  0.4471047  0.342197  
173.1      0.2645957  0.4636809  0.3534465 
173.2      0.2455214  0.4970292  0.391941  
173.3      0.2435656  0.494532   0.3942096 
173.4      0.2329311  0.5145626  0.4085443 
173.5      0.2433947  0.4992625  0.3825465 
173.6      0.2431201  0.4996699  0.3915253 
173.7      0.2437297  0.4875534  0.4102401 
173.8      0.2576443  0.4531308  0.3392609 
173.9      0.2646765  0.4427664  0.3269904 
174        0.2474032  0.479151   0.346301  
174.1      0.24241    0.4883412  0.3380741 
174.2      0.2314225  0.502375   0.3436519 
174.3      0.2247331  0.4935145  0.3659326 
174.4      0.2216997  0.475572   0.3885484 
174.5      0.2189616  0.4755265  0.412127  
174.6      0.2199037  0.4799978  0.4635177 
174.7      0.2113805  0.508022   0.4920385 
174.8      0.2222271  0.488647   0.464509  
174.9      0.2327233  0.4796175  0.444346  
175        0.2221565  0.5059878  0.478883  
175.1      0.2360103  0.4825233  0.4504976 
175.2      0.2331239  0.485607   0.4424714 
175.3      0.2146683  0.5146241  0.4668019 
175.4      0.2116346  0.520242   0.4880519 
175.5      0.2263139  0.4939558  0.4620585 
175.6      0.2185339  0.5183439  0.5083779 
175.7      0.2089352  0.5494881  0.5346668 
175.8      0.204405   0.5676304  0.5311336 
175.9      0.2178842  0.5448939  0.4748355 
176        0.2074437  0.5764865  0.4871567 
176.1      0.216302   0.5547084  0.4525476 
176.2      0.2072984  0.5773862  0.4769358 
176.3      0.2010885  0.5961733  0.4801867 
176.4      0.1848034  0.6497728  0.5267372 
176.5      0.1825058  0.6611387  0.5082108 
176.6      0.1915816  0.6369438  0.4830947 
176.7      0.1761086  0.7001418  0.5296606 
176.8      0.1714914  0.7250935  0.5145826 
176.9      0.1616548  0.7716984  0.5068321 
177        0.1811171  0.7096689  0.5127407 
177.1      0.2117714  0.6301507  0.4454933 
177.2      0.1891298  0.703432   0.4921523 
177.3      0.1972831  0.6803666  0.4731359 
177.4      0.2082955  0.65623    0.4568176 
177.5      0.204692   0.677891   0.4694986 
177.6      0.2028268  0.6923717  0.4990776 
177.7      0.2079247  0.6828865  0.5096388 
177.8      0.2031158  0.7033309  0.5120353 
177.9      0.2238377  0.6513457  0.4697616 
178        0.2163795  0.6797151  0.4878907 
178.1      0.194993   0.7552074  0.5542619 
178.2      0.1620867  0.9059148  0.6436206 
178.3      0.1625072  0.9138999  0.6640391 
178.4      0.1554527  0.9612364  0.6963503 
178.5      0.1534391  0.9789335  0.711018  
178.6      0.1547734  0.9808856  0.7048222 
178.7      0.1518328  1          0.727231  
178.8      0.1782571  0.8724008  0.6757435 
178.9      0.1846656  0.8472205  0.6506714 
179        0.1966466  0.8113604  0.6136991 
179.1      0.1917689  0.8312941  0.6317722 
179.2      0.1672637  0.9501294  0.6920573 
179.3      0.1708555  0.9422241  0.6846763 
179.4      0.1666058  0.976684   0.714514  
179.5      0.1742365  0.9415206  0.67039   
179.6      0.1794026  0.9149395  0.6645184 
179.7      0.1545852  1          0.7266921 
179.8      0.1413907  1          0.7687559 
179.9      0.1354927  1          0.7941765 
180        0.1539055  1          0.7637306 
180.1      0.1476723  1          0.7591755 
180.2      0.1362651  1          0.7986056 
180.3      0.1495907  1          0.748693  
180.4      0.1447924  1          0.7666808 
180.5      0.1495307  1          0.7121965 
180.6      0.161477   1          0.707374  
180.7      0.1762678  0.9448172  0.681289  
180.8      0.1833013  0.9133897  0.6604514 
180.9      0.1826177  0.9127738  0.6704796 
181        0.1674953  0.9771498  0.7115231 
181.1      0.1460929  1          0.7733514 
181.2      0.1408093  1          0.7652014 
181.3      0.1502911  1          0.7469689 
181.4      0.165266   1          0.7176377 
181.5      0.1521968  1          0.7429417 
181.6      0.1911187  0.8879786  0.6421314 
181.7      0.1882605  0.9132318  0.6422655 
181.8      0.1875024  0.9182608  0.6477134 
181.9      0.1802182  0.9491255  0.670282  
182        0.1903     0.9031717  0.6235095 
182.1      0.1491114  1          0.7452487 
182.2      0.1580506  1          0.730562  
182.3      0.1521207  1          0.7329703 
182.4      0.1900237  0.8995666  0.6179244 
182.5      0.2018037  0.846201   0.5922433 
182.6      0.2254886  0.7601893  0.5321286 
182.7      0.2042202  0.8430899  0.6378276 
182.8      0.1803676  0.9545638  0.7022609 
182.9      0.1275987  1          0.8301527 
183        0.1316427  1          0.8040521 
183.1      0.1436935  1          0.7697724 
183.2      0.1498384  1          0.7728859 
183.3      0.1410962  1          0.8106875 
183.4      0.1442529  1          0.813947  
183.5      0.1798526  0.9014672  0.6988907 
183.6      0.1809289  0.8838555  0.6794662 
