~Version
 VERS              .         3.0                           : CWLS LOG ASCII STANDARD - VERSION 3.0
 WRAP              .         NO                            : ONE LINE PER DEPTH STEP
 DLM               .         SPACE                         : DELIMITING CHARACTER(SPACE TAB OR COMMA)
~Well Information
#_______________________________________________________________________________
#
#PARAMETER_NAME    .UNIT     VALUE                         : DESCRIPTION
#_______________________________________________________________________________
STRT               .M        4                             : First reference value
STOP               .M        853                           : Last reference value
STEP               .M        0.1                           : Step increment
NULL               .         -9999                         : Missing value
COMP               .         ICPetroleum                   : Company
WELL               .         307                           : Well name
FLD                .         Karatobe                      : Field
LOC                .                                       : Location
SRVC               .                                       : Service Company
CTRY               .         KZ                            : Country
DATE               .         03-04.12.21                   : Service Date
LATI               .         0                             : Latitude
LONG               .         0                             : Longitude
GDAT               .         WGS 84                        : Geodetic Datum
CNTY               .                                       : 
COORDIN            .                                       : Grid System
COUNT              .         KAZAKHSTAN                    : Country
COUNTRY            .         Kazakhstan                    : 
COUNTRY            .         Kazakhstan                    : 
EREF               .m        138.3                         : 
KB                 .         137.7                         : KB Elevation
ORIGINALWELLNAME   .         307                           : 
PROV               .                                       : Province
RWS                .         -999                          : Def_Rw
STAT               .                                       : 
UWI                .         1_307                         : Unique Well Identifier (UWI)
WST                .         -999                          : Def_Rwt
X                  .km       466769.49                     : 
XCOORD             .                                       : X or East-West Coordinate
Y                  .km       5308384.04                    : 
YCOORD             .                                       : Y or North-South Coordinate
~Parameter Information Block
#_______________________________________________________________________________
#
#PARAMETER_NAME    .UNIT     VALUE                         : DESCRIPTION
#_______________________________________________________________________________
SET                .         Las                           : 
BS                 .MM       215.9                         : Bit Size
DFD                .G/C3     1.15                          : Drilling Fluid Density
TDD                .M        847.0                         : Total Depth Driller
TLFamily_DEPT      .         Measured Depth                : 
TLFamily_PHI_FINAL .         Porosity                      : 
TLFamily_SW_AR     .         Water Saturation              : 
TLFamily_VSH_FINAL .         Shale Volume                  : 
~Curve Information
#_______________________________________________________________________________
#
#LOGNAME           .UNIT     LOG_ID                        : DESCRIPTION
#_______________________________________________________________________________
DEPT               .M                                      : Depth Curve {F}
PHI_FINAL          .m3/m3                                  : Porosity {F}
SW_AR              .m3/m3                                  :  {F}
VSH_FINAL          .unitless                               : Vshale {F}
~Ascii
# ...
511.3      0.1149624  1          0.5438377 
511.4      0.08368721 1          0.6190482 
511.5      0.08371732 1          0.6189583 
511.6      0.07422357 1          0.6970555 
511.7      0.0678216  1          0.7347878 
511.8      0.05444235 1          0.7360434 
511.9      0.03324893 1          0.7737428 
512        0.03328912 1          0.7736229 
512.1      0.03785156 1          0.7553248 
512.2      0.05268362 1          0.6977297 
512.3      0.0527189  1          0.6976245 
512.4      0.0492267  1          0.7276545 
512.5      0.04926412 1          0.7275435 
512.6      0.05710332 1          0.7335501 
512.7      0.1050883  1          0.5810169 
512.8      0.1051161  1          0.5809339 
512.9      0.09978054 1          0.5029925 
513        0.0998038  1          0.5029238 
513.1      0.1036333  1          0.4295647 
513.2      0.03623894 1          0.4197572 
513.3      0.03625725 1          0.4197028 
513.4      0.006600976 1          0.3304223 
513.5      0.006605167 1          0.3303825 
513.6      0.002185499 1          0.3261076 
513.7      0.005842734 1          0.3070553 
513.8      0.005846549 1          0.3070191 
513.9      0.01851896 1          0.2667748 
514        0.01852214 1          0.2667446 
514.1      0.0273718  1          0.2959993 
514.2      0.103238   1          0.3934862 
514.3      0.1032551  1          0.3934362 
514.4      0.08834195 1          0.6076552 
514.5      0.0883716  1          0.6075673 
514.6      0.09139497 1          0.6379027 
514.7      0.07436597 1          0.6779866 
514.8      0.07439994 1          0.6778857 
514.9      0.06393651 1          0.6771501 
515        0.06397033 1          0.6770491 
515.1      0.05142259 1          0.6809741 
515.2      0.1055575  1          0.5205743 
515.3      0.1055817  1          0.5205027 
515.4      0.1240068  1          0.4727565 
515.5      0.1240282  1          0.4726931 
515.6      0.1189829  1          0.4661798 
515.7      0.1167975  1          0.4711783 
515.8      0.1168186  1          0.4711152 
515.9      0.159254   1          0.3630581 
516        0.1592691  1          0.3630132 
516.1      0.1847559  1          0.3084664 
516.2      0.184665   1          0.3035653 
516.3      0.184677   1          0.3035297 
516.4      0.1952991  1          0.2964704 
516.5      0.1953107  1          0.2964359 
516.6      0.1949068  1          0.3132075 
516.7      0.2094685  1          0.3027436 
516.8      0.2094805  1          0.3027082 
516.9      0.2209836  1          0.303853  
517        0.2209957  1          0.3038174 
517.1      0.2255827  1          0.2986591 
517.2      0.2263626  1          0.3034239 
517.3      0.2263746  1          0.3033883 
517.4      0.2204182  1          0.3103902 
517.5      0.2204305  1          0.3103537 
517.6      0.2302774  1          0.2891727 
517.7      0.246798   1          0.2526194 
517.8      0.246808   1          0.2525913 
517.9      0.2542488  1          0.263546  
518        0.2542594  1          0.2635164 
518.1      0.2561861  1          0.2403462 
518.2      0.2752685  1          0.2136618 
518.3      0.2752766  1          0.2136391 
518.4      0.286202   1          0.191591  
518.5      0.2862091  1          0.1915714 
518.6      0.2787693  1          0.2170483 
518.7      0.2734171  1          0.2380431 
518.8      0.2734261  1          0.2380171 
518.9      0.2742639  1          0.2200745 
519        0.2742723  1          0.2200511 
519.1      0.2593421  1          0.2250286 
519.2      0.2232887  1          0.2435712 
519.3      0.2232983  1          0.2435444 
519.4      0.2487525  1          0.2344091 
519.5      0.2487617  1          0.2343837 
519.6      0.2548037  1          0.2442801 
519.7      0.2273161  1          0.4183314 
519.8      0.2273342  1          0.4182774 
519.9      0.07141889 1          0.7539573 
520        0.07145941 1          0.7538415 
520.1      0.04781668 1          0.8275622 
520.2      0.01186626 1          0.9429893 
520.3      0.01189135 1          0.942835  
520.4      0.02494654 1          0.8151404 
520.5      0.02497521 1          0.8150125 
520.6      0.02460913 1          0.8506712 
520.7      0.01038686 1          1         
520.8      0.01038686 1          1         
520.9      0.02532703 1          0.9815716 
521        0.02536293 1          0.9814093 
521.1      0.09805162 1          0.795305  
521.2      0.1600407  1          0.6656373 
521.3      0.1600749  1          0.6655391 
521.4      0.2834135  1          0.3832836 
521.5      0.2834304  1          0.3832355 
521.6      0.3450072  1          0.2320123 
521.7      0.3772407  0.9603107  0.1517772 
521.8      0.3772458  0.9602983  0.1517626 
521.9      0.3097239  1          0.221642  
522        0.3097323  1          0.2216183 
522.1      0.2831278  1          0.2472487 
522.2      0.252677   1          0.2846776 
522.3      0.2526887  1          0.284645  
522.4      0.2528492  1          0.3213484 
522.5      0.252863   1          0.3213101 
522.6      0.2292411  1          0.3693646 
522.7      0.1871657  1          0.4841137 
522.8      0.1871889  1          0.4840488 
522.9      0.1506967  1          0.5946221 
523        0.1507267  1          0.5945374 
523.1      0.1822875  1          0.558327  
523.2      0.2066098  1          0.5541799 
523.3      0.2066368  1          0.5541024 
523.4      0.2599025  1          0.4622769 
523.5      0.2599242  1          0.4622158 
523.6      0.2742305  1          0.4356691 
523.7      0.2065824  1          0.5260503 
523.8      0.2066083  1          0.5259778 
523.9      0.07944287 1          0.7358811 
524        0.07948254 1          0.7357693 
524.1      0.03346627 1          0.856822  
524.2      0.0136344  1          0.9315086 
524.3      0.01365907 1          0.931357  
524.4      0.03207393 1          0.8530425 
524.5      0.03210394 1          0.8529075 
524.6      0.02722292 1          0.8652757 
524.7      0.06424163 1          0.7586188 
524.8      0.06428217 1          0.7585025 
524.9      0.04183524 1          0.8464381 
525        0.04186498 1          0.8463044 
525.1      0.05566052 1          0.8185911 
525.2      0.1578841  1          0.6488661 
525.3      0.1579178  1          0.648771  
525.4      0.2095672  1          0.5860029 
525.5      0.2095965  1          0.5859196 
525.6      0.2093265  1          0.5891719 
525.7      0.1570895  1          0.6039218 
525.8      0.1571205  1          0.6038352 
525.9      0.0928999  1          0.6759918 
526        0.09293544 1          0.6758916 
526.1      0.08584229 1          0.6914642 
526.2      0.07809094 1          0.7008315 
526.3      0.07812866 1          0.7007266 
526.4      0.05812207 1          0.758505  
526.5      0.05816383 1          0.7583889 
526.6      0.04464959 1          0.7928895 
526.7      0.04208457 1          0.7998088 
526.8      0.04212904 1          0.7996848 
526.9      0.05288759 1          0.7637506 
527        0.05292973 1          0.7636334 
527.1      0.05903639 1          0.7764693 
527.2      0.06839768 1          0.7353647 
527.3      0.06843758 1          0.7352534 
527.4      0.07260601 1          0.7115482 
527.5      0.0726433  1          0.7114413 
527.6      0.05978303 1          0.7221509 
527.7      0.06953705 1          0.6881149 
527.8      0.06957314 1          0.6880125 
527.9      0.05128283 1          0.7480066 
528        0.05132293 1          0.7478926 
528.1      0.0632092  1          0.7445754 
528.2      0.09217023 1          0.6829399 
528.3      0.09220643 1          0.6828389 
528.4      0.05087759 1          0.8047758 
528.5      0.05092231 1          0.8046506 
528.6      0.02509927 1          0.8471386 
528.7      0.02462152 1          0.8753921 
528.8      0.02465245 1          0.875253  
528.9      0.0109253  1          0.9589122 
529        0.01095063 1          0.9587557 
529.1      0.01350502 1          0.9548716 
529.2      0.0165891  1          0.9504319 
529.3      0.01661214 1          0.9502769 
529.4      0.01650057 1          0.9532602 
