~Version
 VERS              .         3.0                           : CWLS LOG ASCII STANDARD - VERSION 3.0
 WRAP              .         NO                            : ONE LINE PER DEPTH STEP
 DLM               .         SPACE                         : DELIMITING CHARACTER(SPACE TAB OR COMMA)
~Well Information
#_______________________________________________________________________________
#
#PARAMETER_NAME    .UNIT     VALUE                         : DESCRIPTION
#_______________________________________________________________________________
STRT               .M        4                             : First reference value
STOP               .M        853                           : Last reference value
STEP               .M        0.1                           : Step increment
NULL               .         -9999                         : Missing value
COMP               .         ICPetroleum                   : Company
WELL               .         307                           : Well name
FLD                .         Karatobe                      : Field
LOC                .                                       : Location
SRVC               .                                       : Service Company
CTRY               .         KZ                            : Country
DATE               .         03-04.12.21                   : Service Date
LATI               .         0                             : Latitude
LONG               .         0                             : Longitude
GDAT               .         WGS 84                        : Geodetic Datum
CNTY               .                                       : 
COORDIN            .                                       : Grid System
COUNT              .         KAZAKHSTAN                    : Country
COUNTRY            .         Kazakhstan                    : 
COUNTRY            .         Kazakhstan                    : 
EREF               .m        138.3                         : 
KB                 .         137.7                         : KB Elevation
ORIGINALWELLNAME   .         307                           : 
PROV               .                                       : Province
RWS                .         -999                          : Def_Rw
STAT               .                                       : 
UWI                .         1_307                         : Unique Well Identifier (UWI)
WST                .         -999                          : Def_Rwt
X                  .km       466769.49                     : 
XCOORD             .                                       : X or East-West Coordinate
Y                  .km       5308384.04                    : 
YCOORD             .                                       : Y or North-South Coordinate
~Parameter Information Block
#_______________________________________________________________________________
#
#PARAMETER_NAME    .UNIT     VALUE                         : DESCRIPTION
#_______________________________________________________________________________
SET                .         Las                           : 
BS                 .MM       215.9                         : Bit Size
DFD                .G/C3     1.15                          : Drilling Fluid Density
TDD                .M        847.0                         : Total Depth Driller
TLFamily_DEPT      .         Measured Depth                : 
TLFamily_PHI_FINAL .         Porosity                      : 
TLFamily_SW_AR     .         Water Saturation              : 
TLFamily_VSH_FINAL .         Shale Volume                  : 
~Curve Information
#_______________________________________________________________________________
#
#LOGNAME           .UNIT     LOG_ID                        : DESCRIPTION
#_______________________________________________________________________________
DEPT               .M                                      : Depth Curve {F}
PHI_FINAL          .m3/m3                                  : Porosity {F}
SW_AR              .m3/m3                                  :  {F}
VSH_FINAL          .unitless                               : Vshale {F}
~Ascii
# ...
383.9      0.2333325  0.7313685  0.3883229 
384        0.2213285  0.7892977  0.4078681 
384.1      0.2213475  0.7892337  0.4078114 
384.2      0.2081926  0.8780446  0.4389162 
384.3      0.2018027  0.978679   0.4646676 
384.4      0.18682    1          0.4739318 
384.5      0.193474   0.9764781  0.4752086 
384.6      0.1934984  0.9763612  0.4751396 
384.7      0.1931621  0.9545804  0.5047925 
384.8      0.1695256  1          0.4773628 
384.9      0.1895594  1          0.4528303 
385        0.1901102  1          0.431543  
385.1      0.1901305  1          0.431482  
385.2      0.1892968  1          0.4125389 
385.3      0.1206587  1          0.3644668 
385.4      0.129004   1          0.3438584 
385.5      0.07951405 1          0.3661257 
385.6      0.07953192 1          0.3660764 
385.7      0.09664271 1          0.4080883 
385.8      0.1345983  1          0.4677967 
385.9      0.1262065  1          0.4782877 
386        0.09819617 1          0.452762  
386.1      0.09821814 1          0.4526971 
386.2      0.0783025  1          0.4076568 
386.3      0.02125312 1          0.2489751 
386.4      0.03134334 1          0.2003729 
386.5      0.04266784 1          0.2110492 
386.6      0.04267354 1          0.211025  
386.7      0.08182287 1          0.2450779 
386.8      0.1302051  1          0.3736665 
386.9      0.132848   1          0.4649027 
387        0.09717953 1          0.6187552 
387.1      0.09721222 1          0.6186578 
387.2      0.09615188 1          0.6543063 
387.3      0.05776522 1          0.7851781 
387.4      0.05422631 1          0.8213357 
387.5      0.06118803 1          0.7906824 
387.6      0.06123291 1          0.7905488 
387.7      0.07221234 1          0.7566358 
387.8      0.07596516 1          0.7656581 
387.9      0.08370757 1          0.7490872 
388        0.05755432 1          0.8317157 
388.1      0.05760207 1          0.8315732 
388.2      0.07911835 1          0.7557531 
388.3      0.06066259 1          0.8079266 
388.4      0.05900275 1          0.805915  
388.5      0.06397621 1          0.7890865 
388.6      0.06402058 1          0.7889536 
388.7      0.05527561 1          0.7983158 
388.8      0.04070447 1          0.8158537 
388.9      0.01756655 1          0.8501563 
389        0.03463624 1          0.7902587 
389.1      0.03468079 1          0.7901256 
389.2      0.01496148 1          0.8511214 
389.3      0.05736397 1          0.7259014 
389.4      0.08697399 1          0.6341074 
389.5      0.1013844  1          0.6061013 
389.6      0.101416   1          0.6060066 
389.7      0.1141858  1          0.5453513 
389.8      0.07768792 1          0.5020555 
389.9      0.04860114 1          0.4642101 
390        0.0342763  1          0.4156039 
390.1      0.03429011 1          0.4155461 
390.2      0.07182197 1          0.4005812 
390.3      0.09035238 1          0.5657684 
390.4      0.09085128 1          0.6804507 
390.5      0.05322252 1          0.8489383 
390.6      0.05327116 1          0.8487926 
390.7      0.03015367 1          0.9307341 
390.8      0.03219846 1          0.9437509 
390.9      0.01660337 1          1         
391        0.01780236 1          1         
391.1      0.01780236 1          1         
391.2      0.0183623  1          1         
391.3      0.01403934 1          1         
391.4      0.01533694 1          1         
391.5      0.01498061 1          1         
391.6      0.01498061 1          1         
391.7      0.02705747 1          0.9391728 
391.8      0.01658597 1          0.9864156 
391.9      0.02112482 1          0.9939719 
392        0.02111006 1          1         
392.1      0.02111006 1          1         
392.2      0.01836721 1          1         
392.3      0.04404112 1          0.8595214 
392.4      0.04984147 1          0.8386714 
392.5      0.05692384 1          0.8174735 
392.6      0.05697019 1          0.8173344 
392.7      0.06110831 1          0.7958398 
392.8      0.05894351 1          0.8268335 
392.9      0.02544046 1          0.9507418 
393        0.01611539 1          0.9855774 
393.1      0.01614159 1          0.9854006 
393.2      0.01298707 1          0.9971482 
393.3      0.01980627 1          0.9745263 
393.4      0.01646518 1          0.9711849 
393.5      0.01313742 1          1         
393.6      0.01313742 1          1         
393.7      0.01357469 1          1         
393.8      0.01957443 1          1         
393.9      0.0176003  1          1         
394        0.02773375 1          0.9298821 
394.1      0.02776885 1          0.9297182 
394.2      0.0322375  1          0.9171835 
394.3      0.02494553 1          0.9071773 
394.4      0.03686166 1          0.8355324 
394.5      0.04604748 1          0.8176681 
394.6      0.04609407 1          0.8175295 
394.7      0.02666993 1          0.8921164 
394.8      0.01081121 1          0.9981682 
394.9      0.009829362 1          0.9895983 
395        0.01394549 1          1         
395.1      0.01394549 1          1         
395.2      0.01962141 1          0.9370478 
395.3      0.01394549 1          1         
395.4      0.01152663 1          1         
395.5      0.01273336 1          1         
395.6      0.01273336 1          1         
395.7      0.01675107 1          1         
395.8      0.01134422 1          1         
395.9      0.01499377 1          0.9958756 
396        0.01076049 1          0.9999048 
396.1      0.01078703 1          0.9997255 
396.2      0.02049248 1          0.9409012 
396.3      0.02210984 1          0.926127  
396.4      0.03772144 1          0.8891925 
396.5      0.03525959 1          0.9209808 
396.6      0.03531316 1          0.9208195 
396.7      0.0329725  1          0.9324435 
396.8      0.02266397 1          1         
396.9      0.01957443 1          1         
397        0.03833752 1          0.899964  
397.1      0.03838962 1          0.8998071 
397.2      0.04529971 1          0.8940796 
397.3      0.1032499  1          0.7554077 
397.4      0.1034832  1          0.7327658 
397.5      0.1021501  1          0.7682992 
397.6      0.1021925  1          0.7681713 
397.7      0.1139706  1          0.7419741 
397.8      0.09034131 1          0.7661363 
397.9      0.07375432 1          0.7965098 
398        0.03095448 1          0.920062  
398.1      0.03098907 1          0.9199007 
398.2      0.0647115  1          0.8019108 
398.3      0.04038142 1          0.8549026 
398.4      0.08465298 1          0.746063  
398.5      0.0568951  1          0.7870796 
398.6      0.05694177 1          0.7869478 
398.7      0.03762285 1          0.8199356 
398.8      0.02014385 1          0.8939321 
398.9      0.02006803 1          0.8937771 
399        0.01925796 1          0.9298924 
399.1      0.01928444 1          0.929729  
399.2      0.0106771  1          0.9797954 
399.3      0.01489423 1          0.9840758 
399.4      0.01663462 1          0.9819894 
399.5      0.02268156 1          0.9625822 
399.6      0.02270677 1          0.9624114 
399.7      0.01715017 1          1         
399.8      0.02139262 1          1         
399.9      0.01533197 1          1         
400        0.01553894 1          1         
400.1      0.01553894 1          1         
400.2      0.01740487 1          1         
400.3      0.02535247 1          1         
400.4      0.03686328 1          0.9588681 
400.5      0.0348212  1          0.9423417 
400.6      0.0348566  1          0.942176  
400.7      0.04419948 1          0.9047552 
400.8      0.0214387  1          1         
400.9      0.01957443 1          1         
401        0.01957443 1          1         
401.1      0.01888781 1          1         
401.2      0.01437403 1          0.9791634 
401.3      0.01305164 1          0.9949557 
401.4      0.02338111 1          0.9293047 
401.5      0.03657899 1          0.863979  
401.6      0.03662817 1          0.8638306 
401.7      0.05172156 1          0.8048582 
401.8      0.0841276  1          0.6510696 
401.9      0.08703945 1          0.5805631 
402        0.08622526 1          0.5476654 
