~Version
 VERS              .         3.0                           : CWLS LOG ASCII STANDARD - VERSION 3.0
 WRAP              .         NO                            : ONE LINE PER DEPTH STEP
 DLM               .         SPACE                         : DELIMITING CHARACTER(SPACE TAB OR COMMA)
~Well Information
#_______________________________________________________________________________
#
#PARAMETER_NAME    .UNIT     VALUE                         : DESCRIPTION
#_______________________________________________________________________________
STRT               .M        4                             : First reference value
STOP               .M        853                           : Last reference value
STEP               .M        0.1                           : Step increment
NULL               .         -9999                         : Missing value
COMP               .         ICPetroleum                   : Company
WELL               .         307                           : Well name
FLD                .         Karatobe                      : Field
LOC                .                                       : Location
SRVC               .                                       : Service Company
CTRY               .         KZ                            : Country
DATE               .         03-04.12.21                   : Service Date
LATI               .         0                             : Latitude
LONG               .         0                             : Longitude
GDAT               .         WGS 84                        : Geodetic Datum
CNTY               .                                       : 
COORDIN            .                                       : Grid System
COUNT              .         KAZAKHSTAN                    : Country
COUNTRY            .         Kazakhstan                    : 
COUNTRY            .         Kazakhstan                    : 
EREF               .m        138.3                         : 
KB                 .         137.7                         : KB Elevation
ORIGINALWELLNAME   .         307                           : 
PROV               .                                       : Province
RWS                .         -999                          : Def_Rw
STAT               .                                       : 
UWI                .         1_307                         : Unique Well Identifier (UWI)
WST                .         -999                          : Def_Rwt
X                  .km       466769.49                     : 
XCOORD             .                                       : X or East-West Coordinate
Y                  .km       5308384.04                    : 
YCOORD             .                                       : Y or North-South Coordinate
~Parameter Information Block
#_______________________________________________________________________________
#
#PARAMETER_NAME    .UNIT     VALUE                         : DESCRIPTION
#_______________________________________________________________________________
SET                .         Las                           : 
BS                 .MM       215.9                         : Bit Size
DFD                .G/C3     1.15                          : Drilling Fluid Density
TDD                .M        847.0                         : Total Depth Driller
TLFamily_DEPT      .         Measured Depth                : 
TLFamily_PHI_FINAL .         Porosity                      : 
TLFamily_SW_AR     .         Water Saturation              : 
TLFamily_VSH_FINAL .         Shale Volume                  : 
~Curve Information
#_______________________________________________________________________________
#
#LOGNAME           .UNIT     LOG_ID                        : DESCRIPTION
#_______________________________________________________________________________
DEPT               .M                                      : Depth Curve {F}
PHI_FINAL          .m3/m3                                  : Porosity {F}
SW_AR              .m3/m3                                  :  {F}
VSH_FINAL          .unitless                               : Vshale {F}
~Ascii
# ...
292.9      0.2529479  1          0.3946716 
293        0.2676698  0.9750585  0.3710078 
293.1      0.2894634  0.9097795  0.3111965 
293.2      0.2849611  0.922606   0.3236108 
293.3      0.2692365  0.96989    0.3506407 
293.4      0.2592921  1          0.3627169 
293.5      0.2491589  1          0.3978588 
293.6      0.2322053  1          0.4336081 
293.7      0.239842   1          0.4259795 
293.8      0.2413278  1          0.4414877 
293.9      0.223558   1          0.4802879 
294        0.2433594  1          0.4233472 
294.1      0.2572414  1          0.3856428 
294.2      0.2352669  1          0.4174127 
294.3      0.2366757  1          0.4521886 
294.4      0.2454911  1          0.4250445 
294.5      0.2411236  1          0.4416925 
294.6      0.2304646  1          0.4595784 
294.7      0.2328     1          0.4595082 
294.8      0.2628339  1          0.3625637 
294.9      0.2402684  1          0.39093   
295        0.2516881  1          0.3470354 
295.1      0.2600122  1          0.3083382 
295.2      0.2682401  0.9932793  0.2886278 
295.3      0.2821555  0.9438593  0.2772219 
295.4      0.2779492  0.9533259  0.2990496 
295.5      0.2663029  0.972027   0.3345802 
295.6      0.2570147  0.9928228  0.3580354 
295.7      0.2603981  0.9849126  0.358267  
295.8      0.2606345  0.9902089  0.3654803 
295.9      0.2545007  1          0.3719356 
296        0.2569468  1          0.3877346 
296.1      0.2336487  1          0.4540365 
296.2      0.2426069  1          0.4350571 
296.3      0.2548403  1          0.4165911 
296.4      0.2721871  0.9625172  0.3837593 
296.5      0.2667381  0.9744807  0.3807261 
296.6      0.2604473  0.9900832  0.4111594 
296.7      0.2546815  1          0.4090474 
296.8      0.2551717  1          0.3962463 
296.9      0.2575105  1          0.4043835 
297        0.2470677  1          0.4408641 
297.1      0.2474213  1          0.4413006 
297.2      0.235122   1          0.4629694 
297.3      0.2326172  1          0.4826284 
297.4      0.2223589  1          0.5105376 
297.5      0.2073175  1          0.543015  
297.6      0.1906731  1          0.5753672 
297.7      0.1864512  1          0.5863104 
297.8      0.1758854  1          0.5898618 
297.9      0.103977   1          0.7520832 
298        0.03944921 1          0.8579995 
298.1      0.01169999 1          1         
298.2      0.01139696 1          1         
298.3      0.03887197 1          0.8638616 
298.4      0.130083   1          0.6519834 
298.5      0.2012761  1          0.5058773 
298.6      0.2369752  1          0.4085304 
298.7      0.2770883  1          0.3205249 
298.8      0.2765109  1          0.3202231 
298.9      0.2734747  1          0.3422762 
299        0.2851474  0.9771761  0.3072098 
299.1      0.2860807  0.9681503  0.3009856 
299.2      0.2938326  0.9367373  0.2889929 
299.3      0.2870318  0.9490108  0.3072097 
299.4      0.2841792  0.9542316  0.3007415 
299.5      0.308384   0.8784238  0.2479584 
299.6      0.304724   0.8843768  0.2605257 
299.7      0.3015435  0.8889961  0.2640201 
299.8      0.2944995  0.9040925  0.2721691 
299.9      0.2927991  0.9060007  0.2888428 
300        0.2832849  0.9328018  0.2853778 
300.1      0.2949599  0.8972749  0.2627778 
300.2      0.2923172  0.8961849  0.2724805 
300.3      0.2788831  0.9226776  0.3101683 
300.4      0.287972   0.8847496  0.2693597 
300.5      0.2798193  0.9001932  0.2780903 
300.6      0.2711449  0.9240529  0.307666  
300.7      0.2789313  0.8969055  0.3014413 
300.8      0.2626072  0.9450952  0.323736  
300.9      0.2543928  0.9658124  0.3424059 
301        0.2693554  0.9069714  0.3046446 
301.1      0.2683589  0.9040938  0.3095813 
301.2      0.2585441  0.9277349  0.3204574 
301.3      0.2596786  0.917605   0.3284712 
301.4      0.2679636  0.8823254  0.3115894 
301.5      0.2737801  0.8654723  0.2920381 
301.6      0.261793   0.906495   0.3438374 
301.7      0.2705614  0.8888651  0.3459724 
301.8      0.2610918  0.9224288  0.3229034 
301.9      0.2623003  0.9187345  0.3041516 
302        0.268082   0.9001402  0.317928  
302.1      0.2666867  0.9045945  0.3472851 
302.2      0.2593774  0.935698   0.3366704 
302.3      0.2615865  0.9424117  0.3136037 
302.4      0.24119    1          0.3167337 
302.5      0.2581282  0.9636787  0.3222061 
302.6      0.2716149  0.9207889  0.3124664 
302.7      0.2457559  1          0.3674721 
302.8      0.2582435  0.9769997  0.3035367 
302.9      0.248809   0.9972239  0.3208697 
303        0.273659   0.9002034  0.2545141 
303.1      0.2743752  0.8888463  0.2685283 
303.2      0.2745253  0.8778047  0.2529474 
303.3      0.2835172  0.844598   0.2553853 
303.4      0.2940116  0.8174783  0.2345715 
303.5      0.2691399  0.8961559  0.2434642 
303.6      0.27828    0.8786343  0.238379  
303.7      0.2883584  0.8556306  0.2383491 
303.8      0.287952   0.8574039  0.2394467 
303.9      0.2675546  0.9132428  0.262042  
304        0.2795318  0.8782638  0.2885759 
304.1      0.2617882  0.9348146  0.3433178 
304.2      0.2727766  0.8942586  0.3360048 
304.3      0.2689383  0.9025754  0.3429508 
304.4      0.2357433  1          0.3737965 
304.5      0.2523829  0.9542062  0.3934925 
304.6      0.2662509  0.9058341  0.353649  
304.7      0.2699912  0.8917429  0.3803701 
304.8      0.2640679  0.9112979  0.3314834 
304.9      0.2666649  0.9013054  0.3189694 
305        0.2848636  0.8437664  0.3073313 
305.1      0.2581945  0.9256616  0.3233825 
305.2      0.2782171  0.864491   0.320376  
305.3      0.2735784  0.8791245  0.3457341 
305.4      0.2519997  0.9446916  0.3646374 
305.5      0.2478706  0.9557434  0.3789037 
305.6      0.2351564  1          0.398651  
305.7      0.2245267  1          0.4106883 
305.8      0.222705   1          0.4485915 
305.9      0.2160525  1          0.4791179 
306        0.2071103  1          0.4918764 
306.1      0.1961074  1          0.5038025 
306.2      0.1702076  1          0.6105159 
306.3      0.1540831  1          0.6704006 
306.4      0.1117733  1          0.7233106 
306.5      0.1220459  1          0.7180767 
306.6      0.09635194 1          0.7634935 
306.7      0.05748646 1          0.8424178 
306.8      0.08119822 1          0.7833594 
306.9      0.09517705 1          0.7439519 
307        0.120684   1          0.6705614 
307.1      0.126065   1          0.6457273 
307.2      0.1707517  1          0.5081738 
307.3      0.1780739  1          0.4921644 
307.4      0.1576675  1          0.5423943 
307.5      0.1556761  1          0.5616683 
307.6      0.1550838  1          0.5558712 
307.7      0.1452175  1          0.5882262 
307.8      0.1122982  1          0.6339569 
307.9      0.1298347  1          0.6079265 
308        0.129943   1          0.5736068 
308.1      0.1202532  1          0.5829611 
308.2      0.1261657  1          0.5864697 
308.3      0.1412454  1          0.5589045 
308.4      0.1503484  1          0.5533373 
308.5      0.1601455  1          0.4984036 
308.6      0.1698712  1          0.468666  
308.7      0.2179337  1          0.3749855 
308.8      0.2185733  1          0.3553104 
308.9      0.2167238  1          0.3588913 
309        0.2248045  1          0.3368359 
309.1      0.2246937  1          0.3593512 
309.2      0.2179874  1          0.3798289 
309.3      0.2033826  1          0.426304  
309.4      0.1700171  1          0.5244632 
309.5      0.1347444  1          0.6166798 
309.6      0.1115431  1          0.7041857 
309.7      0.1114207  1          0.71766   
309.8      0.1094475  1          0.7193152 
309.9      0.08218689 1          0.7953444 
310        0.06844037 1          0.7977123 
310.1      0.09920714 1          0.675417  
310.2      0.07397164 1          0.7491184 
310.3      0.1060532  1          0.6623189 
310.4      0.1153254  1          0.6389549 
310.5      0.1155166  1          0.6406808 
310.6      0.1134244  1          0.6135698 
310.7      0.1271161  1          0.5423214 
310.8      0.1286858  1          0.4984678 
310.9      0.1292277  1          0.4429919 
311        0.1527079  1          0.4213818 
