~Version
 VERS              .         3.0                           : CWLS LOG ASCII STANDARD - VERSION 3.0
 WRAP              .         NO                            : ONE LINE PER DEPTH STEP
 DLM               .         SPACE                         : DELIMITING CHARACTER(SPACE TAB OR COMMA)
~Well Information
#_______________________________________________________________________________
#
#PARAMETER_NAME    .UNIT     VALUE                         : DESCRIPTION
#_______________________________________________________________________________
STRT               .M        4                             : First reference value
STOP               .M        853                           : Last reference value
STEP               .M        0.1                           : Step increment
NULL               .         -9999                         : Missing value
COMP               .         ICPetroleum                   : Company
WELL               .         307                           : Well name
FLD                .         Karatobe                      : Field
LOC                .                                       : Location
SRVC               .                                       : Service Company
CTRY               .         KZ                            : Country
DATE               .         03-04.12.21                   : Service Date
LATI               .         0                             : Latitude
LONG               .         0                             : Longitude
GDAT               .         WGS 84                        : Geodetic Datum
CNTY               .                                       : 
COORDIN            .                                       : Grid System
COUNT              .         KAZAKHSTAN                    : Country
COUNTRY            .         Kazakhstan                    : 
COUNTRY            .         Kazakhstan                    : 
EREF               .m        138.3                         : 
KB                 .         137.7                         : KB Elevation
ORIGINALWELLNAME   .         307                           : 
PROV               .                                       : Province
RWS                .         -999                          : Def_Rw
STAT               .                                       : 
UWI                .         1_307                         : Unique Well Identifier (UWI)
WST                .         -999                          : Def_Rwt
X                  .km       466769.49                     : 
XCOORD             .                                       : X or East-West Coordinate
Y                  .km       5308384.04                    : 
YCOORD             .                                       : Y or North-South Coordinate
~Parameter Information Block
#_______________________________________________________________________________
#
#PARAMETER_NAME    .UNIT     VALUE                         : DESCRIPTION
#_______________________________________________________________________________
SET                .         Las                           : 
BS                 .MM       215.9                         : Bit Size
DFD                .G/C3     1.15                          : Drilling Fluid Density
TDD                .M        847.0                         : Total Depth Driller
TLFamily_DEPT      .         Measured Depth                : 
TLFamily_PHI_FINAL .         Porosity                      : 
TLFamily_SW_AR     .         Water Saturation              : 
TLFamily_VSH_FINAL .         Shale Volume                  : 
~Curve Information
#_______________________________________________________________________________
#
#LOGNAME           .UNIT     LOG_ID                        : DESCRIPTION
#_______________________________________________________________________________
DEPT               .M                                      : Depth Curve {F}
PHI_FINAL          .m3/m3                                  : Porosity {F}
SW_AR              .m3/m3                                  :  {F}
VSH_FINAL          .unitless                               : Vshale {F}
~Ascii
# ...
729.7      0.06976482 1          0.1564597 
729.8      0.08997381 1          0.1497489 
729.9      0.09734786 1          0.1466774 
730        0.09419419 1          0.1513999 
730.1      0.08950496 1          0.1693431 
730.2      0.08880608 1          0.1617196 
730.3      0.09894245 1          0.1452555 
730.4      0.1018732  1          0.1152911 
730.5      0.09283836 1          0.09800962
730.6      0.1086444  1          0.0762693 
730.7      0.1085276  1          0.06266639
730.8      0.1148076  1          0.04731452
730.9      0.1029561  1          0.0416095 
731        0.1163312  1          0.03013404
731.1      0.12191    1          0.02516592
731.2      0.1291734  1          0.02847032
731.3      0.1311739  1          0.04366893
731.4      0.1444921  1          0.04838685
731.5      0.1443581  1          0.06284238
731.6      0.1312931  1          0.07126366
731.7      0.1410347  1          0.06614213
731.8      0.142346   1          0.06768357
731.9      0.1397903  1          0.06237323
732        0.1275626  1          0.06994724
732.1      0.134233   1          0.06726797
732.2      0.140209   1          0.05644052
732.3      0.139194   1          0.05569086
732.4      0.124646   1          0.05586374
732.5      0.1096027  1          0.04501087
732.6      0.1126591  1          0.04461897
732.7      0.1124325  1          0.03538989
732.8      0.1215124  1          0.03451769
732.9      0.1190955  1          0.03473555
733        0.1152745  1          0.03972706
733.1      0.1250941  1          0.03653782
733.2      0.113119   1          0.04305547
733.3      0.06695471 1          0.04658256
733.4      0.08701709 1          0.05019979
733.5      0.1078576  1          0.05071124
733.6      0.09518547 1          0.05002945
733.7      0.07814738 1          0.06395884
733.8      0.08165778 1          0.0540238 
733.9      0.081127   1          0.05782834
734        0.08139679 1          0.06091076
734.1      0.0915685  1          0.06032731
734.2      0.06369778 1          0.05534537
734.3      0.07928046 1          0.07072459
734.4      0.09348752 1          0.08380238
734.5      0.08480644 1          0.1113182 
734.6      0.08614393 1          0.1127708 
734.7      0.08550636 1          0.1229384 
734.8      0.09009327 1          0.1293428 
734.9      0.0951856  1          0.1140292 
735        0.0762642  1          0.1083618 
735.1      0.08602798 1          0.1051651 
735.2      0.07422505 1          0.1052951 
735.3      0.07176205 1          0.1016693 
735.4      0.08259851 1          0.09482498
735.5      0.08557708 1          0.0946981 
735.6      0.1006358  1          0.07949831
735.7      0.09929343 1          0.07475504
735.8      0.10035    1          0.07048526
735.9      0.08951996 1          0.04929224
736        0.08810462 1          0.04810436
736.1      0.08330386 1          0.050427  
736.2      0.08177581 1          0.05162218
736.3      0.06492862 1          0.05690258
736.4      0.05137968 1          0.06096915
736.5      0.05761114 1          0.06378235
736.6      0.07124495 1          0.07342717
736.7      0.06001268 1          0.083617  
736.8      0.05641725 1          0.09584148
736.9      0.05937655 1          0.1117799 
737        0.0612587  1          0.1253805 
737.1      0.06954443 1          0.1232091 
737.2      0.08634824 1          0.1060761 
737.3      0.08357691 1          0.09749848
737.4      0.05517195 1          0.08207536
737.5      0.06295279 1          0.07962066
737.6      0.07508506 1          0.06437097
737.7      0.08480078 1          0.05933742
737.8      0.09015813 1          0.04912231
737.9      0.07748322 1          0.04821733
738        0.08364345 1          0.05448296
738.1      0.02054002 1          0.04596433
738.2      0.08536592 1          0.04066708
738.3      0.0820514  1          0.04878269
738.4      0.01822756 1          0.05247818
738.5      0.06484837 1          0.05224971
738.6      0.0145483  1          0.06284238
738.7      0.03573498 1          0.07000698
738.8      0.08980953 1          0.07048526
738.9      0.0945901  1          0.07675506
739        0.09405901 1          0.08971607
739.1      0.097319   1          0.1047753 
739.2      0.1004658  1          0.1060761 
739.3      0.1026961  1          0.1144936 
739.4      0.1136501  1          0.1277674 
739.5      0.1017184  1          0.1452555 
739.6      0.09371106 1          0.1450426 
739.7      0.09805153 1          0.1542847 
739.8      0.09030475 1          0.1526238 
739.9      0.1063234  1          0.1181603 
740        0.09953751 1          0.1192327 
740.1      0.0898923  1          0.1180265 
740.2      0.09327921 1          0.1305107 
740.3      0.07808883 1          0.1241578 
740.4      0.01717671 1          0.1209133 
740.5      0.09033841 1          0.1205094 
740.6      0.09308589 1          0.1131678 
740.7      0.08334232 1          0.1082963 
740.8      0.08371331 1          0.09103468
740.9      0.09386154 1          0.08653092
741        0.08700549 1          0.08984149
741.1      0.0819319  1          0.08109172
741.2      0.07872718 1          0.08398784
741.3      0.08806513 1          0.08115312
741.4      0.09045427 1          0.069231  
741.5      0.0834561  1          0.0539091 
741.6      0.06078932 1          0.04697651
741.7      0.05105886 1          0.04405983
741.8      0.04902929 1          0.05696037
741.9      0.06168116 1          0.05794421
742        0.07522212 1          0.06190464
742.1      0.07231509 1          0.07378887
742.2      0.06767661 1          0.07955948
742.3      0.05999117 1          0.09769008
742.4      0.05098204 1          0.1043209 
742.5      0.02353277 1          0.1034784 
742.6      0.05557553 1          0.1007032 
742.7      0.05553488 1          0.09884154
742.8      0.04694933 1          0.09603234
742.9      0.05274148 1          0.08833912
743        0.06532886 1          0.07554176
743.1      0.05969274 1          0.0727047 
743.2      0          1          0.06437097
743.3      0.06274865 1          0.06231463
743.4      0.01636942 1          0.0577125 
743.5      0          1          0.06602381
743.6      0          1          0.07754567
743.7      0          1          0.1003173 
743.8      0          1          0.1103305 
743.9      0.06315783 1          0.1309236 
744        0.06945291 1          0.1703137 
744.1      0.07979447 1          0.1726357 
744.2      0.07011779 1          0.1830273 
744.3      0.05272137 1          0.1524076 
744.4      0.04818863 1          0.1238188 
744.5      0.04866426 1          0.09820145
744.6      0.05578888 1          0.1119779 
744.7      0.05377905 1          0.1268112 
744.8      0.0456867  1          0.136325  
744.9      0.06006899 1          0.1274257 
745        0.05789914 1          0.1228031 
745.1      0          1          0.1153576 
745.2      0.07145995 1          0.1186962 
745.3      0.09336255 1          0.1058156 
745.4      0.09947738 1          0.07943713
745.5      0.096659   1          0.06501948
745.6      0.08205242 1          0.06337083
745.7      0.08396959 1          0.0721637 
745.8      0.0815205  1          0.06249046
745.9      0.06095654 1          0.05840806
746        0.05148593 1          0.06260774
746.1      0.04340177 1          0.06009417
746.2      0.05022033 1          0.06091076
746.3      0.06793934 1          0.06266639
746.4      0.07799863 1          0.05379441
746.5      0.06884223 1          0.05939558
746.6      0.06962223 1          0.06982777
746.7      0.07196365 1          0.06679354
746.8      0.01094036 1          0.07300558
746.9      0.08128422 1          0.06460667
747        0.03149237 1          0.08164472
747.1      0.08954091 1          0.1056854 
747.2      0          1          0.1314747 
747.3      0.07541259 1          0.1568232 
747.4      0.07578181 1          0.1722605 
747.5      0.07462418 1          0.2015933 
747.6      0.08264897 1          0.2087073 
747.7      0.100399   1          0.1825677 
747.8      0.1000134  1          0.1844853 
