~Version
 VERS              .         3.0                           : CWLS LOG ASCII STANDARD - VERSION 3.0
 WRAP              .         NO                            : ONE LINE PER DEPTH STEP
 DLM               .         SPACE                         : DELIMITING CHARACTER(SPACE TAB OR COMMA)
~Well Information
#_______________________________________________________________________________
#
#PARAMETER_NAME    .UNIT     VALUE                         : DESCRIPTION
#_______________________________________________________________________________
STRT               .M        4                             : First reference value
STOP               .M        853                           : Last reference value
STEP               .M        0.1                           : Step increment
NULL               .         -9999                         : Missing value
COMP               .         ICPetroleum                   : Company
WELL               .         307                           : Well name
FLD                .         Karatobe                      : Field
LOC                .                                       : Location
SRVC               .                                       : Service Company
CTRY               .         KZ                            : Country
DATE               .         03-04.12.21                   : Service Date
LATI               .         0                             : Latitude
LONG               .         0                             : Longitude
GDAT               .         WGS 84                        : Geodetic Datum
CNTY               .                                       : 
COORDIN            .                                       : Grid System
COUNT              .         KAZAKHSTAN                    : Country
COUNTRY            .         Kazakhstan                    : 
COUNTRY            .         Kazakhstan                    : 
EREF               .m        138.3                         : 
KB                 .         137.7                         : KB Elevation
ORIGINALWELLNAME   .         307                           : 
PROV               .                                       : Province
RWS                .         -999                          : Def_Rw
STAT               .                                       : 
UWI                .         1_307                         : Unique Well Identifier (UWI)
WST                .         -999                          : Def_Rwt
X                  .km       466769.49                     : 
XCOORD             .                                       : X or East-West Coordinate
Y                  .km       5308384.04                    : 
YCOORD             .                                       : Y or North-South Coordinate
~Parameter Information Block
#_______________________________________________________________________________
#
#PARAMETER_NAME    .UNIT     VALUE                         : DESCRIPTION
#_______________________________________________________________________________
SET                .         Las                           : 
BS                 .MM       215.9                         : Bit Size
DFD                .G/C3     1.15                          : Drilling Fluid Density
TDD                .M        847.0                         : Total Depth Driller
TLFamily_DEPT      .         Measured Depth                : 
TLFamily_PHI_FINAL .         Porosity                      : 
TLFamily_SW_AR     .         Water Saturation              : 
TLFamily_VSH_FINAL .         Shale Volume                  : 
~Curve Information
#_______________________________________________________________________________
#
#LOGNAME           .UNIT     LOG_ID                        : DESCRIPTION
#_______________________________________________________________________________
DEPT               .M                                      : Depth Curve {F}
PHI_FINAL          .m3/m3                                  : Porosity {F}
SW_AR              .m3/m3                                  :  {F}
VSH_FINAL          .unitless                               : Vshale {F}
~Ascii
# ...
784.3      0          -9999      0         
784.4      0          -9999      0         
784.5      0          -9999      0         
784.6      0          -9999      0         
784.7      0          -9999      0         
784.8      0          -9999      0         
784.9      0          -9999      0         
785        0          -9999      0         
785.1      0          -9999      0         
785.2      0          -9999      0         
785.3      0          -9999      0         
785.4      0          -9999      0         
785.5      0          -9999      0         
785.6      0          -9999      0         
785.7      0          -9999      0         
785.8      0          -9999      0         
785.9      0          -9999      0         
786        0          -9999      0         
786.1      0          -9999      0         
786.2      0          -9999      0         
786.3      0          -9999      0         
786.4      0          -9999      0         
786.5      0          -9999      0         
786.6      0          -9999      0         
786.7      0          -9999      0         
786.8      0          -9999      0         
786.9      0          -9999      0         
787        0          -9999      0         
787.1      0          -9999      0         
787.2      0          -9999      0         
787.3      0          -9999      0         
787.4      0          -9999      0         
787.5      0          -9999      0         
787.6      0          -9999      0         
787.7      0          -9999      0         
787.8      0          -9999      0         
787.9      0          -9999      0         
788        0          -9999      0         
788.1      0          -9999      0         
788.2      0          -9999      0         
788.3      0          -9999      0         
788.4      0          -9999      0         
788.5      0          -9999      0         
788.6      0          -9999      0         
788.7      0          -9999      0         
788.8      0          -9999      0         
788.9      0          -9999      0         
789        0          -9999      0         
789.1      0          -9999      0         
789.2      0          -9999      0         
789.3      0          -9999      0         
789.4      0          -9999      0         
789.5      0          -9999      0         
789.6      0          -9999      0         
789.7      0          -9999      0         
789.8      0          -9999      0         
789.9      0          -9999      0         
790        0          -9999      0         
790.1      0          -9999      0         
790.2      0          -9999      0         
790.3      0          -9999      0         
790.4      0          -9999      0         
790.5      0          -9999      0         
790.6      0          -9999      0         
790.7      0          -9999      0         
790.8      0          -9999      0         
790.9      0          -9999      0         
791        0          -9999      0         
791.1      0          -9999      0         
791.2      0          -9999      0         
791.3      0          -9999      0         
791.4      0          -9999      0         
791.5      0          -9999      0         
791.6      0          -9999      0         
791.7      0          -9999      0         
791.8      0          -9999      0         
791.9      0          -9999      0         
792        0          -9999      0         
792.1      0          -9999      0         
792.2      0          -9999      0         
792.3      0          -9999      0         
792.4      0          -9999      0         
792.5      0          -9999      0         
792.6      0          1          0         
792.7      0          1          0         
792.8      0          1          0         
792.9      0          1          0         
793        0          1          0         
793.1      0          1          0         
793.2      0          1          0         
793.3      0          1          0.006421376
793.4      0          1          0.01558917
793.5      0          1          0.01677848
793.6      0          1          0.01414684
793.7      0          1          0.009095229
793.8      0          1          0.003668917
793.9      0          1          0.00351943
794        0          1          0         
794.1      0          1          0         
794.2      0          1          0         
794.3      0          1          0         
794.4      0          1          0         
794.5      0          -9999      0         
794.6      0          -9999      0         
794.7      0          -9999      0         
794.8      0          -9999      0         
794.9      0          -9999      0.008437419
795        0          -9999      0.02400072
795.1      0          1          0.04389225
795.2      0          1          0.05528782
795.3      0          1          0.04066708
795.4      0          -9999      0.02468878
795.5      0          -9999      0.006120011
795.6      0          -9999      0         
795.7      0          -9999      0         
795.8      0          -9999      0         
795.9      0          -9999      0         
796        0          -9999      0         
796.1      0          -9999      0         
796.2      0          -9999      0         
796.3      0          -9999      0         
796.4      0          -9999      0         
796.5      0          -9999      0         
796.6      0          -9999      0         
796.7      0          -9999      0         
796.8      0          -9999      0         
796.9      0          -9999      0         
797        0          -9999      0         
797.1      0          -9999      0         
797.2      0          -9999      0         
797.3      0          -9999      0         
797.4      0          -9999      0         
797.5      0          -9999      0         
797.6      0          -9999      0         
797.7      0          -9999      0         
797.8      0          -9999      0         
797.9      0          -9999      0         
798        0          -9999      0         
798.1      0          -9999      0         
798.2      0          -9999      0         
798.3      0          -9999      0         
798.4      0          -9999      0         
798.5      0          -9999      0         
798.6      0          -9999      0         
798.7      0          -9999      0         
798.8      0          -9999      0         
798.9      0          -9999      0         
799        0          -9999      0         
799.1      0          -9999      0         
799.2      0          -9999      0         
799.3      0          -9999      0         
799.4      0          -9999      0         
799.5      0          -9999      0         
799.6      0          -9999      0         
799.7      0          -9999      0         
799.8      0          -9999      0         
799.9      0          -9999      0         
800        0          -9999      0         
800.1      0          -9999      0         
800.2      0          -9999      0         
800.3      0          -9999      0         
800.4      0          -9999      0         
800.5      0          -9999      0         
800.6      0          -9999      0         
800.7      0          -9999      0         
800.8      0          -9999      0         
800.9      0          -9999      0         
801        0          -9999      0         
801.1      0          -9999      0         
801.2      0          -9999      0         
801.3      0          -9999      0         
801.4      0          -9999      0         
801.5      0          -9999      0         
801.6      0          -9999      0         
801.7      0          -9999      0         
801.8      0          -9999      0         
801.9      0          -9999      0         
802        0          -9999      0         
802.1      0          -9999      0         
802.2      0          -9999      0         
802.3      0          -9999      0         
802.4      0          -9999      0         
