~Version
 VERS              .         3.0                           : CWLS LOG ASCII STANDARD - VERSION 3.0
 WRAP              .         NO                            : ONE LINE PER DEPTH STEP
 DLM               .         SPACE                         : DELIMITING CHARACTER(SPACE TAB OR COMMA)
~Well Information
#_______________________________________________________________________________
#
#PARAMETER_NAME    .UNIT     VALUE                         : DESCRIPTION
#_______________________________________________________________________________
STRT               .M        4                             : First reference value
STOP               .M        853                           : Last reference value
STEP               .M        0.1                           : Step increment
NULL               .         -9999                         : Missing value
COMP               .         ICPetroleum                   : Company
WELL               .         307                           : Well name
FLD                .         Karatobe                      : Field
LOC                .                                       : Location
SRVC               .                                       : Service Company
CTRY               .         KZ                            : Country
DATE               .         03-04.12.21                   : Service Date
LATI               .         0                             : Latitude
LONG               .         0                             : Longitude
GDAT               .         WGS 84                        : Geodetic Datum
CNTY               .                                       : 
COORDIN            .                                       : Grid System
COUNT              .         KAZAKHSTAN                    : Country
COUNTRY            .         Kazakhstan                    : 
COUNTRY            .         Kazakhstan                    : 
EREF               .m        138.3                         : 
KB                 .         137.7                         : KB Elevation
ORIGINALWELLNAME   .         307                           : 
PROV               .                                       : Province
RWS                .         -999                          : Def_Rw
STAT               .                                       : 
UWI                .         1_307                         : Unique Well Identifier (UWI)
WST                .         -999                          : Def_Rwt
X                  .km       466769.49                     : 
XCOORD             .                                       : X or East-West Coordinate
Y                  .km       5308384.04                    : 
YCOORD             .                                       : Y or North-South Coordinate
~Parameter Information Block
#_______________________________________________________________________________
#
#PARAMETER_NAME    .UNIT     VALUE                         : DESCRIPTION
#_______________________________________________________________________________
SET                .         Las                           : 
BS                 .MM       215.9                         : Bit Size
DFD                .G/C3     1.15                          : Drilling Fluid Density
TDD                .M        847.0                         : Total Depth Driller
TLFamily_DEPT      .         Measured Depth                : 
TLFamily_PHI_FINAL .         Porosity                      : 
TLFamily_SW_AR     .         Water Saturation              : 
TLFamily_VSH_FINAL .         Shale Volume                  : 
~Curve Information
#_______________________________________________________________________________
#
#LOGNAME           .UNIT     LOG_ID                        : DESCRIPTION
#_______________________________________________________________________________
DEPT               .M                                      : Depth Curve {F}
PHI_FINAL          .m3/m3                                  : Porosity {F}
SW_AR              .m3/m3                                  :  {F}
VSH_FINAL          .unitless                               : Vshale {F}
~Ascii
# ...
602.3      0.1008761  1          0.6275573 
602.4      0.1543736  1          0.5079526 
602.5      0.154397   1          0.5078866 
602.6      0.1577461  1          0.5062613 
602.7      0.2056613  1          0.4325983 
602.8      0.2056803  1          0.4325446 
602.9      0.2811193  1          0.3359419 
603        0.2811328  1          0.3359034 
603.1      0.3185961  1          0.2882322 
603.2      0.3053981  1          0.3573821 
603.3      0.3054129  1          0.3573402 
603.4      0.1693528  1          0.5828428 
603.5      0.1693804  1          0.582764  
603.6      0.1313916  1          0.6486911 
603.7      0.09376965 1          0.7705891 
603.8      0.09380909 1          0.7704757 
603.9      0.06226704 1          0.8161625 
604        0.06231041 1          0.8160408 
604.1      0.07646444 1          0.7776016 
604.2      0.09906006 1          0.714279  
604.3      0.09909678 1          0.7141763 
604.4      0.07350851 1          0.7566184 
604.5      0.07354812 1          0.7565081 
604.6      0.0443592  1          0.8234074 
604.7      0.003735165 1          0.9701303 
604.8      0.003759894 1          0.9699779 
604.9      0.01276302 1          0.918868  
605        0.012786   1          0.9187263 
605.1      0.02092903 1          0.8482372 
605.2      0.05804688 1          0.7581728 
605.3      0.05808656 1          0.7580619 
605.4      0.1041166  1          0.656561  
605.5      0.1041475  1          0.6564689 
605.6      0.1049216  1          0.6426586 
605.7      0.08137486 1          0.7180067 
605.8      0.08141177 1          0.7179034 
605.9      0.1008463  1          0.6955175 
606        0.1008795  1          0.6954183 
606.1      0.08633757 1          0.7665339 
606.2      0.0941908  1          0.7670937 
606.3      0.09423053 1          0.7669814 
606.4      0.07274949 1          0.802554  
606.5      0.07279184 1          0.8024347 
606.6      0.0594479  1          0.8453399 
606.7      0.04828332 1          0.8905759 
606.8      0.04833138 1          0.8904399 
606.9      0.08095034 1          0.7669793 
607        0.08099031 1          0.7668669 
607.1      0.07065102 1          0.7543049 
607.2      0.07231294 1          0.7114198 
607.3      0.07234729 1          0.7113178 
607.4      0.06603432 1          0.6820467 
607.5      0.06606668 1          0.68195   
607.6      0.05079095 1          0.7085056 
607.7      0.004658364 1          0.8989974 
607.8      0.004678976 1          0.8988599 
607.9      0.03776497 1          0.7669761 
608        0.03780285 1          0.7668636 
608.1      0.02191053 1          0.8356568 
608.2      0.03582193 1          0.8121248 
608.3      0.0358652  1          0.8120041 
608.4      0.08414588 1          0.7120804 
608.5      0.08418232 1          0.7119786 
608.6      0.1036203  1          0.6507245 
608.7      0.1452028  1          0.5462289 
608.8      0.1452288  1          0.5461565 
608.9      0.1645833  1          0.4554324 
609        0.1646038  1          0.4553754 
609.1      0.1583926  1          0.4488385 
609.2      0.1471999  1          0.4651272 
609.3      0.1472197  1          0.4650684 
609.4      0.09423938 1          0.5736302 
609.5      0.09426549 1          0.5735531 
609.6      0.06735747 1          0.6427164 
609.7      0.06712186 1          0.6720431 
609.8      0.0671538  1          0.6719484 
609.9      0.1273863  1          0.539929  
610        0.1274109  1          0.5398579 
610.1      0.1398826  1          0.535053  
610.2      0.1580062  1          0.4895859 
610.3      0.1580272  1          0.4895231 
610.4      0.1347107  1          0.5683897 
610.5      0.1347377  1          0.5683137 
610.6      0.1131885  1          0.6799722 
610.7      0.08066063 1          0.7609517 
610.8      0.08069987 1          0.7608406 
610.9      0.1118589  1          0.7468656 
611        0.1118973  1          0.7467571 
611.1      0.1090362  1          0.74949   
611.2      0.1115727  1          0.6960136 
611.3      0.1116057  1          0.6959147 
611.4      0.1185194  1          0.663537  
611.5      0.1185513  1          0.663444  
611.6      0.116013   1          0.6188229 
611.7      0.1389984  1          0.5180808 
611.8      0.1390227  1          0.5180134 
611.9      0.1643578  0.8736216  0.4891229 
612        0.1643801  0.873509   0.4890603 
612.1      0.173519   0.8132235  0.480493  
612.2      0.1786491  0.8168667  0.4743936 
612.3      0.1786706  0.816774   0.4743336 
612.4      0.2055653  0.7847389  0.3808888 
612.5      0.2055815  0.7846804  0.3808436 
612.6      0.2123399  0.7961931  0.372466  
612.7      0.2102011  0.8599339  0.3789292 
612.8      0.2102171  0.859872   0.3788844 
612.9      0.2159449  0.91197    0.3629823 
613        0.2159591  0.911913   0.3629398 
613.1      0.2127418  0.9553949  0.3734438 
613.2      0.2015287  1          0.4259592 
613.3      0.2015462  1          0.4259069 
613.4      0.1613058  1          0.4777814 
613.5      0.1613262  1          0.4777206 
613.6      0.1313174  1          0.526647  
613.7      0.09549125 1          0.5847273 
613.8      0.09551821 1          0.5846487 
613.9      0.03127718 1          0.7486345 
614        0.03131371 1          0.748526  
614.1      0.01793502 1          0.8034149 
614.2      0.01379359 1          0.8266305 
614.3      0.01381196 1          0.8265075 
614.4      0.004668734 1          0.8567148 
614.5      0.004676322 1          0.856586  
614.6      0.01170916 1          0.8046833 
614.7      0.004521869 1          0.8848537 
614.8      0.00452977 1          0.8847191 
614.9      0.01459644 1          0.875739  
615        0.01461293 1          0.8756066 
615.1      0.02605942 1          0.8324617 
615.2      0.06554922 1          0.654583  
615.3      0.06557993 1          0.6544918 
615.4      0.0648772  1          0.6602266 
615.5      0.06490832 1          0.6601344 
615.6      0.09165615 1          0.5925598 
615.7      0.1334015  1          0.4953364 
615.8      0.133423   1          0.4952728 
615.9      0.1515027  1          0.3983649 
616        0.1515188  1          0.3983172 
616.1      0.1441293  1          0.368205  
616.2      0.08194828 1          0.3816074 
616.3      0.08196401 1          0.3815621 
616.4      0.04425036 1          0.2949146 
616.5      0.04426208 1          0.2948823 
616.6      0.0365809  1          0.2897342 
616.7      0.08363595 1          0.3214648 
616.8      0.08364824 1          0.3214286 
616.9      0.05982557 1          0.4843727 
617        0.05984791 1          0.484311  
617.1      0.06016448 1          0.5682604 
617.2      0.06554364 1          0.6378782 
617.3      0.06557333 1          0.6377901 
617.4      0.07325785 1          0.5980452 
617.5      0.0732851  1          0.5979641 
617.6      0.06438468 1          0.6285217 
617.7      0.01269546 1          0.8035593 
617.8      0.01271324 1          0.8034406 
617.9      0.009515882 1          0.8292322 
618        0.009534449 1          0.8291085 
618.1      0.03552159 1          0.7517186 
618.2      0.04107188 1          0.7266349 
618.3      0.0411068  1          0.726531  
618.4      0.01561141 1          0.8097155 
618.5      0.01562936 1          0.8095957 
618.6      0.004586   1          0.8317156 
618.7      0.007905632 1          0.78584   
618.8      0.00792295 1          0.7857251 
618.9      0.005281979 1          0.846307  
619        0.00528945 1          0.8461802 
619.1      0.00992488 1          0.7972806 
619.2      0.004058556 1          0.8386604 
619.3      0.004077399 1          0.8385351 
619.4      0.01686653 1          0.7619467 
619.5      0.01689072 1          0.761836  
619.6      0.04496247 1          0.6837668 
619.7      0.08920851 1          0.5795112 
619.8      0.08923472 1          0.5794337 
619.9      0.1545417  0.9883562  0.4186618 
620        0.154559   0.9882518  0.4186108 
620.1      0.1725091  0.8619268  0.3781583 
620.2      0.1995409  0.7082078  0.3125752 
620.3      0.1995527  0.7081684  0.3125404 
620.4      0.224376   0.5639957  0.2856322 
