~Version information
  VERS.                           2.00 : CWLS log ASCII Standard -Version 2.00
  WRAP.                             NO : One line per depth step
~Well information
#MNEM.UNIT              Data Type        Information
#----------------------------------------------------------------------
  STRT.M                         4.000 : 
  STOP.M                       853.000 : 
  STEP.M                         0.100 : 
  NULL.                     -9999.0000 : 
  COMP.    "KARATUBE INT. OIL COMPANY" : Company Name
  WELL.                            307 : Well Name
  FLD .                       KARATUBE : Field Name
  CTRY.                     KAZAKHSTAN : Country
  SRVC.         JSC"KAZPROMGEOPHYSICA" : Service company
  DATE.                      24.04.04. : Log date
~Curve information
#MNEM.UNIT                               Curve Description
#----------------------------------------------------------------------
  DEPT.M                               : Depth Curve
  DTP .US/M                            : Interval travel time (P-wave)
  TT1 .US                              : Travel time 1
  TT2 .                                : Travel time 2
  LL3 .OHMM                            : Appar.resist.laterolog,3 electrodes
  MLL .OHMM                            : Microlaterolog sonde
  RHOB.G/C3                            : Bulk density by gamma-gamma log
  GR  .UR/H                            : Gamma-ray log
  NGLD.UE                              : Neutron-gamma log/device DRST-90
  GZ3 .OHMM                            : App.resistivity by lateral A2.0M0.5N
  GZ3B.OHMM                            : App.resistivity by lateral N0.5Œ2.0€
  SP  .MV                              : Spontaneous potential
  CILR.MMHO                            : Conduct. by sonde 7I1.6,react.signal
  CILA.MMHO                            : Conduct. by sonde 7I1.6,active signal
  C1  .MM                              : Diameter from profile 1
  C2  .MM                              : Diameter from profile 2
  CALI.MM                              : Caliper
~Parameter information
#MNEM.UNIT              Value            Description
#----------------------------------------------------------------------
#----------------------------------------------------------------------
  BS  .MM                        215.9 : Bit Size
  DFD .G/C3                       1.15 : Drilling Fluid Density
  TDD .M                         847.0 : Total Depth Driller
~Ascii Log Data
# ...
  414.700 470.0000 1192.0000 1380.0000 5.3720 1.5800 1.9900 9.7580 1.2380 4.5720 5.4240 -4.6620 -80.8190 124.6620 231.2280 220.4720 225.8500
  414.800 470.0000 1192.0000 1380.0000 5.4880 1.9040 2.1030 10.0880 1.2200 4.5510 5.4880 -3.4490 -78.9950 118.4030 231.2270 220.6060 225.9170
  414.900 460.0000 1196.0000 1380.0000 5.5320 1.9840 2.0960 9.9600 1.2230 4.6140 5.4850 -4.0470 -79.3100 116.1150 231.2360 220.5590 225.8980
  415.000 480.0000 1192.0000 1384.0000 5.6050 2.0280 2.1020 9.8040 1.2700 4.5660 5.4380 -5.4290 -78.6900 114.5890 231.1390 220.5940 225.8670
  415.100 480.0000 1192.0000 1384.0000 5.6050 2.0280 2.1020 9.8040 1.2700 4.5660 5.4380 -5.4290 -78.6900 114.5890 231.1390 220.5940 225.8670
  415.200 480.0000 1192.0000 1384.0000 5.5810 1.9790 2.0840 9.4410 1.2750 4.6950 5.3440 -7.3590 -79.8830 113.7420 231.2300 220.5150 225.8720
  415.300 500.0000 1184.0000 1384.0000 5.2530 1.8700 2.0840 9.7370 1.2160 4.9100 5.0980 -9.6500 -82.8870 115.1750 229.5420 220.5990 225.0700
  415.400 500.0000 1180.0000 1380.0000 5.1390 1.6470 2.0840 9.8880 1.2310 4.8280 4.9880 -10.0330 -82.7950 118.5330 228.3060 220.6260 224.4660
  415.500 470.0000 1184.0000 1372.0000 4.9720 1.4970 2.0880 9.8830 1.2150 4.9970 4.8430 -10.2030 -86.9010 123.2430 227.9600 220.6450 224.3020
  415.600 470.0000 1184.0000 1372.0000 4.9720 1.4970 2.0880 9.8830 1.2150 4.9970 4.8430 -10.2030 -86.9010 123.2430 227.9600 220.6450 224.3020
  415.700 430.0000 1192.0000 1364.0000 4.8320 1.4830 2.1050 9.5260 1.2020 5.1240 4.7470 -10.7490 -89.2750 124.8750 227.9790 220.5750 224.2770
  415.800 410.0000 1204.0000 1368.0000 4.6030 1.4650 2.1500 9.1620 1.1560 4.8970 4.5290 -11.5610 -93.7710 126.5700 229.2980 220.8260 225.0620
  415.900 410.0000 1208.0000 1372.0000 4.5460 1.6860 2.1600 8.6070 1.1290 4.8410 4.4570 -12.4120 -94.1290 128.6520 230.7600 220.8750 225.8170
  416.000 420.0000 1208.0000 1376.0000 4.5250 1.5790 2.1720 8.2560 1.1040 4.9150 4.3970 -13.4550 -93.9800 128.7800 231.7450 220.8120 226.2780
  416.100 420.0000 1208.0000 1376.0000 4.5250 1.5790 2.1720 8.2560 1.1040 4.9150 4.3970 -13.4550 -93.9800 128.7800 231.7450 220.8120 226.2780
  416.200 460.0000 1200.0000 1384.0000 4.5020 1.2720 2.1640 8.0570 1.0810 4.9200 4.3430 -14.7180 -93.9270 129.6810 228.7710 220.6350 224.7030
  416.300 480.0000 1196.0000 1388.0000 4.3970 1.0140 2.1040 7.9120 1.1150 4.9800 4.3100 -16.5420 -97.9960 133.3310 232.3780 219.5240 225.9510
  416.400 470.0000 1200.0000 1388.0000 4.3100 0.9330 2.1030 8.2450 1.1340 4.9790 4.3580 -16.8190 -100.1810 134.0800 231.7730 218.3710 225.0720
  416.500 470.0000 1204.0000 1392.0000 4.1560 1.0690 2.1070 8.6620 1.1750 4.7420 4.3950 -17.2790 -100.9190 135.3530 232.0730 216.5500 224.3110
  416.600 470.0000 1204.0000 1392.0000 4.1560 1.0690 2.1070 8.6620 1.1750 4.7420 4.3950 -17.2790 -100.9190 135.3530 232.0730 216.5500 224.3110
  416.700 470.0000 1208.0000 1396.0000 4.1540 1.3060 2.1120 9.1810 1.1930 4.4580 4.4970 -17.9370 -100.9430 137.8700 232.8900 215.3760 224.1330
  416.800 430.0000 1232.0000 1404.0000 4.3240 1.6180 2.1390 10.1610 1.2670 4.5410 4.5640 -19.1520 -101.0980 132.4900 234.2100 214.5770 224.3930
  416.900 420.0000 1236.0000 1404.0000 4.3880 1.5880 2.1390 10.2480 1.2610 4.3940 4.5660 -19.1920 -97.2180 132.4060 233.5030 216.7400 225.1210
  417.000 430.0000 1236.0000 1408.0000 4.4090 1.5050 2.1490 10.0320 1.2610 4.4360 4.5510 -18.6010 -95.6990 134.8580 235.4030 219.8430 227.6230
  417.100 430.0000 1236.0000 1408.0000 4.4090 1.5050 2.1490 10.0320 1.2610 4.4360 4.5510 -18.6010 -95.6990 134.8580 235.4030 219.8430 227.6230
  417.200 480.0000 1208.0000 1400.0000 4.4670 1.4050 2.1430 10.2450 1.2800 4.3930 4.5600 -17.9960 -93.3360 142.3690 236.8240 219.8730 228.3480
  417.300 510.0000 1156.0000 1360.0000 4.6110 1.2300 2.1300 10.5930 1.1820 4.4640 4.5540 -16.4340 -99.2890 150.6970 236.6780 218.0050 227.3420
  417.400 460.0000 1160.0000 1344.0000 4.5550 1.1660 2.1300 10.8710 1.1670 4.4150 4.5720 -15.4660 -97.5160 149.9350 237.1000 218.7530 227.9270
  417.500 460.0000 1160.0000 1344.0000 4.4490 1.2640 2.1210 11.3980 1.1070 4.4210 4.6170 -13.7730 -97.3150 152.1970 237.4520 220.8480 229.1500
  417.600 460.0000 1160.0000 1344.0000 4.4490 1.2640 2.1210 11.3980 1.1070 4.4210 4.6170 -13.7730 -97.3150 152.1970 237.4520 220.8480 229.1500
  417.700 490.0000 1160.0000 1356.0000 4.2780 1.3480 2.1180 11.0140 1.1320 4.3280 4.6860 -11.2950 -96.0000 155.3700 238.6070 222.2900 230.4480
  417.800 480.0000 1136.0000 1328.0000 4.2810 1.1260 2.1110 11.0070 1.2090 4.2270 4.8580 -7.4860 -95.3920 157.9440 241.0990 221.9260 231.5120
  417.900 470.0000 1136.0000 1324.0000 4.3570 1.0540 2.1130 11.0810 1.2020 4.1690 5.0510 -6.1580 -94.2150 156.3580 239.2830 219.5810 229.4320
  418.000 500.0000 1140.0000 1340.0000 4.4080 1.0460 2.1200 11.1860 1.2550 4.1570 5.3440 -4.8960 -92.2050 153.3010 236.0980 219.7750 227.9370
  418.100 500.0000 1140.0000 1340.0000 4.4080 1.0460 2.1200 11.1860 1.2550 4.1570 5.3440 -4.8960 -92.2050 153.3010 236.0980 219.7750 227.9370
  418.200 520.0000 1144.0000 1352.0000 4.4570 1.0360 2.1280 11.2280 1.2210 4.1800 5.6340 -3.3760 -89.1680 153.7740 234.6640 218.7870 226.7250
  418.300 560.0000 1132.0000 1356.0000 4.6990 1.2310 2.1300 10.6490 1.1980 4.1370 6.1640 -0.3790 -88.9660 138.6990 232.6520 221.3700 227.0110
  418.400 540.0000 1140.0000 1356.0000 4.7480 1.3530 2.1320 10.3240 1.2290 4.0970 6.3330 0.3830 -89.9370 123.3040 234.0830 222.1820 228.1320
  418.500 510.0000 1148.0000 1352.0000 4.8190 1.6370 2.1340 9.8650 1.2510 4.0240 6.4710 0.3630 -85.3250 120.1610 235.6930 224.2620 229.9770
  418.600 510.0000 1148.0000 1352.0000 4.8190 1.6370 2.1340 9.8650 1.2510 4.0240 6.4710 0.3630 -85.3250 120.1610 235.6930 224.2620 229.9770
  418.700 410.0000 1172.0000 1336.0000 5.0040 4.0690 2.1390 9.4790 1.2270 3.8700 6.6630 -0.1570 -78.0540 125.4760 237.6890 228.6410 233.1650
  418.800 350.0000 1172.0000 1312.0000 7.0800 5.2770 2.2190 8.0770 1.2200 4.0420 6.7630 1.1960 -69.9360 118.6690 233.4640 220.6880 227.0760
  418.900 370.0000 1172.0000 1320.0000 8.1260 1.8150 2.2240 7.9770 1.1940 3.9360 6.6690 2.7440 -70.2110 110.3130 232.2360 220.9340 226.5850
  419.000 330.0000 1200.0000 1332.0000 7.7000 1.8620 2.2390 8.2100 1.2270 4.2430 6.6380 4.1590 -71.4300 107.6040 233.2820 222.5220 227.9020
  419.100 330.0000 1200.0000 1332.0000 7.7000 1.8620 2.2390 8.2100 1.2270 4.2430 6.6380 4.1590 -71.4300 107.6040 233.2820 222.5220 227.9020
  419.200 380.0000 1200.0000 1352.0000 6.6710 1.9220 2.1650 8.9080 1.1790 4.4220 6.6160 5.6070 -69.4460 112.8230 231.9480 223.1220 227.5350
  419.300 450.0000 1184.0000 1364.0000 6.2220 2.3600 2.0810 9.1930 1.1930 4.4720 6.4650 6.6820 -70.7880 120.0050 237.6740 223.7330 230.7040
  419.400 470.0000 1176.0000 1364.0000 6.3400 1.6090 2.0760 8.9140 1.2410 4.4730 6.4810 6.7470 -72.9910 117.9010 239.2650 219.0720 229.1690
  419.500 530.0000 1176.0000 1388.0000 6.1400 1.6310 2.0430 9.0520 1.1930 4.4790 6.5250 7.2340 -73.9000 116.7680 236.8560 220.0310 228.4440
  419.600 530.0000 1176.0000 1388.0000 6.1400 1.6310 2.0430 9.0520 1.1930 4.4790 6.5250 7.2340 -73.9000 116.7680 236.8560 220.0310 228.4440
  419.700 520.0000 1180.0000 1388.0000 5.7620 1.9150 1.9620 8.9960 1.1140 4.4860 6.6510 8.0490 -73.2000 116.4950 236.4520 219.4520 227.9520
  419.800 480.0000 1180.0000 1372.0000 6.0310 2.7990 1.8520 8.8590 1.1630 4.5010 6.6920 6.2360 -71.6680 110.0010 235.0640 221.5820 228.3230
  419.900 460.0000 1180.0000 1364.0000 6.3870 2.3560 1.8680 8.8890 1.1990 4.4410 6.6160 2.8070 -71.5570 104.7680 235.3550 221.5130 228.4340
  420.000 430.0000 1184.0000 1356.0000 6.4140 2.4220 1.9390 9.3660 1.2220 4.4800 6.4850 -0.4420 -70.8770 104.2040 235.4470 220.7100 228.0780
  420.100 430.0000 1184.0000 1356.0000 6.4140 2.4220 1.9390 9.3660 1.2220 4.4800 6.4850 -0.4420 -70.8770 104.2040 235.4470 220.7100 228.0780
  420.200 430.0000 1192.0000 1364.0000 6.3070 2.2500 2.0290 9.7320 1.2280 4.4120 6.3560 -2.1370 -71.3140 106.7070 235.6700 219.5900 227.6300
  420.300 420.0000 1200.0000 1368.0000 6.1570 2.1530 2.1230 10.1470 1.2650 4.3980 5.9520 -3.0500 -71.7790 108.4950 234.6420 218.6480 226.6450
