~Version information
  VERS.                           2.00 : CWLS log ASCII Standard -Version 2.00
  WRAP.                             NO : One line per depth step
~Well information
#MNEM.UNIT              Data Type        Information
#----------------------------------------------------------------------
  STRT.M                         4.000 : 
  STOP.M                       853.000 : 
  STEP.M                         0.100 : 
  NULL.                     -9999.0000 : 
  COMP.    "KARATUBE INT. OIL COMPANY" : Company Name
  WELL.                            307 : Well Name
  FLD .                       KARATUBE : Field Name
  CTRY.                     KAZAKHSTAN : Country
  SRVC.         JSC"KAZPROMGEOPHYSICA" : Service company
  DATE.                      24.04.04. : Log date
~Curve information
#MNEM.UNIT                               Curve Description
#----------------------------------------------------------------------
  DEPT.M                               : Depth Curve
  DTP .US/M                            : Interval travel time (P-wave)
  TT1 .US                              : Travel time 1
  TT2 .                                : Travel time 2
  LL3 .OHMM                            : Appar.resist.laterolog,3 electrodes
  MLL .OHMM                            : Microlaterolog sonde
  RHOB.G/C3                            : Bulk density by gamma-gamma log
  GR  .UR/H                            : Gamma-ray log
  NGLD.UE                              : Neutron-gamma log/device DRST-90
  GZ3 .OHMM                            : App.resistivity by lateral A2.0M0.5N
  GZ3B.OHMM                            : App.resistivity by lateral N0.5Œ2.0€
  SP  .MV                              : Spontaneous potential
  CILR.MMHO                            : Conduct. by sonde 7I1.6,react.signal
  CILA.MMHO                            : Conduct. by sonde 7I1.6,active signal
  C1  .MM                              : Diameter from profile 1
  C2  .MM                              : Diameter from profile 2
  CALI.MM                              : Caliper
~Parameter information
#MNEM.UNIT              Value            Description
#----------------------------------------------------------------------
#----------------------------------------------------------------------
  BS  .MM                        215.9 : Bit Size
  DFD .G/C3                       1.15 : Drilling Fluid Density
  TDD .M                         847.0 : Total Depth Driller
~Ascii Log Data
# ...
  557.200 420.0000 1036.0000 1204.0000 3.1480 1.1620 2.1090 10.8590 1.3820 2.6920 2.3720 0.8090 -150.5140 152.1500 222.4010 218.5850 220.4930
  557.300 420.0000 1036.0000 1204.0000 3.1480 1.1620 2.1090 10.8590 1.3820 2.6920 2.3720 0.8090 -150.5140 152.1500 222.4010 218.5850 220.4930
  557.400 410.0000 1012.0000 1176.0000 3.1440 1.2110 2.1190 10.7890 1.4210 2.7320 2.3290 -3.9030 -151.5880 150.9200 222.8030 218.5090 220.6560
  557.500 410.0000 1012.0000 1176.0000 3.1440 1.2110 2.1190 10.7890 1.4210 2.7320 2.3290 -3.9030 -151.5880 150.9200 222.8030 218.5090 220.6560
  557.600 390.0000 1024.0000 1180.0000 3.1020 1.1640 2.1140 11.0260 1.4350 2.7290 2.3050 -5.2720 -153.6150 152.5780 222.4290 218.3980 220.4140
  557.700 350.0000 1052.0000 1192.0000 2.9890 0.9240 2.1110 11.6250 1.4720 2.6880 2.3320 -4.3070 -162.0840 157.5520 222.7310 218.5060 220.6180
  557.800 350.0000 1052.0000 1192.0000 2.9890 0.9240 2.1110 11.6250 1.4720 2.6880 2.3320 -4.3070 -162.0840 157.5520 222.7310 218.5060 220.6180
  557.900 400.0000 1020.0000 1180.0000 2.8520 0.7660 2.1150 11.3060 1.4430 2.6140 2.4880 -0.3660 -169.8510 157.4110 222.8810 218.9220 220.9010
  558.000 400.0000 1020.0000 1180.0000 2.8520 0.7660 2.1150 11.3060 1.4430 2.6140 2.4880 -0.3660 -169.8510 157.4110 222.8810 218.9220 220.9010
  558.100 450.0000 1020.0000 1200.0000 2.8090 0.7700 2.1330 10.9020 1.5080 2.5910 2.6630 1.4500 -171.3490 155.1690 222.2990 218.9720 220.6350
  558.200 470.0000 1032.0000 1220.0000 2.8450 1.0480 2.1810 10.4300 1.4740 2.6780 3.0380 7.5650 -165.1740 137.1380 222.6320 218.6500 220.6410
  558.300 470.0000 1032.0000 1220.0000 2.8450 1.0480 2.1810 10.4300 1.4740 2.6780 3.0380 7.5650 -165.1740 137.1380 222.6320 218.6500 220.6410
  558.400 290.0000 1084.0000 1200.0000 3.0390 44.1170 2.2540 10.4250 1.5310 3.1470 3.6280 11.9250 -148.0490 121.5590 224.7020 220.1110 222.4070
  558.500 290.0000 1084.0000 1200.0000 3.0390 44.1170 2.2540 10.4250 1.5310 3.1470 3.6280 11.9250 -148.0490 121.5590 224.7020 220.1110 222.4070
  558.600 250.0000 1100.0000 1200.0000 3.2860 37.9930 2.2790 10.4380 1.5630 3.4720 3.6950 11.3230 -143.8100 119.3580 225.1630 221.3270 223.2450
  558.700 210.0000 1128.0000 1212.0000 3.5750 1.6960 2.2980 10.3940 1.5780 4.0100 3.4610 8.0890 -157.1890 129.7620 224.0920 221.9610 223.0260
  558.800 210.0000 1128.0000 1212.0000 3.5750 1.6960 2.2980 10.3940 1.5780 4.0100 3.4610 8.0890 -157.1890 129.7620 224.0920 221.9610 223.0260
  558.900 310.0000 1128.0000 1252.0000 2.8080 1.4020 2.2350 10.6080 1.4460 4.0430 2.9320 7.1710 -177.4650 146.9570 222.7480 219.0260 220.8870
  559.000 310.0000 1128.0000 1252.0000 2.8080 1.4020 2.2350 10.6080 1.4460 4.0430 2.9320 7.1710 -177.4650 146.9570 222.7480 219.0260 220.8870
  559.100 360.0000 1124.0000 1268.0000 2.6080 0.9540 2.1880 10.8660 1.3910 3.8780 2.6970 7.2590 -184.9140 153.5440 223.4010 218.9740 221.1870
  559.200 470.0000 1124.0000 1312.0000 2.4540 0.8070 2.1100 11.2740 1.3780 3.1890 2.3530 7.6050 -190.6160 153.7140 223.6520 218.3850 221.0180
  559.300 470.0000 1124.0000 1312.0000 2.4540 0.8070 2.1100 11.2740 1.3780 3.1890 2.3530 7.6050 -190.6160 153.7140 223.6520 218.3850 221.0180
  559.400 420.0000 1136.0000 1304.0000 2.4420 0.9150 2.0760 11.2740 1.4180 2.6780 2.1870 7.0230 -190.2210 151.4900 224.9130 218.8650 221.8890
  559.500 420.0000 1136.0000 1304.0000 2.4420 0.9150 2.0760 11.2740 1.4180 2.6780 2.1870 7.0230 -190.2210 151.4900 224.9130 218.8650 221.8890
  559.600 440.0000 1132.0000 1308.0000 2.4760 0.7380 2.0600 10.8510 1.3680 2.4920 2.1350 7.3230 -190.0530 151.3430 225.9040 218.8350 222.3690
  559.700 430.0000 1128.0000 1300.0000 2.4810 0.6510 2.0720 9.9650 1.3570 2.2380 2.0600 9.2810 -189.8180 152.4600 224.6650 218.5300 221.5970
  559.800 430.0000 1128.0000 1300.0000 2.4810 0.6510 2.0720 9.9650 1.3570 2.2380 2.0600 9.2810 -189.8180 152.4600 224.6650 218.5300 221.5970
  559.900 420.0000 1128.0000 1296.0000 2.5330 0.7730 2.0650 10.7410 1.3800 2.0460 1.9890 8.4340 -188.0740 155.0870 225.0000 218.1560 221.5780
  560.000 420.0000 1128.0000 1296.0000 2.5330 0.7730 2.0650 10.7410 1.3800 2.0460 1.9890 8.4340 -188.0740 155.0870 225.0000 218.1560 221.5780
  560.100 430.0000 1124.0000 1296.0000 2.5480 0.8460 2.0730 11.1620 1.3710 1.9480 1.9620 7.2370 -187.7510 154.2530 224.3980 218.5300 221.4640
  560.200 450.0000 1120.0000 1300.0000 2.6300 0.7550 2.0890 10.3980 1.3540 1.8650 1.9410 4.6550 -185.4710 155.2930 223.6000 218.9960 221.2980
  560.300 450.0000 1120.0000 1300.0000 2.6300 0.7550 2.0890 10.3980 1.3540 1.8650 1.9410 4.6550 -185.4710 155.2930 223.6000 218.9960 221.2980
  560.400 430.0000 1128.0000 1300.0000 2.6050 0.8610 2.0840 10.0590 1.3920 1.8550 1.9380 2.5590 -183.8310 156.6710 222.9460 220.0160 221.4810
  560.500 430.0000 1128.0000 1300.0000 2.6050 0.8610 2.0840 10.0590 1.3920 1.8550 1.9380 2.5590 -183.8310 156.6710 222.9460 220.0160 221.4810
  560.600 420.0000 1128.0000 1296.0000 2.5830 0.8270 2.0850 9.7850 1.3950 1.8880 1.9380 0.5250 -184.5340 157.2750 223.6600 219.6620 221.6610
  560.700 430.0000 1124.0000 1296.0000 2.5720 0.8000 2.0620 9.4500 1.3620 2.0130 1.9360 -3.4440 -189.3530 158.0460 224.6770 219.5380 222.1080
  560.800 430.0000 1124.0000 1296.0000 2.5720 0.8000 2.0620 9.4500 1.3620 2.0130 1.9360 -3.4440 -189.3530 158.0460 224.6770 219.5380 222.1080
  560.900 460.0000 1124.0000 1308.0000 2.4780 0.6040 2.0510 8.6970 1.3280 2.1140 1.9930 -0.7210 -189.3290 155.3680 225.6240 220.6150 223.1190
  561.000 460.0000 1124.0000 1308.0000 2.4780 0.6040 2.0510 8.6970 1.3280 2.1140 1.9930 -0.7210 -189.3290 155.3680 225.6240 220.6150 223.1190
  561.100 450.0000 1128.0000 1308.0000 2.4870 0.6930 2.0630 8.4700 1.3460 2.1260 2.0620 4.0380 -187.1050 152.2390 224.5780 220.5830 222.5810
  561.200 430.0000 1128.0000 1300.0000 2.5820 0.9690 2.0870 8.7180 1.3300 2.1650 2.1870 14.0280 -181.9600 145.0790 225.7810 219.5090 222.6450
  561.300 430.0000 1128.0000 1300.0000 2.5820 0.9690 2.0870 8.7180 1.3300 2.1650 2.1870 14.0280 -181.9600 145.0790 225.7810 219.5090 222.6450
  561.400 420.0000 1132.0000 1300.0000 2.6550 0.9040 2.1190 9.2110 1.3020 2.2050 2.2460 14.1000 -181.2910 141.8060 227.2670 219.2970 223.2820
  561.500 420.0000 1132.0000 1300.0000 2.6550 0.9040 2.1190 9.2110 1.3020 2.2050 2.2460 14.1000 -181.2910 141.8060 227.2670 219.2970 223.2820
  561.600 410.0000 1136.0000 1300.0000 2.6470 0.8180 2.1240 9.2580 1.3120 2.2290 2.2530 12.1120 -181.9530 140.6420 227.1590 218.1490 222.6540
  561.700 420.0000 1140.0000 1308.0000 2.6330 1.0380 2.1090 9.2730 1.3560 2.2270 2.2310 9.7600 -183.8130 141.4480 225.8150 218.8950 222.3550
  561.800 420.0000 1140.0000 1308.0000 2.6330 1.0380 2.1090 9.2730 1.3560 2.2270 2.2310 9.7600 -183.8130 141.4480 225.8150 218.8950 222.3550
  561.900 420.0000 1144.0000 1312.0000 2.6590 0.9570 2.0970 8.9200 1.3570 2.2290 2.1570 6.1710 -186.3310 142.5780 224.1900 219.6600 221.9250
  562.000 420.0000 1144.0000 1312.0000 2.6590 0.9570 2.0970 8.9200 1.3570 2.2290 2.1570 6.1710 -186.3310 142.5780 224.1900 219.6600 221.9250
  562.100 420.0000 1144.0000 1312.0000 2.6590 0.8120 2.0930 8.5280 1.4190 2.2180 2.1150 3.4860 -189.5170 144.8980 224.3340 219.4440 221.8890
  562.200 430.0000 1144.0000 1316.0000 2.5360 0.7710 2.0700 8.5270 1.4380 2.1360 2.0240 1.4350 -196.0360 149.9980 224.1350 219.4730 221.8040
  562.300 430.0000 1144.0000 1316.0000 2.5360 0.7710 2.0700 8.5270 1.4380 2.1360 2.0240 1.4350 -196.0360 149.9980 224.1350 219.4730 221.8040
  562.400 440.0000 1144.0000 1320.0000 2.4940 0.7680 2.0350 8.4150 1.3980 1.9830 1.9550 0.9420 -200.4920 152.1180 224.3110 220.3670 222.3390
  562.500 440.0000 1144.0000 1320.0000 2.4940 0.7680 2.0350 8.4150 1.3980 1.9830 1.9550 0.9420 -200.4920 152.1180 224.3110 220.3670 222.3390
  562.600 430.0000 1148.0000 1320.0000 2.4870 0.7670 2.0450 7.9790 1.4090 1.9260 1.9430 1.8390 -200.8330 151.7360 224.1960 219.4310 221.8130
  562.700 430.0000 1152.0000 1324.0000 2.4730 0.7140 2.0220 8.1510 1.4390 1.8450 1.8980 4.8130 -200.8650 151.0550 224.3670 220.0410 222.2040
  562.800 430.0000 1152.0000 1324.0000 2.4730 0.7140 2.0220 8.1510 1.4390 1.8450 1.8980 4.8130 -200.8650 151.0550 224.3670 220.0410 222.2040
