~Version information
  VERS.                           2.00 : CWLS log ASCII Standard -Version 2.00
  WRAP.                             NO : One line per depth step
~Well information
#MNEM.UNIT              Data Type        Information
#----------------------------------------------------------------------
  STRT.M                         4.000 : 
  STOP.M                       853.000 : 
  STEP.M                         0.100 : 
  NULL.                     -9999.0000 : 
  COMP.    "KARATUBE INT. OIL COMPANY" : Company Name
  WELL.                            307 : Well Name
  FLD .                       KARATUBE : Field Name
  CTRY.                     KAZAKHSTAN : Country
  SRVC.         JSC"KAZPROMGEOPHYSICA" : Service company
  DATE.                      24.04.04. : Log date
~Curve information
#MNEM.UNIT                               Curve Description
#----------------------------------------------------------------------
  DEPT.M                               : Depth Curve
  DTP .US/M                            : Interval travel time (P-wave)
  TT1 .US                              : Travel time 1
  TT2 .                                : Travel time 2
  LL3 .OHMM                            : Appar.resist.laterolog,3 electrodes
  MLL .OHMM                            : Microlaterolog sonde
  RHOB.G/C3                            : Bulk density by gamma-gamma log
  GR  .UR/H                            : Gamma-ray log
  NGLD.UE                              : Neutron-gamma log/device DRST-90
  GZ3 .OHMM                            : App.resistivity by lateral A2.0M0.5N
  GZ3B.OHMM                            : App.resistivity by lateral N0.5Œ2.0€
  SP  .MV                              : Spontaneous potential
  CILR.MMHO                            : Conduct. by sonde 7I1.6,react.signal
  CILA.MMHO                            : Conduct. by sonde 7I1.6,active signal
  C1  .MM                              : Diameter from profile 1
  C2  .MM                              : Diameter from profile 2
  CALI.MM                              : Caliper
~Parameter information
#MNEM.UNIT              Value            Description
#----------------------------------------------------------------------
#----------------------------------------------------------------------
  BS  .MM                        215.9 : Bit Size
  DFD .G/C3                       1.15 : Drilling Fluid Density
  TDD .M                         847.0 : Total Depth Driller
~Ascii Log Data
# ...
  460.300 450.0000 1168.0000 1348.0000 8.8470 1.9100 2.1340 9.1040 1.2270 8.8760 7.3230 -5.0680 -62.0120 105.2070 226.4670 225.6560 226.0610
  460.400 460.0000 1168.0000 1352.0000 7.9620 1.5580 2.1660 9.9190 1.2560 9.1200 7.0190 -6.3440 -68.2220 113.9060 226.6260 225.3380 225.9820
  460.500 470.0000 1168.0000 1356.0000 7.1400 1.6090 2.1920 10.3500 1.2230 8.9390 6.7620 -9.4130 -71.3170 119.7140 226.5260 227.2750 226.9000
  460.600 470.0000 1168.0000 1356.0000 7.1400 1.6090 2.1920 10.3500 1.2230 8.9390 6.7620 -9.4130 -71.3170 119.7140 226.5260 227.2750 226.9000
  460.700 430.0000 1176.0000 1348.0000 6.5120 1.7400 2.2080 10.4260 1.2210 8.8480 6.5950 -13.0240 -74.3630 128.6220 226.5550 230.6720 228.6140
  460.800 480.0000 1156.0000 1348.0000 6.0400 1.7830 2.2490 10.3470 1.2810 8.3050 6.5120 -17.1820 -77.2350 139.4390 226.5700 233.8020 230.1860
  460.900 490.0000 1152.0000 1348.0000 6.1260 1.7260 2.2330 10.5940 1.2860 7.9620 6.6100 -18.2400 -77.2390 139.2340 226.4920 232.5900 229.5410
  461.000 430.0000 1156.0000 1328.0000 6.2710 1.6950 2.2300 10.8030 1.2780 7.8310 6.7770 -18.7680 -75.9370 137.7440 227.0910 232.5600 229.8250
  461.100 430.0000 1156.0000 1328.0000 6.2710 1.6950 2.2300 10.8030 1.2780 7.8310 6.7770 -18.7680 -75.9370 137.7440 227.0910 232.5600 229.8250
  461.200 410.0000 1164.0000 1328.0000 6.3260 1.5800 2.2330 11.0680 1.2810 7.9760 7.0080 -18.2140 -74.8910 138.0820 227.6730 231.3130 229.4930
  461.300 400.0000 1184.0000 1344.0000 6.4170 1.5760 2.2200 10.8930 1.3200 7.8240 7.6570 -16.2280 -73.8380 141.1690 226.3670 230.6630 228.5150
  461.400 430.0000 1180.0000 1352.0000 6.5000 1.5690 2.2000 11.0400 1.2900 7.5520 7.9510 -14.9620 -72.8630 140.6130 226.2340 230.8930 228.5640
  461.500 460.0000 1172.0000 1356.0000 6.5210 1.4400 2.1970 10.4970 1.2530 7.3480 8.5400 -13.1180 -72.0830 140.3130 226.1870 230.6400 228.4130
  461.600 460.0000 1172.0000 1356.0000 6.5210 1.4400 2.1970 10.4970 1.2530 7.3480 8.5400 -13.1180 -72.0830 140.3130 226.1870 230.6400 228.4130
  461.700 480.0000 1164.0000 1356.0000 6.6240 1.3580 2.1930 10.6500 1.2710 7.2110 9.1430 -10.1180 -71.2080 139.9000 226.2100 229.8260 228.0180
  461.800 480.0000 1156.0000 1348.0000 7.3300 1.5220 2.1940 10.4810 1.2230 7.1860 10.3960 -4.8670 -64.7910 134.0740 224.9700 232.4920 228.7310
  461.900 500.0000 1148.0000 1348.0000 7.8790 1.6130 2.1930 10.6500 1.2080 6.8910 11.1910 -4.2870 -62.7410 123.6850 226.1150 231.7860 228.9500
  462.000 490.0000 1144.0000 1340.0000 8.4660 1.6410 2.2180 10.4580 1.2260 6.7230 11.9320 -4.2490 -59.2940 111.1930 226.1780 232.0860 229.1320
  462.100 490.0000 1144.0000 1340.0000 8.4660 1.6410 2.2180 10.4580 1.2260 6.7230 11.9320 -4.2490 -59.2940 111.1930 226.1780 232.0860 229.1320
  462.200 460.0000 1156.0000 1340.0000 8.9780 1.7930 2.2190 9.8230 1.2440 6.5860 12.7730 -3.7750 -54.3370 108.1440 226.3770 230.0170 228.1970
  462.300 440.0000 1156.0000 1332.0000 10.7030 4.8650 2.2330 9.3240 1.2650 6.2970 14.0890 -3.0510 -41.8000 106.1170 228.3850 229.1100 228.7470
  462.400 440.0000 1148.0000 1324.0000 12.8440 4.7180 2.2360 8.9630 1.1710 6.3950 14.4190 -4.2620 -39.7310 97.1100 228.0230 225.9870 227.0050
  462.500 440.0000 1144.0000 1320.0000 15.5670 2.1270 2.2370 8.4000 1.1340 6.3170 14.7740 -6.3320 -39.6230 93.9440 228.6240 225.1080 226.8660
  462.600 440.0000 1144.0000 1320.0000 15.5670 2.1270 2.2370 8.4000 1.1340 6.3170 14.7740 -6.3320 -39.6230 93.9440 228.6240 225.1080 226.8660
  462.700 450.0000 1144.0000 1324.0000 16.8460 1.8340 2.2140 8.0610 1.1100 6.2290 15.1610 -8.3540 -38.6860 97.1320 227.6390 228.2790 227.9590
  462.800 490.0000 1136.0000 1332.0000 14.5610 1.7080 2.0480 9.3800 1.1030 5.8490 16.2190 -8.7070 -36.5730 102.0870 226.0790 223.7590 224.9190
  462.900 460.0000 1140.0000 1324.0000 14.0800 1.8370 2.0180 9.8000 1.1320 5.5480 17.2250 -8.3230 -36.3970 100.4700 223.4920 224.0940 223.7930
  463.000 460.0000 1136.0000 1320.0000 15.2160 1.9220 2.0350 9.6440 1.1850 5.2000 18.4490 -8.8550 -34.2430 94.5100 224.7300 225.5000 225.1150
  463.100 460.0000 1136.0000 1320.0000 15.2160 1.9220 2.0350 9.6440 1.1850 5.2000 18.4490 -8.8550 -34.2430 94.5100 224.7300 225.5000 225.1150
  463.200 450.0000 1140.0000 1320.0000 17.2030 2.1450 2.0890 9.6650 1.1880 5.0510 19.8780 -9.1760 -30.7070 85.6170 227.8820 221.2590 224.5700
  463.300 460.0000 1128.0000 1312.0000 21.4680 5.5740 2.0890 9.4680 1.2700 4.8580 22.3060 -3.8050 -26.7550 64.7020 226.0590 219.6820 222.8700
  463.400 470.0000 1128.0000 1316.0000 35.4080 5.6340 2.0740 8.8590 1.3150 4.8750 22.9750 0.5370 -24.5510 56.5900 226.1060 220.4640 223.2850
  463.500 440.0000 1128.0000 1304.0000 50.5010 4.7660 2.0740 8.4610 1.2900 5.0260 23.2910 3.7770 -23.7300 50.9780 226.2070 220.3420 223.2750
  463.600 440.0000 1128.0000 1304.0000 50.5010 4.7660 2.0740 8.4610 1.2900 5.0260 23.2910 3.7770 -23.7300 50.9780 226.2070 220.3420 223.2750
  463.700 480.0000 1116.0000 1308.0000 59.9650 4.0720 2.0690 8.2600 1.2630 5.1760 23.0140 4.8130 -22.3510 48.9040 225.4360 221.1090 223.2730
  463.800 490.0000 1096.0000 1292.0000 56.7550 3.4840 2.1270 8.1520 1.2330 5.7590 21.6760 2.0320 -19.3720 51.7420 225.2770 220.9260 223.1010
  463.900 490.0000 1060.0000 1256.0000 53.0030 3.9780 2.1120 8.1460 1.2360 5.9390 21.0280 0.7930 -20.1000 53.1720 224.6030 221.4440 223.0240
  464.000 560.0000 1032.0000 1256.0000 51.5110 5.6060 2.1360 8.1080 1.2360 6.1610 20.3000 0.8760 -20.4860 52.1150 225.2950 221.7110 223.5030
  464.100 560.0000 1032.0000 1256.0000 51.5110 5.6060 2.1360 8.1080 1.2360 6.1610 20.3000 0.8760 -20.4860 52.1150 225.2950 221.7110 223.5030
  464.200 540.0000 1024.0000 1240.0000 54.3000 6.6820 2.1230 8.1850 1.2490 6.2160 19.5780 2.1150 -19.4690 52.1480 226.4810 221.1170 223.7990
  464.300 530.0000 968.0000 1180.0000 61.0800 3.4340 2.1060 8.5880 1.2660 6.8090 18.3580 4.2050 -17.9090 55.3440 226.1360 221.0110 223.5740
  464.400 540.0000 944.0000 1160.0000 57.0560 3.3500 2.1090 8.1880 1.3000 7.3110 17.9600 4.5330 -18.8810 58.1190 226.0690 222.2890 224.1790
  464.500 540.0000 920.0000 1136.0000 50.6760 3.1340 2.1430 7.9280 1.3080 7.6160 17.5130 4.6150 -18.9790 60.2430 226.1290 221.9750 224.0520
  464.600 540.0000 920.0000 1136.0000 50.6760 3.1340 2.1430 7.9280 1.3080 7.6160 17.5130 4.6150 -18.9790 60.2430 226.1290 221.9750 224.0520
  464.700 490.0000 912.0000 1108.0000 44.1160 2.8620 2.1850 7.9590 1.2550 7.9290 17.2740 4.0620 -21.1020 61.2240 226.1300 221.3550 223.7430
  464.800 410.0000 920.0000 1084.0000 35.6290 2.8740 2.2260 8.0040 1.2820 8.6790 17.1950 0.2990 -21.1350 64.0700 224.2750 221.2750 222.7750
  464.900 410.0000 924.0000 1088.0000 33.3730 3.2850 2.2620 7.8810 1.2940 8.9110 17.4390 -3.4430 -21.9070 63.9740 224.0210 221.5470 222.7840
  465.000 420.0000 916.0000 1084.0000 31.7390 4.1470 2.2740 7.8750 1.3230 9.0490 17.7620 -8.3520 -23.4810 57.3290 224.9510 221.6270 223.2890
  465.100 420.0000 916.0000 1084.0000 31.7390 4.1470 2.2740 7.8750 1.3230 9.0490 17.7620 -8.3520 -23.4810 57.3290 224.9510 221.6270 223.2890
  465.200 390.0000 924.0000 1080.0000 31.0810 3.9810 2.2950 7.3830 1.3640 9.2310 18.1140 -13.3110 -24.0830 50.7290 224.4370 221.7380 223.0870
  465.300 270.0000 976.0000 1084.0000 32.4340 56.0150 2.3570 7.1830 1.5810 9.9010 19.4310 -16.5850 -22.7050 48.9340 223.2340 220.4480 221.8410
  465.400 220.0000 1004.0000 1092.0000 32.5610 220.7200 2.3730 6.9140 1.7080 10.6090 19.8430 -15.1420 -21.2250 49.2250 226.2370 221.7700 224.0030
  465.500 220.0000 1004.0000 1092.0000 38.6720 176.7700 2.4110 6.7210 1.8160 11.4210 19.9550 -13.3090 -21.4750 43.8690 224.6790 220.1330 222.4060
  465.600 220.0000 1004.0000 1092.0000 38.6720 176.7700 2.4110 6.7210 1.8160 11.4210 19.9550 -13.3090 -21.4750 43.8690 224.6790 220.1330 222.4060
  465.700 180.0000 1028.0000 1100.0000 44.8740 207.3480 2.4810 6.5630 1.9290 12.4780 19.9280 -12.0910 -21.7420 40.6520 225.6370 219.9720 222.8050
  465.800 200.0000 1072.0000 1152.0000 41.7640 39.5590 2.5230 6.4060 1.9630 14.6380 18.9850 -9.8450 -22.6330 45.0100 224.9290 220.2690 222.5990
  465.900 210.0000 1096.0000 1180.0000 37.1280 62.7820 2.5050 6.4360 1.9070 15.6900 18.2630 -7.2040 -21.9350 53.7620 224.4290 220.3210 222.3750
