~Version information
  VERS.                           2.00 : CWLS log ASCII Standard -Version 2.00
  WRAP.                             NO : One line per depth step
~Well information
#MNEM.UNIT              Data Type        Information
#----------------------------------------------------------------------
  STRT.M                         4.000 : 
  STOP.M                       853.000 : 
  STEP.M                         0.100 : 
  NULL.                     -9999.0000 : 
  COMP.    "KARATUBE INT. OIL COMPANY" : Company Name
  WELL.                            307 : Well Name
  FLD .                       KARATUBE : Field Name
  CTRY.                     KAZAKHSTAN : Country
  SRVC.         JSC"KAZPROMGEOPHYSICA" : Service company
  DATE.                      24.04.04. : Log date
~Curve information
#MNEM.UNIT                               Curve Description
#----------------------------------------------------------------------
  DEPT.M                               : Depth Curve
  DTP .US/M                            : Interval travel time (P-wave)
  TT1 .US                              : Travel time 1
  TT2 .                                : Travel time 2
  LL3 .OHMM                            : Appar.resist.laterolog,3 electrodes
  MLL .OHMM                            : Microlaterolog sonde
  RHOB.G/C3                            : Bulk density by gamma-gamma log
  GR  .UR/H                            : Gamma-ray log
  NGLD.UE                              : Neutron-gamma log/device DRST-90
  GZ3 .OHMM                            : App.resistivity by lateral A2.0M0.5N
  GZ3B.OHMM                            : App.resistivity by lateral N0.5Œ2.0€
  SP  .MV                              : Spontaneous potential
  CILR.MMHO                            : Conduct. by sonde 7I1.6,react.signal
  CILA.MMHO                            : Conduct. by sonde 7I1.6,active signal
  C1  .MM                              : Diameter from profile 1
  C2  .MM                              : Diameter from profile 2
  CALI.MM                              : Caliper
~Parameter information
#MNEM.UNIT              Value            Description
#----------------------------------------------------------------------
#----------------------------------------------------------------------
  BS  .MM                        215.9 : Bit Size
  DFD .G/C3                       1.15 : Drilling Fluid Density
  TDD .M                         847.0 : Total Depth Driller
~Ascii Log Data
# ...
  841.300 230.0000 804.0000 896.0000 -9999.0000 401.0460 2.0760 0.9660 7.4640 0.1250 78.7320 166.0220 1.9880 -3.1220 267.4210 248.4630 257.9420
  841.400 230.0000 804.0000 896.0000 -9999.0000 347.1750 2.0890 0.8990 7.4210 0.1170 78.7290 167.6160 -0.9230 -10.7490 269.3260 249.5890 259.4580
  841.500 230.0000 804.0000 896.0000 -9999.0000 388.8150 2.0930 0.7750 7.4910 0.1140 78.7290 168.3550 -0.1110 -11.3210 264.5320 248.0430 256.2880
  841.600 230.0000 804.0000 896.0000 -9999.0000 365.3650 2.0910 0.9720 7.5540 0.1210 78.7470 167.3740 -0.9830 -10.6480 265.5330 248.9770 257.2550
  841.700 230.0000 804.0000 896.0000 -9999.0000 218.3060 2.0990 0.9950 7.4280 0.1260 78.7440 163.2320 1.0880 -4.3800 265.9500 250.4220 258.1860
  841.800 230.0000 804.0000 896.0000 -9999.0000 263.3190 2.1120 0.8890 7.4060 0.1200 78.7600 159.8970 -0.6180 -7.3330 264.7690 249.2270 256.9980
  841.900 230.0000 804.0000 896.0000 -9999.0000 415.4040 2.1150 0.9840 7.3350 0.1100 78.7540 157.1170 -0.9120 -5.5990 264.6980 249.2830 256.9900
  842.000 250.0000 800.0000 900.0000 -9999.0000 346.2940 2.1250 1.0130 7.3450 0.1120 78.7510 158.5490 0.9500 -3.5010 265.6750 251.4410 258.5580
  842.100 240.0000 796.0000 892.0000 -9999.0000 183.5620 2.1080 1.1160 7.2620 0.1080 78.7570 158.8840 -0.3700 -4.1040 265.1810 251.2520 258.2170
  842.200 240.0000 800.0000 896.0000 -9999.0000 143.7590 2.1110 0.9260 7.3160 0.1280 78.7480 159.8950 0.6700 -6.0090 263.2010 249.9080 256.5550
  842.300 240.0000 800.0000 896.0000 -9999.0000 214.1220 2.0990 0.7960 7.2360 0.1230 78.7310 159.3300 -0.1410 -8.7800 260.6070 248.0770 254.3420
  842.400 220.0000 808.0000 896.0000 -9999.0000 83.1630 2.1010 0.8040 7.2390 0.1120 78.7300 161.1130 0.0760 -5.2920 266.1460 249.4570 257.8020
  842.500 210.0000 808.0000 892.0000 -9999.0000 29.6400 2.1000 0.8860 7.2850 0.0980 78.7330 161.5300 -0.9990 -7.0150 267.1000 250.3870 258.7430
  842.600 220.0000 804.0000 892.0000 -9999.0000 100.2110 2.0990 0.9330 7.3150 0.1010 78.7460 162.2390 0.4840 -5.1500 266.9380 254.0930 260.5160
  842.700 240.0000 800.0000 896.0000 -9999.0000 2.5030 2.1130 1.0260 7.2580 0.1040 78.7280 163.5720 -0.7760 -2.4200 266.2550 254.1580 260.2070
  842.800 230.0000 800.0000 892.0000 -9999.0000 52.9570 2.0920 0.9270 7.3180 0.1280 78.7350 164.9160 1.3040 -3.8320 265.5620 253.9610 259.7620
  842.900 230.0000 800.0000 892.0000 -9999.0000 86.1530 2.0930 0.9620 7.2440 0.0960 78.7360 164.6320 -1.4360 -12.1670 262.9430 251.9090 257.4260
  843.000 230.0000 800.0000 892.0000 -9999.0000 58.1990 2.0880 0.9670 7.2680 0.0930 78.7480 163.8540 -0.8990 -20.2720 264.2520 249.2390 256.7450
  843.100 250.0000 796.0000 896.0000 -9999.0000 22.9200 2.0860 1.1120 7.2360 0.1090 -9999.0000 166.5290 -1.4780 -15.8940 263.7690 253.4290 258.5990
  843.200 220.0000 804.0000 892.0000 -9999.0000 7.1480 2.1070 1.0820 7.2020 0.1070 -9999.0000 169.8970 -0.0050 -13.8760 262.0540 251.0850 256.5690
  843.300 210.0000 808.0000 892.0000 -9999.0000 11.3230 2.1030 1.0480 7.3590 0.1120 -9999.0000 172.8170 -0.2520 -19.2060 259.3780 251.1380 255.2580
  843.400 270.0000 784.0000 892.0000 -9999.0000 20.4620 2.1180 0.9600 7.3540 0.1150 -9999.0000 171.5900 0.0960 -24.8070 258.5990 252.2290 255.4140
  843.500 270.0000 784.0000 892.0000 -9999.0000 15.9100 2.1170 0.9670 7.3740 0.0980 -9999.0000 169.7200 0.7320 -22.1070 258.1110 252.2130 255.1620
  843.600 270.0000 780.0000 888.0000 -9999.0000 16.2860 2.1180 0.9780 7.3080 0.1140 -9999.0000 163.8350 -0.2200 -18.5350 257.3840 249.3650 253.3740
  843.700 310.0000 768.0000 892.0000 -9999.0000 7.3600 2.1210 0.9900 7.2450 0.1090 -9999.0000 159.7900 0.6480 -16.2020 258.2710 246.7600 252.5160
  843.800 310.0000 776.0000 900.0000 -9999.0000 32.4760 2.1220 1.0040 7.1970 0.1150 -9999.0000 155.8700 1.2710 -20.5680 256.6810 248.0920 252.3860
  843.900 230.0000 788.0000 880.0000 -9999.0000 95.6990 2.1120 1.0030 7.1230 0.0990 -9999.0000 153.8670 1.1870 -23.6020 256.9610 249.4660 253.2140
  844.000 230.0000 788.0000 880.0000 -9999.0000 34.8740 2.1050 1.0930 7.1540 0.0800 -9999.0000 152.2880 0.2260 -22.7720 258.1210 250.4740 254.2980
  844.100 240.0000 776.0000 872.0000 -9999.0000 15.8490 2.1090 1.1580 7.1260 0.1030 -9999.0000 153.2630 0.3360 -16.6410 259.7000 251.9900 255.8450
  844.200 230.0000 772.0000 864.0000 -9999.0000 12.1520 2.1040 1.1750 7.1250 0.1000 -9999.0000 156.7960 -0.5850 -16.4690 260.5150 250.9930 255.7540
  844.300 280.0000 772.0000 884.0000 -9999.0000 7.3730 2.0970 1.1270 7.0640 0.1030 -9999.0000 159.5240 -0.8590 -18.2210 255.9320 251.6040 253.7680
  844.400 250.0000 776.0000 876.0000 -9999.0000 35.3630 2.0830 1.1500 7.1340 0.1130 -9999.0000 159.5650 -0.6960 -19.2970 259.6130 252.6500 256.1320
  844.500 260.0000 772.0000 876.0000 -9999.0000 45.5670 2.0890 1.1650 7.2750 0.1010 -9999.0000 156.6870 -0.8480 -18.9280 262.0160 250.3470 256.1810
  844.600 240.0000 772.0000 868.0000 -9999.0000 5.0980 2.0940 1.1380 7.2280 0.1020 -9999.0000 151.4970 1.9230 -12.3380 259.7730 249.4780 254.6260
  844.700 240.0000 776.0000 872.0000 -9999.0000 2.9070 2.0890 1.1370 7.2460 0.1070 -9999.0000 147.5660 -0.4920 -11.8630 259.2060 249.4060 254.3060
  844.800 240.0000 772.0000 868.0000 -9999.0000 4.4660 2.1020 1.1480 7.2530 0.1000 -9999.0000 145.6710 -0.8470 -17.1400 258.0310 247.2160 252.6240
  844.900 240.0000 772.0000 868.0000 -9999.0000 8.1750 2.0990 0.9970 7.2310 0.1030 -9999.0000 146.6080 -1.1250 -12.5860 258.7320 248.1600 253.4460
  845.000 230.0000 776.0000 868.0000 -9999.0000 10.6020 2.0840 1.0370 7.2430 0.1040 -9999.0000 147.8430 -0.7180 -8.8660 258.6770 249.6810 254.1790
  845.100 230.0000 776.0000 868.0000 -9999.0000 11.7500 2.0900 0.9790 7.2510 0.1110 -9999.0000 148.1610 -0.7300 -5.1890 257.6320 249.5890 253.6110
  845.200 230.0000 776.0000 868.0000 -9999.0000 11.4600 2.0690 0.8900 7.2060 0.1090 -9999.0000 143.6860 0.9620 -1.8910 257.2850 248.2900 252.7880
  845.300 230.0000 776.0000 868.0000 -9999.0000 9.6670 2.0720 0.9430 7.1130 0.1010 -9999.0000 -9999.0000 0.9430 -3.5110 256.8210 250.2510 253.5360
  845.400 240.0000 772.0000 868.0000 -9999.0000 4.7620 2.0850 0.9240 7.0740 0.1180 -9999.0000 -9999.0000 -0.0470 -4.8160 255.4050 250.0380 252.7210
  845.500 170.0000 776.0000 844.0000 -9999.0000 61.0070 2.1010 1.0030 7.0260 0.1180 -9999.0000 -9999.0000 0.8810 -0.6590 256.9360 249.9770 253.4560
  845.600 240.0000 776.0000 872.0000 -9999.0000 18.7150 2.0960 1.0030 6.8780 0.1150 -9999.0000 -9999.0000 0.1140 1.1340 258.9850 251.6120 255.2990
  845.700 240.0000 776.0000 872.0000 -9999.0000 22.9950 2.0850 1.1010 6.7080 0.1180 -9999.0000 -9999.0000 0.0930 0.9130 260.0560 252.0820 256.0690
  845.800 240.0000 772.0000 868.0000 -9999.0000 8.8060 2.1100 1.0280 6.6890 0.1110 -9999.0000 -9999.0000 0.1810 1.0660 261.7690 256.6740 259.2220
  845.900 210.0000 772.0000 856.0000 -9999.0000 3.9320 2.1030 1.0750 6.6380 0.1070 -9999.0000 -9999.0000 0.0890 0.9410 266.6460 260.3010 263.4730
  846.000 240.0000 772.0000 868.0000 -9999.0000 17.0700 2.0970 1.0810 6.5290 0.1050 -9999.0000 -9999.0000 0.1740 1.0960 267.6050 255.5800 261.5920
  846.100 240.0000 772.0000 868.0000 -9999.0000 7.8310 2.0690 1.0830 6.6700 0.1040 -9999.0000 -9999.0000 0.1910 0.9730 269.7030 255.6050 262.6540
  846.200 240.0000 772.0000 868.0000 -9999.0000 2.1880 2.0370 1.0720 6.6480 0.1070 -9999.0000 -9999.0000 -0.2030 0.4850 268.7590 259.3370 264.0480
  846.300 240.0000 772.0000 868.0000 -9999.0000 5.6950 2.0250 1.1320 6.6850 0.1090 -9999.0000 -9999.0000 0.3560 0.9710 269.5490 259.0780 264.3140
  846.400 240.0000 772.0000 868.0000 -9999.0000 2.9650 2.0290 1.1380 6.6080 0.1060 -9999.0000 -9999.0000 0.0150 0.9240 265.6570 258.6610 262.1590
  846.500 240.0000 772.0000 868.0000 -9999.0000 2.6920 2.0180 1.1770 6.6620 0.1200 -9999.0000 -9999.0000 0.2450 0.6260 268.0800 264.3760 266.2280
  846.600 240.0000 772.0000 868.0000 -9999.0000 1.7900 2.0130 1.2200 6.5260 0.1040 -9999.0000 -9999.0000 -0.0810 0.4370 270.8450 267.2060 269.0260
  846.700 220.0000 780.0000 868.0000 -9999.0000 1.2730 2.0020 1.1840 6.5000 0.1220 -9999.0000 -9999.0000 0.0390 1.0010 277.3520 274.7170 276.0350
