~Version information
  VERS.                           2.00 : CWLS log ASCII Standard -Version 2.00
  WRAP.                             NO : One line per depth step
~Well information
#MNEM.UNIT              Data Type        Information
#----------------------------------------------------------------------
  STRT.M                         4.000 : 
  STOP.M                       853.000 : 
  STEP.M                         0.100 : 
  NULL.                     -9999.0000 : 
  COMP.    "KARATUBE INT. OIL COMPANY" : Company Name
  WELL.                            307 : Well Name
  FLD .                       KARATUBE : Field Name
  CTRY.                     KAZAKHSTAN : Country
  SRVC.         JSC"KAZPROMGEOPHYSICA" : Service company
  DATE.                      24.04.04. : Log date
~Curve information
#MNEM.UNIT                               Curve Description
#----------------------------------------------------------------------
  DEPT.M                               : Depth Curve
  DTP .US/M                            : Interval travel time (P-wave)
  TT1 .US                              : Travel time 1
  TT2 .                                : Travel time 2
  LL3 .OHMM                            : Appar.resist.laterolog,3 electrodes
  MLL .OHMM                            : Microlaterolog sonde
  RHOB.G/C3                            : Bulk density by gamma-gamma log
  GR  .UR/H                            : Gamma-ray log
  NGLD.UE                              : Neutron-gamma log/device DRST-90
  GZ3 .OHMM                            : App.resistivity by lateral A2.0M0.5N
  GZ3B.OHMM                            : App.resistivity by lateral N0.5Œ2.0€
  SP  .MV                              : Spontaneous potential
  CILR.MMHO                            : Conduct. by sonde 7I1.6,react.signal
  CILA.MMHO                            : Conduct. by sonde 7I1.6,active signal
  C1  .MM                              : Diameter from profile 1
  C2  .MM                              : Diameter from profile 2
  CALI.MM                              : Caliper
~Parameter information
#MNEM.UNIT              Value            Description
#----------------------------------------------------------------------
#----------------------------------------------------------------------
  BS  .MM                        215.9 : Bit Size
  DFD .G/C3                       1.15 : Drilling Fluid Density
  TDD .M                         847.0 : Total Depth Driller
~Ascii Log Data
# ...
  272.200 510.0000 1204.0000 1408.0000 79.4330 4.3850 1.9960 10.6890 1.3140 24.2400 16.9810 36.3400 -10.1460 25.0170 227.7150 240.6600 234.1880
  272.300 500.0000 1204.0000 1404.0000 74.0800 4.4870 1.9960 10.8470 1.3330 24.4830 16.4800 35.1810 -10.3350 25.1260 230.0070 240.6400 235.3230
  272.400 490.0000 1204.0000 1400.0000 65.3580 4.7000 2.0000 10.7230 1.3390 24.8680 16.0550 34.4760 -10.7830 25.3130 231.1630 240.2210 235.6920
  272.500 500.0000 1200.0000 1400.0000 57.7300 4.7500 1.9920 10.5040 1.3390 25.2120 15.6500 33.7770 -11.3270 25.5750 230.5180 239.5460 235.0320
  272.600 490.0000 1200.0000 1396.0000 52.0350 4.3450 1.9940 10.8570 1.3190 25.5050 15.2300 32.7020 -11.5730 26.8220 228.4770 239.6080 234.0420
  272.700 500.0000 1196.0000 1396.0000 49.1250 4.4790 1.9980 10.7720 1.3030 25.9490 14.7260 30.9840 -11.9800 28.1240 226.9310 239.6710 233.3010
  272.800 500.0000 1196.0000 1396.0000 45.1960 4.4920 1.9990 10.9390 1.2990 26.4060 14.2210 29.3060 -12.9550 28.2080 225.4630 240.6690 233.0660
  272.900 500.0000 1196.0000 1396.0000 40.4200 4.2770 2.0100 10.3780 1.2860 26.7550 13.7300 27.7730 -13.0660 30.4610 225.9420 239.7320 232.8370
  273.000 490.0000 1196.0000 1392.0000 35.7520 4.3640 2.0210 10.3900 1.2770 27.0020 13.2290 26.5730 -14.5470 31.5590 227.5590 240.0480 233.8040
  273.100 510.0000 1188.0000 1392.0000 33.8380 4.3030 2.0370 10.2870 1.3020 27.2840 12.7290 25.5200 -14.6070 35.0920 226.7490 241.5030 234.1260
  273.200 500.0000 1192.0000 1392.0000 30.7540 4.5030 2.0330 10.4860 1.3170 27.3290 12.1960 24.6020 -15.1880 37.7920 226.0720 241.2870 233.6800
  273.300 490.0000 1192.0000 1388.0000 29.3290 4.7790 2.0240 10.4770 1.3000 27.5850 11.9140 23.9260 -16.4420 39.7090 226.1080 240.6550 233.3820
  273.400 470.0000 1200.0000 1388.0000 29.3700 4.5820 2.0250 10.6180 1.3140 27.8150 11.2860 23.4170 -17.6990 42.0450 226.3830 239.9900 233.1860
  273.500 500.0000 1188.0000 1388.0000 26.6990 4.1310 2.0240 10.4520 1.3540 28.0710 10.8710 23.0780 -17.3730 43.2540 227.5310 238.3360 232.9340
  273.600 470.0000 1196.0000 1384.0000 24.1490 3.3810 2.0180 10.6600 1.3340 28.3390 10.5190 22.8060 -18.2540 46.1080 229.8690 236.9300 233.4000
  273.700 490.0000 1192.0000 1388.0000 23.0200 3.0620 2.0080 10.6580 1.3240 28.4970 10.2600 22.6830 -18.0440 52.4410 225.9830 230.8620 228.4220
  273.800 500.0000 1192.0000 1392.0000 21.2770 3.4400 2.0130 10.6520 1.3090 28.6060 10.1020 22.9170 -22.4260 57.4110 222.9100 229.8090 226.3600
  273.900 470.0000 1196.0000 1384.0000 19.2890 3.0420 2.0130 10.8280 1.2920 28.4650 9.9810 23.3910 -23.1270 61.0720 223.8440 229.0020 226.4230
  274.000 480.0000 1196.0000 1388.0000 17.6240 2.5550 1.9920 11.0050 1.3120 28.2430 9.8960 23.9330 -25.1620 62.6490 224.6090 229.2540 226.9310
  274.100 480.0000 1196.0000 1388.0000 16.2850 2.8260 2.0060 11.3590 1.3370 27.5840 9.7360 24.4070 -26.3450 64.3560 225.3500 227.7340 226.5420
  274.200 500.0000 1192.0000 1392.0000 15.2090 3.0070 1.9920 11.5350 1.3090 26.7720 9.6230 24.6850 -27.0700 65.8070 225.0340 226.7460 225.8900
  274.300 480.0000 1196.0000 1388.0000 14.3610 3.5340 1.9960 11.4640 1.2780 26.1210 9.4100 25.0090 -27.8190 66.7370 223.8420 227.0630 225.4520
  274.400 470.0000 1196.0000 1384.0000 14.0090 3.4740 1.9910 11.4990 1.2990 25.3540 9.0760 25.3840 -28.1200 66.5630 223.1020 227.4430 225.2720
  274.500 530.0000 1172.0000 1384.0000 14.1580 3.4440 2.0130 11.0560 1.2730 24.7440 8.8350 25.9760 -31.3190 65.3370 222.5300 229.1620 225.8460
  274.600 532.8000 1154.7000 1367.8000 14.0150 3.9190 2.0220 11.1970 1.2900 24.1490 8.7310 26.9170 -30.3010 67.8060 222.4190 231.2620 226.8410
  274.700 560.0000 1136.0000 1360.0000 13.0650 3.3570 2.0110 11.2580 1.3390 23.7780 8.3540 28.3840 -31.4690 69.2070 222.7500 233.1890 227.9690
  274.800 500.0000 1132.0000 1332.0000 12.0640 2.3670 2.0270 11.4550 1.3380 23.4060 8.1430 30.2660 -33.2450 69.3150 223.2070 232.8310 228.0190
  274.900 470.0000 1136.0000 1324.0000 11.5900 3.3310 2.0340 11.6540 1.3040 22.9650 8.0050 31.5500 -34.9080 69.9100 222.9990 230.3650 226.6820
  275.000 470.0000 1128.0000 1316.0000 10.9870 4.2500 2.0420 11.8730 1.2880 22.5970 7.8480 31.9240 -34.1070 71.5950 223.4530 231.3750 227.4140
  275.100 470.0000 1128.0000 1316.0000 10.4760 3.9770 2.0620 12.2460 1.3140 22.0280 7.6240 31.2910 -34.9600 72.7710 226.1680 234.8360 230.5020
  275.200 480.0000 1128.0000 1320.0000 10.1460 2.9570 2.0830 12.1820 1.3400 21.6080 7.4700 30.0660 -36.6500 75.1610 230.8170 238.3440 234.5800
  275.300 470.0000 1124.0000 1312.0000 9.7700 2.6500 2.0970 12.6430 1.3850 21.2710 7.2870 28.0860 -38.1110 81.3440 232.4340 238.2920 235.3630
  275.400 490.0000 1120.0000 1316.0000 9.4760 3.5230 2.0950 13.6550 1.3840 20.9950 7.0260 26.1300 -40.0540 84.8690 223.2170 234.9800 229.0990
  275.500 460.0000 1128.0000 1312.0000 9.1600 2.6640 2.1040 14.7200 1.3820 20.5630 6.8070 23.8910 -42.9760 87.8010 224.3480 238.7550 231.5510
  275.600 480.0000 1120.0000 1312.0000 8.6780 1.8730 2.1320 15.6580 1.4310 20.1900 6.6900 21.5410 -46.2370 93.8500 222.7840 243.5750 233.1800
  275.700 470.0000 1120.0000 1308.0000 8.2220 1.6830 2.1170 16.6540 1.4200 19.7200 6.6340 18.6650 -47.9760 97.6650 220.1070 243.3030 231.7050
  275.800 480.0000 1120.0000 1312.0000 7.9070 1.9490 2.1210 17.5850 1.4220 18.7280 6.5760 15.7460 -50.5110 95.8210 219.6040 240.6470 230.1260
  275.900 400.0000 1148.0000 1308.0000 7.6260 2.0110 2.1410 18.2440 1.4410 17.8030 6.6550 12.9750 -50.3640 90.5090 220.5910 240.0160 230.3030
  276.000 390.0000 1164.0000 1320.0000 7.2580 2.0920 2.1660 19.1040 1.4280 16.8240 6.7880 9.9670 -47.7060 93.9140 222.0290 239.1630 230.5960
  276.100 340.0000 1168.0000 1304.0000 7.3940 7.8740 2.2000 20.2770 1.4310 16.1390 7.0220 7.2560 -46.7430 95.7040 223.7010 237.7080 230.7040
  276.200 270.0000 1168.0000 1276.0000 7.5280 27.5720 2.2310 21.4690 1.4560 16.0010 7.1690 4.6350 -44.3100 95.0810 225.5210 236.7920 231.1560
  276.300 300.0000 1168.0000 1288.0000 7.9980 25.0240 2.2800 21.7800 1.4450 16.1080 7.1640 3.3510 -44.2510 89.7670 226.4020 233.0970 229.7500
  276.400 390.0000 1144.0000 1300.0000 8.6840 2.6420 2.2750 21.0820 1.4780 16.2350 6.9990 3.0910 -48.1050 90.0760 227.1160 230.6200 228.8680
  276.500 340.0000 1172.0000 1308.0000 8.3850 2.2450 2.2590 20.1130 1.4780 16.2470 6.7480 3.9670 -50.9980 95.4760 223.1020 234.9030 229.0030
  276.600 430.0000 1164.0000 1336.0000 7.1300 1.9740 2.2190 18.6080 1.4720 15.8320 6.4420 5.3890 -53.0130 100.9010 222.1480 232.7750 227.4620
  276.700 480.0000 1172.0000 1364.0000 6.2090 1.7870 2.1880 16.7430 1.4070 15.1310 6.1490 6.8930 -54.0250 105.8470 222.4350 229.5090 225.9720
  276.800 440.0000 1192.0000 1368.0000 5.9920 1.8350 2.1840 14.7120 1.3910 13.8370 6.1110 8.7250 -55.7620 107.7750 221.9690 228.9010 225.4350
  276.900 410.0000 1204.0000 1368.0000 6.1090 1.5570 2.1840 13.3830 1.3710 12.8430 6.0610 10.4030 -56.0030 106.7890 221.3200 229.1160 225.2180
  277.000 440.0000 1200.0000 1376.0000 6.2120 1.5080 2.1750 11.9480 1.3540 12.0460 6.0920 12.1340 -55.2800 105.4180 221.7290 228.0420 224.8860
  277.100 390.0000 1200.0000 1356.0000 6.2070 1.4910 2.1610 10.9970 1.3000 11.3250 6.0960 13.5690 -54.3170 103.8110 222.7870 227.0970 224.9420
  277.200 460.0000 1180.0000 1364.0000 6.1310 1.3390 2.1460 10.1310 1.2670 10.7170 6.1640 15.0160 -53.6980 99.9920 222.9330 227.5330 225.2330
  277.300 460.0000 1180.0000 1364.0000 6.3070 1.5480 2.1520 9.8760 1.2430 10.4400 6.1720 16.4820 -54.6980 95.4540 222.3220 230.4660 226.3940
  277.400 460.0000 1192.0000 1376.0000 6.6570 1.9120 2.1320 9.2300 1.2220 10.0560 6.1800 17.7720 -55.7720 94.6790 222.8110 232.9570 227.8840
  277.500 420.0000 1204.0000 1372.0000 6.6180 1.8340 2.1410 9.1600 1.2240 9.7620 6.1540 18.5210 -55.6250 97.1760 223.6930 234.4950 229.0940
  277.600 420.0000 1204.0000 1372.0000 6.3420 2.9090 2.1190 8.8070 1.2540 9.5910 6.1230 18.8920 -55.7910 99.5690 223.6110 235.7970 229.7040
  277.700 420.0000 1204.0000 1372.0000 6.3420 2.9090 2.1190 8.8070 1.2540 9.5910 6.1230 18.8920 -55.7910 99.5690 223.6110 235.7970 229.7040
  277.800 440.0000 1196.0000 1372.0000 6.4550 2.0720 2.1300 8.9730 1.2170 9.1790 6.1060 19.2530 -57.9670 103.4230 225.2920 230.6530 227.9730
