~Version information
  VERS.                           2.00 : CWLS log ASCII Standard -Version 2.00
  WRAP.                             NO : One line per depth step
~Well information
#MNEM.UNIT              Data Type        Information
#----------------------------------------------------------------------
  STRT.M                         4.000 : 
  STOP.M                       853.000 : 
  STEP.M                         0.100 : 
  NULL.                     -9999.0000 : 
  COMP.    "KARATUBE INT. OIL COMPANY" : Company Name
  WELL.                            307 : Well Name
  FLD .                       KARATUBE : Field Name
  CTRY.                     KAZAKHSTAN : Country
  SRVC.         JSC"KAZPROMGEOPHYSICA" : Service company
  DATE.                      24.04.04. : Log date
~Curve information
#MNEM.UNIT                               Curve Description
#----------------------------------------------------------------------
  DEPT.M                               : Depth Curve
  DTP .US/M                            : Interval travel time (P-wave)
  TT1 .US                              : Travel time 1
  TT2 .                                : Travel time 2
  LL3 .OHMM                            : Appar.resist.laterolog,3 electrodes
  MLL .OHMM                            : Microlaterolog sonde
  RHOB.G/C3                            : Bulk density by gamma-gamma log
  GR  .UR/H                            : Gamma-ray log
  NGLD.UE                              : Neutron-gamma log/device DRST-90
  GZ3 .OHMM                            : App.resistivity by lateral A2.0M0.5N
  GZ3B.OHMM                            : App.resistivity by lateral N0.5Œ2.0€
  SP  .MV                              : Spontaneous potential
  CILR.MMHO                            : Conduct. by sonde 7I1.6,react.signal
  CILA.MMHO                            : Conduct. by sonde 7I1.6,active signal
  C1  .MM                              : Diameter from profile 1
  C2  .MM                              : Diameter from profile 2
  CALI.MM                              : Caliper
~Parameter information
#MNEM.UNIT              Value            Description
#----------------------------------------------------------------------
#----------------------------------------------------------------------
  BS  .MM                        215.9 : Bit Size
  DFD .G/C3                       1.15 : Drilling Fluid Density
  TDD .M                         847.0 : Total Depth Driller
~Ascii Log Data
# ...
  602.800 400.0000 1156.0000 1316.0000 2.9340 1.1960 1.9730 9.4280 1.2010 2.4940 2.6430 2.3420 -160.5590 144.5160 221.5180 220.9110 221.2150
  602.900 440.0000 1152.0000 1328.0000 2.9570 1.7480 1.8730 8.6430 1.1200 2.6000 2.6410 6.8070 -159.8140 137.8410 224.0390 222.0650 223.0520
  603.000 440.0000 1152.0000 1328.0000 2.9570 1.7480 1.8730 8.6430 1.1200 2.6000 2.6410 6.8070 -159.8140 137.8410 224.0390 222.0650 223.0520
  603.100 470.0000 1152.0000 1340.0000 3.0390 1.6280 1.8080 8.1860 1.1160 2.7020 2.6090 8.2630 -159.5910 137.9310 222.3100 221.5910 221.9510
  603.200 510.0000 1136.0000 1340.0000 3.0280 0.6780 1.8100 8.8330 1.1280 2.8810 2.4890 6.5250 -163.7560 139.2500 221.2980 216.9620 219.1300
  603.300 510.0000 1136.0000 1340.0000 3.0280 0.6780 1.8100 8.8330 1.1280 2.8810 2.4890 6.5250 -163.7560 139.2500 221.2980 216.9620 219.1300
  603.400 450.0000 1140.0000 1320.0000 2.7510 1.0440 2.0200 10.3990 1.1500 2.9060 2.3130 2.9320 -172.3790 142.3280 222.0440 221.5240 221.7840
  603.500 450.0000 1140.0000 1320.0000 2.7510 1.0440 2.0200 10.3990 1.1500 2.9060 2.3130 2.9320 -172.3790 142.3280 222.0440 221.5240 221.7840
  603.600 430.0000 1144.0000 1316.0000 2.7350 1.0820 2.0300 10.7570 1.2020 2.8520 2.2540 2.3700 -177.3140 146.2750 224.0150 220.8500 222.4320
  603.700 450.0000 1140.0000 1320.0000 2.7520 0.8220 2.0220 11.3410 1.2350 2.7200 2.0780 2.6520 -183.9540 148.6430 224.4870 220.9080 222.6970
  603.800 450.0000 1140.0000 1320.0000 2.7520 0.8220 2.0220 11.3410 1.2350 2.7200 2.0780 2.6520 -183.9540 148.6430 224.4870 220.9080 222.6970
  603.900 450.0000 1136.0000 1316.0000 2.6410 0.8120 2.0840 11.5390 1.3130 2.6450 1.9920 2.0390 -193.2250 156.0480 222.0220 219.7560 220.8890
  604.000 450.0000 1136.0000 1316.0000 2.6410 0.8120 2.0840 11.5390 1.3130 2.6450 1.9920 2.0390 -193.2250 156.0480 222.0220 219.7560 220.8890
  604.100 450.0000 1136.0000 1316.0000 2.6130 0.8890 2.0730 11.3740 1.3360 2.5890 1.9650 3.1710 -194.2250 153.9810 223.5810 219.5770 221.5790
  604.200 430.0000 1136.0000 1308.0000 2.6240 0.8100 2.0330 11.0850 1.3060 2.4930 1.9580 5.6860 -201.4580 163.0160 222.6630 219.1990 220.9310
  604.300 430.0000 1136.0000 1308.0000 2.6240 0.8100 2.0330 11.0850 1.3060 2.4930 1.9580 5.6860 -201.4580 163.0160 222.6630 219.1990 220.9310
  604.400 420.0000 1140.0000 1308.0000 2.6000 0.7310 2.0560 11.2820 1.3400 2.4060 2.0360 3.6770 -207.7930 158.0260 224.6930 221.0230 222.8580
  604.500 420.0000 1140.0000 1308.0000 2.6000 0.7310 2.0560 11.2820 1.3400 2.4060 2.0360 3.6770 -207.7930 158.0260 224.6930 221.0230 222.8580
  604.600 420.0000 1140.0000 1308.0000 2.5500 0.6480 2.0900 11.5730 1.3510 2.3810 2.1060 2.1410 -206.0130 151.2320 225.3290 219.2650 222.2970
  604.700 420.0000 1148.0000 1316.0000 2.5190 1.5390 2.1930 12.1420 1.3450 2.3400 2.2680 -1.6710 -198.7960 146.0210 229.5250 220.3330 224.9290
  604.800 420.0000 1148.0000 1316.0000 2.5190 1.5390 2.1930 12.1420 1.3450 2.3400 2.2680 -1.6710 -198.7960 146.0210 229.5250 220.3330 224.9290
  604.900 420.0000 1148.0000 1316.0000 2.6560 0.7560 2.1860 11.9540 1.3790 2.3350 2.3810 -2.6120 -189.1200 142.3020 233.7810 219.3100 226.5450
  605.000 420.0000 1148.0000 1316.0000 2.6560 0.7560 2.1860 11.9540 1.3790 2.3350 2.3810 -2.6120 -189.1200 142.3020 233.7810 219.3100 226.5450
  605.100 410.0000 1152.0000 1316.0000 2.6540 0.6400 2.1900 11.6780 1.3520 2.3520 2.4370 -1.8950 -190.7360 140.4970 235.8830 220.1960 228.0400
  605.200 420.0000 1160.0000 1328.0000 2.4510 0.8120 2.1550 11.2930 1.3130 2.3530 2.4290 3.4050 -197.0410 153.7680 240.0630 222.5570 231.3100
  605.300 420.0000 1160.0000 1328.0000 2.4510 0.8120 2.1550 11.2930 1.3130 2.3530 2.4290 3.4050 -197.0410 153.7680 240.0630 222.5570 231.3100
  605.400 450.0000 1156.0000 1336.0000 2.4550 0.6760 2.1450 10.8060 1.3450 2.3360 2.4450 6.0380 -204.7940 155.3330 255.9450 227.9320 241.9380
  605.500 450.0000 1156.0000 1336.0000 2.4550 0.6760 2.1450 10.8060 1.3450 2.3360 2.4450 6.0380 -204.7940 155.3330 255.9450 227.9320 241.9380
  605.600 430.0000 1152.0000 1324.0000 2.4800 0.6900 2.1340 10.7350 1.3540 2.3180 2.4550 7.1520 -204.0120 160.0750 258.5170 229.3250 243.9210
  605.700 440.0000 1148.0000 1324.0000 2.4620 0.8600 2.1350 11.1100 1.3670 2.2210 2.5020 9.4820 -202.1380 169.6190 248.4690 224.9260 236.6970
  605.800 440.0000 1148.0000 1324.0000 2.4620 0.8600 2.1350 11.1100 1.3670 2.2210 2.5020 9.4820 -202.1380 169.6190 248.4690 224.9260 236.6970
  605.900 470.0000 1140.0000 1328.0000 2.5500 0.6310 2.1270 11.0030 1.3470 2.1380 2.5080 9.1030 -201.8490 173.5340 259.3720 223.5030 241.4370
  606.000 470.0000 1140.0000 1328.0000 2.5500 0.6310 2.1270 11.0030 1.3470 2.1380 2.5080 9.1030 -201.8490 173.5340 259.3720 223.5030 241.4370
  606.100 480.0000 1128.0000 1320.0000 2.5010 0.5910 2.1120 11.3350 1.3040 2.0840 2.5120 7.6510 -205.0850 177.4640 262.3600 220.5100 241.4350
  606.200 480.0000 1128.0000 1320.0000 2.4570 0.4800 2.0800 11.3380 1.2810 1.8960 2.5180 1.2980 -202.3830 180.4400 257.1790 218.8980 238.0380
  606.300 480.0000 1128.0000 1320.0000 2.4570 0.4800 2.0800 11.3380 1.2810 1.8960 2.5180 1.2980 -202.3830 180.4400 257.1790 218.8980 238.0380
  606.400 460.0000 1124.0000 1308.0000 2.4850 0.6730 2.0690 11.4940 1.3290 1.7430 2.5750 -3.1400 -199.0330 172.9540 255.8400 224.3930 240.1160
  606.500 460.0000 1124.0000 1308.0000 2.4850 0.6730 2.0690 11.4940 1.3290 1.7430 2.5750 -3.1400 -199.0330 172.9540 255.8400 224.3930 240.1160
  606.600 460.0000 1116.0000 1300.0000 2.5230 0.5740 2.0630 11.6740 1.3140 1.6730 2.6240 -4.4320 -194.7190 172.3320 258.4590 222.3160 240.3880
  606.700 490.0000 1108.0000 1304.0000 2.6630 0.7260 2.0990 11.8550 1.3260 1.6020 2.7820 -3.6190 -184.0260 166.2450 252.2040 227.3610 239.7830
  606.800 490.0000 1108.0000 1304.0000 2.6630 0.7260 2.0990 11.8550 1.3260 1.6020 2.7820 -3.6190 -184.0260 166.2450 252.2040 227.3610 239.7830
  606.900 460.0000 1104.0000 1288.0000 2.8940 0.8700 2.1080 11.3410 1.2950 1.6200 2.8980 -0.6410 -175.5080 161.3140 239.0670 219.4170 229.2410
  607.000 460.0000 1104.0000 1288.0000 2.8940 0.8700 2.1080 11.3410 1.2950 1.6200 2.8980 -0.6410 -175.5080 161.3140 239.0670 219.4170 229.2410
  607.100 450.0000 1108.0000 1288.0000 2.9900 0.9330 2.1480 11.2850 1.3380 1.6500 2.9840 1.6940 -173.0340 159.6060 236.6540 219.4910 228.0720
  607.200 430.0000 1112.0000 1284.0000 3.1640 0.9860 2.1830 11.0860 1.2880 1.7120 3.0580 7.2170 -167.8940 158.3260 232.6910 220.0430 226.3670
  607.300 430.0000 1112.0000 1284.0000 3.1640 0.9860 2.1830 11.0860 1.2880 1.7120 3.0580 7.2170 -167.8940 158.3260 232.6910 220.0430 226.3670
  607.400 410.0000 1116.0000 1280.0000 3.2140 0.9520 2.2270 10.9440 1.2750 1.7480 3.1200 6.6140 -168.5370 157.0160 229.8060 220.3190 225.0630
  607.500 410.0000 1116.0000 1280.0000 3.2140 0.9520 2.2270 10.9440 1.2750 1.7480 3.1200 6.6140 -168.5370 157.0160 229.8060 220.3190 225.0630
  607.600 400.0000 1120.0000 1280.0000 3.1810 0.9650 2.2390 11.0740 1.2820 1.7920 3.1330 5.1110 -167.2670 157.1560 229.7140 220.5920 225.1530
  607.700 400.0000 1120.0000 1280.0000 3.2270 1.0230 2.2300 11.8930 1.3120 1.8000 3.1440 3.6360 -164.3400 155.6970 231.1460 220.2750 225.7100
  607.800 400.0000 1120.0000 1280.0000 3.2270 1.0230 2.2300 11.8930 1.3120 1.8000 3.1440 3.6360 -164.3400 155.6970 231.1460 220.2750 225.7100
  607.900 420.0000 1120.0000 1288.0000 3.1510 1.1160 2.2130 11.3460 1.3480 1.8160 3.1660 3.5990 -161.0920 154.8910 231.4300 220.1340 225.7820
  608.000 420.0000 1120.0000 1288.0000 3.1510 1.1160 2.2130 11.3460 1.3480 1.8160 3.1660 3.5990 -161.0920 154.8910 231.4300 220.1340 225.7820
  608.100 410.0000 1124.0000 1288.0000 3.1350 1.1160 2.1990 11.6420 1.3320 1.8180 3.1830 3.7190 -159.2370 155.4010 231.4110 220.8800 226.1450
  608.200 420.0000 1128.0000 1296.0000 3.1800 1.0030 2.1580 11.5440 1.3530 1.8640 3.2460 6.5110 -159.3710 157.4450 229.7760 220.7120 225.2440
  608.300 420.0000 1128.0000 1296.0000 3.1800 1.0030 2.1580 11.5440 1.3530 1.8640 3.2460 6.5110 -159.3710 157.4450 229.7760 220.7120 225.2440
  608.400 430.0000 1128.0000 1300.0000 3.1670 0.9620 2.1100 11.0950 1.3530 1.9080 3.3470 14.0510 -157.6500 159.2090 227.7530 220.5760 224.1640
