~Version information
  VERS.                           2.00 : CWLS log ASCII Standard -Version 2.00
  WRAP.                             NO : One line per depth step
~Well information
#MNEM.UNIT              Data Type        Information
#----------------------------------------------------------------------
  STRT.M                         4.000 : 
  STOP.M                       853.000 : 
  STEP.M                         0.100 : 
  NULL.                     -9999.0000 : 
  COMP.    "KARATUBE INT. OIL COMPANY" : Company Name
  WELL.                            307 : Well Name
  FLD .                       KARATUBE : Field Name
  CTRY.                     KAZAKHSTAN : Country
  SRVC.         JSC"KAZPROMGEOPHYSICA" : Service company
  DATE.                      24.04.04. : Log date
~Curve information
#MNEM.UNIT                               Curve Description
#----------------------------------------------------------------------
  DEPT.M                               : Depth Curve
  DTP .US/M                            : Interval travel time (P-wave)
  TT1 .US                              : Travel time 1
  TT2 .                                : Travel time 2
  LL3 .OHMM                            : Appar.resist.laterolog,3 electrodes
  MLL .OHMM                            : Microlaterolog sonde
  RHOB.G/C3                            : Bulk density by gamma-gamma log
  GR  .UR/H                            : Gamma-ray log
  NGLD.UE                              : Neutron-gamma log/device DRST-90
  GZ3 .OHMM                            : App.resistivity by lateral A2.0M0.5N
  GZ3B.OHMM                            : App.resistivity by lateral N0.5Œ2.0€
  SP  .MV                              : Spontaneous potential
  CILR.MMHO                            : Conduct. by sonde 7I1.6,react.signal
  CILA.MMHO                            : Conduct. by sonde 7I1.6,active signal
  C1  .MM                              : Diameter from profile 1
  C2  .MM                              : Diameter from profile 2
  CALI.MM                              : Caliper
~Parameter information
#MNEM.UNIT              Value            Description
#----------------------------------------------------------------------
#----------------------------------------------------------------------
  BS  .MM                        215.9 : Bit Size
  DFD .G/C3                       1.15 : Drilling Fluid Density
  TDD .M                         847.0 : Total Depth Driller
~Ascii Log Data
# ...
  654.000 430.0000 1100.0000 1272.0000 40.6070 3.7940 2.0960 5.8210 1.3590 13.0810 18.7600 -0.3490 -14.6970 47.2210 227.5080 221.0220 224.2650
  654.100 420.0000 1100.0000 1268.0000 37.3590 4.9080 2.0880 5.8820 1.3900 13.3250 18.6790 -4.9550 -14.6540 47.6120 225.4340 220.4330 222.9340
  654.200 440.0000 1092.0000 1268.0000 39.5910 4.7240 2.1470 5.6500 1.4240 13.7460 18.4420 -8.9630 -14.7020 45.5570 225.3800 221.6370 223.5080
  654.300 440.0000 1092.0000 1268.0000 39.5910 4.7240 2.1470 5.6500 1.4240 13.7460 18.4420 -8.9630 -14.7020 45.5570 225.3800 221.6370 223.5080
  654.400 410.0000 1104.0000 1268.0000 39.3910 4.8820 2.1190 5.5570 1.4420 14.2980 17.9170 -7.1280 -14.8170 43.0890 224.6330 222.6000 223.6170
  654.500 410.0000 1104.0000 1268.0000 39.3910 4.8820 2.1190 5.5570 1.4420 14.2980 17.9170 -7.1280 -14.8170 43.0890 224.6330 222.6000 223.6170
  654.600 440.0000 1092.0000 1268.0000 38.0800 5.2270 2.1140 5.4760 1.3620 14.6550 17.4860 -6.3600 -15.8190 43.9860 225.3360 222.6600 223.9980
  654.700 450.0000 1092.0000 1272.0000 38.6990 5.7130 2.0950 5.2200 1.4030 15.3150 16.6160 -6.4240 -16.0440 44.1520 226.1670 223.0870 224.6270
  654.800 450.0000 1092.0000 1272.0000 38.6990 5.7130 2.0950 5.2200 1.4030 15.3150 16.6160 -6.4240 -16.0440 44.1520 226.1670 223.0870 224.6270
  654.900 420.0000 1100.0000 1268.0000 30.8750 3.9170 2.0820 5.4540 1.3320 15.9600 15.6330 -7.3860 -15.8150 47.1300 226.0910 222.9500 224.5210
  655.000 420.0000 1100.0000 1268.0000 30.8750 3.9170 2.0820 5.4540 1.3320 15.9600 15.6330 -7.3860 -15.8150 47.1300 226.0910 222.9500 224.5210
  655.100 430.0000 1100.0000 1272.0000 28.5360 4.8360 2.0950 5.4960 1.3050 16.2490 15.2430 -7.1720 -16.3220 49.9270 225.5650 223.6000 224.5830
  655.200 370.0000 1108.0000 1256.0000 24.6040 4.8760 2.1200 5.8830 1.3700 16.6780 14.7590 -4.9920 -17.7220 51.7750 226.4190 222.1370 224.2780
  655.300 370.0000 1108.0000 1256.0000 24.6040 4.8760 2.1200 5.8830 1.3700 16.6780 14.7590 -4.9920 -17.7220 51.7750 226.4190 222.1370 224.2780
  655.400 390.0000 1112.0000 1268.0000 23.0670 4.8900 2.1350 6.0970 1.4000 16.8110 14.6780 -4.0680 -19.4440 51.4410 226.4740 222.4790 224.4770
  655.500 430.0000 1104.0000 1276.0000 22.1160 4.6130 2.1310 6.1540 1.4090 16.9380 14.6370 -3.7950 -19.1650 52.5170 226.1970 223.0460 224.6210
  655.600 450.0000 1096.0000 1276.0000 21.7920 4.3480 2.1150 5.9540 1.4030 17.0560 14.6550 -3.4460 -20.6490 52.1530 225.9600 223.1770 224.5690
  655.700 420.0000 1096.0000 1264.0000 20.8830 4.9460 2.1050 6.0260 1.4410 17.2360 14.6800 -2.6880 -20.2820 53.2400 225.2740 223.1080 224.1910
  655.800 420.0000 1092.0000 1260.0000 19.5520 5.3480 2.1000 5.8700 1.4080 17.4040 14.5750 -1.0280 -21.4000 52.1050 225.0200 222.5540 223.7870
  655.900 410.0000 1092.0000 1256.0000 19.0020 4.7680 2.0860 5.7820 1.3920 17.5790 14.3900 1.5610 -21.9750 50.4500 227.0790 225.2220 226.1500
  656.000 440.0000 1080.0000 1256.0000 19.0420 4.4870 2.0870 5.4840 1.3770 17.8260 14.0970 5.4270 -22.4540 50.4300 227.0720 227.1600 227.1160
  656.100 430.0000 1076.0000 1248.0000 18.2640 5.1990 2.0850 5.4460 1.3720 18.0290 13.6130 8.5730 -22.2760 50.2680 227.0900 228.8460 227.9680
  656.200 430.0000 1076.0000 1248.0000 18.0090 5.4190 2.0760 5.3070 1.3810 18.2280 13.1040 9.7370 -22.7840 51.7000 227.6660 228.2790 227.9720
  656.300 430.0000 1068.0000 1240.0000 17.6080 4.8840 2.0700 5.1530 1.3480 18.4440 12.6730 8.4980 -23.3070 53.5420 227.8270 226.5940 227.2100
  656.400 550.0000 1012.0000 1232.0000 16.9980 4.3870 2.0800 5.2180 1.3530 18.7080 12.2430 5.5760 -22.8620 56.2120 228.2560 226.8530 227.5550
  656.500 480.0000 1012.0000 1204.0000 16.5650 3.8680 2.0960 5.6130 1.3770 19.0080 11.9370 2.5400 -22.6280 61.1970 228.4270 225.6690 227.0480
  656.600 430.0000 992.0000 1164.0000 15.8530 3.3470 2.1330 5.5990 1.3610 19.1890 11.5830 -1.3020 -22.3750 65.0130 227.7110 224.5340 226.1230
  656.700 520.0000 960.0000 1168.0000 14.8290 3.4510 2.1390 5.7500 1.3400 19.3270 11.3450 -4.7680 -22.4020 66.9010 227.4340 223.4250 225.4300
  656.800 540.0000 944.0000 1160.0000 13.8100 3.9050 2.1640 5.8330 1.3500 19.3170 11.1240 -7.9360 -24.2390 73.1090 224.9940 223.4070 224.2010
  656.900 470.0000 944.0000 1132.0000 13.3970 5.1630 2.1770 5.4620 1.3650 19.1400 10.9160 -9.8230 -25.8680 77.3570 227.7100 225.0540 226.3820
  657.000 440.0000 936.0000 1112.0000 12.9870 4.9160 2.1930 5.0120 1.3570 18.8720 10.8100 -10.4150 -27.4400 83.0480 228.8260 226.9980 227.9120
  657.100 430.0000 908.0000 1080.0000 12.3110 3.3190 2.2410 4.5360 1.4490 18.4430 10.8270 -8.2040 -28.3790 90.3740 226.7320 227.1230 226.9280
  657.200 410.0000 888.0000 1052.0000 11.5590 2.8310 2.2640 4.3130 1.4650 17.8280 10.9200 -6.0990 -29.1670 94.4550 225.4930 225.1830 225.3380
  657.300 440.0000 864.0000 1040.0000 11.0250 2.5590 2.2860 3.9320 1.4940 17.1300 11.2640 -4.1990 -30.4100 96.2470 224.0340 225.3020 224.6680
  657.400 440.0000 864.0000 1040.0000 10.7080 2.1840 2.2620 3.8780 1.5220 16.4080 11.7500 -4.8610 -30.9670 94.7270 223.6260 226.3600 224.9930
  657.500 480.0000 840.0000 1032.0000 10.6760 2.6050 2.2600 3.9500 1.5960 15.7140 12.1810 -5.6140 -31.2780 89.4810 225.1350 226.1840 225.6590
  657.600 430.0000 828.0000 1000.0000 10.9600 3.6900 2.2950 3.6930 1.6550 15.1260 12.4820 -6.7290 -31.4500 82.7580 226.8410 226.0940 226.4680
  657.700 380.0000 824.0000 976.0000 11.4520 4.2790 2.3350 3.5080 1.6690 14.7740 12.6530 -7.7970 -30.6710 73.8630 228.4180 228.1900 228.3040
  657.800 370.0000 828.0000 976.0000 12.3280 7.7190 2.3450 3.2880 1.7500 14.7220 12.6780 -8.9700 -29.6340 66.9380 228.7410 226.9950 227.8680
  657.900 370.0000 828.0000 976.0000 13.1830 29.6390 2.3800 2.7020 1.8410 15.0520 12.4530 -9.5160 -29.5810 59.1680 228.8760 223.8670 226.3720
  658.000 310.0000 848.0000 972.0000 14.0900 110.4160 2.4480 2.5260 1.9870 15.6140 12.0500 -9.8060 -28.6720 52.7850 228.0500 223.4340 225.7420
  658.100 250.0000 868.0000 968.0000 15.2470 47.1700 2.4940 2.3720 2.0720 16.4100 11.4250 -9.9410 -29.5760 51.5350 226.3640 223.4080 224.8860
  658.200 180.0000 892.0000 964.0000 14.5040 20.9050 2.5510 1.9780 2.1770 17.2430 10.6340 -10.4930 -31.5110 55.2910 227.2160 222.3390 224.7770
  658.300 190.0000 900.0000 976.0000 12.4650 10.1690 2.5660 1.9670 2.2370 17.9650 9.9250 -11.6370 -33.6540 59.2010 228.1500 222.0400 225.0950
  658.400 160.0000 912.0000 976.0000 10.5290 7.6710 2.5480 2.1650 2.3210 18.4920 9.3650 -12.2050 -37.1230 65.1590 227.7410 223.9910 225.8660
  658.500 140.0000 932.0000 988.0000 8.8650 6.4620 2.5330 2.2610 2.3570 18.8540 8.8420 -11.7600 -40.2150 72.6620 227.1250 223.6920 225.4080
  658.600 150.0000 936.0000 996.0000 7.9100 56.0720 2.5420 2.1530 2.3940 19.1090 8.4470 -10.6240 -43.6250 79.1940 227.0280 222.6150 224.8220
  658.700 140.0000 956.0000 1012.0000 7.6740 76.4400 2.5760 1.9120 2.3680 19.1800 8.1740 -9.7940 -46.7140 84.3890 227.1270 223.1190 225.1230
  658.800 170.0000 956.0000 1024.0000 7.4110 5.2620 2.5760 1.9180 2.4010 19.0560 7.9300 -8.9650 -50.1660 89.3900 227.3910 223.5930 225.4920
  658.900 170.0000 976.0000 1044.0000 6.6770 4.6540 2.5500 1.8080 2.3540 18.8900 7.6520 -7.0910 -53.3590 94.7010 227.5130 223.9950 225.7540
  659.000 150.0000 1004.0000 1064.0000 6.0590 7.4960 2.5180 1.9520 2.2320 18.5570 7.2920 -4.6730 -58.6020 97.5460 226.3150 222.7400 224.5270
  659.100 160.0000 1012.0000 1076.0000 5.6900 7.0110 2.4920 1.8750 2.1610 18.0110 6.8990 -3.2760 -63.4810 97.3130 226.4750 221.9170 224.1960
  659.200 180.0000 1028.0000 1100.0000 5.4680 5.1390 2.4680 1.8750 2.0240 17.4290 6.5440 -2.7300 -68.3180 96.9480 226.5500 222.8780 224.7140
  659.300 160.0000 1036.0000 1100.0000 5.2770 5.8310 2.4230 1.9610 1.8860 16.9670 6.1470 -2.3930 -71.0420 97.8300 226.4900 222.1950 224.3420
  659.400 220.0000 1036.0000 1124.0000 5.0330 5.6740 2.3590 2.1890 1.7300 16.6830 5.7890 -2.1740 -74.7340 99.9380 227.9260 227.5310 227.7290
  659.500 280.0000 1036.0000 1148.0000 4.8760 5.7850 2.3120 2.3720 1.6240 16.0970 5.5540 -2.0030 -77.4840 99.7160 228.0830 228.2840 228.1840
  659.600 290.0000 1040.0000 1156.0000 4.7500 6.1380 2.2710 2.5550 1.5410 15.8670 5.1610 -1.2520 -81.6480 102.3070 228.2700 228.3080 228.2890
