~Version information
  VERS.                           2.00 : CWLS log ASCII Standard -Version 2.00
  WRAP.                             NO : One line per depth step
~Well information
#MNEM.UNIT              Data Type        Information
#----------------------------------------------------------------------
  STRT.M                         4.000 : 
  STOP.M                       853.000 : 
  STEP.M                         0.100 : 
  NULL.                     -9999.0000 : 
  COMP.    "KARATUBE INT. OIL COMPANY" : Company Name
  WELL.                            307 : Well Name
  FLD .                       KARATUBE : Field Name
  CTRY.                     KAZAKHSTAN : Country
  SRVC.         JSC"KAZPROMGEOPHYSICA" : Service company
  DATE.                      24.04.04. : Log date
~Curve information
#MNEM.UNIT                               Curve Description
#----------------------------------------------------------------------
  DEPT.M                               : Depth Curve
  DTP .US/M                            : Interval travel time (P-wave)
  TT1 .US                              : Travel time 1
  TT2 .                                : Travel time 2
  LL3 .OHMM                            : Appar.resist.laterolog,3 electrodes
  MLL .OHMM                            : Microlaterolog sonde
  RHOB.G/C3                            : Bulk density by gamma-gamma log
  GR  .UR/H                            : Gamma-ray log
  NGLD.UE                              : Neutron-gamma log/device DRST-90
  GZ3 .OHMM                            : App.resistivity by lateral A2.0M0.5N
  GZ3B.OHMM                            : App.resistivity by lateral N0.5Œ2.0€
  SP  .MV                              : Spontaneous potential
  CILR.MMHO                            : Conduct. by sonde 7I1.6,react.signal
  CILA.MMHO                            : Conduct. by sonde 7I1.6,active signal
  C1  .MM                              : Diameter from profile 1
  C2  .MM                              : Diameter from profile 2
  CALI.MM                              : Caliper
~Parameter information
#MNEM.UNIT              Value            Description
#----------------------------------------------------------------------
#----------------------------------------------------------------------
  BS  .MM                        215.9 : Bit Size
  DFD .G/C3                       1.15 : Drilling Fluid Density
  TDD .M                         847.0 : Total Depth Driller
~Ascii Log Data
# ...
  317.800 440.0000 1132.0000 1308.0000 5.2250 1.8300 2.2100 9.6330 1.2970 5.6770 5.8660 -9.9440 -63.7440 110.0660 218.0220 233.7850 225.9030
  317.900 430.0000 1136.0000 1308.0000 5.2350 1.7790 2.2060 9.9070 1.2880 5.5910 5.8210 -6.5090 -63.7350 110.5300 216.9360 236.0390 226.4880
  318.000 430.0000 1136.0000 1308.0000 5.2590 1.8520 2.1920 9.9140 1.2750 5.6360 5.7710 -4.5500 -63.7870 110.6420 214.9420 236.8100 225.8760
  318.100 430.0000 1140.0000 1312.0000 5.2780 2.1300 2.1930 9.4890 1.2660 5.6020 5.7180 -5.4430 -64.7200 111.3910 216.6590 238.2940 227.4770
  318.200 430.0000 1140.0000 1312.0000 5.2710 1.7290 2.1770 9.3060 1.2860 5.5780 5.6660 -7.8150 -64.9590 112.4810 220.7190 239.5630 230.1410
  318.300 430.0000 1140.0000 1312.0000 5.2430 1.4680 2.1700 9.1530 1.3230 5.5990 5.6170 -9.9830 -66.3520 114.6840 223.5100 239.0600 231.2850
  318.400 420.0000 1140.0000 1308.0000 5.2120 1.4590 2.1540 9.0470 1.3200 5.5970 5.5700 -12.3790 -66.3220 115.7880 224.5140 237.1790 230.8460
  318.500 450.0000 1136.0000 1316.0000 5.1840 1.3480 2.1550 8.9980 1.2860 5.5540 5.5320 -15.2890 -66.8060 116.4120 224.6030 235.3030 229.9530
  318.600 440.0000 1136.0000 1312.0000 5.1320 1.2300 2.1570 8.9360 1.3240 5.5440 5.5160 -19.3460 -66.9590 116.6690 224.6680 234.7680 229.7180
  318.700 410.0000 1144.0000 1308.0000 5.1050 1.2300 2.1590 9.0500 1.3050 5.5720 5.5050 -23.1760 -67.4460 116.5570 224.6870 233.3200 229.0030
  318.800 410.0000 1144.0000 1308.0000 5.1050 1.2300 2.1590 9.0500 1.3050 5.5720 5.5050 -23.1760 -67.4460 116.5570 224.6870 233.3200 229.0030
  318.900 400.0000 1168.0000 1328.0000 5.0930 1.3420 2.1570 8.7280 1.3090 5.5790 5.4780 -31.8010 -68.3890 116.1720 224.8990 230.4990 227.6990
  319.000 420.0000 1180.0000 1348.0000 5.0820 1.3080 2.1640 8.9070 1.2970 5.6200 5.4270 -36.5050 -68.6630 115.9930 225.2830 230.6290 227.9560
  319.100 380.0000 1196.0000 1348.0000 5.0450 1.2840 2.1740 9.1330 1.3020 5.6630 5.3730 -38.8640 -68.6520 117.0210 225.5500 231.2750 228.4120
  319.200 380.0000 1212.0000 1364.0000 5.0180 1.8760 2.1670 9.2950 1.3120 5.6700 5.3060 -38.9700 -70.5930 119.4790 225.5210 233.7990 229.6600
  319.300 360.0000 1228.0000 1372.0000 4.9140 2.1130 2.1710 9.4740 1.3460 5.6310 5.2140 -36.3360 -70.2530 118.3590 225.8410 238.3970 232.1190
  319.400 420.0000 1220.0000 1388.0000 4.8390 1.9550 2.1740 9.3960 1.3590 5.5580 5.1160 -32.9760 -69.8010 119.9490 227.9590 241.2350 234.5970
  319.500 500.0000 1192.0000 1392.0000 4.7650 1.9320 2.1690 9.2260 1.3240 5.5100 5.0110 -29.4090 -71.0300 122.1550 231.8900 241.8780 236.8840
  319.600 460.0000 1216.0000 1400.0000 4.6930 1.9270 2.1610 9.5670 1.2630 5.3980 4.9710 -26.4510 -72.1910 122.6350 255.0470 246.5980 250.8230
  319.700 450.0000 1220.0000 1400.0000 4.6680 1.7930 2.1770 9.8400 1.2660 5.3300 4.9600 -23.4500 -72.8640 122.3100 245.9470 243.1210 244.5340
  319.800 440.0000 1232.0000 1408.0000 4.7020 1.7320 2.1680 9.8150 1.2430 5.3610 5.0200 -20.3680 -72.2550 122.3110 238.9790 243.4070 241.1930
  319.900 410.0000 1248.0000 1412.0000 4.7600 1.6310 2.1800 9.8250 1.1780 5.3570 5.0950 -17.2210 -70.8420 123.6460 228.0100 245.4140 236.7120
  320.000 400.0000 1260.0000 1420.0000 4.7980 1.4210 2.1810 9.8300 1.2300 5.4850 5.2260 -14.4220 -70.8890 124.4490 223.5820 242.6610 233.1210
  320.100 410.0000 1264.0000 1428.0000 4.8030 1.2020 2.1770 10.2800 1.2520 5.5610 5.3460 -12.4850 -71.5540 124.4000 224.2300 237.7330 230.9820
  320.200 420.0000 1264.0000 1432.0000 4.7800 1.1470 2.1630 10.4040 1.2640 5.6100 5.4620 -10.9290 -72.1510 123.8040 223.7230 235.7050 229.7140
  320.300 450.0000 1260.0000 1440.0000 4.7310 1.3370 2.1520 10.5330 1.2860 5.6610 5.5680 -9.9210 -72.2000 124.8440 222.5770 235.7990 229.1880
  320.400 470.0000 1260.0000 1448.0000 4.7190 1.3610 2.1740 11.0460 1.2210 5.6540 5.6910 -9.6840 -71.5010 125.2980 221.7740 236.3420 229.0580
  320.500 500.0000 1260.0000 1460.0000 4.7680 1.3610 2.1730 11.0150 1.1900 5.6620 5.8200 -9.5820 -72.3990 125.3350 219.2740 237.2300 228.2520
  320.600 500.0000 1260.0000 1460.0000 4.8190 1.4160 2.1900 10.9180 1.1850 5.6440 5.9840 -9.7720 -72.0480 124.3770 217.5450 235.7490 226.6470
  320.700 510.0000 1256.0000 1460.0000 4.8470 1.4080 2.1850 10.7240 1.1410 5.6510 6.1660 -9.8970 -71.6370 121.5190 217.5350 233.2440 225.3890
  320.800 490.0000 1256.0000 1452.0000 4.8830 1.6510 2.1980 10.6750 1.1660 5.6600 6.3200 -10.2630 -70.1530 120.4870 217.7340 231.5460 224.6400
  320.900 470.0000 1256.0000 1444.0000 4.9350 3.3680 2.2210 10.8190 1.2040 5.6340 6.4620 -10.8280 -69.4350 120.2250 217.7890 231.6670 224.7280
  321.000 460.0000 1248.0000 1432.0000 5.0720 1.8420 2.2200 10.7950 1.1880 5.6720 6.5210 -10.7110 -68.3600 120.0980 217.7450 233.5900 225.6670
  321.100 450.0000 1240.0000 1420.0000 5.2820 1.5380 2.2370 10.6770 1.1640 5.6700 6.5020 -10.5820 -68.1510 119.0250 217.6890 233.4930 225.5910
  321.200 460.0000 1240.0000 1424.0000 5.3210 1.6250 2.2490 10.5680 1.2030 5.6460 6.4330 -9.9480 -67.8630 120.3800 217.6080 227.8070 222.7070
  321.300 500.0000 1232.0000 1432.0000 5.2090 1.4880 2.2200 10.1450 1.1250 5.6440 6.3100 -9.1220 -67.7550 120.6830 217.5570 225.8620 221.7090
  321.400 520.0000 1224.0000 1432.0000 5.1490 1.2580 2.1980 9.7500 1.1180 5.4780 6.1900 -9.3050 -67.7580 121.8640 217.6380 226.9540 222.2960
  321.500 520.0000 1220.0000 1428.0000 5.1120 1.2390 2.2020 9.5680 1.1110 5.2720 6.0890 -10.5210 -67.1570 122.7620 217.6800 224.5880 221.1340
  321.600 510.0000 1220.0000 1424.0000 5.0870 1.2560 2.1870 9.0450 1.1400 5.1250 6.0420 -13.1590 -66.8080 122.2820 217.4880 223.5530 220.5210
  321.700 510.0000 1220.0000 1424.0000 5.0710 1.3120 2.1750 8.8560 1.1400 4.9700 6.0350 -14.9790 -65.9020 122.2310 216.5780 223.3740 219.9760
  321.800 520.0000 1212.0000 1420.0000 5.0750 1.4300 2.2010 8.9190 1.1560 4.7930 6.0420 -16.2990 -65.1840 117.9040 216.1310 223.9320 220.0320
  321.900 510.0000 1212.0000 1416.0000 5.1030 1.4410 2.2210 8.9290 1.1730 4.6410 6.0500 -17.0540 -63.8050 116.1610 215.8160 224.6050 220.2110
  322.000 490.0000 1216.0000 1412.0000 5.1560 1.5460 2.2030 9.0260 1.1940 4.4650 6.0680 -17.1470 -63.4040 113.6440 215.4290 224.9520 220.1900
  322.100 450.0000 1224.0000 1404.0000 5.2660 1.9770 2.2230 8.6730 1.1880 4.3610 6.0890 -16.6850 -62.4520 111.8010 215.2420 226.6270 220.9340
  322.200 470.0000 1216.0000 1404.0000 5.3680 2.5630 2.2330 8.6280 1.1910 4.3070 6.0960 -15.6280 -61.1290 111.1300 214.1550 234.6590 224.4070
  322.300 430.0000 1228.0000 1400.0000 5.5190 1.6690 2.2580 8.4060 1.2070 4.2840 6.0840 -14.5890 -60.9950 110.5230 215.2710 237.9490 226.6100
  322.400 420.0000 1232.0000 1400.0000 5.6210 1.5250 2.2700 8.5550 1.1690 4.2930 6.0790 -12.8740 -60.1080 110.0370 215.3780 238.3970 226.8880
  322.500 430.0000 1236.0000 1408.0000 5.5730 1.5670 2.2500 8.7680 1.1660 4.3700 6.0750 -11.0480 -58.9840 110.5880 214.1300 238.3180 226.2240
  322.600 440.0000 1236.0000 1412.0000 5.4660 1.6230 2.2560 8.5480 1.1600 4.3740 6.0610 -10.2740 -59.9490 111.4300 214.4490 234.5390 224.4940
  322.700 440.0000 1236.0000 1412.0000 5.4160 1.7950 2.2390 8.3470 1.1950 4.4040 6.0660 -10.4410 -60.4200 111.5120 214.4350 233.1250 223.7800
  322.800 440.0000 1240.0000 1416.0000 5.4550 1.9280 2.2440 8.1370 1.1730 4.4700 6.0730 -10.7600 -60.4070 111.5560 213.5900 235.0520 224.3210
  322.900 450.0000 1240.0000 1420.0000 5.5120 1.8770 2.2400 8.5710 1.1550 4.5450 6.0980 -11.0700 -60.0750 113.4840 212.9450 236.1570 224.5510
  323.000 470.0000 1240.0000 1428.0000 5.5220 1.6820 2.2440 8.7010 1.1490 4.6350 6.1290 -12.4860 -62.4790 115.4140 211.7650 236.3910 224.0780
  323.100 460.0000 1240.0000 1424.0000 5.4780 1.4810 2.2320 8.6710 1.1470 4.7150 6.1620 -15.0470 -62.3100 114.9650 211.1660 232.8430 222.0040
  323.200 470.0000 1236.0000 1424.0000 5.4580 1.3960 2.2200 8.9410 1.1320 4.8120 6.1970 -17.5760 -59.9410 114.2300 213.1850 231.4320 222.3090
  323.300 470.0000 1240.0000 1428.0000 5.4050 1.4010 2.2160 9.3940 1.1190 4.8390 6.2310 -19.3740 -61.2910 114.9830 212.2870 230.8610 221.5740
  323.400 460.0000 1244.0000 1428.0000 5.3720 1.5970 2.2240 9.2780 1.1640 4.9330 6.2640 -20.5480 -61.6210 114.7670 213.6820 235.5380 224.6100
