~Version information
  VERS.                           2.00 : CWLS log ASCII Standard -Version 2.00
  WRAP.                             NO : One line per depth step
~Well information
#MNEM.UNIT              Data Type        Information
#----------------------------------------------------------------------
  STRT.M                         4.000 : 
  STOP.M                       853.000 : 
  STEP.M                         0.100 : 
  NULL.                     -9999.0000 : 
  COMP.    "KARATUBE INT. OIL COMPANY" : Company Name
  WELL.                            307 : Well Name
  FLD .                       KARATUBE : Field Name
  CTRY.                     KAZAKHSTAN : Country
  SRVC.         JSC"KAZPROMGEOPHYSICA" : Service company
  DATE.                      24.04.04. : Log date
~Curve information
#MNEM.UNIT                               Curve Description
#----------------------------------------------------------------------
  DEPT.M                               : Depth Curve
  DTP .US/M                            : Interval travel time (P-wave)
  TT1 .US                              : Travel time 1
  TT2 .                                : Travel time 2
  LL3 .OHMM                            : Appar.resist.laterolog,3 electrodes
  MLL .OHMM                            : Microlaterolog sonde
  RHOB.G/C3                            : Bulk density by gamma-gamma log
  GR  .UR/H                            : Gamma-ray log
  NGLD.UE                              : Neutron-gamma log/device DRST-90
  GZ3 .OHMM                            : App.resistivity by lateral A2.0M0.5N
  GZ3B.OHMM                            : App.resistivity by lateral N0.5Œ2.0€
  SP  .MV                              : Spontaneous potential
  CILR.MMHO                            : Conduct. by sonde 7I1.6,react.signal
  CILA.MMHO                            : Conduct. by sonde 7I1.6,active signal
  C1  .MM                              : Diameter from profile 1
  C2  .MM                              : Diameter from profile 2
  CALI.MM                              : Caliper
~Parameter information
#MNEM.UNIT              Value            Description
#----------------------------------------------------------------------
#----------------------------------------------------------------------
  BS  .MM                        215.9 : Bit Size
  DFD .G/C3                       1.15 : Drilling Fluid Density
  TDD .M                         847.0 : Total Depth Driller
~Ascii Log Data
# ...
  369.100 500.0000 1200.0000 1400.0000 5.8360 1.6610 2.0880 11.0900 1.2280 4.9240 8.2420 -5.8840 -64.1590 125.9350 242.7310 220.9630 231.8470
  369.200 490.0000 1200.0000 1396.0000 6.0460 1.6770 2.0830 10.8760 1.2310 4.9150 8.4370 -6.3720 -61.3820 122.0920 242.3540 220.8600 231.6070
  369.300 490.0000 1200.0000 1396.0000 6.6220 1.5930 2.0750 10.4700 1.2310 4.8490 8.7960 -7.4720 -57.1180 110.6210 239.9390 221.4290 230.6840
  369.400 480.0000 1204.0000 1396.0000 6.8410 1.5810 2.0500 10.6640 1.2340 4.9290 8.9830 -8.2890 -55.2970 104.2150 240.0270 220.0570 230.0420
  369.500 470.0000 1208.0000 1396.0000 7.0750 2.3270 2.0370 10.6150 1.2300 5.0230 9.1160 -9.2380 -51.3590 97.5910 239.3130 220.2190 229.7660
  369.600 470.0000 1208.0000 1396.0000 7.0750 2.3270 2.0370 10.6150 1.2300 5.0230 9.1160 -9.2380 -51.3590 97.5910 239.3130 220.2190 229.7660
  369.700 450.0000 1216.0000 1396.0000 7.4780 4.0740 2.0390 10.4770 1.2200 5.1170 9.2370 -9.3780 -46.2830 91.4140 236.3700 220.6630 228.5170
  369.800 440.0000 1220.0000 1396.0000 9.8450 4.4900 2.0070 9.7690 1.2370 5.8530 8.9940 -7.9640 -45.2140 91.6850 235.8050 220.7150 228.2600
  369.900 420.0000 1220.0000 1388.0000 10.0460 3.1630 2.0250 9.4670 1.1830 6.2140 8.5850 -7.6260 -47.5960 95.9900 236.4930 220.9610 228.7270
  370.000 380.0000 1132.0000 1284.0000 9.0970 1.7370 2.0380 9.3060 1.1570 6.4780 8.1650 -6.4540 -51.8240 103.9270 238.6890 221.1170 229.9030
  370.100 380.0000 1132.0000 1284.0000 9.0970 1.7370 2.0380 9.3060 1.1570 6.4780 8.1650 -6.4540 -51.8240 103.9270 238.6890 221.1170 229.9030
  370.200 390.0000 1132.0000 1288.0000 7.3570 1.4000 2.0600 9.8130 1.1500 6.3720 7.7300 -4.0790 -54.8510 113.1790 241.1990 220.5090 230.8540
  370.300 460.0000 1140.0000 1324.0000 5.8600 1.5280 2.0640 10.3710 1.1750 6.1330 7.3380 0.5210 -60.4030 117.7080 243.9050 220.4840 232.1940
  370.400 430.0000 1140.0000 1312.0000 5.6900 1.6820 2.0490 10.2760 1.1810 5.7620 7.4240 1.3790 -62.4920 111.1610 240.9260 221.3070 231.1160
  370.500 410.0000 1148.0000 1312.0000 5.8260 1.6190 2.0430 10.1030 1.2260 5.3880 7.6340 1.3320 -63.5270 102.1370 240.1940 220.4550 230.3250
  370.600 410.0000 1148.0000 1312.0000 5.8260 1.6190 2.0430 10.1030 1.2260 5.3880 7.6340 1.3320 -63.5270 102.1370 240.1940 220.4550 230.3250
  370.700 400.0000 1152.0000 1312.0000 5.9590 1.7630 2.0310 10.1280 1.2190 5.2960 7.9670 1.1440 -62.1960 93.0260 241.1240 220.4320 230.7780
  370.800 290.0000 1196.0000 1312.0000 6.3830 4.6930 2.0010 10.0670 1.2580 5.6500 8.3490 1.2180 -56.7370 78.4330 238.6050 221.2280 229.9170
  370.900 230.0000 1200.0000 1292.0000 7.0920 4.9470 1.9990 9.9650 1.2590 5.8160 8.4520 1.4490 -54.4300 72.3800 236.1090 220.4440 228.2770
  371.000 270.0000 1212.0000 1320.0000 7.6610 5.4140 2.0110 10.2670 1.2550 6.1230 8.3250 0.6590 -53.1110 71.4520 233.6760 220.4810 227.0790
  371.100 270.0000 1212.0000 1320.0000 7.6610 5.4140 2.0110 10.2670 1.2550 6.1230 8.3250 0.6590 -53.1110 71.4520 233.6760 220.4810 227.0790
  371.200 330.0000 1216.0000 1348.0000 7.8600 6.1800 1.9970 10.7430 1.2360 6.5750 8.0360 -1.0900 -51.0810 76.9570 232.5450 221.4240 226.9840
  371.300 410.0000 1224.0000 1388.0000 7.2630 6.3940 2.0520 10.7010 1.2590 7.5200 7.2390 -4.0670 -57.1870 90.5940 231.3290 221.5350 226.4320
  371.400 420.0000 1228.0000 1396.0000 7.6240 4.8900 2.0830 10.6960 1.2810 7.8600 6.9370 -5.5580 -63.1520 98.2790 231.7040 221.3970 226.5500
  371.500 440.0000 1228.0000 1404.0000 6.8250 2.0580 2.1030 10.6060 1.3160 8.3250 6.2860 -7.7120 -72.2410 110.0630 234.3990 221.1170 227.7580
  371.600 440.0000 1228.0000 1404.0000 6.8250 2.0580 2.1030 10.6060 1.3160 8.3250 6.2860 -7.7120 -72.2410 110.0630 234.3990 221.1170 227.7580
  371.700 440.0000 1232.0000 1408.0000 5.9010 1.5710 2.1120 10.6090 1.2660 8.5430 5.8520 -10.0800 -76.8430 121.7820 239.8530 221.6030 230.7280
  371.800 460.0000 1232.0000 1416.0000 4.4930 1.5150 2.1360 10.3250 1.2870 8.3440 5.1470 -14.3470 -85.6530 138.3620 241.3930 221.6590 231.5260
  371.900 480.0000 1232.0000 1424.0000 4.3290 1.4930 2.1520 10.3200 1.2320 8.0890 4.8580 -16.0510 -87.8460 140.8950 241.9430 225.6090 233.7760
  372.000 480.0000 1232.0000 1424.0000 4.2370 1.4500 2.1490 10.1640 1.2220 7.8210 4.7290 -17.8040 -89.1010 141.4220 242.7880 231.3700 237.0790
  372.100 480.0000 1232.0000 1424.0000 4.2370 1.4500 2.1490 10.1640 1.2220 7.8210 4.7290 -17.8040 -89.1010 141.4220 242.7880 231.3700 237.0790
  372.200 500.0000 1228.0000 1428.0000 4.2780 1.3740 2.1440 10.2520 1.2140 7.6670 4.7340 -19.3460 -89.6500 141.1800 241.4820 220.6280 231.0550
  372.300 500.0000 1228.0000 1428.0000 4.3340 1.2210 2.1240 10.4400 1.1700 7.3620 4.8420 -21.4990 -92.5180 141.4220 243.4410 220.1390 231.7900
  372.400 500.0000 1228.0000 1428.0000 4.3080 1.1990 2.1040 10.4970 1.1680 7.1010 4.9410 -21.5430 -92.2910 139.9420 242.4470 221.1580 231.8020
  372.500 500.0000 1228.0000 1428.0000 4.2990 1.2580 2.1110 10.7060 1.1900 6.9380 5.0350 -21.1510 -92.2140 138.5290 242.7210 221.6590 232.1900
  372.600 500.0000 1228.0000 1428.0000 4.2990 1.2580 2.1110 10.7060 1.1900 6.9380 5.0350 -21.1510 -92.2140 138.5290 242.7210 221.6590 232.1900
  372.700 490.0000 1232.0000 1428.0000 4.3390 1.2170 2.1000 10.6420 1.1980 6.7100 5.0970 -20.2910 -91.2250 138.1280 243.0460 221.7620 232.4040
  372.800 470.0000 1240.0000 1428.0000 4.5330 1.2310 2.0900 10.7820 1.1840 6.3570 5.2180 -17.9220 -89.3560 133.5710 243.1140 222.2890 232.7020
  372.900 480.0000 1240.0000 1432.0000 4.6630 1.4640 2.0940 10.6480 1.1830 6.2260 5.2380 -17.2840 -89.6290 132.4930 243.8700 222.6600 233.2650
  373.000 480.0000 1240.0000 1432.0000 4.7000 1.4610 2.0800 10.6290 1.2000 6.1840 5.2750 -16.8430 -89.4110 132.8080 244.7620 226.3850 235.5730
  373.100 480.0000 1240.0000 1432.0000 4.7000 1.4610 2.0800 10.6290 1.2000 6.1840 5.2750 -16.8430 -89.4110 132.8080 244.7620 226.3850 235.5730
  373.200 490.0000 1236.0000 1432.0000 4.7460 1.2640 2.1090 10.2820 1.2580 6.1680 5.2550 -15.6180 -88.6420 135.0510 247.4660 226.2490 236.8580
  373.300 490.0000 1236.0000 1432.0000 4.8560 1.4410 2.1150 10.5480 1.2380 6.1190 5.2910 -12.3070 -89.1480 138.8470 247.3880 226.1330 236.7600
  373.400 500.0000 1232.0000 1432.0000 4.8420 1.3540 2.1160 10.3590 1.2340 6.2110 5.3160 -12.2860 -88.1440 140.0250 248.0700 224.1820 236.1260
  373.500 480.0000 1236.0000 1428.0000 4.9190 1.5170 2.1270 10.4680 1.2480 6.1220 5.4160 -12.8240 -88.6420 141.6470 249.4240 222.3210 235.8730
  373.600 480.0000 1236.0000 1428.0000 4.9190 1.5170 2.1270 10.4680 1.2480 6.1220 5.4160 -12.8240 -88.6420 141.6470 249.4240 222.3210 235.8730
  373.700 480.0000 1236.0000 1428.0000 4.9560 1.3100 2.1140 10.7410 1.2330 6.1260 5.5230 -12.7270 -88.2270 142.5530 250.1770 222.4580 236.3170
  373.800 480.0000 1236.0000 1428.0000 4.9090 1.5310 2.0890 10.4130 1.2040 5.8050 5.6350 -10.6860 -86.9560 141.8770 250.9610 223.1140 237.0370
  373.900 480.0000 1236.0000 1428.0000 4.9530 1.3630 2.0680 10.3410 1.2080 5.6260 5.6580 -9.4080 -86.2360 140.5700 254.0750 222.0680 238.0720
  374.000 490.0000 1236.0000 1432.0000 4.9980 1.2740 2.0680 10.1300 1.2220 5.4960 5.6810 -8.3580 -84.8990 140.9760 268.3400 222.0320 245.1860
  374.100 490.0000 1236.0000 1432.0000 4.9980 1.2740 2.0680 10.1300 1.2220 5.4960 5.6810 -8.3580 -84.8990 140.9760 268.3400 222.0320 245.1860
  374.200 510.0000 1228.0000 1432.0000 4.9880 1.4050 2.0620 10.2000 1.2080 5.1930 5.6560 -8.4980 -84.9090 141.8960 281.0480 221.3010 251.1750
  374.300 520.0000 1216.0000 1424.0000 5.0080 1.3550 2.0340 10.2230 1.1940 4.7920 5.7560 -10.2240 -83.9080 143.1520 294.3450 220.4500 257.3980
  374.400 530.0000 1212.0000 1424.0000 5.1160 1.3250 2.0240 10.2700 1.2290 4.6330 5.9070 -10.1010 -83.6640 138.9850 288.5660 220.0160 254.2910
  374.500 530.0000 1208.0000 1420.0000 5.2180 1.4260 2.0230 10.1920 1.1960 4.4950 6.1150 -9.7790 -82.2140 137.7030 272.6090 220.7430 246.6760
  374.600 530.0000 1208.0000 1420.0000 5.2180 1.4260 2.0230 10.1920 1.1960 4.4950 6.1150 -9.7790 -82.2140 137.7030 272.6090 220.7430 246.6760
  374.700 520.0000 1208.0000 1416.0000 5.3220 1.5570 2.0300 10.2210 1.1710 4.5130 6.3890 -9.7750 -81.3730 135.1370 253.4720 222.2530 237.8620
