~Version information
  VERS.                           2.00 : CWLS log ASCII Standard -Version 2.00
  WRAP.                             NO : One line per depth step
~Well information
#MNEM.UNIT              Data Type        Information
#----------------------------------------------------------------------
  STRT.M                         4.000 : 
  STOP.M                       853.000 : 
  STEP.M                         0.100 : 
  NULL.                     -9999.0000 : 
  COMP.    "KARATUBE INT. OIL COMPANY" : Company Name
  WELL.                            307 : Well Name
  FLD .                       KARATUBE : Field Name
  CTRY.                     KAZAKHSTAN : Country
  SRVC.         JSC"KAZPROMGEOPHYSICA" : Service company
  DATE.                      24.04.04. : Log date
~Curve information
#MNEM.UNIT                               Curve Description
#----------------------------------------------------------------------
  DEPT.M                               : Depth Curve
  DTP .US/M                            : Interval travel time (P-wave)
  TT1 .US                              : Travel time 1
  TT2 .                                : Travel time 2
  LL3 .OHMM                            : Appar.resist.laterolog,3 electrodes
  MLL .OHMM                            : Microlaterolog sonde
  RHOB.G/C3                            : Bulk density by gamma-gamma log
  GR  .UR/H                            : Gamma-ray log
  NGLD.UE                              : Neutron-gamma log/device DRST-90
  GZ3 .OHMM                            : App.resistivity by lateral A2.0M0.5N
  GZ3B.OHMM                            : App.resistivity by lateral N0.5Œ2.0€
  SP  .MV                              : Spontaneous potential
  CILR.MMHO                            : Conduct. by sonde 7I1.6,react.signal
  CILA.MMHO                            : Conduct. by sonde 7I1.6,active signal
  C1  .MM                              : Diameter from profile 1
  C2  .MM                              : Diameter from profile 2
  CALI.MM                              : Caliper
~Parameter information
#MNEM.UNIT              Value            Description
#----------------------------------------------------------------------
#----------------------------------------------------------------------
  BS  .MM                        215.9 : Bit Size
  DFD .G/C3                       1.15 : Drilling Fluid Density
  TDD .M                         847.0 : Total Depth Driller
~Ascii Log Data
# ...
  745.500 240.0000 828.0000 924.0000 10.7000 3.9470 2.5000 3.0970 2.0890 10.2640 7.7610 16.7750 -47.8010 70.0220 233.5070 218.8930 226.2000
  745.600 210.0000 840.0000 924.0000 10.5370 6.0000 2.4740 3.0690 2.1320 10.2860 7.6150 18.4800 -49.0290 61.7100 232.8600 219.4860 226.1730
  745.700 220.0000 844.0000 932.0000 10.1880 10.5170 2.5180 3.2170 2.1850 10.2360 7.4220 20.7350 -50.9910 55.7030 229.0160 220.7610 224.8890
  745.800 230.0000 844.0000 936.0000 9.6030 9.9320 2.5270 3.0540 2.2330 10.1390 7.2430 23.0720 -52.5040 54.5600 226.8330 222.3340 224.5840
  745.900 210.0000 860.0000 944.0000 9.1580 9.2620 2.5640 2.9840 2.2570 10.0760 7.0130 24.1230 -55.1290 57.3220 227.5330 223.4680 225.5010
  746.000 200.0000 880.0000 960.0000 8.8130 9.6830 2.5780 3.0560 2.3140 9.9960 6.7690 23.4240 -53.5440 64.4530 229.3810 223.7750 226.5780
  746.100 230.0000 884.0000 976.0000 8.6900 10.5920 2.5930 3.0130 2.3560 9.8800 6.5090 21.7160 -56.1810 70.8970 231.4420 222.8010 227.1210
  746.200 210.0000 892.0000 976.0000 8.5330 13.2220 2.5810 3.0270 2.3540 9.8200 6.2940 19.9580 -58.1200 72.1220 234.3660 221.2160 227.7910
  746.300 210.0000 892.0000 976.0000 8.3180 12.4770 2.5500 3.0570 2.3570 9.8330 6.0640 18.6470 -58.7240 77.2200 237.4020 220.5190 228.9610
  746.400 220.0000 896.0000 984.0000 8.1530 9.4380 2.5360 2.9040 2.3410 9.8800 5.9300 17.4490 -60.1640 78.1700 237.8270 218.6580 228.2430
  746.500 220.0000 900.0000 988.0000 7.8890 6.7650 2.5480 3.0010 2.4120 9.9880 5.6870 15.5950 -62.9680 79.4790 237.5510 219.6370 228.5940
  746.600 210.0000 916.0000 1000.0000 7.5790 7.7410 2.5220 3.1780 2.3580 10.1880 5.4750 13.9510 -66.5470 80.3410 236.8810 220.6220 228.7510
  746.700 210.0000 928.0000 1012.0000 7.2810 11.6480 2.5170 3.1270 2.3270 10.5310 5.2700 12.9940 -64.5930 86.5790 231.8090 221.6040 226.7070
  746.800 180.0000 940.0000 1012.0000 7.0530 13.6230 2.5220 3.2310 2.2600 10.9100 5.0610 13.3150 -66.8910 93.2540 231.0700 222.9560 227.0130
  746.900 220.0000 940.0000 1028.0000 6.8450 10.3680 2.5250 3.0900 2.2670 11.2050 4.9380 13.9250 -69.9480 92.6780 234.6690 222.5170 228.5930
  747.000 190.0000 956.0000 1032.0000 6.4170 4.6380 2.4800 3.3730 2.2210 11.3690 4.8670 14.2530 -68.9410 94.6770 236.1410 220.3640 228.2530
  747.100 260.0000 956.0000 1060.0000 5.8880 3.5340 2.4720 3.7530 2.1670 11.3830 4.7330 14.0930 -65.3190 105.3350 232.2130 218.9630 225.5880
  747.200 170.0000 976.0000 1044.0000 5.4010 3.0790 2.4730 4.1380 2.1400 11.3860 4.7140 14.4710 -70.4970 108.6120 229.9100 219.7980 224.8540
  747.300 230.0000 980.0000 1072.0000 5.1150 2.5490 2.4570 4.4960 2.0050 11.1180 4.6720 14.0360 -75.8480 104.8970 234.3730 219.3060 226.8400
  747.400 230.0000 980.0000 1072.0000 4.9310 1.5030 2.4400 4.7050 1.9190 10.5000 4.6520 12.6110 -81.1990 106.0160 236.0010 217.5900 226.7960
  747.500 240.0000 988.0000 1084.0000 4.9090 1.4080 2.4430 5.0850 1.8950 9.8550 4.7070 10.2230 -82.8890 119.6230 236.3840 222.5210 229.4530
  747.600 300.0000 984.0000 1104.0000 5.1000 1.6560 2.4270 5.1740 1.9200 9.3740 4.7230 8.2250 -85.1670 132.4650 234.0720 227.0060 230.5390
  747.700 340.0000 980.0000 1116.0000 5.1920 1.5940 2.4090 4.8410 1.8900 8.8220 4.7210 7.3110 -84.7140 131.7490 232.0080 226.1910 229.1000
  747.800 390.0000 952.0000 1108.0000 5.2220 1.6650 2.4100 4.8660 1.8800 8.3660 4.7230 7.6080 -79.7510 146.2550 232.2180 220.9410 226.5800
  747.900 360.0000 952.0000 1096.0000 5.3110 1.5740 2.4410 4.7990 1.8910 8.1970 4.7450 9.9400 -85.1470 144.3420 233.2980 216.5830 224.9410
  748.000 290.0000 952.0000 1068.0000 5.1440 1.5140 2.4420 4.7980 1.8330 8.0900 4.7130 12.5720 -85.0140 132.6580 232.4720 216.1590 224.3160
  748.100 290.0000 952.0000 1068.0000 5.2800 1.5190 2.4420 5.1470 1.7970 7.8670 4.6960 15.0610 -81.8500 133.7920 235.6830 215.8960 225.7900
  748.200 300.0000 948.0000 1068.0000 5.2850 1.2770 2.4460 5.3720 1.7820 7.6690 4.7580 16.1490 -83.7160 143.7040 243.1040 218.8560 230.9800
  748.300 330.0000 940.0000 1072.0000 5.1400 1.2990 2.4620 5.6610 1.7400 7.4520 4.8060 16.5310 -83.3720 141.6270 238.6120 217.1460 227.8790
  748.400 380.0000 920.0000 1072.0000 5.0610 1.1920 2.4560 5.7710 1.7110 7.1800 4.8480 16.2800 -84.0800 131.6310 238.2690 216.9750 227.6220
  748.500 330.0000 928.0000 1060.0000 5.0940 0.8780 2.4390 5.8710 1.6960 6.8650 4.8890 15.9350 -83.8990 126.3770 240.2970 218.0730 229.1850
  748.600 320.0000 928.0000 1056.0000 5.0590 1.1030 2.4270 5.9190 1.7330 6.6040 4.9570 15.3910 -81.4760 130.8850 241.7370 220.5160 231.1260
  748.700 280.0000 932.0000 1044.0000 5.0800 1.9100 2.4440 5.9610 1.7310 6.4430 4.9770 14.6260 -79.6890 125.6350 240.0260 224.5680 232.2970
  748.800 270.0000 940.0000 1048.0000 5.3380 2.4130 2.4380 5.9600 1.7560 6.2630 4.9630 13.4200 -75.6990 127.2160 236.3820 227.3390 231.8600
  748.900 290.0000 944.0000 1060.0000 5.4710 1.7510 2.4250 5.9020 1.7470 6.1150 4.9720 12.3200 -78.5890 124.3330 239.2910 223.7820 231.5360
  749.000 260.0000 952.0000 1056.0000 5.1840 1.2620 2.4420 5.8840 1.7570 5.9920 5.0170 11.0270 -83.0510 118.9350 237.3890 218.9700 228.1790
  749.100 260.0000 952.0000 1056.0000 5.0190 1.8650 2.4410 5.8920 1.7690 5.8610 5.0390 9.4550 -82.2160 119.0600 237.0550 218.5240 227.7890
  749.200 310.0000 940.0000 1064.0000 5.3470 0.9140 2.3870 5.8800 1.7590 5.6590 5.1230 8.5720 -79.4280 122.9030 237.3660 222.1330 229.7500
  749.300 320.0000 936.0000 1064.0000 5.4750 1.3430 2.3730 5.9750 1.8040 5.5070 5.2000 8.1660 -80.4030 123.8090 236.6850 221.5050 229.0950
  749.400 310.0000 928.0000 1052.0000 5.7310 2.1260 2.3820 5.9370 1.8300 5.4510 5.1690 7.3160 -78.4570 120.1430 238.2330 217.3830 227.8080
  749.500 240.0000 956.0000 1052.0000 6.3200 1.5890 2.3680 5.9440 1.8100 5.3100 5.1200 5.3710 -77.8570 114.5290 243.7760 216.0990 229.9380
  749.600 240.0000 956.0000 1052.0000 5.9010 1.2610 2.3750 5.7880 1.7960 5.2870 5.0720 2.6860 -81.2530 109.6210 245.6300 218.2040 231.9170
  749.700 170.0000 964.0000 1032.0000 5.3130 1.0010 2.3940 5.7600 1.7900 5.2100 5.0130 0.7650 -81.9570 109.7950 241.6050 220.1420 230.8730
  749.800 230.0000 968.0000 1060.0000 5.2940 0.8100 2.3460 5.6990 1.7710 5.0900 4.9290 -0.0660 -77.9470 116.2920 247.5640 217.5920 232.5780
  749.900 250.0000 960.0000 1060.0000 5.2370 1.2870 2.3320 5.7650 1.7490 5.0330 4.8530 0.6900 -77.0010 126.7470 247.8660 214.8640 231.3650
  750.000 270.0000 956.0000 1064.0000 5.2690 1.7130 2.3330 5.7680 1.6610 5.0570 4.8030 1.7140 -76.4750 128.4150 247.2550 211.3830 229.3190
  750.100 270.0000 940.0000 1048.0000 5.3420 0.8000 2.3320 5.7110 1.6280 5.0010 4.7420 2.6680 -80.9520 127.4960 250.1050 210.2440 230.1750
  750.200 240.0000 960.0000 1056.0000 5.3770 0.3470 2.3280 6.0240 1.5340 4.9160 4.6660 2.5630 -86.1890 125.6570 247.3090 213.2220 230.2650
  750.300 240.0000 952.0000 1048.0000 4.9440 0.3120 2.3180 6.2300 1.5480 4.8260 4.7200 2.2520 -90.7080 136.5830 242.9690 215.0090 228.9890
  750.400 270.0000 952.0000 1060.0000 4.5790 0.3410 2.2950 6.4480 1.5860 4.7200 4.8430 1.2800 -94.6230 146.9410 238.0050 216.2330 227.1190
  750.500 340.0000 932.0000 1068.0000 4.5040 0.8930 2.2930 6.3090 1.6210 4.6240 4.9730 -0.8530 -95.0900 152.8660 234.1410 217.3140 225.7270
  750.600 320.0000 940.0000 1068.0000 4.7330 1.3970 2.3190 5.9310 1.7350 4.5550 5.0870 -4.0770 -91.0670 147.1000 236.9120 215.9890 226.4500
  750.700 290.0000 940.0000 1056.0000 5.1510 1.7000 2.3600 5.5730 1.7600 4.5520 5.1950 -7.4410 -89.4590 142.6950 238.9380 217.5980 228.2680
  750.800 340.0000 952.0000 1088.0000 5.5500 1.6990 2.3830 5.5020 1.8220 4.5920 5.2440 -9.5990 -89.5430 135.9610 242.7100 218.8810 230.7960
  750.900 320.0000 952.0000 1080.0000 5.6850 1.2150 2.3990 5.3110 1.8590 4.6130 5.2460 -9.7790 -86.5780 132.4050 246.6950 222.9000 234.7970
  751.000 320.0000 948.0000 1076.0000 5.6380 1.1130 2.3850 5.1910 1.8560 4.5870 5.2210 -7.5960 -88.9810 131.3480 250.4690 218.5510 234.5100
  751.100 320.0000 944.0000 1072.0000 5.4810 1.2170 2.3960 5.0850 1.9170 4.5820 5.1820 -5.1180 -89.8930 128.8490 252.7820 216.3010 234.5410
  751.200 310.0000 948.0000 1072.0000 5.4240 1.5840 2.4030 5.2950 1.8750 4.5430 5.1800 -3.1140 -89.4870 123.2060 254.7150 218.3750 236.5460
