~Version information
  VERS.                           2.00 : CWLS log ASCII Standard -Version 2.00
  WRAP.                             NO : One line per depth step
~Well information
#MNEM.UNIT              Data Type        Information
#----------------------------------------------------------------------
  STRT.M                         4.000 : 
  STOP.M                       853.000 : 
  STEP.M                         0.100 : 
  NULL.                     -9999.0000 : 
  COMP.    "KARATUBE INT. OIL COMPANY" : Company Name
  WELL.                            307 : Well Name
  FLD .                       KARATUBE : Field Name
  CTRY.                     KAZAKHSTAN : Country
  SRVC.         JSC"KAZPROMGEOPHYSICA" : Service company
  DATE.                      24.04.04. : Log date
~Curve information
#MNEM.UNIT                               Curve Description
#----------------------------------------------------------------------
  DEPT.M                               : Depth Curve
  DTP .US/M                            : Interval travel time (P-wave)
  TT1 .US                              : Travel time 1
  TT2 .                                : Travel time 2
  LL3 .OHMM                            : Appar.resist.laterolog,3 electrodes
  MLL .OHMM                            : Microlaterolog sonde
  RHOB.G/C3                            : Bulk density by gamma-gamma log
  GR  .UR/H                            : Gamma-ray log
  NGLD.UE                              : Neutron-gamma log/device DRST-90
  GZ3 .OHMM                            : App.resistivity by lateral A2.0M0.5N
  GZ3B.OHMM                            : App.resistivity by lateral N0.5Œ2.0€
  SP  .MV                              : Spontaneous potential
  CILR.MMHO                            : Conduct. by sonde 7I1.6,react.signal
  CILA.MMHO                            : Conduct. by sonde 7I1.6,active signal
  C1  .MM                              : Diameter from profile 1
  C2  .MM                              : Diameter from profile 2
  CALI.MM                              : Caliper
~Parameter information
#MNEM.UNIT              Value            Description
#----------------------------------------------------------------------
#----------------------------------------------------------------------
  BS  .MM                        215.9 : Bit Size
  DFD .G/C3                       1.15 : Drilling Fluid Density
  TDD .M                         847.0 : Total Depth Driller
~Ascii Log Data
# ...
  796.700 180.0000 824.0000 896.0000 -9999.0000 580.8150 2.9640 1.0360 5.0540 10.9920 141.3910 39.6680 -1.6480 -14.2420 224.2550 224.5580 224.4070
  796.800 180.0000 824.0000 896.0000 -9999.0000 586.2400 2.9760 1.0040 5.0870 11.1530 140.8300 39.8730 -2.7610 -13.0180 224.1830 224.6310 224.4070
  796.900 180.0000 824.0000 896.0000 -9999.0000 591.6570 2.9890 0.9290 5.1110 11.3170 140.1610 40.8210 -3.0220 -12.4850 224.1870 225.0790 224.6330
  797.000 190.0000 820.0000 896.0000 -9999.0000 594.1700 2.9860 0.9250 5.1070 11.4830 139.5620 42.4490 -1.9860 -11.6090 223.6820 225.2850 224.4830
  797.100 190.0000 820.0000 896.0000 -9999.0000 593.3900 2.9570 0.8290 5.2350 11.7060 139.1940 43.9780 -2.0350 -11.5650 224.2050 225.9330 225.0690
  797.200 180.0000 824.0000 896.0000 -9999.0000 594.4030 2.9490 0.9120 5.1780 11.9230 138.7010 45.5440 -2.5860 -12.1970 223.9590 226.7530 225.3560
  797.300 180.0000 820.0000 892.0000 -9999.0000 595.2990 2.9710 1.0310 5.1600 12.0900 138.1210 47.8100 -1.8960 -10.7310 223.3690 226.7160 225.0430
  797.400 250.0000 820.0000 920.0000 -9999.0000 521.9460 2.9530 0.9600 5.1680 12.2470 137.5370 50.0270 -1.7570 -10.0570 224.4200 227.0600 225.7400
  797.500 180.0000 820.0000 892.0000 -9999.0000 319.3550 2.9030 0.9640 5.1830 12.4080 137.2330 51.5000 -0.8870 -10.2710 224.4700 226.3890 225.4300
  797.600 170.0000 824.0000 892.0000 -9999.0000 495.4480 2.8950 0.9590 5.2270 12.5230 136.8960 51.7760 -1.9250 -9.8450 223.3290 226.4310 224.8800
  797.700 170.0000 824.0000 892.0000 -9999.0000 590.5450 2.8850 0.9820 5.2320 12.9150 136.6550 51.2490 -2.3490 -9.4090 223.0190 226.3130 224.6660
  797.800 180.0000 824.0000 896.0000 -9999.0000 598.4910 2.9410 0.9530 5.2450 13.2340 136.6280 50.6410 -2.1130 -9.4790 222.6620 226.1280 224.3950
  797.900 170.0000 832.0000 900.0000 -9999.0000 599.7130 2.9420 0.8940 5.2480 13.5730 136.6460 50.9840 -1.2190 -9.0630 222.4430 226.2520 224.3470
  798.000 170.0000 832.0000 900.0000 -9999.0000 599.6480 2.9650 0.8640 5.2320 13.9840 136.4590 51.8190 -0.8470 -9.5800 222.7140 226.0720 224.3930
  798.100 150.0000 844.0000 904.0000 -9999.0000 598.4020 2.9640 0.9080 5.1280 14.3930 136.3590 52.8530 -1.4400 -10.0950 222.8360 225.9680 224.4020
  798.200 170.0000 840.0000 908.0000 -9999.0000 599.7970 2.9850 0.9330 5.1050 14.8240 136.2590 53.0570 -0.8510 -9.6830 222.6570 226.2800 224.4690
  798.300 180.0000 836.0000 908.0000 -9999.0000 601.7250 2.9830 1.0920 5.0430 15.2710 135.9330 53.0770 -0.7430 -10.1390 222.4650 226.8140 224.6390
  798.400 170.0000 840.0000 908.0000 -9999.0000 603.1800 2.9530 1.1090 5.0380 15.6840 135.5590 53.3220 -0.5050 -9.3580 222.4730 227.1720 224.8220
  798.500 170.0000 840.0000 908.0000 -9999.0000 603.6270 2.9640 1.1430 5.0690 16.1040 134.9530 53.3780 -0.0540 -9.2740 222.5020 227.3100 224.9060
  798.600 170.0000 840.0000 908.0000 -9999.0000 604.8200 3.0000 1.2190 5.0620 16.5580 134.3810 53.3230 -0.4330 -8.7190 222.4390 227.6250 225.0320
  798.700 190.0000 832.0000 908.0000 -9999.0000 606.3130 3.0010 1.0620 5.0490 17.0250 133.8630 52.9610 -0.2930 -7.9800 222.3340 228.2160 225.2750
  798.800 160.0000 840.0000 904.0000 -9999.0000 608.6740 3.0100 1.1640 5.0210 17.4890 133.3120 52.6400 -0.5940 -8.6290 222.5900 228.3610 225.4760
  798.900 200.0000 828.0000 908.0000 -9999.0000 610.2070 2.9760 1.2310 4.9570 17.9290 132.9450 51.6690 -0.6590 -9.5450 222.7330 228.3910 225.5620
  799.000 200.0000 828.0000 908.0000 -9999.0000 611.8240 2.9720 1.2610 4.8170 18.3630 132.2860 50.7280 -0.9220 -11.0680 222.9840 228.4190 225.7010
  799.100 170.0000 836.0000 904.0000 -9999.0000 613.7470 2.9790 1.2600 4.6630 18.8580 131.7690 50.1470 -0.0900 -11.3560 223.1880 228.4150 225.8020
  799.200 180.0000 832.0000 904.0000 -9999.0000 559.3500 2.9870 1.2610 4.4520 19.3390 131.3830 50.3550 -0.6010 -9.7590 223.2030 228.5510 225.8770
  799.300 190.0000 836.0000 912.0000 -9999.0000 325.0890 2.9520 1.1610 4.2230 19.5610 131.5730 51.3120 -0.9800 -4.8900 223.2400 228.4880 225.8640
  799.400 180.0000 836.0000 908.0000 -9999.0000 70.9250 2.9320 1.1970 4.0050 19.3650 132.0720 52.6350 -1.2360 -2.8610 222.7900 227.5050 225.1480
  799.500 180.0000 836.0000 908.0000 -9999.0000 79.4710 2.9290 1.1360 3.8830 18.9610 132.8050 54.0040 -0.2690 -3.1050 224.0120 224.5950 224.3040
  799.600 180.0000 832.0000 904.0000 -9999.0000 155.2090 2.9420 1.1060 3.9040 18.4530 133.5530 55.3830 -0.0170 -4.6170 223.9810 223.2700 223.6260
  799.700 200.0000 828.0000 908.0000 -9999.0000 303.9920 2.9350 1.1780 3.9520 17.8920 134.2880 56.1480 -0.5510 -6.8730 223.9640 222.7990 223.3820
  799.800 180.0000 836.0000 908.0000 -9999.0000 529.5700 2.9280 1.2010 4.1010 17.5700 134.6400 55.8560 -1.2050 -8.2260 224.1090 222.8110 223.4600
  799.900 160.0000 836.0000 900.0000 -9999.0000 567.5630 2.9130 1.1190 4.2110 17.6360 134.6770 54.6470 -1.2920 -8.0750 224.0510 222.7660 223.4080
  800.000 170.0000 832.0000 900.0000 -9999.0000 570.2680 2.9260 1.0630 4.4110 17.8030 134.5870 53.6730 -0.3830 -7.2220 224.0080 221.9650 222.9870
  800.100 160.0000 836.0000 900.0000 -9999.0000 571.1250 2.8880 0.8160 4.6040 18.3190 134.4770 53.4760 -1.0520 -9.5830 223.4500 222.8540 223.1520
  800.200 150.0000 836.0000 896.0000 -9999.0000 573.4100 2.9080 0.7870 4.7560 18.6640 134.2900 54.0370 -1.0430 -11.2020 222.9640 222.8480 222.9060
  800.300 200.0000 724.0000 804.0000 -9999.0000 575.2490 2.9000 0.7310 4.7800 19.0040 134.1270 55.0930 -0.7450 -10.7020 222.8310 222.8160 222.8230
  800.400 230.0000 712.0000 804.0000 -9999.0000 578.5820 2.9270 0.7180 4.8010 19.3220 134.0610 56.7320 -0.7580 -11.2770 222.8820 222.9460 222.9140
  800.500 280.0000 684.0000 796.0000 -9999.0000 528.0560 2.9190 0.7100 4.8080 19.5040 133.7770 57.6470 -0.8080 -10.7790 223.1810 223.1010 223.1410
  800.600 240.0000 696.0000 792.0000 -9999.0000 446.4820 2.9310 0.7470 4.7870 19.5420 133.5660 58.1580 0.3580 -11.6890 224.1390 224.1980 224.1680
  800.700 170.0000 724.0000 792.0000 -9999.0000 564.1370 2.9150 0.7190 4.7220 19.5900 133.6200 57.6410 -0.8150 -12.5630 222.5000 222.9720 222.7360
  800.800 180.0000 724.0000 796.0000 -9999.0000 582.0360 2.8860 0.7630 4.6410 19.5620 133.7620 56.8510 -0.4870 -10.7960 222.5060 222.8470 222.6760
  800.900 170.0000 728.0000 796.0000 -9999.0000 580.5530 2.9230 0.7170 4.6310 19.5530 133.8460 55.6040 0.4620 -7.4450 222.6130 222.8350 222.7240
  801.000 230.0000 700.0000 792.0000 -9999.0000 576.0200 2.9630 0.7230 4.6790 19.5800 133.4260 55.0090 0.3330 -6.4240 223.2380 222.9800 223.1090
  801.100 160.0000 728.0000 792.0000 -9999.0000 572.1850 2.9550 0.7680 4.6270 19.7220 133.0170 53.3810 0.0360 -6.7360 225.0840 224.0230 224.5530
  801.200 180.0000 720.0000 792.0000 -9999.0000 567.7260 2.9360 0.7500 4.5740 19.7750 132.3280 50.8560 -0.1750 -5.7150 225.6620 225.4910 225.5760
  801.300 170.0000 736.0000 804.0000 -9999.0000 568.4270 2.9490 0.7690 4.6110 20.0510 131.7930 48.5650 -0.4040 -2.7480 225.7140 225.2720 225.4930
  801.400 170.0000 740.0000 808.0000 -9999.0000 565.8940 2.9520 0.7440 4.5870 20.2880 131.2340 49.5340 0.4190 -1.7400 225.5200 223.8850 224.7030
  801.500 240.0000 720.0000 816.0000 -9999.0000 564.8520 2.9670 0.7500 4.5710 20.5320 130.6260 52.1410 0.3270 -2.4110 225.9700 224.2110 225.0900
  801.600 160.0000 744.0000 808.0000 -9999.0000 571.5380 2.9390 0.7170 4.5410 20.7900 130.2840 55.0520 -0.2750 -2.1340 226.1600 225.0400 225.6000
  801.700 160.0000 748.0000 812.0000 -9999.0000 569.5870 2.9400 0.8560 4.3970 21.1150 130.2870 56.9400 -0.8960 -2.2540 226.1700 225.6500 225.9100
  801.800 160.0000 748.0000 812.0000 -9999.0000 560.3010 2.9460 0.8610 4.3660 21.3820 130.2300 57.8820 -1.0860 -3.1340 225.9480 225.4690 225.7090
  801.900 170.0000 752.0000 820.0000 -9999.0000 565.0060 2.9290 0.9060 4.2950 21.7520 129.9910 57.4050 -0.2390 -2.0160 226.0320 225.6240 225.8280
  802.000 190.0000 748.0000 824.0000 -9999.0000 475.2170 2.9260 1.1010 4.0280 22.1270 130.1670 56.0670 0.4610 -1.2330 226.2380 225.5930 225.9150
  802.100 180.0000 748.0000 820.0000 -9999.0000 196.8370 2.8820 1.2080 3.7110 22.4710 130.6060 54.9100 0.2110 -5.4780 225.7450 224.5810 225.1630
