~Version information
  VERS.                           2.00 : CWLS log ASCII Standard -Version 2.00
  WRAP.                             NO : One line per depth step
~Well information
#MNEM.UNIT              Data Type        Information
#----------------------------------------------------------------------
  STRT.M                         4.000 : 
  STOP.M                       853.000 : 
  STEP.M                         0.100 : 
  NULL.                     -9999.0000 : 
  COMP.    "KARATUBE INT. OIL COMPANY" : Company Name
  WELL.                            307 : Well Name
  FLD .                       KARATUBE : Field Name
  CTRY.                     KAZAKHSTAN : Country
  SRVC.         JSC"KAZPROMGEOPHYSICA" : Service company
  DATE.                      24.04.04. : Log date
~Curve information
#MNEM.UNIT                               Curve Description
#----------------------------------------------------------------------
  DEPT.M                               : Depth Curve
  DTP .US/M                            : Interval travel time (P-wave)
  TT1 .US                              : Travel time 1
  TT2 .                                : Travel time 2
  LL3 .OHMM                            : Appar.resist.laterolog,3 electrodes
  MLL .OHMM                            : Microlaterolog sonde
  RHOB.G/C3                            : Bulk density by gamma-gamma log
  GR  .UR/H                            : Gamma-ray log
  NGLD.UE                              : Neutron-gamma log/device DRST-90
  GZ3 .OHMM                            : App.resistivity by lateral A2.0M0.5N
  GZ3B.OHMM                            : App.resistivity by lateral N0.5Œ2.0€
  SP  .MV                              : Spontaneous potential
  CILR.MMHO                            : Conduct. by sonde 7I1.6,react.signal
  CILA.MMHO                            : Conduct. by sonde 7I1.6,active signal
  C1  .MM                              : Diameter from profile 1
  C2  .MM                              : Diameter from profile 2
  CALI.MM                              : Caliper
~Parameter information
#MNEM.UNIT              Value            Description
#----------------------------------------------------------------------
#----------------------------------------------------------------------
  BS  .MM                        215.9 : Bit Size
  DFD .G/C3                       1.15 : Drilling Fluid Density
  TDD .M                         847.0 : Total Depth Driller
~Ascii Log Data
# ...
  133.000 360.0000 1392.0000 1536.0000 1.3510 -9999.0000 -9999.0000 3.3040 0.8840 -9999.0000 -9999.0000 -9999.0000 -9999.0000 -9999.0000 233.6710 228.6930 231.1820
  133.100 360.0000 1392.0000 1536.0000 1.3550 -9999.0000 -9999.0000 3.3760 0.8720 -9999.0000 -9999.0000 -9999.0000 -9999.0000 -9999.0000 233.5550 228.6750 231.1150
  133.200 360.0000 1392.0000 1536.0000 1.3530 -9999.0000 -9999.0000 3.4210 0.8740 -9999.0000 -9999.0000 -9999.0000 -9999.0000 -9999.0000 233.5140 228.7210 231.1180
  133.300 360.0000 1392.0000 1536.0000 1.3550 -9999.0000 -9999.0000 3.5200 0.8860 -9999.0000 -9999.0000 -9999.0000 -9999.0000 -9999.0000 233.4520 228.9670 231.2100
  133.400 360.0000 1392.0000 1536.0000 1.3550 -9999.0000 -9999.0000 3.4000 0.8770 -9999.0000 -9999.0000 -9999.0000 -9999.0000 -9999.0000 233.2970 229.5290 231.4130
  133.500 360.0000 1392.0000 1536.0000 1.3540 -9999.0000 -9999.0000 3.6640 0.8560 -9999.0000 -9999.0000 -9999.0000 -9999.0000 -9999.0000 233.5310 228.6830 231.1070
  133.600 360.0000 1392.0000 1536.0000 1.3500 -9999.0000 -9999.0000 3.5950 0.8690 -9999.0000 -9999.0000 -9999.0000 -9999.0000 -9999.0000 233.1890 228.6680 230.9290
  133.700 360.0000 1392.0000 1536.0000 1.3520 -9999.0000 -9999.0000 3.5620 0.8840 -9999.0000 -9999.0000 -9999.0000 -9999.0000 -9999.0000 233.2140 228.5980 230.9060
  133.800 360.0000 1392.0000 1536.0000 1.3550 -9999.0000 -9999.0000 3.4230 0.8740 -9999.0000 -9999.0000 -9999.0000 -9999.0000 -9999.0000 233.4710 228.5760 231.0240
  133.900 360.0000 1392.0000 1536.0000 1.3570 -9999.0000 -9999.0000 3.4290 0.8980 -9999.0000 -9999.0000 -9999.0000 -9999.0000 -9999.0000 233.2090 228.5890 230.8990
  134.000 360.0000 1392.0000 1536.0000 1.3560 -9999.0000 -9999.0000 3.4950 0.8760 -9999.0000 -9999.0000 -9999.0000 -9999.0000 -9999.0000 233.5340 228.6980 231.1160
  134.100 360.0000 1392.0000 1536.0000 1.3550 -9999.0000 -9999.0000 3.6480 0.8950 -9999.0000 -9999.0000 -9999.0000 -9999.0000 -9999.0000 233.5340 228.7830 231.1590
  134.200 360.0000 1392.0000 1536.0000 1.3500 -9999.0000 -9999.0000 3.4060 0.8950 -9999.0000 -9999.0000 -9999.0000 -9999.0000 -9999.0000 233.2360 228.6630 230.9500
  134.300 390.0000 1380.0000 1536.0000 1.3550 -9999.0000 -9999.0000 3.3540 0.8720 -9999.0000 -9999.0000 -9999.0000 -9999.0000 -9999.0000 233.6280 228.6340 231.1310
  134.400 460.0000 1352.0000 1536.0000 1.3650 -9999.0000 -9999.0000 3.3390 0.8950 -9999.0000 -9999.0000 -9999.0000 -9999.0000 -9999.0000 233.4680 228.6870 231.0780
  134.500 470.0000 1348.0000 1536.0000 1.3610 -9999.0000 -9999.0000 3.4660 0.8730 -9999.0000 -9999.0000 -9999.0000 -9999.0000 -9999.0000 233.4830 228.7520 231.1180
  134.600 480.0000 1344.0000 1536.0000 1.3570 -9999.0000 -9999.0000 3.5000 0.8780 -9999.0000 -9999.0000 -9999.0000 -9999.0000 -9999.0000 233.8020 228.7870 231.2950
  134.700 470.0000 1348.0000 1536.0000 1.3530 -9999.0000 -9999.0000 3.6010 0.9070 -9999.0000 -9999.0000 -9999.0000 -9999.0000 -9999.0000 233.5400 228.7850 231.1630
  134.800 500.0000 1344.0000 1544.0000 1.3560 -9999.0000 -9999.0000 3.5470 0.9350 -9999.0000 -9999.0000 -9999.0000 -9999.0000 -9999.0000 233.5770 228.7770 231.1770
  134.900 470.0000 1340.0000 1528.0000 1.3560 -9999.0000 -9999.0000 3.8420 0.9060 -9999.0000 -9999.0000 -9999.0000 -9999.0000 -9999.0000 233.7310 228.7330 231.2320
  135.000 480.0000 1332.0000 1524.0000 1.3550 -9999.0000 -9999.0000 3.8460 0.9080 -9999.0000 -9999.0000 -9999.0000 -9999.0000 -9999.0000 233.3890 228.7780 231.0830
  135.100 570.0000 1304.0000 1532.0000 1.3530 -9999.0000 -9999.0000 3.8380 0.9290 -9999.0000 -9999.0000 -9999.0000 -9999.0000 -9999.0000 233.4750 228.6790 231.0770
  135.200 480.0000 1332.0000 1524.0000 1.3580 -9999.0000 -9999.0000 3.9200 0.9110 -9999.0000 -9999.0000 -9999.0000 -9999.0000 -9999.0000 233.6890 228.6200 231.1540
  135.300 450.0000 1348.0000 1528.0000 1.3540 -9999.0000 -9999.0000 3.7500 0.9300 -9999.0000 -9999.0000 -9999.0000 -9999.0000 -9999.0000 233.5080 228.2420 230.8750
  135.400 460.0000 1348.0000 1532.0000 1.3520 -9999.0000 -9999.0000 3.8950 0.9350 -9999.0000 -9999.0000 -9999.0000 -9999.0000 -9999.0000 233.6180 227.6950 230.6560
  135.500 480.0000 1328.0000 1520.0000 1.3550 -9999.0000 -9999.0000 3.9270 0.9460 -9999.0000 -9999.0000 -9999.0000 -9999.0000 -9999.0000 233.2000 227.8660 230.5330
  135.600 460.0000 1344.0000 1528.0000 1.3520 -9999.0000 -9999.0000 3.9020 0.9020 -9999.0000 -9999.0000 -9999.0000 -9999.0000 -9999.0000 233.1000 228.4780 230.7890
  135.700 430.0000 1348.0000 1520.0000 1.3720 -9999.0000 -9999.0000 3.7420 0.9440 -9999.0000 -9999.0000 -9999.0000 -9999.0000 -9999.0000 233.0520 228.7350 230.8930
  135.800 410.0000 1352.0000 1516.0000 1.3860 -9999.0000 -9999.0000 3.8340 0.9200 -9999.0000 -9999.0000 -9999.0000 -9999.0000 -9999.0000 233.1540 228.9600 231.0570
  135.900 420.0000 1348.0000 1516.0000 1.3770 -9999.0000 -9999.0000 3.8310 0.9070 -9999.0000 -9999.0000 -9999.0000 -9999.0000 -9999.0000 233.2870 229.9770 231.6320
  136.000 440.0000 1348.0000 1524.0000 1.3530 -9999.0000 -9999.0000 3.8700 0.8790 -9999.0000 -9999.0000 -9999.0000 -9999.0000 -9999.0000 233.6470 230.2290 231.9380
  136.100 390.0000 1344.0000 1500.0000 1.3260 -9999.0000 -9999.0000 3.9890 0.8720 -9999.0000 -9999.0000 -9999.0000 -9999.0000 -9999.0000 233.1090 229.1210 231.1150
  136.200 -1320.0000 1344.0000 816.0000 1.3340 -9999.0000 -9999.0000 3.9600 0.8800 -9999.0000 -9999.0000 -9999.0000 -9999.0000 -9999.0000 233.7890 226.5300 230.1590
  136.300 -630.0000 1348.0000 1096.0000 1.3560 -9999.0000 -9999.0000 3.9400 0.8980 -9999.0000 -9999.0000 -9999.0000 -9999.0000 -9999.0000 234.6510 230.2260 232.4390
  136.400 -730.0000 1348.0000 1056.0000 1.3610 -9999.0000 -9999.0000 4.2970 0.9030 -9999.0000 -9999.0000 -9999.0000 -9999.0000 -9999.0000 233.8190 230.1910 232.0050
  136.500 -630.0000 1348.0000 1096.0000 1.3710 -9999.0000 -9999.0000 4.6150 0.8980 -9999.0000 -9999.0000 -9999.0000 -9999.0000 -9999.0000 233.7280 229.9780 231.8530
  136.600 -1540.0000 1344.0000 728.0000 1.3710 -9999.0000 -9999.0000 4.7090 0.9110 -9999.0000 -9999.0000 -9999.0000 -9999.0000 -9999.0000 233.8850 228.4990 231.1920
  136.700 -600.0000 1344.0000 1104.0000 1.3440 -9999.0000 -9999.0000 4.6190 0.9430 -9999.0000 -9999.0000 -9999.0000 -9999.0000 -9999.0000 233.8000 228.4900 231.1450
  136.800 -500.0000 1340.0000 1140.0000 1.3160 -9999.0000 -9999.0000 4.4790 0.9260 -9999.0000 -9999.0000 -9999.0000 -9999.0000 -9999.0000 233.6530 229.0520 231.3530
  136.900 -490.0000 1344.0000 1148.0000 1.3370 -9999.0000 -9999.0000 4.5360 0.9290 -9999.0000 -9999.0000 -9999.0000 -9999.0000 -9999.0000 233.5120 231.0030 232.2570
  137.000 -480.0000 1340.0000 1148.0000 1.3610 -9999.0000 -9999.0000 4.5810 0.8980 -9999.0000 -9999.0000 -9999.0000 -9999.0000 -9999.0000 233.7430 230.0050 231.8740
  137.100 -1490.0000 1340.0000 744.0000 1.3530 -9999.0000 -9999.0000 4.5290 0.8990 -9999.0000 -9999.0000 -9999.0000 -9999.0000 -9999.0000 233.8470 229.5490 231.6980
  137.200 -480.0000 1344.0000 1152.0000 1.3490 -9999.0000 -9999.0000 4.4740 0.8870 -9999.0000 -9999.0000 -9999.0000 -9999.0000 -9999.0000 233.7770 228.6410 231.2090
  137.300 -1460.0000 1344.0000 760.0000 1.3590 -9999.0000 -9999.0000 4.3630 0.8790 -9999.0000 -9999.0000 -9999.0000 -9999.0000 -9999.0000 233.9000 228.8470 231.3740
  137.400 170.0000 816.0000 884.0000 1.3280 -9999.0000 -9999.0000 4.3700 0.9240 -9999.0000 -9999.0000 -9999.0000 -9999.0000 -9999.0000 233.6500 229.5210 231.5860
  137.500 160.0000 816.0000 880.0000 1.3370 -9999.0000 -9999.0000 4.4420 0.9510 -9999.0000 -9999.0000 -9999.0000 -9999.0000 -9999.0000 233.6130 229.7450 231.6790
  137.600 160.0000 820.0000 884.0000 1.3870 -9999.0000 -9999.0000 4.3250 0.9870 -9999.0000 -9999.0000 -9999.0000 -9999.0000 -9999.0000 234.7540 229.6750 232.2140
  137.700 170.0000 820.0000 888.0000 1.3720 -9999.0000 -9999.0000 4.1720 1.0070 -9999.0000 -9999.0000 -9999.0000 -9999.0000 -9999.0000 234.8180 229.7410 232.2800
  137.800 170.0000 820.0000 888.0000 1.3530 -9999.0000 -9999.0000 4.1350 0.9820 -9999.0000 -9999.0000 -9999.0000 -9999.0000 -9999.0000 233.7650 229.7850 231.7750
