~Version information
  VERS.                           2.00 : CWLS log ASCII Standard -Version 2.00
  WRAP.                             NO : One line per depth step
~Well information
#MNEM.UNIT              Data Type        Information
#----------------------------------------------------------------------
  STRT.M                         4.000 : 
  STOP.M                       853.000 : 
  STEP.M                         0.100 : 
  NULL.                     -9999.0000 : 
  COMP.    "KARATUBE INT. OIL COMPANY" : Company Name
  WELL.                            307 : Well Name
  FLD .                       KARATUBE : Field Name
  CTRY.                     KAZAKHSTAN : Country
  SRVC.         JSC"KAZPROMGEOPHYSICA" : Service company
  DATE.                      24.04.04. : Log date
~Curve information
#MNEM.UNIT                               Curve Description
#----------------------------------------------------------------------
  DEPT.M                               : Depth Curve
  DTP .US/M                            : Interval travel time (P-wave)
  TT1 .US                              : Travel time 1
  TT2 .                                : Travel time 2
  LL3 .OHMM                            : Appar.resist.laterolog,3 electrodes
  MLL .OHMM                            : Microlaterolog sonde
  RHOB.G/C3                            : Bulk density by gamma-gamma log
  GR  .UR/H                            : Gamma-ray log
  NGLD.UE                              : Neutron-gamma log/device DRST-90
  GZ3 .OHMM                            : App.resistivity by lateral A2.0M0.5N
  GZ3B.OHMM                            : App.resistivity by lateral N0.5Œ2.0€
  SP  .MV                              : Spontaneous potential
  CILR.MMHO                            : Conduct. by sonde 7I1.6,react.signal
  CILA.MMHO                            : Conduct. by sonde 7I1.6,active signal
  C1  .MM                              : Diameter from profile 1
  C2  .MM                              : Diameter from profile 2
  CALI.MM                              : Caliper
~Parameter information
#MNEM.UNIT              Value            Description
#----------------------------------------------------------------------
#----------------------------------------------------------------------
  BS  .MM                        215.9 : Bit Size
  DFD .G/C3                       1.15 : Drilling Fluid Density
  TDD .M                         847.0 : Total Depth Driller
~Ascii Log Data
# ...
  699.600 350.0000 1044.0000 1184.0000 4.0850 1.4760 2.4300 6.4600 1.4750 3.5590 4.4230 -12.3440 -104.2850 131.3830 231.4890 221.5090 226.4990
  699.700 330.0000 1044.0000 1176.0000 4.1080 1.6390 2.4510 6.6500 1.4650 3.6090 4.3920 -10.4820 -107.7010 131.0530 231.8850 224.7380 228.3110
  699.800 330.0000 1040.0000 1172.0000 4.1040 1.9370 2.4500 6.5440 1.4600 3.6790 4.2770 -4.5250 -109.1880 129.5920 234.7090 224.9770 229.8430
  699.900 310.0000 1048.0000 1172.0000 4.0560 2.4980 2.4380 6.4580 1.4760 3.7110 4.1900 3.4000 -110.0950 136.0630 236.7500 226.6000 231.6750
  700.000 280.0000 1056.0000 1168.0000 4.0450 2.1300 2.4410 6.5850 1.4380 3.7680 4.0590 9.9740 -110.5520 139.9910 237.2170 230.1890 233.7030
  700.100 280.0000 1060.0000 1172.0000 4.0690 1.3980 2.4130 6.8870 1.4350 3.7870 3.9310 14.1020 -110.6630 143.9850 238.1070 229.8060 233.9560
  700.200 310.0000 1048.0000 1172.0000 4.0170 1.1370 2.4020 6.9490 1.4220 3.7800 3.7810 15.9020 -113.8610 154.5580 237.0500 230.4850 233.7670
  700.300 340.0000 1036.0000 1172.0000 3.9710 0.7120 2.3900 7.2870 1.4320 3.7360 3.7290 16.3510 -120.1680 158.8900 242.9200 240.1540 241.5370
  700.400 370.0000 1032.0000 1180.0000 3.6030 0.7030 2.3790 7.5860 1.3640 3.6860 3.7250 15.6050 -121.6520 162.0990 234.2900 236.4320 235.3610
  700.500 390.0000 1028.0000 1184.0000 3.5320 0.7880 2.3590 7.7880 1.3940 3.5840 3.7900 14.0000 -123.5090 166.0290 237.4080 229.2780 233.3430
  700.600 400.0000 1028.0000 1188.0000 3.5540 0.9120 2.3500 7.7230 1.3930 3.5030 3.8810 11.6850 -125.5460 166.3880 233.3030 228.2400 230.7720
  700.700 420.0000 1016.0000 1184.0000 3.6260 0.8170 2.3830 7.8600 1.4180 3.4300 4.0070 9.1230 -124.3230 165.0720 233.3220 231.0990 232.2100
  700.800 410.0000 1016.0000 1180.0000 3.6860 0.6480 2.3410 7.6560 1.4420 3.3860 4.1520 7.1050 -119.5870 162.6760 232.1700 232.0840 232.1270
  700.900 400.0000 1016.0000 1176.0000 3.6570 0.8260 2.3300 7.7540 1.4280 3.3180 4.2170 7.6540 -116.2390 160.0730 230.5060 236.6050 233.5560
  701.000 390.0000 1020.0000 1176.0000 3.6770 1.2970 2.3550 8.1010 1.4110 3.2640 4.2350 10.2740 -115.1090 154.9560 230.9130 235.3920 233.1530
  701.100 390.0000 1020.0000 1176.0000 3.8070 1.4380 2.3510 8.2410 1.4190 3.1820 4.2280 12.9260 -111.8370 147.5570 232.1090 237.2270 234.6680
  701.200 360.0000 1024.0000 1168.0000 3.9450 1.4120 2.3590 8.3080 1.5150 3.1440 4.3480 14.6190 -108.3820 143.2820 233.1380 248.2580 240.6980
  701.300 340.0000 1032.0000 1168.0000 4.1110 1.6740 2.4050 8.0490 1.5500 3.1820 4.4810 15.2060 -107.4510 138.3180 233.5120 244.4750 238.9930
  701.400 340.0000 1028.0000 1164.0000 4.3250 1.6780 2.3930 8.0320 1.5730 3.2610 4.5220 16.4390 -104.8900 135.7570 229.2800 224.5790 226.9300
  701.500 350.0000 1024.0000 1164.0000 4.4970 1.3980 2.3960 7.9380 1.5490 3.3610 4.5620 17.1310 -103.1530 132.8520 229.3380 219.9360 224.6370
  701.600 360.0000 1020.0000 1164.0000 4.4860 1.2270 2.3900 7.8050 1.5230 3.4960 4.6040 17.4180 -103.3770 133.0760 228.1150 218.0250 223.0700
  701.700 360.0000 1016.0000 1160.0000 4.3840 1.4550 2.3840 7.8670 1.5190 3.6320 4.6160 16.5460 -103.6170 130.0780 227.0290 219.1950 223.1120
  701.800 350.0000 1016.0000 1156.0000 4.3890 1.5950 2.3840 7.5180 1.5300 3.6720 4.5530 14.8410 -104.7980 130.5290 229.3830 217.9570 223.6700
  701.900 370.0000 1012.0000 1160.0000 4.4090 1.1860 2.3800 7.5500 1.5800 3.7220 4.5500 12.7040 -101.7930 132.1520 231.6770 219.0740 225.3750
  702.000 370.0000 1008.0000 1156.0000 4.3040 1.4650 2.3730 7.7190 1.6000 3.7800 4.5610 10.3210 -105.9280 137.1120 232.8110 219.3090 226.0600
  702.100 350.0000 1004.0000 1144.0000 4.2910 1.4800 2.3770 8.0070 1.6000 3.8240 4.5780 8.2550 -104.4770 134.6090 233.2650 219.2610 226.2630
  702.200 310.0000 1012.0000 1136.0000 4.3320 1.4930 2.3680 8.0650 1.6230 3.8560 4.5560 6.0060 -103.9990 134.4670 233.5700 218.6460 226.1080
  702.300 320.0000 1008.0000 1136.0000 4.3670 1.4820 2.3550 8.2580 1.5230 3.8860 4.5120 3.9880 -102.6800 132.2530 239.1240 220.7360 229.9300
  702.400 310.0000 1012.0000 1136.0000 4.3180 1.8730 2.3660 8.4870 1.4860 3.8900 4.4360 2.2690 -103.7090 133.8940 242.4770 223.7330 233.1050
  702.500 330.0000 1012.0000 1144.0000 4.2020 1.4800 2.3770 8.3100 1.5000 3.8660 4.2960 1.4370 -106.1060 132.2590 237.4720 224.3100 230.8910
  702.600 330.0000 1016.0000 1148.0000 4.0520 1.0990 2.3870 8.4920 1.4920 3.7790 4.1620 1.8280 -106.8530 132.6070 242.5700 229.5280 236.0490
  702.700 320.0000 1032.0000 1160.0000 3.8290 1.0720 2.3760 8.0760 1.4430 3.6440 4.0650 3.4410 -111.4440 131.4750 235.0330 227.8540 231.4430
  702.800 380.0000 1036.0000 1188.0000 3.6760 1.1280 2.4020 7.9230 1.4700 3.5350 4.0010 6.0100 -114.9840 136.1590 240.6400 227.7830 234.2120
  702.900 330.0000 1032.0000 1164.0000 3.5970 1.0260 2.4020 7.8530 1.4180 3.4400 3.9860 9.0780 -116.6210 138.9560 246.6070 233.6600 240.1340
  703.000 350.0000 1024.0000 1164.0000 3.6040 1.0370 2.4050 7.4720 1.4570 3.3630 4.0300 12.7650 -113.1990 143.5360 243.6160 246.3400 244.9780
  703.100 350.0000 1032.0000 1172.0000 3.6610 1.1480 2.4000 7.0750 1.5050 3.3620 4.0570 16.4020 -118.8750 137.1270 238.1970 241.2150 239.7060
  703.200 380.0000 1032.0000 1184.0000 3.6650 1.0100 2.4200 6.8840 1.5130 3.3630 4.0130 19.1400 -118.4450 136.7580 240.9490 234.8750 237.9120
  703.300 380.0000 1028.0000 1180.0000 3.6310 1.7850 2.4170 6.5460 1.4810 3.3620 4.0030 19.8100 -120.2380 133.7620 238.0900 239.6120 238.8510
  703.400 370.0000 1036.0000 1184.0000 3.5780 1.7420 2.4390 6.5980 1.4430 3.4330 4.0420 19.1290 -118.0410 137.2620 231.6340 240.5170 236.0760
  703.500 300.0000 1052.0000 1172.0000 3.6570 1.6050 2.4410 6.4060 1.4930 3.4980 3.9830 17.2340 -118.4600 135.1680 233.5380 234.2590 233.8990
  703.600 280.0000 1064.0000 1176.0000 3.8050 1.6550 2.4290 6.6580 1.5310 3.5590 3.9590 14.6330 -113.7500 134.8900 238.0990 231.0110 234.5550
  703.700 260.0000 1072.0000 1176.0000 3.8350 1.7440 2.4190 6.9260 1.5010 3.6860 3.9420 11.5000 -112.3710 135.4780 237.7880 241.1170 239.4530
  703.800 290.0000 1072.0000 1188.0000 3.8120 1.8670 2.4240 6.9110 1.4830 3.8340 3.9040 9.0560 -113.9420 136.9230 240.3270 240.3460 240.3370
  703.900 270.0000 1080.0000 1188.0000 3.7570 1.8770 2.4460 7.0230 1.4760 3.8790 3.7570 7.5680 -117.2340 137.4890 238.7370 234.8270 236.7820
  704.000 290.0000 1080.0000 1196.0000 3.6420 0.8480 2.4040 6.9710 1.4660 3.8600 3.6110 7.3210 -120.1690 140.8860 257.6760 242.7640 250.2200
  704.100 320.0000 1072.0000 1200.0000 3.4710 0.8130 2.3980 7.4360 1.4480 3.8060 3.4800 8.2150 -125.0040 148.1040 268.4820 249.2390 258.8600
  704.200 330.0000 1068.0000 1200.0000 3.3100 0.9720 2.3970 7.7060 1.4520 3.7400 3.4070 9.6800 -129.0040 151.7720 268.6390 255.1060 261.8730
  704.300 330.0000 1068.0000 1200.0000 3.2670 0.8150 2.3750 7.5950 1.4480 3.6400 3.3880 10.6700 -131.3570 154.2620 257.7840 258.7700 258.2770
  704.400 380.0000 1064.0000 1216.0000 3.3050 0.7390 2.3340 7.4110 1.3980 3.5350 3.4270 11.2770 -132.3430 155.8660 251.9180 251.2670 251.5930
  704.500 380.0000 1064.0000 1216.0000 3.3640 0.8630 2.3470 7.3070 1.3480 3.5770 3.5120 11.0300 -133.0230 157.7490 250.5090 243.1640 246.8360
  704.600 380.0000 1064.0000 1216.0000 3.4260 0.9200 2.3490 7.2560 1.4010 3.6180 3.5820 10.4220 -130.9800 160.0040 250.1680 242.1880 246.1780
  704.700 370.0000 1064.0000 1212.0000 3.4920 0.8150 2.3660 7.1220 1.3870 3.6400 3.6380 8.4240 -129.6320 158.9170 247.6950 242.0650 244.8800
  704.800 360.0000 1068.0000 1212.0000 3.5020 0.7470 2.4070 7.3730 1.3650 3.6380 3.6620 5.8020 -130.3690 157.7420 245.9230 237.0150 241.4690
  704.900 350.0000 1068.0000 1208.0000 3.5270 0.7950 2.4120 7.4330 1.4170 3.6400 3.6800 1.3260 -130.9470 154.5190 251.7390 229.9530 240.8460
  705.000 400.0000 1060.0000 1220.0000 3.5460 0.7670 2.3900 7.5050 1.4270 3.6010 3.6830 -4.4740 -130.1980 155.1860 261.5460 224.3640 242.9550
  705.100 410.0000 1052.0000 1216.0000 3.5620 0.8160 2.3770 7.3380 1.4180 3.5610 3.7220 -11.2840 -128.9870 155.8500 257.6060 221.8130 239.7100
  705.200 400.0000 1048.0000 1208.0000 3.6180 1.1870 2.3770 7.2400 1.4160 3.5110 3.7680 -15.8690 -128.3600 156.2640 255.6040 224.6470 240.1250
