~Version information
  VERS.                           2.00 : CWLS log ASCII Standard -Version 2.00
  WRAP.                             NO : One line per depth step
~Well information
#MNEM.UNIT              Data Type        Information
#----------------------------------------------------------------------
  STRT.M                         4.000 : 
  STOP.M                       853.000 : 
  STEP.M                         0.100 : 
  NULL.                     -9999.0000 : 
  COMP.    "KARATUBE INT. OIL COMPANY" : Company Name
  WELL.                            307 : Well Name
  FLD .                       KARATUBE : Field Name
  CTRY.                     KAZAKHSTAN : Country
  SRVC.         JSC"KAZPROMGEOPHYSICA" : Service company
  DATE.                      24.04.04. : Log date
~Curve information
#MNEM.UNIT                               Curve Description
#----------------------------------------------------------------------
  DEPT.M                               : Depth Curve
  DTP .US/M                            : Interval travel time (P-wave)
  TT1 .US                              : Travel time 1
  TT2 .                                : Travel time 2
  LL3 .OHMM                            : Appar.resist.laterolog,3 electrodes
  MLL .OHMM                            : Microlaterolog sonde
  RHOB.G/C3                            : Bulk density by gamma-gamma log
  GR  .UR/H                            : Gamma-ray log
  NGLD.UE                              : Neutron-gamma log/device DRST-90
  GZ3 .OHMM                            : App.resistivity by lateral A2.0M0.5N
  GZ3B.OHMM                            : App.resistivity by lateral N0.5Œ2.0€
  SP  .MV                              : Spontaneous potential
  CILR.MMHO                            : Conduct. by sonde 7I1.6,react.signal
  CILA.MMHO                            : Conduct. by sonde 7I1.6,active signal
  C1  .MM                              : Diameter from profile 1
  C2  .MM                              : Diameter from profile 2
  CALI.MM                              : Caliper
~Parameter information
#MNEM.UNIT              Value            Description
#----------------------------------------------------------------------
#----------------------------------------------------------------------
  BS  .MM                        215.9 : Bit Size
  DFD .G/C3                       1.15 : Drilling Fluid Density
  TDD .M                         847.0 : Total Depth Driller
~Ascii Log Data
# ...
  511.600 490.0000 1084.0000 1280.0000 4.5500 1.5730 2.2610 10.5550 1.2030 3.9780 6.6630 10.6070 -85.1970 132.8580 250.0370 228.9940 239.5150
  511.700 540.0000 1056.0000 1272.0000 4.6750 1.6190 2.2640 10.7250 1.2140 4.0700 6.7780 9.8170 -82.1360 133.3610 242.0690 224.7140 233.3920
  511.800 510.0000 1016.0000 1220.0000 4.8230 1.5910 2.2780 10.7310 1.2540 4.1110 6.9250 7.9450 -77.5720 135.8630 227.8090 228.7660 228.2880
  511.900 480.0000 1000.0000 1192.0000 5.0830 1.2890 2.2890 10.8930 1.2540 4.1240 6.8940 7.4830 -74.6190 139.0240 226.2570 225.8660 226.0610
  512.000 480.0000 1000.0000 1192.0000 5.0830 1.2890 2.2890 10.8930 1.2540 4.1240 6.8940 7.4830 -74.6190 139.0240 226.2570 225.8660 226.0610
  512.100 440.0000 988.0000 1164.0000 5.3570 1.3000 2.2580 10.8160 1.2840 4.1160 6.7980 7.5130 -72.7970 137.0140 225.3430 226.2050 225.7740
  512.200 400.0000 976.0000 1136.0000 5.4790 1.6450 2.2400 10.5610 1.2960 4.1280 6.4720 5.8760 -69.6540 128.7980 231.0850 222.9690 227.0270
  512.300 400.0000 976.0000 1136.0000 5.4790 1.6450 2.2400 10.5610 1.2960 4.1280 6.4720 5.8760 -69.6540 128.7980 231.0850 222.9690 227.0270
  512.400 420.0000 920.0000 1088.0000 5.0490 1.6580 2.2240 10.6970 1.3250 3.9960 6.1970 3.7400 -67.9960 133.1050 249.8270 229.0970 239.4620
  512.500 420.0000 920.0000 1088.0000 5.0490 1.6580 2.2240 10.6970 1.3250 3.9960 6.1970 3.7400 -67.9960 133.1050 249.8270 229.0970 239.4620
  512.600 470.0000 900.0000 1088.0000 4.9760 1.7990 2.2180 10.7240 1.3610 3.8650 6.2270 3.6080 -67.5720 137.3880 242.6010 236.4370 239.5190
  512.700 460.0000 896.0000 1080.0000 5.1070 1.3730 2.2010 9.9820 1.4920 3.8080 6.7560 5.9880 -68.1450 132.7140 232.9330 232.7060 232.8200
  512.800 460.0000 896.0000 1080.0000 5.1070 1.3730 2.2010 9.9820 1.4920 3.8080 6.7560 5.9880 -68.1450 132.7140 232.9330 232.7060 232.8200
  512.900 400.0000 908.0000 1068.0000 5.3380 1.4880 2.2470 9.5340 1.5680 4.0170 7.7730 11.3780 -66.4660 114.8270 223.6370 219.6340 221.6360
  513.000 400.0000 908.0000 1068.0000 5.3380 1.4880 2.2470 9.5340 1.5680 4.0170 7.7730 11.3780 -66.4660 114.8270 223.6370 219.6340 221.6360
  513.100 380.0000 924.0000 1076.0000 5.3620 2.5740 2.2950 9.0540 1.5750 4.2290 8.3750 11.8340 -64.1990 104.7030 223.3930 218.9810 221.1870
  513.200 280.0000 948.0000 1060.0000 5.8140 29.8370 2.3970 8.9850 1.7280 4.5960 9.0440 7.5000 -58.4050 81.8860 225.6100 222.4390 224.0250
  513.300 280.0000 948.0000 1060.0000 5.8140 29.8370 2.3970 8.9850 1.7280 4.5960 9.0440 7.5000 -58.4050 81.8860 225.6100 222.4390 224.0250
  513.400 180.0000 996.0000 1068.0000 7.2780 47.1420 2.4770 8.2830 1.8720 5.0980 8.7200 6.4200 -54.0080 67.7360 225.5580 223.2180 224.3880
  513.500 180.0000 996.0000 1068.0000 7.2780 47.1420 2.4770 8.2830 1.8720 5.0980 8.7200 6.4200 -54.0080 67.7360 225.5580 223.2180 224.3880
  513.600 170.0000 1020.0000 1088.0000 7.7340 42.7800 2.5050 8.2460 1.9610 5.4080 8.2340 6.3960 -53.9410 66.9400 225.1620 223.0580 224.1100
  513.700 100.0000 1068.0000 1108.0000 7.1070 53.8500 2.4860 8.0750 2.0160 6.1980 7.0790 6.9110 -56.9850 69.6710 226.4820 222.7200 224.6010
  513.800 100.0000 1068.0000 1108.0000 7.1070 53.8500 2.4860 8.0750 2.0160 6.1980 7.0790 6.9110 -56.9850 69.6710 226.4820 222.7200 224.6010
  513.900 150.0000 1100.0000 1160.0000 6.2170 54.7270 2.4440 7.6840 1.8520 7.2070 5.9970 3.9330 -64.9600 84.2970 225.2070 221.8510 223.5290
  514.000 150.0000 1100.0000 1160.0000 6.2170 54.7270 2.4440 7.6840 1.8520 7.2070 5.9970 3.9330 -64.9600 84.2970 225.2070 221.8510 223.5290
  514.100 200.0000 1100.0000 1180.0000 5.8590 16.6300 2.4130 7.9730 1.7200 7.7730 5.5580 0.3700 -68.9170 92.2120 224.5840 222.0020 223.2930
  514.200 340.0000 1092.0000 1228.0000 4.8050 1.5050 2.3160 8.7960 1.4780 8.3360 4.9400 -5.2200 -80.1760 109.6340 223.3120 221.0950 222.2040
  514.300 340.0000 1092.0000 1228.0000 4.8050 1.5050 2.3160 8.7960 1.4780 8.3360 4.9400 -5.2200 -80.1760 109.6340 223.3120 221.0950 222.2040
  514.400 420.0000 1088.0000 1256.0000 3.7630 1.4560 2.2220 10.1310 1.3490 8.0440 4.1550 -5.8910 -91.5500 129.5440 223.0510 220.9840 222.0170
  514.500 420.0000 1088.0000 1256.0000 3.7630 1.4560 2.2220 10.1310 1.3490 8.0440 4.1550 -5.8910 -91.5500 129.5440 223.0510 220.9840 222.0170
  514.600 420.0000 1088.0000 1256.0000 3.5840 1.4890 2.1950 10.2860 1.2870 7.5730 3.9070 -4.6180 -96.5080 136.1890 223.0070 221.0820 222.0450
  514.700 430.0000 1084.0000 1256.0000 3.5370 1.5340 2.2210 10.4810 1.2650 6.6420 3.6040 2.0930 -104.7910 144.2980 224.3770 221.2680 222.8230
  514.800 430.0000 1084.0000 1256.0000 3.5370 1.5340 2.2210 10.4810 1.2650 6.6420 3.6040 2.0930 -104.7910 144.2980 224.3770 221.2680 222.8230
  514.900 410.0000 1088.0000 1252.0000 3.6100 1.3590 2.2390 10.4780 1.2770 6.0350 3.4470 4.8290 -109.6090 141.3290 223.5240 220.4400 221.9820
  515.000 410.0000 1088.0000 1252.0000 3.6100 1.3590 2.2390 10.4780 1.2770 6.0350 3.4470 4.8290 -109.6090 141.3290 223.5240 220.4400 221.9820
  515.100 390.0000 1096.0000 1252.0000 3.5740 1.4770 2.2600 10.4970 1.2840 5.8360 3.3790 4.2910 -111.5080 138.8670 222.1740 220.8220 221.4980
  515.200 400.0000 1092.0000 1252.0000 3.5290 1.3710 2.2560 9.6500 1.3190 5.7020 3.2490 3.6620 -115.6390 135.2200 221.7360 220.1400 220.9380
  515.300 400.0000 1092.0000 1252.0000 3.5290 1.3710 2.2560 9.6500 1.3190 5.7020 3.2490 3.6620 -115.6390 135.2200 221.7360 220.1400 220.9380
  515.400 420.0000 1092.0000 1260.0000 3.5900 1.4360 2.2700 9.3540 1.2970 5.8040 3.0600 -1.1030 -119.7220 133.5280 223.5230 221.2330 222.3780
  515.500 420.0000 1092.0000 1260.0000 3.5900 1.4360 2.2700 9.3540 1.2970 5.8040 3.0600 -1.1030 -119.7220 133.5280 223.5230 221.2330 222.3780
  515.600 410.0000 1100.0000 1264.0000 3.5650 1.4900 2.2890 9.3120 1.2900 5.9320 2.9800 -2.5650 -122.3750 132.6790 224.7070 220.7560 222.7310
  515.700 400.0000 1108.0000 1268.0000 3.5420 1.6010 2.3010 9.3450 1.2380 6.2100 2.8410 0.2000 -127.3620 131.1450 226.6420 221.6740 224.1580
  515.800 400.0000 1108.0000 1268.0000 3.5420 1.6010 2.3010 9.3450 1.2380 6.2100 2.8410 0.2000 -127.3620 131.1450 226.6420 221.6740 224.1580
  515.900 400.0000 1108.0000 1268.0000 3.4200 1.4090 2.2860 8.5650 1.2230 6.2380 2.7300 9.5600 -132.8940 132.1460 226.6810 220.3650 223.5230
  516.000 400.0000 1108.0000 1268.0000 3.4200 1.4090 2.2860 8.5650 1.2230 6.2380 2.7300 9.5600 -132.8940 132.1460 226.6810 220.3650 223.5230
  516.100 390.0000 1116.0000 1272.0000 3.3690 1.3260 2.2800 8.0960 1.1650 6.1850 2.6790 15.9930 -135.6870 132.1950 226.6770 220.3780 223.5280
  516.200 400.0000 1120.0000 1280.0000 3.2760 1.1510 2.2540 8.0510 1.2610 5.9750 2.5950 23.5650 -143.3770 134.7860 226.4460 220.4110 223.4280
  516.300 400.0000 1120.0000 1280.0000 3.2760 1.1510 2.2540 8.0510 1.2610 5.9750 2.5950 23.5650 -143.3770 134.7860 226.4460 220.4110 223.4280
  516.400 400.0000 1124.0000 1284.0000 3.1690 1.1530 2.2370 7.9850 1.2300 5.6670 2.5220 25.4940 -152.7300 138.1500 226.2240 220.2140 223.2190
  516.500 400.0000 1124.0000 1284.0000 3.1690 1.1530 2.2370 7.9850 1.2300 5.6670 2.5220 25.4940 -152.7300 138.1500 226.2240 220.2140 223.2190
  516.600 410.0000 1124.0000 1288.0000 3.0920 1.0560 2.2200 8.1410 1.2480 5.4820 2.4940 25.9770 -157.5100 139.7810 225.3590 220.3270 222.8430
  516.700 420.0000 1124.0000 1292.0000 2.9460 1.0010 2.1810 8.0450 1.2750 5.0750 2.4450 25.9770 -169.2560 143.8130 223.5360 220.3630 221.9500
  516.800 420.0000 1124.0000 1292.0000 2.9460 1.0010 2.1810 8.0450 1.2750 5.0750 2.4450 25.9770 -169.2560 143.8130 223.5360 220.3630 221.9500
  516.900 440.0000 1128.0000 1304.0000 2.8520 1.0770 2.1530 8.0560 1.2970 4.6080 2.4540 24.5640 -177.0080 146.8050 224.3480 220.1060 222.2270
  517.000 440.0000 1128.0000 1304.0000 2.8520 1.0770 2.1530 8.0560 1.2970 4.6080 2.4540 24.5640 -177.0080 146.8050 224.3480 220.1060 222.2270
  517.100 450.0000 1124.0000 1304.0000 2.8180 1.0840 2.1560 8.0080 1.2670 4.4080 2.4910 23.8830 -177.5680 145.9960 224.3650 221.1320 222.7480
  517.200 430.0000 1124.0000 1296.0000 2.8420 1.0940 2.1420 8.0530 1.2420 4.1310 2.5820 21.4310 -175.9960 145.4790 224.4870 220.5330 222.5100
