~Version information
  VERS.                           2.00 : CWLS log ASCII Standard -Version 2.00
  WRAP.                             NO : One line per depth step
~Well information
#MNEM.UNIT              Data Type        Information
#----------------------------------------------------------------------
  STRT.M                         4.000 : 
  STOP.M                       853.000 : 
  STEP.M                         0.100 : 
  NULL.                     -9999.0000 : 
  COMP.    "KARATUBE INT. OIL COMPANY" : Company Name
  WELL.                            307 : Well Name
  FLD .                       KARATUBE : Field Name
  CTRY.                     KAZAKHSTAN : Country
  SRVC.         JSC"KAZPROMGEOPHYSICA" : Service company
  DATE.                      24.04.04. : Log date
~Curve information
#MNEM.UNIT                               Curve Description
#----------------------------------------------------------------------
  DEPT.M                               : Depth Curve
  DTP .US/M                            : Interval travel time (P-wave)
  TT1 .US                              : Travel time 1
  TT2 .                                : Travel time 2
  LL3 .OHMM                            : Appar.resist.laterolog,3 electrodes
  MLL .OHMM                            : Microlaterolog sonde
  RHOB.G/C3                            : Bulk density by gamma-gamma log
  GR  .UR/H                            : Gamma-ray log
  NGLD.UE                              : Neutron-gamma log/device DRST-90
  GZ3 .OHMM                            : App.resistivity by lateral A2.0M0.5N
  GZ3B.OHMM                            : App.resistivity by lateral N0.5Œ2.0€
  SP  .MV                              : Spontaneous potential
  CILR.MMHO                            : Conduct. by sonde 7I1.6,react.signal
  CILA.MMHO                            : Conduct. by sonde 7I1.6,active signal
  C1  .MM                              : Diameter from profile 1
  C2  .MM                              : Diameter from profile 2
  CALI.MM                              : Caliper
~Parameter information
#MNEM.UNIT              Value            Description
#----------------------------------------------------------------------
#----------------------------------------------------------------------
  BS  .MM                        215.9 : Bit Size
  DFD .G/C3                       1.15 : Drilling Fluid Density
  TDD .M                         847.0 : Total Depth Driller
~Ascii Log Data
# ...
  175.200 520.0000 1236.0000 1444.0000 14.2040 2.1200 2.0450 7.7990 1.1700 8.5840 9.8410 5.3770 -36.5250 87.5300 223.0010 219.1520 221.0770
  175.300 490.0000 1240.0000 1436.0000 14.6620 2.1920 2.0510 7.9290 1.1950 8.5080 9.8120 4.9710 -36.4060 87.5640 223.2840 219.5930 221.4380
  175.400 510.0000 1232.0000 1436.0000 14.7230 2.0490 2.0600 8.0380 1.1660 8.4340 9.7970 4.7710 -36.6480 88.1550 223.2840 218.9410 221.1120
  175.500 520.0000 1232.0000 1440.0000 14.4540 1.9720 2.0530 7.9050 1.1390 8.4280 9.7910 4.0340 -37.0850 88.2230 223.3200 219.5100 221.4150
  175.600 520.0000 1236.0000 1444.0000 14.1120 1.9690 2.0370 8.1390 1.1030 8.4410 9.7620 3.2080 -37.4190 87.6250 223.4100 220.2660 221.8380
  175.700 520.0000 1232.0000 1440.0000 13.7630 2.0460 2.0280 8.2640 1.1350 8.4760 9.7190 2.0080 -37.3720 88.2020 223.5080 220.2100 221.8590
  175.800 500.0000 1240.0000 1440.0000 13.5110 1.8400 2.0250 8.2480 1.1330 8.4890 9.6810 0.9900 -37.6450 88.3260 223.5400 220.1680 221.8540
  175.900 490.0000 1240.0000 1436.0000 13.1040 2.0250 2.0360 7.9730 1.1480 8.4900 9.6500 0.2220 -37.4860 88.4790 223.2080 220.1690 221.6890
  176.000 490.0000 1240.0000 1436.0000 12.9030 2.0530 2.0560 8.0360 1.1840 8.4730 9.6100 -0.6990 -37.2430 87.5990 222.8410 220.0690 221.4550
  176.100 500.0000 1224.0000 1424.0000 12.8820 2.1230 2.0720 7.8570 1.1870 8.4610 9.5480 -1.4600 -37.9710 87.0690 223.4710 219.9640 221.7170
  176.200 490.0000 1224.0000 1420.0000 12.8850 2.1980 2.0700 7.9850 1.1840 8.4280 9.4780 -2.1600 -38.2070 87.2110 225.3220 218.4410 221.8820
  176.300 480.0000 1236.0000 1428.0000 12.8200 2.1200 2.0770 8.0020 1.1950 8.4030 9.4230 -2.6020 -38.4930 88.7630 227.5110 217.4270 222.4690
  176.400 490.0000 1236.0000 1432.0000 12.6970 2.0040 2.0870 8.2300 1.1870 8.4080 9.3300 -3.1440 -39.9690 89.9810 226.9610 217.5010 222.2310
  176.500 490.0000 1240.0000 1436.0000 12.5890 1.9430 2.1090 8.1420 1.2030 8.3910 9.2380 -3.4270 -39.8210 89.2150 228.1150 218.7400 223.4280
  176.600 490.0000 1248.0000 1444.0000 12.4220 2.3330 2.1120 8.0180 1.1800 8.4070 9.1290 -3.2490 -39.0130 89.6690 228.3300 218.6900 223.5100
  176.700 490.0000 1248.0000 1444.0000 12.1390 2.1360 2.1140 8.2450 1.1750 8.4440 9.0320 -2.5640 -39.9940 91.7420 228.3450 218.3310 223.3380
  176.800 480.0000 1256.0000 1448.0000 11.9560 2.0730 2.1320 8.1740 1.2000 8.5310 8.9570 -1.7330 -39.7750 92.7460 228.6520 218.3320 223.4920
  176.900 420.0000 1264.0000 1432.0000 11.8390 2.1020 2.1230 8.1370 1.2060 8.5670 8.8600 -1.4700 -40.4560 91.9850 228.6510 218.2430 223.4470
  177.000 480.0000 1268.0000 1460.0000 11.4180 2.2100 2.1060 8.1660 1.1910 8.6280 8.7520 -1.2420 -41.0700 92.2120 228.3510 218.0710 223.2110
  177.100 470.0000 1276.0000 1464.0000 10.9270 2.0790 2.0820 7.8230 1.1600 8.6860 8.6370 -0.8260 -42.5320 91.9430 228.0540 218.3160 223.1850
  177.200 460.0000 1280.0000 1464.0000 10.8770 2.1540 2.1060 8.0660 1.1480 8.7550 8.5260 -0.0380 -43.9650 92.3540 228.5890 217.8920 223.2400
  177.300 460.0000 1284.0000 1468.0000 10.7700 2.1460 2.1130 7.9700 1.1230 8.8090 8.4060 0.6100 -43.0790 93.1560 228.3160 219.6600 223.9880
  177.400 470.0000 1288.0000 1476.0000 10.5270 2.2210 2.1210 7.8850 1.0860 8.8430 8.2600 0.9670 -44.4420 95.4910 228.7540 219.0050 223.8800
  177.500 470.0000 1292.0000 1480.0000 10.2800 2.2720 2.1150 7.9520 1.0920 8.8350 8.1400 1.1310 -45.0240 95.7590 230.0160 221.5730 225.7940
  177.600 480.0000 1296.0000 1488.0000 10.0920 2.3010 2.1080 8.1020 1.0680 8.8750 8.0480 1.3550 -45.2710 95.7060 230.0640 227.1600 228.6120
  177.700 500.0000 1296.0000 1496.0000 9.9490 2.2750 2.0990 8.1540 1.0520 8.9080 8.0030 1.5580 -45.8120 96.5200 229.4600 224.1720 226.8160
  177.800 500.0000 1300.0000 1500.0000 9.8420 2.2620 2.0850 8.1660 1.0930 8.9410 7.9240 1.9680 -47.7370 97.7000 229.4470 221.1560 225.3010
  177.900 510.0000 1304.0000 1508.0000 9.6270 2.2480 2.0680 7.9550 1.0890 9.0100 7.8760 1.6220 -48.6100 98.0720 229.7640 221.2810 225.5220
  178.000 510.0000 1308.0000 1512.0000 9.4800 2.2610 2.0510 8.0480 1.1430 9.0880 7.8520 1.2990 -48.9630 97.3140 229.0320 221.3640 225.1980
  178.100 510.0000 1308.0000 1512.0000 9.3860 2.2420 2.0390 8.3640 1.1610 9.1770 7.8210 1.1350 -49.4610 97.8400 227.7530 221.3950 224.5740
  178.200 510.0000 1308.0000 1512.0000 9.2900 2.1640 2.0560 8.7410 1.1410 9.2210 7.7800 1.8220 -49.2930 99.7340 227.3320 219.5910 223.4620
  178.300 500.0000 1312.0000 1512.0000 9.1410 2.3920 2.0410 8.8210 1.0840 9.2200 7.7360 2.6410 -49.5840 100.5540 229.5300 221.5690 225.5490
  178.400 510.0000 1312.0000 1516.0000 9.0300 2.4230 2.0380 8.9430 1.0790 9.2670 7.7140 2.7710 -50.2970 101.7860 230.0070 223.4240 226.7160
  178.500 530.0000 1312.0000 1524.0000 8.9540 2.3480 2.0490 8.9970 1.0790 9.2750 7.6700 2.6100 -52.4350 101.6960 229.9560 222.5410 226.2480
  178.600 530.0000 1312.0000 1524.0000 8.8250 2.1680 2.0490 8.9750 1.0830 9.2540 7.6320 2.1990 -53.1460 102.6060 229.5430 224.6310 227.0870
  178.700 530.0000 1312.0000 1524.0000 8.7080 2.0800 2.0330 9.0560 1.0730 9.2560 7.6230 2.2110 -52.6770 105.7540 229.7260 223.9300 226.8280
  178.800 540.0000 1312.0000 1528.0000 8.6220 2.0970 2.0150 8.8680 1.0540 9.2560 7.6170 2.1420 -53.0920 106.9580 228.7520 222.6890 225.7200
  178.900 550.0000 1312.0000 1532.0000 8.5720 2.1050 2.0040 8.7720 1.0950 9.2640 7.6240 2.2260 -53.6500 107.0320 226.8550 222.1200 224.4880
  179.000 550.0000 1312.0000 1532.0000 8.3790 2.0580 2.0060 8.6240 1.1020 9.2640 7.6200 2.5880 -53.8920 106.4080 226.1730 221.7580 223.9650
  179.100 550.0000 1312.0000 1532.0000 8.3730 2.1840 2.0010 8.6980 1.0950 9.2580 7.6330 3.3600 -54.7480 107.7010 226.2550 222.2220 224.2380
  179.200 540.0000 1316.0000 1532.0000 8.3230 1.8770 2.0200 8.9310 1.0790 9.1990 7.6670 4.2340 -54.8390 109.2050 226.5160 222.9300 224.7230
  179.300 550.0000 1316.0000 1536.0000 8.1880 1.8820 2.0280 8.9040 1.0760 9.1550 7.7200 5.2970 -55.1630 110.7920 227.5520 221.8460 224.6990
  179.400 550.0000 1316.0000 1536.0000 8.0520 1.9950 2.0160 9.0140 1.0570 9.1070 7.7530 6.7080 -55.5110 110.9090 228.1180 220.5120 224.3150
  179.500 550.0000 1316.0000 1536.0000 7.9890 2.0350 2.0240 8.8510 1.0910 8.9980 7.7840 7.6880 -55.6980 111.0970 227.0390 220.4410 223.7400
  179.600 550.0000 1316.0000 1536.0000 8.0000 2.0170 2.0180 8.8290 1.0800 8.8910 7.7910 8.5790 -56.8180 109.9200 227.9280 221.7880 224.8580
  179.700 550.0000 1316.0000 1536.0000 8.0320 2.1780 2.0200 9.0590 1.1050 8.7950 7.7730 8.9190 -56.7950 109.5550 225.2550 223.2510 224.2530
  179.800 560.0000 1316.0000 1540.0000 8.0280 1.9390 2.0380 9.2050 1.0800 8.6180 7.7480 9.6820 -57.3040 109.4490 224.6820 222.4890 223.5860
  179.900 550.0000 1316.0000 1536.0000 8.0110 1.9950 2.0330 9.2900 1.0640 8.4920 7.7400 10.4860 -58.0810 109.0630 227.4120 222.8970 225.1550
  180.000 560.0000 1316.0000 1540.0000 7.9890 1.9210 2.0190 9.1890 1.0460 8.3990 7.7400 11.4450 -57.0270 109.8910 229.0790 222.4650 225.7720
  180.100 560.0000 1316.0000 1540.0000 7.9120 1.8280 2.0300 9.1740 1.0730 8.3130 7.7610 12.1320 -56.9520 111.8690 228.9770 221.5100 225.2430
  180.200 560.0000 1316.0000 1540.0000 7.8630 1.8700 2.0260 9.3060 1.0690 8.2550 7.7880 12.1960 -57.4110 111.1820 230.2080 221.6570 225.9330
  180.300 550.0000 1304.0000 1524.0000 7.8110 1.9490 2.0440 9.1390 1.0560 8.1830 7.8110 11.9400 -57.4870 110.1600 231.0180 222.1530 226.5850
  180.400 540.0000 1304.0000 1520.0000 7.7140 2.0230 2.0490 9.2010 1.0380 8.0750 7.8070 11.6220 -57.6880 109.3560 230.3810 222.6850 226.5330
  180.500 520.0000 1308.0000 1516.0000 7.7750 2.0180 2.0600 9.0110 1.0750 7.9500 7.7820 11.3600 -57.9510 110.0590 231.4890 224.1600 227.8240
  180.600 530.0000 1308.0000 1520.0000 7.8720 2.0030 2.0400 8.9940 1.0540 7.8440 7.7480 10.6330 -58.6470 111.1080 231.6880 223.8930 227.7910
  180.700 560.0000 1308.0000 1532.0000 7.8320 2.0830 2.0370 8.8980 1.0490 7.7350 7.6940 9.5290 -58.6780 110.7760 231.6590 224.0590 227.8590
  180.800 560.0000 1308.0000 1532.0000 7.7980 2.1260 2.0340 8.8190 1.0520 7.6360 7.6580 8.0090 -58.8110 110.8490 230.3240 224.7320 227.5280
  180.900 550.0000 1308.0000 1528.0000 7.8430 2.1110 2.0250 8.8580 1.0440 7.5510 7.6300 6.4850 -59.6020 111.0740 229.1880 223.4830 226.3350
