~Version information
  VERS.                           2.00 : CWLS log ASCII Standard -Version 2.00
  WRAP.                             NO : One line per depth step
~Well information
#MNEM.UNIT              Data Type        Information
#----------------------------------------------------------------------
  STRT.M                         4.000 : 
  STOP.M                       853.000 : 
  STEP.M                         0.100 : 
  NULL.                     -9999.0000 : 
  COMP.    "KARATUBE INT. OIL COMPANY" : Company Name
  WELL.                            307 : Well Name
  FLD .                       KARATUBE : Field Name
  CTRY.                     KAZAKHSTAN : Country
  SRVC.         JSC"KAZPROMGEOPHYSICA" : Service company
  DATE.                      24.04.04. : Log date
~Curve information
#MNEM.UNIT                               Curve Description
#----------------------------------------------------------------------
  DEPT.M                               : Depth Curve
  DTP .US/M                            : Interval travel time (P-wave)
  TT1 .US                              : Travel time 1
  TT2 .                                : Travel time 2
  LL3 .OHMM                            : Appar.resist.laterolog,3 electrodes
  MLL .OHMM                            : Microlaterolog sonde
  RHOB.G/C3                            : Bulk density by gamma-gamma log
  GR  .UR/H                            : Gamma-ray log
  NGLD.UE                              : Neutron-gamma log/device DRST-90
  GZ3 .OHMM                            : App.resistivity by lateral A2.0M0.5N
  GZ3B.OHMM                            : App.resistivity by lateral N0.5Œ2.0€
  SP  .MV                              : Spontaneous potential
  CILR.MMHO                            : Conduct. by sonde 7I1.6,react.signal
  CILA.MMHO                            : Conduct. by sonde 7I1.6,active signal
  C1  .MM                              : Diameter from profile 1
  C2  .MM                              : Diameter from profile 2
  CALI.MM                              : Caliper
~Parameter information
#MNEM.UNIT              Value            Description
#----------------------------------------------------------------------
#----------------------------------------------------------------------
  BS  .MM                        215.9 : Bit Size
  DFD .G/C3                       1.15 : Drilling Fluid Density
  TDD .M                         847.0 : Total Depth Driller
~Ascii Log Data
# ...
  226.600 560.0000 1220.0000 1444.0000 20.4170 1.7000 1.9520 8.6860 1.1250 5.6620 23.7040 1.0490 -28.0290 91.4600 220.8660 251.4550 236.1600
  226.700 550.0000 1224.0000 1444.0000 22.8240 1.6370 1.9370 8.4190 1.1540 5.6930 25.7390 0.6520 -25.7550 78.6570 221.5190 254.2250 237.8720
  226.800 510.0000 1224.0000 1428.0000 25.4510 1.9370 1.9060 8.2900 1.1540 5.7180 27.5090 0.1700 -23.4940 66.8200 221.9620 256.2340 239.0980
  226.900 490.0000 1228.0000 1424.0000 28.9600 1.0990 1.8860 7.4440 1.2060 5.7230 28.8440 -0.1990 -15.0910 46.5320 227.8010 261.6900 244.7450
  227.000 510.0000 1224.0000 1428.0000 33.4730 0.9050 1.8500 6.6340 1.2630 5.6130 29.2310 -0.2710 -8.1230 23.5320 245.1390 273.8320 259.4860
  227.100 520.0000 1216.0000 1424.0000 45.9200 0.8490 1.8030 5.9890 1.3080 5.4390 28.8570 -0.3150 -7.2780 17.8440 261.4360 292.3690 276.9020
  227.200 510.0000 1216.0000 1420.0000 82.3380 0.7790 1.7560 5.3180 1.3540 5.3280 27.9560 -0.6070 -10.6260 19.2740 254.8830 313.3940 284.1390
  227.300 500.0000 1220.0000 1420.0000 149.8300 1.2670 1.7500 5.0630 1.3750 5.3820 26.8800 -1.0170 -13.1180 19.0140 257.2490 329.8520 293.5510
  227.400 500.0000 1220.0000 1420.0000 215.2780 2.7820 1.8370 5.2530 1.4270 5.6080 26.1570 -1.5320 -14.6900 21.3690 248.4600 308.1690 278.3140
  227.500 480.0000 1224.0000 1416.0000 229.2980 4.9470 1.9420 5.5160 1.3850 6.0660 25.9390 -1.8130 -14.8850 21.6320 232.9650 276.3300 254.6480
  227.600 460.0000 1232.0000 1416.0000 189.8450 7.9050 2.0090 5.5920 1.3430 6.5450 25.9740 -2.0950 -13.4030 23.1470 226.8000 263.1660 244.9830
  227.700 480.0000 1224.0000 1416.0000 152.2300 7.4690 2.0570 5.7860 1.3400 7.1170 25.7400 -1.9420 -15.3670 24.2350 232.5450 264.2570 248.4010
  227.800 500.0000 1216.0000 1416.0000 131.5830 4.1730 2.0670 5.8620 1.3430 7.5420 25.1440 -1.6200 -14.3330 26.9270 232.2690 266.4700 249.3700
  227.900 490.0000 1220.0000 1416.0000 115.3450 1.5400 2.0600 5.7120 1.3690 7.7350 23.7620 -0.8250 -17.8020 26.9890 230.1580 268.7110 249.4350
  228.000 490.0000 1224.0000 1420.0000 93.0890 1.8410 2.0500 5.7720 1.3950 7.8230 21.8670 -0.2020 -14.5100 26.4690 239.2740 274.0660 256.6700
  228.100 500.0000 1224.0000 1424.0000 79.7260 9.5030 2.0480 5.6730 1.3540 8.0170 20.4480 0.3260 -15.5600 25.3200 254.8880 288.2820 271.5850
  228.200 490.0000 1224.0000 1420.0000 78.8500 10.1400 2.0380 5.3180 1.4100 8.2520 18.8490 0.6540 -17.3850 24.2660 229.6360 269.4000 249.5180
  228.300 560.0000 1200.0000 1424.0000 72.7780 2.5890 2.0760 5.0770 1.4540 8.3790 17.0200 0.7530 -17.7390 23.4810 241.2330 258.7670 250.0000
  228.400 480.0000 1208.0000 1400.0000 61.1360 2.3320 2.1190 4.9570 1.4200 8.5930 15.4960 0.7630 -14.7920 29.4670 270.8630 267.7840 269.3230
  228.500 450.0000 1216.0000 1396.0000 52.6500 3.7020 2.1020 4.8340 1.3890 8.7840 14.0730 0.7160 -21.6710 36.0840 282.2600 275.6780 278.9690
  228.600 460.0000 1216.0000 1400.0000 46.7090 4.6690 2.0610 4.7040 1.4020 9.1190 12.4370 0.9440 -22.3220 42.5870 276.2070 280.8920 278.5500
  228.700 500.0000 1228.0000 1428.0000 38.0010 4.8110 2.0560 5.0530 1.4320 9.4170 11.1590 1.8500 -21.5980 46.4640 272.4720 287.2120 279.8420
  228.800 470.0000 1232.0000 1420.0000 30.6830 4.2500 2.0350 5.2040 1.3740 9.9550 10.1540 2.8530 -22.3840 49.2910 281.2230 283.9540 282.5880
  228.900 480.0000 1232.0000 1424.0000 23.8780 3.2660 2.0200 5.0250 1.3560 10.5990 9.1880 3.4900 -25.4000 51.1450 271.7920 277.7630 274.7780
  229.000 450.0000 1240.0000 1420.0000 17.8610 2.7830 2.0220 5.2310 1.3130 11.2000 8.4610 3.3190 -25.4860 52.1190 295.0260 287.7630 291.3950
  229.100 450.0000 1240.0000 1420.0000 14.3520 2.6800 2.0120 5.3420 1.3840 11.7050 7.7990 2.6940 -25.5050 57.1270 303.8230 295.5300 299.6760
  229.200 460.0000 1236.0000 1420.0000 11.9730 2.6520 2.0010 4.8970 1.3420 12.9990 7.3330 2.0830 -26.3420 62.9500 292.8470 290.3270 291.5870
  229.300 500.0000 1224.0000 1424.0000 10.6950 2.5550 2.0220 5.0950 1.3160 14.4950 6.9830 1.6130 -29.1700 61.2100 280.2080 276.3150 278.2610
  229.400 510.0000 1224.0000 1428.0000 10.5340 2.3810 2.0210 4.9770 1.3390 16.1500 6.6940 1.3410 -32.2620 56.3640 271.0080 264.2360 267.6220
  229.500 530.0000 1220.0000 1432.0000 9.7990 1.7940 2.0370 5.2190 1.3020 17.4510 6.3090 1.2210 -37.1990 61.3090 263.1450 264.9040 264.0240
  229.600 550.0000 1212.0000 1432.0000 7.8310 1.4180 2.0350 5.4530 1.3070 18.4170 5.8700 0.8130 -44.1890 75.4490 269.2700 289.4170 279.3440
  229.700 490.0000 1232.0000 1428.0000 6.7020 1.6010 2.0390 5.6880 1.3320 19.0010 5.6040 0.2230 -44.1120 82.5300 280.0710 300.8490 290.4600
  229.800 430.0000 1248.0000 1420.0000 6.5370 1.9040 2.0340 6.0140 1.3400 19.7670 5.2720 -0.0030 -43.2850 90.7590 287.9400 277.8720 282.9060
  229.900 430.0000 1240.0000 1412.0000 6.9490 4.5090 2.0660 6.3060 1.3420 20.7700 5.2140 0.5310 -45.6060 93.9530 286.5570 267.8590 277.2080
  230.000 480.0000 1212.0000 1404.0000 7.6420 2.3950 2.0920 6.8790 1.2910 23.4490 5.2930 1.0010 -47.0010 92.6360 254.3090 250.3830 252.3460
  230.100 460.0000 1228.0000 1412.0000 8.1340 1.7900 2.1390 7.6150 1.2860 26.1490 5.4060 0.7870 -49.3710 93.4150 223.4960 232.3650 227.9310
  230.200 400.0000 1228.0000 1388.0000 7.5200 1.7170 2.1810 7.8130 1.2510 28.3170 5.5020 -0.1110 -53.1380 100.9880 221.7960 230.5870 226.1910
  230.300 390.0000 1236.0000 1392.0000 6.4710 1.6890 2.2010 8.0740 1.2250 29.5540 5.5640 -0.9880 -57.5770 109.6730 219.3590 230.2240 224.7910
  230.400 420.0000 1224.0000 1392.0000 5.9870 1.7220 2.1790 8.4530 1.2190 29.4040 5.5130 -2.0700 -60.2260 115.6410 219.0420 230.1020 224.5720
  230.500 490.0000 1224.0000 1420.0000 5.8420 1.6160 2.1810 8.4700 1.1740 27.4550 5.3050 -3.3370 -63.0460 122.2770 219.5600 230.6320 225.0960
  230.600 510.0000 1224.0000 1428.0000 5.7980 1.4060 2.1630 8.9910 1.1630 25.5380 5.1650 -4.8510 -65.0760 125.4090 217.8370 231.9530 224.8950
  230.700 490.0000 1224.0000 1420.0000 5.8470 1.4190 2.1560 9.0500 1.1510 23.5630 5.0820 -6.3490 -66.6370 125.7790 215.8980 231.9550 223.9260
  230.800 520.0000 1216.0000 1424.0000 5.8630 1.6450 2.1290 9.4350 1.1460 21.5130 5.0760 -7.6430 -67.7060 125.0030 215.4690 231.3020 223.3860
  230.900 530.0000 1208.0000 1420.0000 5.8490 1.4950 2.1430 9.6150 1.1750 19.7620 5.0920 -9.1690 -68.1190 122.8290 217.4010 231.2950 224.3480
  231.000 530.0000 1208.0000 1420.0000 5.9520 1.4560 2.1550 9.5790 1.2160 18.4730 5.0800 -10.9800 -69.0740 121.1210 220.5320 232.7360 226.6340
  231.100 520.0000 1208.0000 1416.0000 6.0620 1.5830 2.1760 9.7590 1.2030 16.7170 5.0750 -13.2100 -69.2430 121.0330 218.9390 233.7380 226.3390
  231.200 490.0000 1228.0000 1424.0000 6.0600 1.8150 2.2040 9.8840 1.1610 15.4190 5.0750 -15.2100 -68.3570 121.1400 219.0440 232.9610 226.0030
  231.300 470.0000 1232.0000 1420.0000 6.1390 2.8920 2.2320 9.3850 1.1990 14.3730 5.0230 -16.5020 -68.1680 120.6530 217.6160 235.0620 226.3390
  231.400 450.0000 1236.0000 1416.0000 6.4140 2.7460 2.2590 8.8660 1.2090 13.5000 5.0860 -16.9000 -68.6760 119.1550 221.4240 239.1860 230.3050
  231.500 450.0000 1244.0000 1424.0000 6.7340 1.5480 2.2610 8.7740 1.2090 12.7720 5.0870 -16.8350 -69.6920 117.2810 223.8800 239.7480 231.8140
  231.600 450.0000 1244.0000 1424.0000 6.8600 1.4390 2.2170 8.8730 1.1950 12.1660 5.0570 -16.6370 -70.5930 118.1440 222.0880 238.4010 230.2450
  231.700 450.0000 1248.0000 1428.0000 6.7050 1.3720 2.1890 8.9290 1.1880 11.4810 5.0030 -16.3590 -71.5190 119.6500 218.7950 240.6720 229.7330
  231.800 460.0000 1252.0000 1436.0000 6.4270 1.4170 2.1780 9.1720 1.1960 10.8090 4.9320 -15.3680 -72.2390 121.3040 217.3370 243.8490 230.5930
  231.900 460.0000 1252.0000 1436.0000 6.3710 1.4340 2.1650 9.3530 1.1690 10.1420 4.8400 -13.8440 -72.5500 121.8700 215.2610 244.6760 229.9690
  232.000 470.0000 1256.0000 1444.0000 6.4210 1.5220 2.1580 9.7930 1.1150 9.3520 4.7590 -12.2830 -73.3400 123.0990 216.0080 243.8550 229.9320
  232.100 490.0000 1248.0000 1444.0000 6.4680 1.4680 2.1350 9.6380 1.1420 8.7450 4.7840 -10.9660 -73.6520 124.2850 216.2410 243.7540 229.9980
  232.200 490.0000 1248.0000 1444.0000 6.4610 1.4760 2.1240 9.6890 1.2030 8.2230 4.7650 -9.7960 -73.9500 124.1670 216.3020 241.9520 229.1270
