~VERSION INFORMATION
 VERS.                  2.0:   CWLS Log Ascii Standard
 WRAP.                   NO:   One line per depth step
~WELL INFORMATION
#MNEM.UNIT        DATA TYPE:   INFORMATION
#---------    -------------   --------------------------
 STRT.M                0.00:   Top Depth
 STOP.M              805.20:   Bottom Depth
 STEP.M                0.10:   Increment
 NULL.              -999.25:   Null Value
 SRVC.                  KPG:   Service Company/Logging company
 DATE.           26.07.2024:   LAS file Creation Date
 WELL.                  356:   Well Name
 COMP.                KMG-B:   Company
 FLD .             Karatube:   Field
 STATE.                    :   State
 COUNT.          Kazakhstan:   Country
 LATI.                     :   Latitude/Northing
 LONG.                     :   Longitude/Easting
 DF  .                     :   DF Elevation
 GL  .                     :   GL Elevation
~PARAMETER INFORMATION
#MNEM  .UNIT          Value:   Description
#---------    -------------   --------------------------
~CURVE INFORMATION
#MNEM  .UNIT           API Code:   Curve Description
#---------       -------------- -------------------------- 
 DEPTH .M                      :   1 Measured depth
 AMF   .OHMM                   :   2 Array Induction Mud Resistivity Fully Calibrated (F13
 AT10  .ohm.m                  :   3 " Array Induction, two foot resolution
 AT20  .ohm.m                  :   4 " Array Induction, two foot resolution
 AT30  .ohm.m                  :   5 " Array Induction, two foot resolution
 AT60  .ohm.m                  :   6 " Array Induction, two foot resolution
 AT90  .ohm.m                  :   7 " Array Induction, two foot resolution
 BSC   .mm                     :   8 Nominal Caliper
 C1    .mm                     :   9 CALIPER DIAMETER 1
 C2    .mm                     :   10 CALIPER DIAMETER 2
 CALI  .mm                     :   11 Caliper
 CFTC  .dec                    :   12 Neutron far
 CNTC  .dec                    :   13 Neutron near
 GR    .uR/h                   :   14 GammaRay  
 HMIN  .Ohmm                   :   15 HIP Micro Inverse Resistivity
 HMNO  .Ohmm                   :   16 HIP Micro Normal Resistivity
 HSGR  .GAPI                   :   17 HNGS Standard Gamma-Ray
 HTNP  .m3/m3                  :   18 High Resolution Thermal Neutron Porosity (Ratio Method) in Selected Lithology
 HTPR  .                       :   19 HNGS Formation Thorium Potassium Concentration
 HTUR  .                       :   20 HNGS Formation Thorium Uranium Concentration
 HUPR  .                       :   21 HNGS Formation Uranium Potassium Concentration
 MTEM  .‘                      :   22 Mud Temperature
 PEFZ  .B/E                    :   23 Formation Photoelectric Factor 
 Perm  .md                     :   24 Permeability
 PHIE  .Dec                    :   25 Effective porosity 
 PHIT  .Dec                    :   26 Total porosity
 POTA  .                       :   27 
 PURA  .PPM                    :   28 Upper Limit of Formation Uranium Concentration (F13
 RB    .OHMM                   :   29 Mud Resistivity
 RHOZ  .g/cm3                  :   30 Bulk Density 
 RLA1  .ohm.m                  :   31 ShalRes HRLT Borehole Corrected Resistivity 1
 RLA2  .ohm.m                  :   32 MedRes  HRLT Borehole Corrected Resistivity 2
 RLA3  .ohm.m                  :   33 DeepRes HRLT Borehole Corrected Resistivity 3
 RLA4  .ohm.m                  :   34 XDeepRes HRLT Borehole Corrected Resisitivity 4
 RLA5  .ohm.m                  :   35 UltraDeepR HRLT Borehole Corrected Resistivity 5
 RT    .ohm.m                  :   36 
 RXO   .ohm.m                  :   37 HRLT Invaded Zone Resistivity
 RXOZ  .ohm.m                  :   38 MicroRes Invaded Formation Resistivity
 SDEVM .deg                    :   39 Sonde Deviation
 SP    .mV                     :   40 Spontaneous Potential
 SW    .Dec                    :   41 Water saturation
 THOR  .                       :   42 
 TNPH  .V/V                    :   43 Neutron porosity
 VCLAV .Dec                    :   44 Clay volume
 HAZIM .deg                    :   45 Hole Azimuth
 DT    .uSec/m                 :   46 Sonic travel time
~A Log Data Section - Number of Curves = 46
# ...
450.30  0.1358    1.7613    1.9713    2.0367    2.1614    2.1985 215.9000 216.8121 214.4256 215.6162   396.1237 1409.7804  69.5069   0.6632  0.6875  91.8103  0.4679  3.7472  4.3462  0.8666 32.2268  1.8708   141.2128  0.2967  0.3454  2.5336  2.6284 332.4447  2.0048      2.0119      2.0714      2.1297      2.1493      2.2013      2.2785      1.4762    1.2833  0.4385 -197.0827  0.5381  9.5018  0.4631  0.3247 279.4978 423.6943
450.40  0.1358    1.7576    1.9129    1.9691    2.0827    2.0894 215.9000 215.6911 214.2928 214.9908   425.7111 1478.2281  76.6062   0.7859  0.7924  96.5326  0.4616  3.8685  4.6649  0.8295 32.2055  2.0420    12.2934  0.2015  0.2693  2.6505  2.6555 332.2384  2.0616      1.9908      2.0650      2.1225      2.1404      2.1869      2.2796      1.4386    1.3369  0.4388 -198.5464  0.7786 10.2561  0.4418  0.4519 279.3777 411.1621
450.50  0.1359    1.7571    1.8787    1.9444    2.0704    2.0907 215.9000 214.7198 214.4396 214.5796   443.7225 1527.5111  83.3491   0.9250  0.9006  98.9853  0.4387  3.9991  4.8694  0.8213 32.1938  2.1848     0.0024  0.0323  0.1220  2.6891  2.6670 332.0170  2.0813      1.9429      2.0211      2.0798      2.0977      2.1420      2.2420      1.3910    1.4156  0.4390 -199.9824  1.0000 10.7548  0.4345  0.5978 279.2697 398.8430
450.60  0.1357    1.7328    1.8929    1.9570    2.0845    2.0956 215.9000 214.7996 215.0582 214.9289   439.1823 1523.5555  88.6163   0.8816  0.8875 101.6420  0.4353  4.0602  4.9642  0.8179 32.2058  2.2777     0.0000  0.0037  0.1104  2.7466  2.7057 331.7744  2.0749      1.9441      2.0490      2.1114      2.1348      2.1764      2.3156      1.3534    1.4818  0.4390 -200.9468  1.0000 11.1531  0.4400  0.7118 279.2590 390.2414
450.70  0.1356    1.6950    1.9100    1.9658    2.0976    2.1072 215.9000 215.3536 216.7225 216.0367   415.4450 1488.2205  90.2924   0.8241  0.8495 100.8078  0.4773  4.1575  5.0717  0.8197 32.2180  2.3498     0.0000  0.0020  0.1127  2.7033  2.6614 331.5210  2.0463      1.9471      2.0791      2.1503      2.1772      2.2175      2.4041      1.3383    1.4948  0.4397 -201.5987  1.0000 11.2319  0.4661  0.7377 279.2075 389.5465
450.80  0.1355    1.6886    1.8829    1.9631    2.0758    2.1006 215.9000 215.9458 219.7242 217.8263   380.9782 1434.8510  89.5967   0.6270  0.7064  98.0670  0.5032  4.2739  5.2562  0.8149 32.2274  2.4096     0.0000  0.0024  0.1120  2.6087  2.5516 331.2505  1.9895      1.9608      2.0838      2.1664      2.1977      2.2218      2.4091      1.3340    1.3722  0.4407 -201.9599  1.0000 11.1489  0.5055  0.7306 279.1124 395.7465
450.90  0.1353    1.7148    1.9310    2.0088    2.0986    2.1636 215.9000 216.0284 226.0887 220.9991   350.9212 1384.6770  86.7744   0.3570  0.4536  96.4880  0.5315  4.3728  6.0055  0.7329 32.2154  2.4342     0.0000  0.0084  0.1092  2.5787  2.3051 330.8932  1.9196      1.8913      2.0230      2.1335      2.1741      2.2041      2.4539      1.2945    1.3648  0.4404 -201.4537  1.0000 11.2745  0.5537  0.6719 278.9500 405.0193
451.00  0.1352    1.6840    1.8832    1.9547    2.0714    2.1049 215.9000 218.7544 223.7730 221.2473   325.6829 1333.8604  85.1839   0.3606  0.4579  94.4166  0.6202  4.4356  6.1540  0.7218 32.2314  2.3975     0.0000  0.0000  0.0000  2.5058  2.2082 330.7432  1.8517      1.6911      1.7805      1.8863      1.9206      1.9427      2.1295      1.1391    1.0987  0.4404 -201.5784  1.0000 11.1124  0.6000  0.6375 278.7889 413.7465
451.10  0.1351    1.6704    1.8311    1.9171    2.0697    2.1244 215.9000 222.5499 217.7125 220.1130   306.1296 1284.0905  84.8425   0.2904  0.3726  92.3030  0.6470  4.4752  5.8828  0.7607 32.2656  2.3490     0.0000  0.0000  0.0000  2.4104  2.2236 330.7140  1.8151      1.6683      1.7401      1.8449      1.8812      1.8966      2.0557      1.1219    1.0654  0.4406 -202.2255  1.0000 10.7875  0.6373  0.6301 278.6340 424.1823
451.20  0.1352    1.6502    1.8100    1.8863    2.0299    2.0556 215.9000 223.7966 219.2936 221.5333   320.9704 1258.0142  90.0991   0.2946  0.3688  95.1141  0.5520  4.5609  5.8508  0.7796 32.2656  2.3206     0.0000  0.0000  0.0000  2.4495  2.3055 330.2282  1.8358      1.8686      1.9467      2.0642      2.1172      2.1239      2.3079      1.2451    0.9393  0.4401 -203.9011  1.0000 11.1738  0.5537  0.7357 278.4664 434.0255
451.30  0.1352    1.6403    1.7813    1.8805    1.9889    2.0005 215.9000 233.0297 226.0749 229.5251   337.1837 1251.8206  94.3294   0.3068  0.3748  97.8581  0.5138  4.5082  5.4525  0.8325 32.2591  2.3197     0.0000  0.0000  0.0000  2.4993  2.4875 329.6796  1.8905      1.8773      1.9300      2.0348      2.0903      2.0891      2.2254      1.2651    0.8658  0.4400 -204.7373  1.0000 11.2621  0.4960  0.7789 278.3067 439.6625
451.40  0.1353    1.6097    1.7457    1.8298    1.9123    1.9150 215.9000 244.3365 234.1171 239.1717   354.5621 1262.9294  97.6642   0.2643  0.3355 100.5472  0.4578  4.3410  4.7503  0.9138 32.2472  2.3682     0.0000  0.0003  0.1222  2.5580  2.7529 329.0769  1.9501      1.7687      1.8124      1.8962      1.9532      1.9453      2.0501      1.2251    0.9606  0.4400 -204.8589  1.0000 11.1041  0.4607  0.8129 278.1552 437.2976
451.50  0.1353    1.6277    1.6888    1.7649    1.8674    1.8786 215.9000 227.4278 228.9234 228.1662   371.5492 1310.1815  98.8802   0.2970  0.3800 103.4905  0.4702  4.5137  4.8554  0.9294 32.2472  2.4589     0.0000  0.0002  0.1240  2.5948  2.8378 328.4127  2.0056      1.7359      1.7901      1.8685      1.9259      1.9260      2.0402      1.1920    0.9376  0.4385 -205.0351  1.0000 11.7153  0.4517  0.8253 277.9526 428.8109
451.60  0.1354    1.6479    1.6924    1.7571    1.8636    1.8368 215.9000 217.9070 228.2290 223.0046   384.0850 1350.5470 100.2046   0.3860  0.4638 104.7055  0.4527  4.7171  5.1083  0.9245 32.2413  2.5393     0.0000  0.0002  0.1260  2.5867  2.8210 327.7447  2.0330      1.7867      1.8691      1.9460      2.0055      2.0110      2.1585      1.2141    0.9357  0.4376 -205.1250  1.0000 12.1951  0.4486  0.8388 277.7546 415.6528
451.70  0.1354    1.6385    1.7277    1.8166    1.9561    1.9484 215.9000 216.9127 232.7062 224.6697   391.9879 1383.7451 101.6418   0.3157  0.3870 104.1218  0.4590  4.9524  5.5151  0.8981 32.2292  2.5797     0.0000  0.0001  0.1281  2.5319  2.6984 327.0727  2.0359      1.8128      1.8851      1.9621      2.0081      2.0179      2.1416      1.2579    0.9474  0.4374 -205.1250  1.0000 12.5381  0.4516  0.8535 277.5684 401.3965
451.80  0.1354    1.6182    1.7762    1.8892    2.0271    2.0658 215.9000 217.2658 243.1868 229.8565   396.8846 1400.4216 107.6191   0.2457  0.3157 104.3445  0.4664  4.9383  5.4123  0.9126 32.2404  2.5953     0.0000  0.0001  0.1373  2.5320  2.7374 326.2796  2.0422      1.7885      1.8588      1.9237      1.9590      1.9730      2.0813      1.2532    0.8647  0.4374 -205.1250  1.0000 12.5038  0.4502  0.9145 277.5432 391.6109
451.90  0.1354    1.6241    1.8202    1.9333    2.0520    2.0876 215.9000 221.2049 249.0993 234.7387   398.3203 1408.0116 112.3667   0.2319  0.3042 104.4233  0.4510  4.9595  5.2121  0.9535 32.2419  2.5980     0.0000  0.0001  0.1445  2.5118  2.8201 325.4908  2.0493      1.7635      1.8215      1.8969      1.9269      1.9486      2.0543      1.2254    0.8015  0.4369 -205.1250  1.0000 12.4555  0.4505  0.9629 277.4662 388.6975
452.00  0.1354    1.6375    1.7887    1.8720    1.9842    2.0021 215.9000 228.4906 249.5997 238.8092   395.5105 1404.9128 115.3084   0.2299  0.3012 104.2763  0.4459  5.0388  4.9152  1.0256 32.2297  2.5997     0.0000  0.0001  0.1490  2.4629  2.9497 324.7139  2.0515      1.7801      1.8461      1.9222      1.9462      1.9746      2.0866      1.2330    0.8911  0.4358 -205.1250  1.0000 12.4096  0.4530  0.9929 277.2844 391.9031
452.10  0.1353    1.6518    1.7677    1.8615    1.9629    1.9930 215.9000 233.5387 228.7547 231.0972   408.8913 1412.8109 112.4500   0.3168  0.3926 106.4075  0.4301  4.9830  4.8125  1.0355 32.2398  2.6154     0.0000  0.0001  0.1447  2.5241  3.0445 323.8909  2.0545      1.7789      1.8529      1.9159      1.9375      1.9664      2.0675      1.2628    0.8871  0.4339 -205.1250  1.0000 12.5750  0.4350  0.9638 277.0791 396.8645
