~VERSION INFORMATION
 VERS.                  2.0:   CWLS Log Ascii Standard
 WRAP.                   NO:   One line per depth step
~WELL INFORMATION
#MNEM.UNIT        DATA TYPE:   INFORMATION
#---------    -------------   --------------------------
 STRT.M                0.00:   Top Depth
 STOP.M              805.20:   Bottom Depth
 STEP.M                0.10:   Increment
 NULL.              -999.25:   Null Value
 SRVC.                  KPG:   Service Company/Logging company
 DATE.           26.07.2024:   LAS file Creation Date
 WELL.                  356:   Well Name
 COMP.                KMG-B:   Company
 FLD .             Karatube:   Field
 STATE.                    :   State
 COUNT.          Kazakhstan:   Country
 LATI.                     :   Latitude/Northing
 LONG.                     :   Longitude/Easting
 DF  .                     :   DF Elevation
 GL  .                     :   GL Elevation
~PARAMETER INFORMATION
#MNEM  .UNIT          Value:   Description
#---------    -------------   --------------------------
~CURVE INFORMATION
#MNEM  .UNIT           API Code:   Curve Description
#---------       -------------- -------------------------- 
 DEPTH .M                      :   1 Measured depth
 AMF   .OHMM                   :   2 Array Induction Mud Resistivity Fully Calibrated (F13
 AT10  .ohm.m                  :   3 " Array Induction, two foot resolution
 AT20  .ohm.m                  :   4 " Array Induction, two foot resolution
 AT30  .ohm.m                  :   5 " Array Induction, two foot resolution
 AT60  .ohm.m                  :   6 " Array Induction, two foot resolution
 AT90  .ohm.m                  :   7 " Array Induction, two foot resolution
 BSC   .mm                     :   8 Nominal Caliper
 C1    .mm                     :   9 CALIPER DIAMETER 1
 C2    .mm                     :   10 CALIPER DIAMETER 2
 CALI  .mm                     :   11 Caliper
 CFTC  .dec                    :   12 Neutron far
 CNTC  .dec                    :   13 Neutron near
 GR    .uR/h                   :   14 GammaRay  
 HMIN  .Ohmm                   :   15 HIP Micro Inverse Resistivity
 HMNO  .Ohmm                   :   16 HIP Micro Normal Resistivity
 HSGR  .GAPI                   :   17 HNGS Standard Gamma-Ray
 HTNP  .m3/m3                  :   18 High Resolution Thermal Neutron Porosity (Ratio Method) in Selected Lithology
 HTPR  .                       :   19 HNGS Formation Thorium Potassium Concentration
 HTUR  .                       :   20 HNGS Formation Thorium Uranium Concentration
 HUPR  .                       :   21 HNGS Formation Uranium Potassium Concentration
 MTEM  .‘                      :   22 Mud Temperature
 PEFZ  .B/E                    :   23 Formation Photoelectric Factor 
 Perm  .md                     :   24 Permeability
 PHIE  .Dec                    :   25 Effective porosity 
 PHIT  .Dec                    :   26 Total porosity
 POTA  .                       :   27 
 PURA  .PPM                    :   28 Upper Limit of Formation Uranium Concentration (F13
 RB    .OHMM                   :   29 Mud Resistivity
 RHOZ  .g/cm3                  :   30 Bulk Density 
 RLA1  .ohm.m                  :   31 ShalRes HRLT Borehole Corrected Resistivity 1
 RLA2  .ohm.m                  :   32 MedRes  HRLT Borehole Corrected Resistivity 2
 RLA3  .ohm.m                  :   33 DeepRes HRLT Borehole Corrected Resistivity 3
 RLA4  .ohm.m                  :   34 XDeepRes HRLT Borehole Corrected Resisitivity 4
 RLA5  .ohm.m                  :   35 UltraDeepR HRLT Borehole Corrected Resistivity 5
 RT    .ohm.m                  :   36 
 RXO   .ohm.m                  :   37 HRLT Invaded Zone Resistivity
 RXOZ  .ohm.m                  :   38 MicroRes Invaded Formation Resistivity
 SDEVM .deg                    :   39 Sonde Deviation
 SP    .mV                     :   40 Spontaneous Potential
 SW    .Dec                    :   41 Water saturation
 THOR  .                       :   42 
 TNPH  .V/V                    :   43 Neutron porosity
 VCLAV .Dec                    :   44 Clay volume
 HAZIM .deg                    :   45 Hole Azimuth
 DT    .uSec/m                 :   46 Sonic travel time
~A Log Data Section - Number of Curves = 46
# ...
535.80  0.1327    1.9397    2.1377    2.3244    2.4445    2.5066 215.9000 214.5383 221.0624 217.7758   518.1569 1690.1658  95.2724   0.6631  0.7460 100.6508  0.3938  4.7110 17.3270  0.2778 33.2987  2.6128     0.0000  0.0001  0.1184  2.9725  1.2446 331.7334  2.2903      2.1587      2.2496      2.3432      2.3810      2.4192      2.5789      1.4751    1.5990  0.3010 -191.0249  1.0000 13.9921  0.3960  0.7885 272.8671 328.5955
535.90  0.1327    1.9056    2.1122    2.2766    2.3972    2.4508 215.9000 213.4397 217.1616 215.2919   539.5905 1706.8585  93.7977   0.7984  0.8523 100.0053  0.3778  4.4498 14.5685  0.3263 33.2987  2.5765     0.0000  0.0001  0.1161  2.9991  1.3989 330.9101  2.2876      2.0254      2.0952      2.1750      2.2107      2.2423      2.3639      1.4056    1.6105  0.3005 -189.8802  1.0000 13.3458  0.3770  0.7734 272.7606 318.9332
536.00  0.1327    1.8593    2.0566    2.2096    2.3250    2.3824 215.9000 212.5882 213.7214 213.1541   562.8674 1725.4945  92.9669   1.0751  1.0208  99.6623  0.3527  4.2140 10.2913  0.4096 33.2987  2.5188     0.0000  0.0001  0.1148  3.0072  1.6519 330.0562  2.2839      1.9379      2.0068      2.0849      2.1282      2.1517      2.2726      1.3469    1.5947  0.3000 -188.9039  1.0000 12.6692  0.3564  0.7650 272.6252 313.3135
536.10  0.1327    1.8354    2.0482    2.2071    2.3169    2.3755 215.9000 212.5060 213.7946 213.1494   572.6137 1779.1498  94.5279   1.2135  1.0841 100.4157  0.3603  4.0172  9.6686  0.4156 33.2987  2.4814     0.0000  0.0001  0.1172  3.0719  1.7008 329.0251  2.2730      2.0265      2.1070      2.1897      2.2396      2.2614      2.4034      1.3926    1.6258  0.2999 -188.4391  1.0000 12.3352  0.3638  0.7809 272.4738 316.1968
536.20  0.1327    1.8625    2.0914    2.2494    2.3649    2.4200 215.9000 212.6410 214.2441 213.4411   574.0458 1826.7971  96.6406   1.2042  1.0919 100.7305  0.3832  3.8625  9.2347  0.4183 33.2987  2.4726     0.0000  0.0001  0.1205  3.1172  1.7307 328.0756  2.2693      2.0862      2.1777      2.2606      2.3173      2.3368      2.4958      1.4222    1.6536  0.3007 -188.2036  1.0000 12.0374  0.3783  0.8025 272.3336 325.6465
536.30  0.1326    1.9143    2.1496    2.2948    2.4145    2.4780 215.9000 212.7469 214.5941 213.6681   570.5624 1865.5168  98.7193   1.2786  1.1599 100.5113  0.3985  3.7355  8.8829  0.4206 33.2987  2.4848     0.0000  0.0001  0.1236  3.1400  1.7491 327.1558  2.2745      2.1148      2.2089      2.2956      2.3559      2.3668      2.5317      1.4371    1.7008  0.3018 -188.0971  1.0000 11.7305  0.3952  0.8237 272.1894 334.0084
536.40  0.1326    1.9430    2.1915    2.3503    2.4693    2.5409 215.9000 212.5806 214.6280 213.6018   562.0392 1867.5735  98.9212   1.3899  1.2461  98.3390  0.4203  3.6505  8.4634  0.4316 33.2987  2.5116     0.0000  0.0001  0.1240  3.0833  1.7550 326.1726  2.2797      2.1392      2.2355      2.3291      2.3929      2.4064      2.5855      1.4430    1.7835  0.3022 -188.0890  1.0000 11.2578  0.4060  0.8257 271.9740 336.4463
536.50  0.1325    1.9685    2.2253    2.3755    2.5040    2.5583 215.9000 212.5115 214.7720 213.6388   564.0794 1871.7552  97.2561   1.4078  1.2636  96.6757  0.4165  3.7405 11.3335  0.3596 33.2987  2.5243     0.0000  0.0001  0.1214  3.0512  1.5156 325.2372  2.2862      2.1551      2.2562      2.3586      2.4247      2.4311      2.6263      1.4417    1.8414  0.3020 -187.9817  1.0000 11.4113  0.4050  0.8087 271.7369 333.2935
536.60  0.1325    1.9693    2.2317    2.3796    2.5102    2.5524 215.9000 212.5762 214.9491 213.7592   573.1196 1877.3510  94.5146   1.4445  1.2920  95.4423  0.4009  3.9140 15.6066  0.2510 33.2987  2.5156     0.0000  0.0001  0.1172  3.0359  1.1708 324.3382  2.2932      2.1351      2.2331      2.3357      2.4033      2.4074      2.5996      1.4276    1.8407  0.3016 -187.8356  1.0000 11.8824  0.3962  0.7808 271.4908 328.1013
536.70  0.1325    1.9699    2.2375    2.3917    2.5260    2.5546 215.9000 212.9341 214.9706 213.9502   586.8903 1883.9510  92.3832   1.4212  1.2690  95.2702  0.3788  3.8731 14.3614  0.2705 33.2987  2.5079     0.0000  0.0001  0.1140  3.0355  1.2308 323.5043  2.2943      2.1287      2.2279      2.3349      2.4023      2.3969      2.5909      1.4212    1.8595  0.3010 -187.8881  1.0000 11.7566  0.3831  0.7590 271.2523 323.8448
536.80  0.1324    1.9746    2.2450    2.3999    2.5404    2.5464 215.9000 212.9703 214.9728 213.9691   597.9856 1881.6654  91.0165   1.4170  1.2679  94.5955  0.3591  3.7982 12.6004  0.3058 33.2987  2.5051     0.0000  0.0001  0.1119  3.0046  1.3252 322.7608  2.2905      2.1700      2.2643      2.3846      2.4568      2.4431      2.6461      1.4373    1.8580  0.2999 -188.0204  1.0000 11.4149  0.3705  0.7451 271.0048 322.1622
536.90  0.1323    1.9749    2.2480    2.4096    2.5495    2.5482 215.9000 212.8467 214.8209 213.8313   605.9477 1872.3202  90.4657   1.4238  1.2810  93.5998  0.3476  3.7016 10.6343  0.3485 33.2987  2.5057     0.0000  0.0001  0.1110  2.9560  1.4339 322.0887  2.2841      2.1688      2.2626      2.3960      2.4614      2.4504      2.6637      1.4312    1.8763  0.2984 -188.1950  1.0000 10.9417  0.3593  0.7394 270.7508 323.2245
537.00  0.1322    1.9693    2.2448    2.4110    2.5436    2.5491 215.9000 213.0076 213.7942 213.4002   592.7232 1856.2052  94.4592   1.4194  1.2900  93.7078  0.3486  3.6804 12.1624  0.3053 33.2987  2.5259     0.0000  0.0001  0.1171  3.0067  1.3245 321.4758  2.2782      2.1714      2.2645      2.3935      2.4526      2.4382      2.6387      1.4380    1.8534  0.2967 -188.0331  1.0000 11.0654  0.3678  0.7802 270.5441 325.0964
537.10  0.1322    1.9567    2.2297    2.4012    2.5333    2.5489 215.9000 212.9847 213.2977 213.1407   578.8915 1841.7394  99.3042   1.2155  1.1501  93.5095  0.3618  3.6467 12.2335  0.2997 33.2987  2.5879     0.0000  0.0001  0.1245  3.0156  1.3122 320.7972  2.2758      2.1583      2.2711      2.3855      2.4333      2.4268      2.6309      1.4381    1.8756  0.2945 -188.1356  1.0000 10.9976  0.3779  0.8296 270.3453 325.9825
537.20  0.1322    1.9413    2.2096    2.3880    2.5348    2.5639 215.9000 212.8387 213.2550 213.0468   564.4991 1828.7960 104.9352   1.1856  1.1373  93.0284  0.3781  3.6014 10.9597  0.3286 33.2987  2.7022     0.0000  0.0001  0.1332  2.9858  1.3895 320.0577  2.2822      2.1324      2.2517      2.3661      2.3985      2.3960      2.5978      1.4285    1.8296  0.2919 -188.4821  1.0000 10.7530  0.3896  0.8871 270.1494 326.4964
537.30  0.1322    1.9248    2.1899    2.3726    2.5374    2.5840 215.9000 212.9994 213.2550 213.1272   554.3630 1802.5427 104.1536   1.2749  1.1822  93.1990  0.3937  3.4318  9.4333  0.3670 33.2987  2.8446     0.0000  0.0001  0.1320  3.0212  1.5252 319.4465  2.2961      2.1607      2.2811      2.4035      2.4176      2.4257      2.6249      1.4553    1.8471  0.2890 -188.7817  1.0000 10.3650  0.3924  0.8791 270.0085 327.0175
537.40  0.1322    1.9001    2.1518    2.3270    2.4954    2.5425 215.9000 213.0928 213.6060 213.3494   534.3823 1788.3508 101.4356   1.4250  1.2786  93.0286  0.4193  3.3682  8.2958  0.4079 33.2987  2.9878     0.0000  0.0001  0.1278  3.0079  1.6429 318.8525  2.3085      2.1374      2.2411      2.3534      2.3547      2.3579      2.5117      1.4872    1.8807  0.2864 -188.9767  1.0000 10.1294  0.4132  0.8514 269.9076 327.6138
537.50  0.1323    1.8646    2.1044    2.2789    2.4556    2.4905 215.9000 213.1010 214.2192 213.6592   503.7366 1787.2253  96.6199   1.5204  1.3460  92.4887  0.4576  3.4195  7.5796  0.4515 33.2987  3.0795     0.0000  0.0001  0.1113  2.9417  1.7410 318.2771  2.3087      2.0834      2.1788      2.2796      2.2699      2.2835      2.4116      1.4847    1.8646  0.2840 -189.0584  1.0000 10.0590  0.4535  0.7416 269.8471 329.1776
537.60  0.1325    1.8047    2.0501    2.2327    2.3895    2.4559 215.9000 213.0965 214.2830 213.6892   504.5222 1767.7841  89.8852   1.4041  1.2576  89.3948  0.4353  3.4227  9.0136  0.3863 33.2987  3.0865     0.0213  0.0532  0.1381  2.8722  1.5133 317.7232  2.2910      2.0687      2.2023      2.2807      2.2694      2.2943      2.4461      1.4575    1.8455  0.2819 -189.4922  1.0000  9.8307  0.4444  0.5659 269.8449 334.0203
