~VERSION INFORMATION
 VERS.                  2.0:   CWLS Log Ascii Standard
 WRAP.                   NO:   One line per depth step
~WELL INFORMATION
#MNEM.UNIT        DATA TYPE:   INFORMATION
#---------    -------------   --------------------------
 STRT.M                0.00:   Top Depth
 STOP.M              805.20:   Bottom Depth
 STEP.M                0.10:   Increment
 NULL.              -999.25:   Null Value
 SRVC.                  KPG:   Service Company/Logging company
 DATE.           26.07.2024:   LAS file Creation Date
 WELL.                  356:   Well Name
 COMP.                KMG-B:   Company
 FLD .             Karatube:   Field
 STATE.                    :   State
 COUNT.          Kazakhstan:   Country
 LATI.                     :   Latitude/Northing
 LONG.                     :   Longitude/Easting
 DF  .                     :   DF Elevation
 GL  .                     :   GL Elevation
~PARAMETER INFORMATION
#MNEM  .UNIT          Value:   Description
#---------    -------------   --------------------------
~CURVE INFORMATION
#MNEM  .UNIT           API Code:   Curve Description
#---------       -------------- -------------------------- 
 DEPTH .M                      :   1 Measured depth
 AMF   .OHMM                   :   2 Array Induction Mud Resistivity Fully Calibrated (F13
 AT10  .ohm.m                  :   3 " Array Induction, two foot resolution
 AT20  .ohm.m                  :   4 " Array Induction, two foot resolution
 AT30  .ohm.m                  :   5 " Array Induction, two foot resolution
 AT60  .ohm.m                  :   6 " Array Induction, two foot resolution
 AT90  .ohm.m                  :   7 " Array Induction, two foot resolution
 BSC   .mm                     :   8 Nominal Caliper
 C1    .mm                     :   9 CALIPER DIAMETER 1
 C2    .mm                     :   10 CALIPER DIAMETER 2
 CALI  .mm                     :   11 Caliper
 CFTC  .dec                    :   12 Neutron far
 CNTC  .dec                    :   13 Neutron near
 GR    .uR/h                   :   14 GammaRay  
 HMIN  .Ohmm                   :   15 HIP Micro Inverse Resistivity
 HMNO  .Ohmm                   :   16 HIP Micro Normal Resistivity
 HSGR  .GAPI                   :   17 HNGS Standard Gamma-Ray
 HTNP  .m3/m3                  :   18 High Resolution Thermal Neutron Porosity (Ratio Method) in Selected Lithology
 HTPR  .                       :   19 HNGS Formation Thorium Potassium Concentration
 HTUR  .                       :   20 HNGS Formation Thorium Uranium Concentration
 HUPR  .                       :   21 HNGS Formation Uranium Potassium Concentration
 MTEM  .‘                      :   22 Mud Temperature
 PEFZ  .B/E                    :   23 Formation Photoelectric Factor 
 Perm  .md                     :   24 Permeability
 PHIE  .Dec                    :   25 Effective porosity 
 PHIT  .Dec                    :   26 Total porosity
 POTA  .                       :   27 
 PURA  .PPM                    :   28 Upper Limit of Formation Uranium Concentration (F13
 RB    .OHMM                   :   29 Mud Resistivity
 RHOZ  .g/cm3                  :   30 Bulk Density 
 RLA1  .ohm.m                  :   31 ShalRes HRLT Borehole Corrected Resistivity 1
 RLA2  .ohm.m                  :   32 MedRes  HRLT Borehole Corrected Resistivity 2
 RLA3  .ohm.m                  :   33 DeepRes HRLT Borehole Corrected Resistivity 3
 RLA4  .ohm.m                  :   34 XDeepRes HRLT Borehole Corrected Resisitivity 4
 RLA5  .ohm.m                  :   35 UltraDeepR HRLT Borehole Corrected Resistivity 5
 RT    .ohm.m                  :   36 
 RXO   .ohm.m                  :   37 HRLT Invaded Zone Resistivity
 RXOZ  .ohm.m                  :   38 MicroRes Invaded Formation Resistivity
 SDEVM .deg                    :   39 Sonde Deviation
 SP    .mV                     :   40 Spontaneous Potential
 SW    .Dec                    :   41 Water saturation
 THOR  .                       :   42 
 TNPH  .V/V                    :   43 Neutron porosity
 VCLAV .Dec                    :   44 Clay volume
 HAZIM .deg                    :   45 Hole Azimuth
 DT    .uSec/m                 :   46 Sonic travel time
~A Log Data Section - Number of Curves = 46
# ...
406.60  0.1376    1.5977    2.1334    2.3238    2.5781    2.8830 215.9000 211.9960 211.4886 211.7423   475.3905 1698.8715  79.7226   0.8033  0.7096  92.0871  0.4564  2.7975  6.7181  0.4168 31.5279  2.6946     0.6571  0.1160  0.1921  3.1496  1.7366 302.7165  2.1160      2.3327      2.4343      2.6276      2.7500      2.6913      3.0186      1.5078    0.9926  0.2438 -185.6747  1.0000  8.8105  0.4593  0.5073 255.8240 389.1967
406.70  0.1376    1.7753    2.4294    2.6384    2.9284    3.2678 215.9000 212.3310 211.3056 211.8174   488.7488 1745.6766  86.0850   1.1216  0.9914  92.1590  0.4403  2.7222  7.3086  0.3742 31.5279  2.7520     0.2405  0.0923  0.1712  3.1997  1.6183 302.0740  2.1441      2.2006      2.3143      2.4677      2.6308      2.5679      2.9005      1.4617    1.1853  0.2444 -185.7140  1.0000  8.7084  0.4582  0.5260 255.7414 389.9441
406.80  0.1376    1.8551    2.6086    2.7299    2.9538    3.2282 215.9000 212.2718 211.3406 211.8061   520.9589 1843.1678  89.0570   1.1939  1.0557  91.7556  0.4513  2.6809  8.1446  0.3320 31.5279  2.8459     0.1467  0.0825  0.1627  3.2229  1.4896 301.4597  2.1789      2.0525      2.2249      2.3592      2.5456      2.4893      2.8931      1.4033    1.4657  0.2448 -185.6718  1.0000  8.6404  0.4503  0.5347 255.6499 390.4185
406.90  0.1376    1.9472    2.8360    3.0114    3.2017    3.4207 215.9000 212.2286 211.6971 211.9624   569.8313 1984.7892  89.0068   1.1725  1.0567  90.8746  0.4323  2.6698  9.1611  0.2914 31.5279  2.9497     0.1590  0.0840  0.1640  3.2192  1.3544 300.8694  2.2341      2.2275      2.4300      2.5824      2.7899      2.7428      3.2126      1.5593    1.5630  0.2451 -185.5625  1.0000  8.5943  0.4362  0.5333 255.5490 394.1365
407.00  0.1376    2.2982    3.4281    3.6161    3.8184    3.9541 215.9000 214.4768 213.1517 213.8133   648.2608 2173.1018  82.3839   1.0601  1.0044  86.4273  0.4169  2.7069  8.7719  0.3090 31.5279  3.1160     0.6368  0.1152  0.1845  3.0280  1.3301 300.2807  2.3045      3.2694      3.6125      3.8557      4.1591      4.1261      4.8937      2.3203    2.0002  0.2450 -185.5625  1.0000  8.1929  0.4086  0.4619 255.4323 397.2018
407.10  0.1376    2.8495    4.9180    5.3001    5.5833    5.4633 215.9000 214.8035 213.3909 214.0953   740.3824 2306.1060  75.4164   1.4829  1.5046  80.1778  0.3648  2.7931  9.5013  0.2979 31.5279  3.3471     0.5957  0.1135  0.1691  2.7839  1.2024 299.7369  2.3917     10.5221     11.7636     13.3266     14.3074     14.5073     17.8192      6.6022    2.8168  0.2442 -185.5625  1.0000  7.7549  0.3637  0.3709 255.2705 387.7579
407.20  0.1376    3.5719    6.2087    6.9900    7.7061    6.9438 215.9000 213.4953 212.6296 213.0618   846.1959 2383.8020  68.1041   4.7032  4.5939  72.1261  0.3028  2.9283 11.3494  0.2583 31.5279  3.5562     0.0000  0.0000  0.0000  2.4868  0.9716 299.2381  2.4694     15.1881     16.8667     18.8061     20.0650     20.3450     24.4323      8.2942    4.6891  0.2426 -185.5625  1.0000  7.2803  0.3018  0.2600 255.0602 372.5008
407.30  0.1376    3.4496    5.5016    6.1521    7.0077    5.9689 215.9000 212.7991 212.2866 212.5428   877.1155 2371.0647  69.2037  22.8073 20.3947  69.8008  0.2620  3.0136 13.3407  0.2084 31.5279  3.7049     0.0000  0.0000  0.0000  2.4024  0.8226 298.6075  2.4909      6.1826      6.7075      7.0342      7.3678      7.5097      8.5045      3.5759   10.6070  0.2410 -185.5625  1.0000  7.2361  0.2812  0.2285 254.9691 342.7217
407.40  0.1376    2.4299    3.4905    3.8486    4.3306    3.8548 215.9000 212.3159 211.8422 212.0786   866.0855 2346.0400  73.4821  10.2942  9.1675  70.7739  0.2835  3.0699 14.9675  0.1748 31.5279  3.7728     0.0000  0.0000  0.0000  2.4371  0.7501 298.0066  2.4539      2.5655      2.6126      2.7328      2.8350      2.9176      3.1108      1.7118    5.3123  0.2391 -185.5625  1.0000  7.4837  0.2831  0.2415 254.8780 324.1455
407.50  0.1377    1.9452    2.4257    2.5449    2.8760    2.5193 215.9000 211.9621 211.2650 211.6135   806.6149 2309.4160  81.3276   2.4716  2.1904  75.5621  0.3081  3.0928 16.1433  0.1613 31.5279  3.6906     0.0000  0.0000  0.0000  2.6096  0.7679 297.4467  2.3783      1.9929      1.9902      2.0686      2.1478      2.2255      2.2970      1.3986    2.6993  0.2369 -185.5625  1.0000  8.0716  0.3107  0.3058 254.7638 342.5952
407.60  0.1376    1.6602    1.9924    2.0818    2.3002    2.0722 215.9000 212.1008 211.4112 211.7551   690.1661 2169.4285  90.2092   1.2279  1.0857  83.0908  0.3616  3.1093 17.2922  0.1682 31.5279  3.4295     2.5256  0.1576  0.2169  2.8506  0.8614 296.8147  2.2818      2.0696      2.0370      2.1011      2.1875      2.2783      2.3042      1.5115    1.9214  0.2367 -185.5787  1.0000  8.8656  0.3727  0.3957 254.7437 370.2670
407.70  0.1375    1.6259    1.8911    2.0187    2.1982    2.0576 215.9000 212.2055 211.3314 211.7679   588.2830 1996.4541  96.6735   1.0726  0.9480  89.1847  0.4379  3.1359 17.9512  0.1747 31.5279  3.1768     2.9079  0.1627  0.2321  3.0306  0.9349 296.4318  2.2129      2.2834      2.2168      2.2774      2.3589      2.4767      2.4665      1.7137    1.5260  0.2358 -185.9379  1.0000  9.5051  0.4186  0.4629 254.7120 386.5475
407.80  0.1374    1.7199    1.9814    2.1490    2.3374    2.2435 215.9000 212.2150 210.9105 211.5618   515.6806 1787.4817  99.3766   1.1770  1.0405  92.7691  0.4329  3.1784 17.8789  0.1778 31.5279  2.9668     1.3580  0.1368  0.2107  3.1103  0.9681 296.4318  2.1775      2.3869      2.3444      2.3907      2.4580      2.5997      2.5949      1.7959    1.4288  0.2334 -186.8095  1.0000  9.8864  0.4360  0.4926 254.6316 403.4776
407.90  0.1374    1.7704    2.0493    2.2295    2.4132    2.3964 215.9000 213.7153 211.7902 212.7504   498.4494 1683.6738 100.3520   1.1832  1.0570  94.3375  0.4060  3.1724 16.9931  0.1870 31.5279  2.8359     0.6095  0.1141  0.1904  3.1535  1.0110 296.0776  2.1711      2.4334      2.4575      2.4830      2.5338      2.6955      2.7326      1.7971    1.4949  0.2308 -188.0214  1.0000 10.0039  0.4188  0.5088 254.6118 420.8305
408.00  0.1373    1.8162    2.0990    2.2584    2.4502    2.4529 215.9000 214.3437 212.4420 213.3908   490.3000 1627.0197 100.5330   0.9970  0.9541  95.5482  0.3993  3.1793 17.0634  0.1872 31.5279  2.7881     0.2725  0.0950  0.1736  3.1937  1.0221 295.6181  2.1769      2.3100      2.4290      2.4278      2.4594      2.6335      2.7427      1.6864    1.4810  0.2284 -188.9662  1.0000 10.1546  0.4077  0.5238 254.6325 430.2620
408.10  0.1372    1.7919    2.0719    2.2228    2.4162    2.4531 215.9000 213.5517 212.5597 213.0555   484.9943 1631.3046  99.6766   0.8990  0.8827  96.6049  0.4121  3.2224 19.1157  0.1690 31.5279  2.8089     0.1061  0.0767  0.1577  3.2377  0.9718 295.0528  2.1780      2.1312      2.2826      2.2686      2.2846      2.4591      2.5854      1.5766    1.4446  0.2263 -189.3289  1.0000 10.4336  0.4168  0.5402 254.7020 437.0348
408.20  0.1372    1.7759    2.0694    2.2054    2.4013    2.4515 215.9000 213.7199 212.0107 212.8635   483.6289 1610.5262  98.2058   0.8999  0.8647  97.0555  0.3888  3.1657 15.5364  0.2140 31.5279  2.8514     0.0551  0.0661  0.1487  3.2666  1.1228 294.6580  2.1753      2.0986      2.2595      2.2601      2.2594      2.4374      2.5796      1.5630    1.4705  0.2243 -189.8471  1.0000 10.3400  0.4103  0.5510 254.7913 441.7655
408.30  0.1372    1.7801    2.0835    2.2109    2.4118    2.4798 215.9000 213.8174 211.6682 212.7399   481.9581 1593.9351  96.4001   0.9490  0.9173  97.0175  0.4012  3.1312 12.1961  0.2568 31.5279  2.8786     0.0502  0.0647  0.1476  3.2706  1.2600 294.3054  2.1762      2.1703      2.3169      2.3762      2.3611      2.5567      2.7392      1.6048    1.4626  0.2227 -190.4237  1.0000 10.2399  0.4060  0.5525 254.9211 436.3222
408.40  0.1372    1.7664    2.0902    2.2085    2.4091    2.5123 215.9000 213.4767 211.8377 212.6560   477.6917 1599.0916  94.1065   0.8984  0.9076  96.1293  0.4107  3.1961 12.1048  0.2641 31.5279  2.8900     0.1442  0.0822  0.1624  3.2237  1.2691 293.9700  2.1761      2.1479      2.2600      2.3621      2.3324      2.5327      2.7137      1.5746    1.3983  0.2219 -191.0626  1.0000 10.3026  0.4141  0.5350 255.1389 423.8495
