~VERSION INFORMATION
 VERS.                  2.0:   CWLS Log Ascii Standard
 WRAP.                   NO:   One line per depth step
~WELL INFORMATION
#MNEM.UNIT        DATA TYPE:   INFORMATION
#---------    -------------   --------------------------
 STRT.M                0.00:   Top Depth
 STOP.M              805.20:   Bottom Depth
 STEP.M                0.10:   Increment
 NULL.              -999.25:   Null Value
 SRVC.                  KPG:   Service Company/Logging company
 DATE.           26.07.2024:   LAS file Creation Date
 WELL.                  356:   Well Name
 COMP.                KMG-B:   Company
 FLD .             Karatube:   Field
 STATE.                    :   State
 COUNT.          Kazakhstan:   Country
 LATI.                     :   Latitude/Northing
 LONG.                     :   Longitude/Easting
 DF  .                     :   DF Elevation
 GL  .                     :   GL Elevation
~PARAMETER INFORMATION
#MNEM  .UNIT          Value:   Description
#---------    -------------   --------------------------
~CURVE INFORMATION
#MNEM  .UNIT           API Code:   Curve Description
#---------       -------------- -------------------------- 
 DEPTH .M                      :   1 Measured depth
 AMF   .OHMM                   :   2 Array Induction Mud Resistivity Fully Calibrated (F13
 AT10  .ohm.m                  :   3 " Array Induction, two foot resolution
 AT20  .ohm.m                  :   4 " Array Induction, two foot resolution
 AT30  .ohm.m                  :   5 " Array Induction, two foot resolution
 AT60  .ohm.m                  :   6 " Array Induction, two foot resolution
 AT90  .ohm.m                  :   7 " Array Induction, two foot resolution
 BSC   .mm                     :   8 Nominal Caliper
 C1    .mm                     :   9 CALIPER DIAMETER 1
 C2    .mm                     :   10 CALIPER DIAMETER 2
 CALI  .mm                     :   11 Caliper
 CFTC  .dec                    :   12 Neutron far
 CNTC  .dec                    :   13 Neutron near
 GR    .uR/h                   :   14 GammaRay  
 HMIN  .Ohmm                   :   15 HIP Micro Inverse Resistivity
 HMNO  .Ohmm                   :   16 HIP Micro Normal Resistivity
 HSGR  .GAPI                   :   17 HNGS Standard Gamma-Ray
 HTNP  .m3/m3                  :   18 High Resolution Thermal Neutron Porosity (Ratio Method) in Selected Lithology
 HTPR  .                       :   19 HNGS Formation Thorium Potassium Concentration
 HTUR  .                       :   20 HNGS Formation Thorium Uranium Concentration
 HUPR  .                       :   21 HNGS Formation Uranium Potassium Concentration
 MTEM  .‘                      :   22 Mud Temperature
 PEFZ  .B/E                    :   23 Formation Photoelectric Factor 
 Perm  .md                     :   24 Permeability
 PHIE  .Dec                    :   25 Effective porosity 
 PHIT  .Dec                    :   26 Total porosity
 POTA  .                       :   27 
 PURA  .PPM                    :   28 Upper Limit of Formation Uranium Concentration (F13
 RB    .OHMM                   :   29 Mud Resistivity
 RHOZ  .g/cm3                  :   30 Bulk Density 
 RLA1  .ohm.m                  :   31 ShalRes HRLT Borehole Corrected Resistivity 1
 RLA2  .ohm.m                  :   32 MedRes  HRLT Borehole Corrected Resistivity 2
 RLA3  .ohm.m                  :   33 DeepRes HRLT Borehole Corrected Resistivity 3
 RLA4  .ohm.m                  :   34 XDeepRes HRLT Borehole Corrected Resisitivity 4
 RLA5  .ohm.m                  :   35 UltraDeepR HRLT Borehole Corrected Resistivity 5
 RT    .ohm.m                  :   36 
 RXO   .ohm.m                  :   37 HRLT Invaded Zone Resistivity
 RXOZ  .ohm.m                  :   38 MicroRes Invaded Formation Resistivity
 SDEVM .deg                    :   39 Sonde Deviation
 SP    .mV                     :   40 Spontaneous Potential
 SW    .Dec                    :   41 Water saturation
 THOR  .                       :   42 
 TNPH  .V/V                    :   43 Neutron porosity
 VCLAV .Dec                    :   44 Clay volume
 HAZIM .deg                    :   45 Hole Azimuth
 DT    .uSec/m                 :   46 Sonic travel time
~A Log Data Section - Number of Curves = 46
# ...
579.50  0.1307    0.9581    1.1197    1.1923    1.2840    1.3251 215.9000 211.5621 211.1507 211.3559   524.1814 1713.1501  90.9837   0.6919  0.6112  89.3338  0.3908  2.5340  4.3525  0.5831 33.5940  2.1953     0.0025  0.0328  0.1223  2.9381  2.1155   1.2853  2.0306      1.1080      1.1750      1.2469      1.2404      1.2264      1.3239      0.7479    0.8425  0.3088 -188.3565  1.0000  7.4448  0.3980  0.5970 282.5724 360.2677
579.60  0.1307    0.9393    1.0989    1.1702    1.2609    1.3045 215.9000 211.4700 211.2242 211.3475   528.8658 1706.6742  91.7502   0.6747  0.5959  90.4455  0.3765  2.6080  4.3686  0.5984 33.5940  2.2068     0.0005  0.0227  0.1155  2.9478  2.1723   1.0421  2.0322      1.0632      1.1344      1.2036      1.1919      1.1761      1.2728      0.7179    0.8224  0.3088 -188.1446  1.0000  7.6884  0.3895  0.6187 281.9467 358.7284
579.70  0.1307    0.9240    1.0771    1.1488    1.2313    1.2663 215.9000 211.8411 211.4904 211.6658   521.4675 1712.7174  95.0708   0.6305  0.5569  90.8418  0.3880  2.6386  4.7482  0.5566 33.5940  2.2269     0.0000  0.0036  0.1105  2.9809  2.0733   0.7996  2.0343      1.0245      1.1031      1.1619      1.1471      1.1335      1.2271      0.7000    0.8006  0.3086 -187.7711  1.0000  7.8658  0.4010  0.7126 281.4363 357.5098
579.80  0.1307    0.9167    1.0739    1.1466    1.2283    1.2527 215.9000 211.7381 211.3084 211.5228   511.4486 1716.2334  97.4026   0.6038  0.5333  91.5820  0.4119  2.6652  5.1108  0.5228 33.5940  2.2503     0.0000  0.0015  0.1143  3.0209  1.9948   0.5983  2.0397      1.0275      1.1116      1.1618      1.1511      1.1347      1.2258      0.7143    0.7876  0.3088 -187.7164  1.0000  8.0520  0.4157  0.7520 280.7925 357.0885
579.90  0.1307    0.9550    1.1094    1.1837    1.2725    1.2913 215.9000 211.5294 211.2004 211.3644   500.6135 1716.8805  98.8266   0.6258  0.5527  92.7089  0.4267  2.7031  5.4182  0.4989 33.5940  2.2725     0.0000  0.0009  0.1166  3.0596  1.9460   0.4167  2.0443      1.1082      1.2017      1.2472      1.2438      1.2258      1.3249      0.7720    0.8170  0.3091 -187.7077  1.0000  8.2712  0.4309  0.7710 280.1231 357.1208
580.00  0.1307    0.9909    1.1649    1.2433    1.3357    1.3507 215.9000 211.3316 211.3962 211.3634   489.3642 1711.7753  98.5517   0.7003  0.6185  94.6092  0.4419  2.7723  5.5943  0.4956 33.5940  2.2821     0.0000  0.0010  0.1161  3.0910  1.9606   0.2593  2.0491      1.2008      1.3013      1.3427      1.3460      1.3278      1.4319      0.8416    0.8477  0.3090 -187.6122  1.0000  8.5696  0.4452  0.7674 279.5226 356.7270
580.10  0.1308    1.0230    1.2204    1.2990    1.4033    1.4129 215.9000 211.3129 211.4964 211.4046   505.5486 1702.7795  96.5090   0.7421  0.6555  95.2094  0.4076  2.7481  5.3874  0.5109 33.5940  2.2774     0.0000  0.0019  0.1130  3.1140  2.0233 178.9218  2.0553      1.2240      1.3096      1.3441      1.3537      1.3339      1.4147      0.8969    0.8743  0.3089 -187.3121  1.0000  8.5571  0.4196  0.7401 279.0014 356.2405
580.20  0.1308    1.0374    1.2288    1.3014    1.4035    1.4014 215.9000 211.3319 211.4096 211.3703   521.7506 1698.7463  93.7140   0.7130  0.6298  94.9779  0.3873  2.7406  5.1225  0.5351 33.5940  2.2613     0.0000  0.0080  0.1092  3.1040  2.0921 359.9464  2.0588      1.2324      1.2841      1.3220      1.3364      1.3211      1.3706      0.9521    0.8963  0.3088 -186.9117  1.0000  8.5018  0.3955  0.6742 278.5220 356.1832
580.30  0.1309    1.0255    1.2142    1.2850    1.3900    1.3791 215.9000 211.3304 210.9931 211.1617   509.0083 1715.4391  90.2689   0.6856  0.6056  93.3368  0.4167  2.8873  5.0686  0.5698 33.5940  2.2493     0.0103  0.0452  0.1317  2.9918  2.1308 359.8290  2.0591      1.2075      1.2362      1.2727      1.2922      1.2799      1.3083      0.9695    0.8660  0.3088 -186.3919  1.0000  8.6324  0.4188  0.5768 278.0833 356.3001
580.40  0.1309    1.0140    1.1837    1.2514    1.3448    1.3236 215.9000 211.3291 210.8715 211.0994   513.4600 1721.0675  86.9933   0.6685  0.5905  92.4887  0.4225  2.9539  5.0890  0.5804 33.5940  2.2505     2.0153  0.1497  0.2223  2.9371  2.1290 359.6695  2.0602      1.1575      1.1671      1.2010      1.2243      1.2180      1.2309      0.9525    0.8300  0.3086 -186.1168  1.0000  8.6753  0.4148  0.4841 277.6615 355.9058
580.50  0.1309    1.0202    1.1883    1.2565    1.3337    1.3194 215.9000 211.4271 210.9764 211.2012   524.2131 1727.0129  83.6288   0.6454  0.5701  91.7210  0.4011  2.9739  5.2266  0.5705 33.5940  2.2851    14.3316  0.2283  0.2866  2.9094  2.0800 359.4853  2.0633      1.1490      1.1551      1.1924      1.2189      1.2191      1.2347      0.9235    0.8167  0.3083 -185.9329  0.9490  8.6524  0.4027  0.3890 277.2577 354.5840
580.60  0.1309    1.0810    1.2794    1.3551    1.4456    1.4296 215.9000 211.7908 211.3940 211.5928   531.6789 1754.9906  79.5441   0.6347  0.5606  89.8435  0.4084  2.9315  5.7608  0.5111 33.5940  2.3822    36.2596  0.2581  0.3051  2.8970  1.8915 359.2677  2.0762      1.3008      1.3148      1.3629      1.3972      1.4066      1.4429      0.9812    0.8564  0.3079 -185.7089  0.7819  8.4928  0.4036  0.3133 276.9067 352.4099
580.70  0.1308    1.2303    1.4759    1.5731    1.6721    1.6338 215.9000 211.8957 211.1843 211.5396   553.1734 1782.1379  77.0218   0.7177  0.6340  89.4834  0.3876  2.9362  6.2039  0.4742 33.5940  2.5196    36.3219  0.2493  0.2916  2.9132  1.7893 359.0279  2.1209      1.5628      1.5910      1.6586      1.6998      1.7240      1.7937      1.1186    0.9500  0.3075 -185.6023  0.7238  8.5544  0.3880  0.2814 276.5929 348.2021
580.80  0.1306    1.3856    1.7887    1.9441    2.0375    1.9832 215.9000 212.0551 211.1074 211.5812   576.5027 1808.2834  75.5172   0.9205  0.8134  89.2623  0.3647  2.9719  6.5810  0.4516 33.5940  2.7503    25.9958  0.2278  0.2673  2.9182  1.7250 358.7726  2.1906      1.9298      1.9710      2.0533      2.1025      2.1391      2.2318      1.3815    1.1213  0.3069 -185.5625  0.7016  8.6704  0.3699  0.2630 276.2681 335.7707
580.90  0.1305    1.5795    2.0969    2.3427    2.4987    2.4404 215.9000 212.7902 212.3674 212.5788   566.7077 1830.9004  75.3199   1.1924  1.0578  85.0939  0.3853  3.0479  6.8396  0.4457 33.5940  3.0615    29.0705  0.2201  0.2592  2.7645  1.6201 358.4917  2.2544      2.5394      2.6453      2.7704      2.8401      2.9000      3.1319      1.7312    1.5119  0.3055 -185.5625  0.6149  8.4207  0.3885  0.2607 275.7524 317.3347
581.00  0.1304    1.6628    2.1916    2.4748    2.7060    2.6341 215.9000 212.3138 212.2587 212.2867   545.3119 1830.0011  76.8915   1.6406  1.4839  83.7986  0.4124  3.0958  7.6465  0.4095 33.5940  3.3396    13.0209  0.1964  0.2384  2.7222  1.4957 358.2298  2.3111      2.4049      2.4813      2.5908      2.6442      2.6734      2.8425      1.6233    1.9253  0.3045 -185.5625  0.7155  8.4281  0.4148  0.2798 275.3812 312.2303
581.10  0.1303    1.5029    1.9830    2.1995    2.4400    2.3505 215.9000 211.3538 211.4633 211.4086   516.8086 1813.6205  79.7850   2.1123  1.8711  84.4456  0.4430  3.1227  8.9062  0.3529 33.5940  3.5101     3.7128  0.1702  0.2177  2.7581  1.3575 357.9782  2.3330      1.7942      1.8182      1.8851      1.9135      1.9278      1.9820      1.3391    1.9280  0.3037 -185.5625  0.9777  8.6129  0.4459  0.3164 275.1372 323.6842
581.20  0.1303    1.3272    1.6904    1.8419    2.0307    1.9473 215.9000 211.1082 211.0360 211.0721   491.4342 1792.7257  84.6085   1.5182  1.3434  86.1580  0.4805  3.1180 11.1990  0.2851 33.5940  3.5492     1.5732  0.1415  0.2040  2.8638  1.2067 357.7059  2.2957      1.5291      1.5390      1.5909      1.6134      1.6224      1.6419      1.2345    1.8225  0.3030 -185.5625  1.0000  8.9292  0.4763  0.4167 274.9344 345.8729
581.30  0.1303    1.2086    1.4839    1.6087    1.7706    1.7050 215.9000 211.0434 210.7442 210.8938   477.5774 1783.8522  88.8068   1.0768  0.9518  89.6527  0.5255  3.1377 11.7016  0.2692 33.5940  3.3993     0.1403  0.0817  0.1620  2.9858  1.2151 357.4713  2.2322      1.4785      1.4862      1.5337      1.5486      1.5596      1.5692      1.2340    1.5320  0.3021 -185.5625  1.0000  9.3716  0.4944  0.5354 274.7325 359.1427
