~VERSION INFORMATION
 VERS.                  2.0:   CWLS Log Ascii Standard
 WRAP.                   NO:   One line per depth step
~WELL INFORMATION
#MNEM.UNIT        DATA TYPE:   INFORMATION
#---------    -------------   --------------------------
 STRT.M                0.00:   Top Depth
 STOP.M              805.20:   Bottom Depth
 STEP.M                0.10:   Increment
 NULL.              -999.25:   Null Value
 SRVC.                  KPG:   Service Company/Logging company
 DATE.           26.07.2024:   LAS file Creation Date
 WELL.                  356:   Well Name
 COMP.                KMG-B:   Company
 FLD .             Karatube:   Field
 STATE.                    :   State
 COUNT.          Kazakhstan:   Country
 LATI.                     :   Latitude/Northing
 LONG.                     :   Longitude/Easting
 DF  .                     :   DF Elevation
 GL  .                     :   GL Elevation
~PARAMETER INFORMATION
#MNEM  .UNIT          Value:   Description
#---------    -------------   --------------------------
~CURVE INFORMATION
#MNEM  .UNIT           API Code:   Curve Description
#---------       -------------- -------------------------- 
 DEPTH .M                      :   1 Measured depth
 AMF   .OHMM                   :   2 Array Induction Mud Resistivity Fully Calibrated (F13
 AT10  .ohm.m                  :   3 " Array Induction, two foot resolution
 AT20  .ohm.m                  :   4 " Array Induction, two foot resolution
 AT30  .ohm.m                  :   5 " Array Induction, two foot resolution
 AT60  .ohm.m                  :   6 " Array Induction, two foot resolution
 AT90  .ohm.m                  :   7 " Array Induction, two foot resolution
 BSC   .mm                     :   8 Nominal Caliper
 C1    .mm                     :   9 CALIPER DIAMETER 1
 C2    .mm                     :   10 CALIPER DIAMETER 2
 CALI  .mm                     :   11 Caliper
 CFTC  .dec                    :   12 Neutron far
 CNTC  .dec                    :   13 Neutron near
 GR    .uR/h                   :   14 GammaRay  
 HMIN  .Ohmm                   :   15 HIP Micro Inverse Resistivity
 HMNO  .Ohmm                   :   16 HIP Micro Normal Resistivity
 HSGR  .GAPI                   :   17 HNGS Standard Gamma-Ray
 HTNP  .m3/m3                  :   18 High Resolution Thermal Neutron Porosity (Ratio Method) in Selected Lithology
 HTPR  .                       :   19 HNGS Formation Thorium Potassium Concentration
 HTUR  .                       :   20 HNGS Formation Thorium Uranium Concentration
 HUPR  .                       :   21 HNGS Formation Uranium Potassium Concentration
 MTEM  .‘                      :   22 Mud Temperature
 PEFZ  .B/E                    :   23 Formation Photoelectric Factor 
 Perm  .md                     :   24 Permeability
 PHIE  .Dec                    :   25 Effective porosity 
 PHIT  .Dec                    :   26 Total porosity
 POTA  .                       :   27 
 PURA  .PPM                    :   28 Upper Limit of Formation Uranium Concentration (F13
 RB    .OHMM                   :   29 Mud Resistivity
 RHOZ  .g/cm3                  :   30 Bulk Density 
 RLA1  .ohm.m                  :   31 ShalRes HRLT Borehole Corrected Resistivity 1
 RLA2  .ohm.m                  :   32 MedRes  HRLT Borehole Corrected Resistivity 2
 RLA3  .ohm.m                  :   33 DeepRes HRLT Borehole Corrected Resistivity 3
 RLA4  .ohm.m                  :   34 XDeepRes HRLT Borehole Corrected Resisitivity 4
 RLA5  .ohm.m                  :   35 UltraDeepR HRLT Borehole Corrected Resistivity 5
 RT    .ohm.m                  :   36 
 RXO   .ohm.m                  :   37 HRLT Invaded Zone Resistivity
 RXOZ  .ohm.m                  :   38 MicroRes Invaded Formation Resistivity
 SDEVM .deg                    :   39 Sonde Deviation
 SP    .mV                     :   40 Spontaneous Potential
 SW    .Dec                    :   41 Water saturation
 THOR  .                       :   42 
 TNPH  .V/V                    :   43 Neutron porosity
 VCLAV .Dec                    :   44 Clay volume
 HAZIM .deg                    :   45 Hole Azimuth
 DT    .uSec/m                 :   46 Sonic travel time
~A Log Data Section - Number of Curves = 46
# ...
623.20  0.1293    1.5858    1.6177    1.6732    1.7365    1.6786 215.9000 215.1160 213.6770 214.3947   503.0718 1616.7141 110.3433   1.5173  1.3466 108.0631  0.3853  3.6282  3.1595  1.1489 34.0369  2.7772     4.0369  0.1736  0.2363  2.8164  3.6771  36.5577  2.1990      1.7787      1.7761      1.8243      1.8855      1.8608      1.8688      1.5120    1.6929  0.3452 -195.2824  0.9785 10.2132  0.3886  0.4184 277.9500 358.3631
623.30  0.1293    1.6143    1.6326    1.6633    1.7319    1.6942 215.9000 216.6391 213.2257 214.9250   477.0810 1590.5470 109.0793   0.9997  0.9498 110.9547  0.4111  3.5038  2.9912  1.1715 34.0369  2.7133     2.6171  0.1588  0.2306  2.9058  3.8559  35.8320  2.1666      1.6801      1.6591      1.6956      1.7481      1.7422      1.7279      1.5028    1.2623  0.3433 -195.3698  1.0000 10.1804  0.4126  0.4783 277.5365 370.7065
623.40  0.1293    1.6068    1.6302    1.6857    1.7545    1.7139 215.9000 240.4502 211.3479 225.3920   467.5100 1585.7711 110.9886   0.3500  0.4186 112.1043  0.4310  3.5501  3.0438  1.1664 34.0369  2.6297     2.6480  0.1593  0.2310  2.9430  3.8901  35.0930  2.1313      1.6846      1.6515      1.6818      1.7327      1.7427      1.7162      1.5347    1.0294  0.3420 -195.3750  1.0000 10.4489  0.4236  0.4780 277.1049 375.3840
623.50  0.1293    1.6597    1.6530    1.6966    1.7656    1.7121 215.9000 251.4444 210.8966 230.2759   462.4983 1596.6917 113.9053   0.2008  0.2696 112.7943  0.4127  3.6068  3.3202  1.0984 34.0369  2.5465    10.8135  0.2041  0.2711  3.0049  3.7549  34.3725  2.1110      1.7500      1.7006      1.7271      1.7697      1.8023      1.7596      1.6475    0.9098  0.3406 -195.3750  0.8540 10.8410  0.4344  0.4469 276.4926 367.8007
623.60  0.1294    1.7042    1.6991    1.7377    1.7904    1.7403 215.9000 246.6338 212.0777 228.7010   462.3353 1627.4028 117.9333   0.1819  0.2550 113.0034  0.4411  3.6630  3.8865  0.9460 34.0369  2.4803    18.1115  0.2200  0.2816  3.1058  3.3986  33.6789  2.1204      1.8379      1.7806      1.7989      1.8304      1.8772      1.8283      1.7659    0.8354  0.3388 -195.3750  0.7782 11.3774  0.4463  0.4107 275.6148 347.4947
623.70  0.1294    1.7342    1.7479    1.7857    1.8368    1.8197 215.9000 246.2786 211.3678 228.1560   461.3786 1653.0461 122.5034   0.1978  0.2778 113.0828  0.4838  3.5666  3.8120  0.9358 34.0369  2.4366    28.5956  0.2347  0.2903  3.1331  3.3960  32.8760  2.1428      1.9077      1.8523      1.8717      1.8961      1.9667      1.9042      1.8442    0.8625  0.3382 -195.4168  0.7139 11.1733  0.4606  0.3711 275.0657 323.1538
623.80  0.1294    1.7953    1.8209    1.8522    1.9209    1.9192 215.9000 237.4153 211.5998 224.1312   462.4753 1682.2511 124.0622   0.2271  0.3058 113.4405  0.4627  3.4722  3.8028  0.9149 34.0369  2.4087    36.6920  0.2425  0.2932  3.1737  3.3664  32.0820  2.1657      2.0133      1.9344      1.9467      1.9619      2.0475      1.9794      1.9425    1.0279  0.3378 -195.6019  0.6772 11.0177  0.4730  0.3382 274.6011 308.3430
623.90  0.1294    1.8438    1.8920    1.9150    1.9526    1.9874 215.9000 217.1157 213.3037 215.1740   467.2352 1718.5864 120.3795   0.3738  0.4558 114.2993  0.4700  3.4134  4.0395  0.8459 34.0369  2.4011    35.4087  0.2400  0.2876  3.2523  3.2164  31.3260  2.1899      2.0374      1.9731      1.9894      1.9988      2.1027      2.0326      1.8731    1.2058  0.3378 -196.0221  0.6741 11.1004  0.4816  0.3172 274.1431 309.6180
624.00  0.1294    1.9111    1.9790    2.0195    2.0676    2.1628 215.9000 213.3221 213.2082 213.2650   472.1479 1746.1311 114.5417   1.0905  1.0715 114.3494  0.4752  3.3391  4.0060  0.8335 34.0369  2.4143    44.3179  0.2469  0.2897  3.2814  3.2012  29.7620  2.2053      2.0717      2.0356      2.0618      2.0654      2.1934      2.1473      1.7421    1.4415  0.3376 -196.2860  0.6414 10.9562  0.4859  0.2851 273.6917 320.5070
624.10  0.1294    1.9650    2.0834    2.1204    2.2054    2.2634 215.9000 212.6188 212.6019 212.6099   476.5319 1763.4445 109.9612   1.6222  1.4463 113.9844  0.4848  3.2758  4.0387  0.8128 34.0369  2.4240    56.6865  0.2541  0.2949  3.3029  3.1485  28.2723  2.2022      2.1521      2.1466      2.1811      2.1900      2.3325      2.3265      1.6771    1.9655  0.3376 -196.3083  0.6039 10.8193  0.4866  0.2722 273.2493 331.5436
624.20  0.1294    1.9604    2.1064    2.1506    2.2676    2.3032 215.9000 212.0399 211.7271 211.8839   479.7304 1762.5741 108.9246   1.6962  1.5070 113.0644  0.4759  3.2419  4.3210  0.7513 34.0369  2.4382    65.3842  0.2596  0.3000  3.3285  2.9615  27.2673  2.1940      2.1286      2.1417      2.1883      2.1946      2.3460      2.3707      1.5865    2.1470  0.3377 -195.8802  0.5898 10.7902  0.4813  0.2689 272.8230 339.6230
624.30  0.1294    1.9004    2.0593    2.0989    2.2057    2.2334 215.9000 212.5535 211.9151 212.2339   494.9924 1761.0767 109.0723   1.7523  1.5513 111.0388  0.4636  3.3192  4.9368  0.6786 34.0369  2.4552    51.3647  0.2516  0.2952  3.2981  2.6921  26.3478  2.1903      2.0462      2.0612      2.1048      2.1073      2.2565      2.2759      1.5391    2.1055  0.3380 -195.6873  0.6206 10.9441  0.4575  0.2913 272.4174 345.7790
624.40  0.1294    1.8447    1.9733    2.0031    2.0859    2.1194 215.9000 213.1165 212.4986 212.8075   507.6253 1759.4036 109.6758   1.2895  1.2521 109.3314  0.4465  3.3512  5.3440  0.6275 34.0369  2.4570    47.0208  0.2491  0.2915  3.2748  2.4995  25.4100  2.1862      2.0072      2.0102      2.0515      2.0548      2.2001      2.2039      1.5386    2.0762  0.3383 -195.5929  0.6350 10.9725  0.4374  0.2828 272.0362 348.8638
624.50  0.1294    1.8191    1.8953    1.9315    2.0120    2.0344 215.9000 213.3439 213.3736 213.3592   504.9958 1757.6799 110.7109   0.8292  0.9240 109.2317  0.4464  3.1856  4.9619  0.6424 34.0369  2.4461    47.7619  0.2498  0.2924  3.3085  2.5707  24.3648  2.1863      2.0206      2.0113      2.0519      2.0531      2.1973      2.1895      1.5676    2.0485  0.3380 -195.6061  0.6338 10.5377  0.4401  0.2837 271.7044 347.4835
624.60  0.1293    1.7748    1.8404    1.8592    1.9341    1.9510 215.9000 213.0948 213.0752 213.0846   504.7202 1744.7686 109.3548   0.9729  1.0357 108.7903  0.4463  3.2205  4.9492  0.6506 34.0369  2.4457    29.3503  0.2330  0.2806  3.2695  2.5708  23.4225  2.1924      1.9402      1.9187      1.9528      1.9663      2.1015      2.0846      1.5116    2.0018  0.3383 -195.4945  0.6935 10.5256  0.4356  0.3177 271.3863 343.5566
624.70  0.1291    1.7012    1.7877    1.8040    1.8773    1.8751 215.9000 213.2216 212.8817 213.0516   504.3453 1731.7852 107.4746   1.6104  1.4324 108.3968  0.4380  3.2983  5.1066  0.6466 34.0369  2.4343    15.2661  0.2120  0.2664  3.2300  2.5311  22.4827  2.1975      1.8522      1.8249      1.8454      1.8677      1.9868      1.9566      1.4870    1.9733  0.3387 -195.3750  0.7815 10.6532  0.4312  0.3626 271.0904 340.8998
624.80  0.1290    1.6159    1.7103    1.7302    1.7949    1.7996 215.9000 214.4639 213.6750 214.0690   500.8361 1731.7673 106.5623   1.5628  1.3830 108.5775  0.4367  3.2909  5.4303  0.6069 34.0369  2.4171     8.7279  0.1955  0.2555  3.2747  2.4336  21.4303  2.2056      1.7872      1.7567      1.7695      1.7951      1.9006      1.8634      1.4711    1.9812  0.3385 -195.3750  0.8644 10.7767  0.4362  0.4000 270.8613 340.9616
624.90  0.1289    1.5565    1.6609    1.6883    1.7488    1.7510 215.9000 214.5631 214.0872 214.3251   505.8271 1725.5269 106.6980   1.5095  1.3357 109.7250  0.4228  3.2986  5.5924  0.5899 34.0369  2.3970     6.5586  0.1870  0.2478  3.3266  2.4146  20.4426  2.2180      1.7650      1.7449      1.7585      1.7892      1.8888      1.8641      1.4237    1.9405  0.3390 -195.3750  0.9045 10.9736  0.4267  0.4054 270.6578 342.5355
625.00  0.1289    1.5434    1.6464    1.6766    1.7385    1.7404 215.9000 214.4987 214.2670 214.3833   512.0524 1716.6475 106.6451   1.5073  1.3338 111.0337  0.4140  3.3207  5.7664  0.5768 34.0369  2.3836     5.8031  0.1833  0.2438  3.3710  2.4031  19.4702  2.2274      1.7657      1.7509      1.7688      1.8007      1.8935      1.8753      1.4193    1.8996  0.3396 -195.3750  0.9204 11.1942  0.4143  0.4032 270.4756 344.8373
