~VERSION INFORMATION
 VERS.                  2.0:   CWLS Log Ascii Standard
 WRAP.                   NO:   One line per depth step
~WELL INFORMATION
#MNEM.UNIT        DATA TYPE:   INFORMATION
#---------    -------------   --------------------------
 STRT.M                0.00:   Top Depth
 STOP.M              805.20:   Bottom Depth
 STEP.M                0.10:   Increment
 NULL.              -999.25:   Null Value
 SRVC.                  KPG:   Service Company/Logging company
 DATE.           26.07.2024:   LAS file Creation Date
 WELL.                  356:   Well Name
 COMP.                KMG-B:   Company
 FLD .             Karatube:   Field
 STATE.                    :   State
 COUNT.          Kazakhstan:   Country
 LATI.                     :   Latitude/Northing
 LONG.                     :   Longitude/Easting
 DF  .                     :   DF Elevation
 GL  .                     :   GL Elevation
~PARAMETER INFORMATION
#MNEM  .UNIT          Value:   Description
#---------    -------------   --------------------------
~CURVE INFORMATION
#MNEM  .UNIT           API Code:   Curve Description
#---------       -------------- -------------------------- 
 DEPTH .M                      :   1 Measured depth
 AMF   .OHMM                   :   2 Array Induction Mud Resistivity Fully Calibrated (F13
 AT10  .ohm.m                  :   3 " Array Induction, two foot resolution
 AT20  .ohm.m                  :   4 " Array Induction, two foot resolution
 AT30  .ohm.m                  :   5 " Array Induction, two foot resolution
 AT60  .ohm.m                  :   6 " Array Induction, two foot resolution
 AT90  .ohm.m                  :   7 " Array Induction, two foot resolution
 BSC   .mm                     :   8 Nominal Caliper
 C1    .mm                     :   9 CALIPER DIAMETER 1
 C2    .mm                     :   10 CALIPER DIAMETER 2
 CALI  .mm                     :   11 Caliper
 CFTC  .dec                    :   12 Neutron far
 CNTC  .dec                    :   13 Neutron near
 GR    .uR/h                   :   14 GammaRay  
 HMIN  .Ohmm                   :   15 HIP Micro Inverse Resistivity
 HMNO  .Ohmm                   :   16 HIP Micro Normal Resistivity
 HSGR  .GAPI                   :   17 HNGS Standard Gamma-Ray
 HTNP  .m3/m3                  :   18 High Resolution Thermal Neutron Porosity (Ratio Method) in Selected Lithology
 HTPR  .                       :   19 HNGS Formation Thorium Potassium Concentration
 HTUR  .                       :   20 HNGS Formation Thorium Uranium Concentration
 HUPR  .                       :   21 HNGS Formation Uranium Potassium Concentration
 MTEM  .‘                      :   22 Mud Temperature
 PEFZ  .B/E                    :   23 Formation Photoelectric Factor 
 Perm  .md                     :   24 Permeability
 PHIE  .Dec                    :   25 Effective porosity 
 PHIT  .Dec                    :   26 Total porosity
 POTA  .                       :   27 
 PURA  .PPM                    :   28 Upper Limit of Formation Uranium Concentration (F13
 RB    .OHMM                   :   29 Mud Resistivity
 RHOZ  .g/cm3                  :   30 Bulk Density 
 RLA1  .ohm.m                  :   31 ShalRes HRLT Borehole Corrected Resistivity 1
 RLA2  .ohm.m                  :   32 MedRes  HRLT Borehole Corrected Resistivity 2
 RLA3  .ohm.m                  :   33 DeepRes HRLT Borehole Corrected Resistivity 3
 RLA4  .ohm.m                  :   34 XDeepRes HRLT Borehole Corrected Resisitivity 4
 RLA5  .ohm.m                  :   35 UltraDeepR HRLT Borehole Corrected Resistivity 5
 RT    .ohm.m                  :   36 
 RXO   .ohm.m                  :   37 HRLT Invaded Zone Resistivity
 RXOZ  .ohm.m                  :   38 MicroRes Invaded Formation Resistivity
 SDEVM .deg                    :   39 Sonde Deviation
 SP    .mV                     :   40 Spontaneous Potential
 SW    .Dec                    :   41 Water saturation
 THOR  .                       :   42 
 TNPH  .V/V                    :   43 Neutron porosity
 VCLAV .Dec                    :   44 Clay volume
 HAZIM .deg                    :   45 Hole Azimuth
 DT    .uSec/m                 :   46 Sonic travel time
~A Log Data Section - Number of Curves = 46
# ...
231.80  0.1462    1.3492    1.9989    2.4705    3.2062    3.3648 215.9000 217.5661 211.8400 214.6845   592.9417 1802.2233  55.2916   0.7184  0.6369  64.6688  0.3509  2.0322 10.1794  0.1983 28.8735  2.2049    40.3446  0.2958  0.3250  2.5059  0.8188 331.7837  2.0564      2.0512      2.4845      2.7851      2.9941      3.2573      4.0152      1.1819    1.0255  0.6974 -162.7586  1.0000  5.0925  0.3476  0.1946 279.1148 344.1172
231.90  0.1463    1.3593    2.0453    2.5188    3.2970    3.4676 215.9000 216.9452 212.3495 214.6356   578.6321 1782.1965  58.2200   0.7742  0.7068  63.6616  0.3535  2.0359  9.9788  0.2036 28.8735  2.2114    32.9640  0.2825  0.3154  2.4657  0.8162 331.1996  2.0686      1.7438      2.0616      2.2972      2.4547      2.6710      3.2612      1.0684    0.9612  0.6974 -163.1569  1.0000  5.0198  0.3558  0.2194 279.1107 346.2875
232.00  0.1463    1.3775    2.0213    2.5278    3.3430    3.5230 215.9000 215.2528 212.4190 213.8312   560.6283 1757.7848  62.8564   0.7251  0.6842  65.3324  0.3746  2.1019  9.9041  0.2122 28.8735  2.2474    23.3640  0.2612  0.3004  2.5130  0.8523 330.6751  2.0860      1.9844      2.3638      2.6719      2.8594      3.1274      3.8757      1.2211    1.0118  0.6978 -163.7676  1.0000  5.2889  0.3672  0.2608 279.0979 347.6355
232.10  0.1463    1.4412    2.1333    2.6604    3.5256    3.6933 215.9000 213.2730 212.1906 212.7305   540.3258 1730.0186  68.6734   0.7038  0.6536  69.0933  0.3876  2.2134  9.7797  0.2292 28.8735  2.3308    14.1638  0.2332  0.2806  2.6242  0.9339 330.1981  2.1095      2.4856      2.9838      3.4387      3.7028      4.0628      5.1059      1.4820    1.1435  0.6986 -164.5414  1.0000  5.8089  0.3804  0.3164 279.0745 346.9918
232.20  0.1463    1.5181    2.3706    3.0890    4.2499    4.5327 215.9000 212.9020 211.7618 212.3309   529.3002 1701.3708  72.4405   0.8902  0.8057  74.1764  0.3810  2.2954  6.9073  0.3597 28.8735  2.4290     8.6912  0.2087  0.2629  2.6977  1.3292 329.7656  2.1355      2.4523      2.9405      3.3732      3.6121      3.9767      4.9671      1.4584    1.1248  0.6996 -165.3701  1.0000  6.1952  0.3834  0.3617 279.0589 346.4682
232.30  0.1462    1.5865    2.5153    3.3909    5.0597    5.3556 215.9000 212.7084 211.9402 212.3242   515.9476 1682.6619  73.5621   1.0712  0.9466  78.4711  0.4062  2.3693  5.5514  0.4267 28.8735  2.5303     7.2782  0.2004  0.2583  2.7901  1.5644 329.5580  2.1469      2.3131      2.7683      3.1497      3.3865      3.7210      4.6376      1.3935    1.1924  0.7005 -165.8687  1.0000  6.6141  0.3934  0.3860 279.0446 347.9027
232.40  0.1462    1.5520    2.4450    3.2832    4.9967    5.2446 215.9000 212.5477 212.5104 212.5295   500.4470 1673.1270  72.2417   0.9914  0.8761  82.0382  0.4123  2.4356  5.5955  0.4353 28.8735  2.5944    10.9853  0.2201  0.2737  2.8999  1.6517 329.5580  2.1443      2.1695      2.5648      2.9010      3.1379      3.4500      4.2768      1.3319    1.2637  0.7013 -166.0625  1.0000  7.0632  0.4099  0.3574 279.0309 350.0703
232.50  0.1461    1.4447    2.2129    2.8727    4.1348    4.2866 215.9000 212.7084 212.5710 212.6402   485.5586 1658.7987  72.3669   0.9137  0.8073  82.8777  0.4187  2.5846  6.9130  0.3794 28.8735  2.6045    12.7176  0.2275  0.2815  2.9150  1.4934 329.1237  2.1381      1.9826      2.3124      2.6098      2.8153      3.1085      3.8225      1.2414    1.1966  0.7022 -165.8628  1.0000  7.5354  0.4253  0.3601 279.0426 351.6885
232.60  0.1460    1.3929    2.0567    2.6127    3.7147    3.7712 215.9000 212.5993 212.3370 212.4682   473.0032 1651.0845  73.9317   0.9293  0.8210  83.5624  0.4489  2.6491  7.2522  0.3670 28.8735  2.5820    11.9051  0.2241  0.2832  2.9176  1.4576 328.6734  2.1253      2.0448      2.3729      2.6613      2.8706      3.1684      3.8776      1.2911    1.1301  0.7032 -165.8125  1.0000  7.7292  0.4408  0.3940 279.0627 351.6270
232.70  0.1460    1.3569    1.9930    2.5333    3.5514    3.5637 215.9000 212.2520 211.9285 212.0907   462.9752 1650.5355  77.0561   0.8623  0.7749  84.0795  0.4740  2.6221  6.5317  0.4017 28.8735  2.5604     5.1949  0.1856  0.2549  2.9066  1.5545 328.2059  2.1106      2.2147      2.5895      2.9073      3.1384      3.4765      4.2617      1.3730    1.1324  0.7044 -165.9241  1.0000  7.6214  0.4561  0.4616 279.0894 350.4085
232.80  0.1460    1.3866    2.0114    2.6104    3.7609    3.8421 215.9000 212.2150 211.8860 212.0510   483.7777 1651.3224  80.3679   0.8362  0.7482  84.6342  0.4345  2.5908  6.7189  0.3859 28.8735  2.5521     0.1590  0.0840  0.1640  2.9444  1.5253 327.6728  2.1024      2.2171      2.5877      2.9148      3.1304      3.4756      4.2407      1.3544    1.1189  0.7058 -166.0127  1.0000  7.6276  0.4256  0.5333 279.1164 348.4802
232.90  0.1459    1.3823    2.0464    2.6985    3.9596    4.0566 215.9000 212.4004 211.9922 212.1959   500.6541 1656.7279  82.1011   0.9036  0.7983  83.7668  0.4001  2.5331  6.4290  0.3978 28.8735  2.5531     0.0154  0.0495  0.1351  2.9185  1.5425 327.1261  2.0987      2.2169      2.5995      2.9207      3.1195      3.4719      4.2091      1.3234    1.0891  0.7066 -166.0625  1.0000  7.3978  0.4033  0.5708 279.1330 345.9183
233.00  0.1459    1.3698    2.0468    2.6927    3.9047    4.1164 215.9000 212.7711 212.2029 212.4874   510.1750 1668.1625  81.7288   0.8512  0.7561  81.0117  0.4004  2.4406  5.4434  0.4497 28.8735  2.5426     0.0262  0.0558  0.1402  2.8049  1.6300 326.5658  2.0946      2.0585      2.4123      2.6769      2.8554      3.1733      3.8164      1.2390    1.0510  0.7066 -166.0625  1.0000  6.8472  0.3951  0.5627 279.1345 344.3743
233.10  0.1458    1.3543    2.0123    2.6051    3.7500    4.0392 215.9000 212.6345 212.0243 212.3290   512.6865 1672.8391  76.5549   0.7575  0.6755  79.9291  0.3809  2.4275  5.5027  0.4414 28.8735  2.5222     6.0067  0.1919  0.2595  2.7765  1.5879 325.9262  2.0886      2.0342      2.4203      2.6695      2.8473      3.1694      3.8190      1.2123    0.9866  0.7070 -166.0625  1.0000  6.7401  0.3935  0.4507 279.1410 345.6851
233.20  0.1457    1.3384    1.9997    2.5677    3.5935    3.9601 215.9000 212.4386 211.9948 212.2162   506.8827 1687.4180  71.7220   0.7174  0.6394  78.6745  0.4095  2.4162  5.7808  0.4191 28.8735  2.4888    16.4095  0.2411  0.2931  2.7543  1.5107 325.2791  2.0833      2.1615      2.6095      2.8700      3.0634      3.4001      4.1197      1.2690    0.9709  0.7075 -166.0625  1.0000  6.6552  0.4074  0.3471 279.1483 350.6638
233.30  0.1457    1.3580    2.0456    2.6695    3.7746    4.1476 215.9000 212.2426 212.1947 212.2186   488.7825 1719.3785  68.3157   0.7535  0.6656  76.8360  0.4416  2.3934  6.2263  0.3849 28.8735  2.4484    27.7035  0.2716  0.3185  2.7266  1.4000 324.6344  2.0806      2.2719      2.7613      3.0501      3.2443      3.6056      4.3841      1.3143    0.9787  0.7080 -166.0625  1.0000  6.5261  0.4452  0.3128 279.1548 357.6788
233.40  0.1457    1.3697    2.0903    2.7537    3.9236    4.2770 215.9000 214.5432 212.2278 213.3819   481.7128 1736.6074  66.2869   0.8489  0.7499  76.8714  0.4743  2.3249  5.4671  0.4312 28.8735  2.4266    35.4432  0.2872  0.3312  2.7073  1.5167 324.5441  2.0794      2.1256      2.5694      2.8417      3.0162      3.3334      4.0492      1.2376    1.0018  0.7083 -166.0625  1.0000  6.2949  0.4629  0.2931 279.1479 364.3084
233.50  0.1457    1.3770    2.1317    2.7992    4.0433    4.4087 215.9000 215.2852 212.3181 213.7963   485.6769 1740.2872  66.1116   0.8180  0.7313  76.8267  0.4573  2.2866  4.7911  0.4774 28.8735  2.4207    34.4883  0.2854  0.3291  2.6755  1.6250 324.2836  2.0824      2.0421      2.4361      2.7034      2.8536      3.1483      3.8126      1.2162    0.9883  0.7084 -166.0625  1.0000  6.1169  0.4591  0.2914 279.1311 368.8262
233.60  0.1457    1.3865    2.1394    2.7894    4.0186    4.3885 215.9000 213.2510 212.5287 212.8893   508.3975 1721.3274  69.2439   0.7066  0.6427  75.9995  0.4097  2.3247  4.6822  0.4966 28.8735  2.4270    20.2806  0.2530  0.3013  2.6159  1.6407 323.4940  2.0924      2.2257      2.6619      2.9829      3.1580      3.4867      4.2510      1.3084    0.9901  0.7078 -166.0625  1.0000  6.0804  0.4183  0.3220 279.1000 370.8361
