~VERSION INFORMATION
 VERS.                  2.0:   CWLS Log Ascii Standard
 WRAP.                   NO:   One line per depth step
~WELL INFORMATION
#MNEM.UNIT        DATA TYPE:   INFORMATION
#---------    -------------   --------------------------
 STRT.M                0.00:   Top Depth
 STOP.M              805.20:   Bottom Depth
 STEP.M                0.10:   Increment
 NULL.              -999.25:   Null Value
 SRVC.                  KPG:   Service Company/Logging company
 DATE.           26.07.2024:   LAS file Creation Date
 WELL.                  356:   Well Name
 COMP.                KMG-B:   Company
 FLD .             Karatube:   Field
 STATE.                    :   State
 COUNT.          Kazakhstan:   Country
 LATI.                     :   Latitude/Northing
 LONG.                     :   Longitude/Easting
 DF  .                     :   DF Elevation
 GL  .                     :   GL Elevation
~PARAMETER INFORMATION
#MNEM  .UNIT          Value:   Description
#---------    -------------   --------------------------
~CURVE INFORMATION
#MNEM  .UNIT           API Code:   Curve Description
#---------       -------------- -------------------------- 
 DEPTH .M                      :   1 Measured depth
 AMF   .OHMM                   :   2 Array Induction Mud Resistivity Fully Calibrated (F13
 AT10  .ohm.m                  :   3 " Array Induction, two foot resolution
 AT20  .ohm.m                  :   4 " Array Induction, two foot resolution
 AT30  .ohm.m                  :   5 " Array Induction, two foot resolution
 AT60  .ohm.m                  :   6 " Array Induction, two foot resolution
 AT90  .ohm.m                  :   7 " Array Induction, two foot resolution
 BSC   .mm                     :   8 Nominal Caliper
 C1    .mm                     :   9 CALIPER DIAMETER 1
 C2    .mm                     :   10 CALIPER DIAMETER 2
 CALI  .mm                     :   11 Caliper
 CFTC  .dec                    :   12 Neutron far
 CNTC  .dec                    :   13 Neutron near
 GR    .uR/h                   :   14 GammaRay  
 HMIN  .Ohmm                   :   15 HIP Micro Inverse Resistivity
 HMNO  .Ohmm                   :   16 HIP Micro Normal Resistivity
 HSGR  .GAPI                   :   17 HNGS Standard Gamma-Ray
 HTNP  .m3/m3                  :   18 High Resolution Thermal Neutron Porosity (Ratio Method) in Selected Lithology
 HTPR  .                       :   19 HNGS Formation Thorium Potassium Concentration
 HTUR  .                       :   20 HNGS Formation Thorium Uranium Concentration
 HUPR  .                       :   21 HNGS Formation Uranium Potassium Concentration
 MTEM  .‘                      :   22 Mud Temperature
 PEFZ  .B/E                    :   23 Formation Photoelectric Factor 
 Perm  .md                     :   24 Permeability
 PHIE  .Dec                    :   25 Effective porosity 
 PHIT  .Dec                    :   26 Total porosity
 POTA  .                       :   27 
 PURA  .PPM                    :   28 Upper Limit of Formation Uranium Concentration (F13
 RB    .OHMM                   :   29 Mud Resistivity
 RHOZ  .g/cm3                  :   30 Bulk Density 
 RLA1  .ohm.m                  :   31 ShalRes HRLT Borehole Corrected Resistivity 1
 RLA2  .ohm.m                  :   32 MedRes  HRLT Borehole Corrected Resistivity 2
 RLA3  .ohm.m                  :   33 DeepRes HRLT Borehole Corrected Resistivity 3
 RLA4  .ohm.m                  :   34 XDeepRes HRLT Borehole Corrected Resisitivity 4
 RLA5  .ohm.m                  :   35 UltraDeepR HRLT Borehole Corrected Resistivity 5
 RT    .ohm.m                  :   36 
 RXO   .ohm.m                  :   37 HRLT Invaded Zone Resistivity
 RXOZ  .ohm.m                  :   38 MicroRes Invaded Formation Resistivity
 SDEVM .deg                    :   39 Sonde Deviation
 SP    .mV                     :   40 Spontaneous Potential
 SW    .Dec                    :   41 Water saturation
 THOR  .                       :   42 
 TNPH  .V/V                    :   43 Neutron porosity
 VCLAV .Dec                    :   44 Clay volume
 HAZIM .deg                    :   45 Hole Azimuth
 DT    .uSec/m                 :   46 Sonic travel time
~A Log Data Section - Number of Curves = 46
# ...
798.00  0.1924   -999.25   -999.25   -999.25   -999.25   -999.25 215.9000 216.7001 216.1705 216.4348 11443.6396 7199.6411  -999.25  48.6028 44.1156  25.0430 -999.25  2.0637  4.3141  0.1182 34.3321  5.4067     0.0000 -999.25 -999.25  1.0523  0.4005  -999.25  2.9999     -999.25     -999.25     -999.25     -999.25     -999.25     -999.25     -999.25  847.9688 -999.25 -218.4349 -999.25  2.1571 -0.0176  0.1570  -999.25 128.2137
798.10  0.1927   -999.25   -999.25   -999.25   -999.25   -999.25 215.9000 216.3162 216.1103 216.2132 11443.6396 7199.6411  -999.25  11.4140 11.2544  24.5649 -999.25  2.3296  4.3610  0.3520 34.3321  5.3846     0.0000 -999.25 -999.25  0.9377  0.6848  -999.25  2.9989     -999.25     -999.25     -999.25     -999.25     -999.25     -999.25     -999.25  805.7443 -999.25 -216.1867 -999.25  2.1805 -0.0176  0.1263  -999.25 128.8858
798.20  0.1929   -999.25   -999.25   -999.25   -999.25   -999.25 215.9000 216.6216 216.1040 216.3628 11443.6396 7199.6411  -999.25   7.3301  7.6466  24.5219 -999.25  2.3535  4.3652  0.3731 34.3321  5.3643     0.0000 -999.25 -999.25  0.9274  0.7104  -999.25  2.9967     -999.25     -999.25     -999.25     -999.25     -999.25     -999.25     -999.25  722.8459 -999.25 -216.6727 -999.25  2.1826 -0.0176  0.1236  -999.25 130.0885
798.30  0.1932   -999.25   -999.25   -999.25   -999.25   -999.25 215.9000 211.6200 215.9402 213.7675 11443.6396 7199.6411  -999.25  26.4318 24.5252  24.5219 -999.25  2.3535  4.3652  0.3731 34.3321  5.3394     0.0000 -999.25 -999.25  0.9274  0.7104  -999.25  2.9882     -999.25     -999.25     -999.25     -999.25     -999.25     -999.25     -999.25  730.9613 -999.25 -216.5575 -999.25  2.1826 -0.0176  0.1236  -999.25 131.0006
798.40  0.1935   -999.25   -999.25   -999.25   -999.25   -999.25 215.9000 200.4166 215.5872 207.8556 11443.6396 7199.6411  -999.25  32.0385 29.4789  24.5219 -999.25  2.3535  4.3652  0.3731 34.3321  5.3142     0.0000 -999.25 -999.25  0.9274  0.7104  -999.25  2.9780     -999.25     -999.25     -999.25     -999.25     -999.25     -999.25     -999.25  856.3576 -999.25 -215.0789 -999.25  2.1826 -0.0176  0.1236  -999.25 132.1723
798.50  0.1938   -999.25   -999.25   -999.25   -999.25   -999.25 215.9000 200.1871 212.5026 206.2518 11443.6396 7199.6411  -999.25  36.5528 33.4678  24.5219 -999.25  2.3535  4.3652  0.3731 34.3321  5.2788     0.0000 -999.25 -999.25  0.9274  0.7104  -999.25  2.9541     -999.25     -999.25     -999.25     -999.25     -999.25     -999.25     -999.25  832.0724 -999.25 -214.3849 -999.25  2.1826 -0.0176  0.1236  -999.25 131.9677
798.60  0.1943   -999.25   -999.25   -999.25   -999.25   -999.25 215.9000 199.7773 207.8512 203.7733 11443.6396 7199.6411  -999.25  36.5624 33.4764  24.5219 -999.25  2.3535  4.3652  0.3731 34.3321  5.2378     0.0000 -999.25 -999.25  0.9274  0.7104  -999.25  2.9233     -999.25     -999.25     -999.25     -999.25     -999.25     -999.25     -999.25  812.1054 -999.25 -213.6428 -999.25  2.1826 -0.0176  0.1236  -999.25 130.7540
798.70  0.1951   -999.25   -999.25   -999.25   -999.25   -999.25 215.9000 196.7203 201.5949 199.1423 11443.6396 7199.6411  -999.25  26.8253 24.8723  24.5219 -999.25  2.3535  4.3652  0.3731 34.3321  5.2039     0.0000 -999.25 -999.25  0.9274  0.7104  -999.25  2.8947     -999.25     -999.25     -999.25     -999.25     -999.25     -999.25     -999.25  687.1281 -999.25 -212.5592 -999.25  2.1826 -0.0176  0.1236  -999.25 129.1228
798.80  0.1960   -999.25   -999.25   -999.25   -999.25   -999.25 215.9000 192.0490 186.0247 189.0045 11443.6396 7199.6411  -999.25   1.8693  2.7099  24.5219 -999.25  2.3535  4.3652  0.3731 34.3321  5.1815     0.0000 -999.25 -999.25  0.9274  0.7104  -999.25  2.8708     -999.25     -999.25     -999.25     -999.25     -999.25     -999.25     -999.25  409.2165 -999.25 -212.2619 -999.25  2.1826 -0.0176  0.1236  -999.25 128.8607
798.90  0.1984   -999.25   -999.25   -999.25   -999.25   -999.25 215.9000 182.5805 173.0800 177.7665 11443.6396 7199.6411  -999.25   1.2280  1.7859  24.5219 -999.25  2.3535  4.3652  0.3731 34.3321  5.1610     0.0000 -999.25 -999.25  0.9274  0.7104  -999.25  2.8625     -999.25     -999.25     -999.25     -999.25     -999.25     -999.25     -999.25  241.0977 -999.25 -214.6799 -999.25  2.1826 -0.0176  0.1236  -999.25 129.3505
799.00  0.2048   -999.25   -999.25   -999.25   -999.25   -999.25 215.9000 165.5062 167.4799 166.4796 11443.6396 7199.6411  -999.25   1.0316  1.5055  24.5219 -999.25  2.3535  4.3652  0.3731 34.3321 -999.25     0.0000 -999.25 -999.25  0.9274  0.7104  -999.25 -999.25     -999.25     -999.25     -999.25     -999.25     -999.25     -999.25     -999.25  135.5133 -999.25 -223.3230 -999.25  2.1826 -0.0176  0.1236  -999.25 129.8658
799.10  0.2112   -999.25   -999.25   -999.25   -999.25   -999.25 215.9000 109.4401 116.8247 113.0673 11443.6396 7199.6411  -999.25   0.9193  1.3299  24.5219 -999.25  2.3535  4.3652  0.3731 34.3321 -999.25     0.0000 -999.25 -999.25  0.9274  0.7104  -999.25 -999.25     -999.25     -999.25     -999.25     -999.25     -999.25     -999.25     -999.25   63.8464 -999.25 -231.1568 -999.25  2.1826 -0.0176  0.1236  -999.25 130.2687
799.20  0.2225   -999.25   -999.25   -999.25   -999.25   -999.25 215.9000  63.8576  73.5949  68.5463 11443.6396 7199.6411  -999.25   0.8130  1.1654  24.5219 -999.25  2.3535  4.3652  0.3731 34.3321 -999.25     0.0000 -999.25 -999.25  0.9274  0.7104  -999.25 -999.25     -999.25     -999.25     -999.25     -999.25     -999.25     -999.25     -999.25   28.7885 -999.25 -237.7294 -999.25  2.1826 -0.0176  0.1236  -999.25 130.4409
799.30  0.2494   -999.25   -999.25   -999.25   -999.25   -999.25 215.9000  59.5863  69.3453  64.2810 11443.6396 7199.6411  -999.25   0.6743  0.9738  24.5219 -999.25  2.3535  4.3652  0.3731 34.3321 -999.25     0.0000 -999.25 -999.25  0.9274  0.7104  -999.25 -999.25     -999.25     -999.25     -999.25     -999.25     -999.25     -999.25     -999.25   17.1806 -999.25 -241.0735 -999.25  2.1826 -0.0176  0.1236  -999.25 130.2727
799.40  0.2763   -999.25   -999.25   -999.25   -999.25   -999.25 215.9000  59.6216  69.3263  64.2913 11443.6396 7199.6411  -999.25   0.4991  0.7388  24.5219 -999.25  2.3535  4.3652  0.3731 34.3321 -999.25     0.0000 -999.25 -999.25  0.9274  0.7104  -999.25 -999.25     -999.25     -999.25     -999.25     -999.25     -999.25     -999.25     -999.25    8.5459 -999.25 -240.8084 -999.25  2.1826 -0.0176  0.1236  -999.25 129.8272
799.50  0.2978   -999.25   -999.25   -999.25   -999.25   -999.25 215.9000  59.6240  69.3250  64.2920 11443.6396 7199.6411  -999.25   0.3964  0.5881  24.5219 -999.25  2.3535  4.3652  0.3731 34.3321 -999.25     0.0000 -999.25 -999.25  0.9274  0.7104  -999.25 -999.25     -999.25     -999.25     -999.25     -999.25     -999.25     -999.25     -999.25    4.6881 -999.25 -239.1759 -999.25  2.1826 -0.0176  0.1236  -999.25 129.6552
799.60  0.2979   -999.25   -999.25   -999.25   -999.25   -999.25 215.9000  59.6240  69.3250  64.2920 11443.6396 7199.6411  -999.25   0.3360  0.4911  24.5219 -999.25  2.3535  4.3652  0.3731 34.3321 -999.25     0.0000 -999.25 -999.25  0.9274  0.7104  -999.25 -999.25     -999.25     -999.25     -999.25     -999.25     -999.25     -999.25     -999.25    3.1170 -999.25 -237.6881 -999.25  2.1826 -0.0176  0.1236  -999.25 130.1085
799.70  0.2980   -999.25   -999.25   -999.25   -999.25   -999.25 215.9000  59.6240  69.3250  64.2920 11443.6396 7199.6411  -999.25   0.3196  0.4550  24.5219 -999.25  2.3535  4.3652  0.3731 34.3321 -999.25     0.0000 -999.25 -999.25  0.9274  0.7104  -999.25 -999.25     -999.25     -999.25     -999.25     -999.25     -999.25     -999.25     -999.25    2.4185 -999.25 -235.0633 -999.25  2.1826 -0.0176  0.1236  -999.25 130.5075
799.80 -999.25   -999.25   -999.25   -999.25   -999.25   -999.25 215.9000  59.6240  69.3250  64.2920 11443.6396 7199.6411  -999.25   0.3060  0.4355  24.5219 -999.25  2.3535  4.3652  0.3731 34.3321 -999.25     0.0000 -999.25 -999.25  0.9274  0.7104  -999.25 -999.25     -999.25     -999.25     -999.25     -999.25     -999.25     -999.25     -999.25    2.0781 -999.25 -232.3560 -999.25  2.1826 -0.0176  0.1236  -999.25 130.4630
