~VERSION INFORMATION
 VERS.                  2.0:   CWLS Log Ascii Standard
 WRAP.                   NO:   One line per depth step
~WELL INFORMATION
#MNEM.UNIT        DATA TYPE:   INFORMATION
#---------    -------------   --------------------------
 STRT.M                0.00:   Top Depth
 STOP.M              805.20:   Bottom Depth
 STEP.M                0.10:   Increment
 NULL.              -999.25:   Null Value
 SRVC.                  KPG:   Service Company/Logging company
 DATE.           26.07.2024:   LAS file Creation Date
 WELL.                  356:   Well Name
 COMP.                KMG-B:   Company
 FLD .             Karatube:   Field
 STATE.                    :   State
 COUNT.          Kazakhstan:   Country
 LATI.                     :   Latitude/Northing
 LONG.                     :   Longitude/Easting
 DF  .                     :   DF Elevation
 GL  .                     :   GL Elevation
~PARAMETER INFORMATION
#MNEM  .UNIT          Value:   Description
#---------    -------------   --------------------------
~CURVE INFORMATION
#MNEM  .UNIT           API Code:   Curve Description
#---------       -------------- -------------------------- 
 DEPTH .M                      :   1 Measured depth
 AMF   .OHMM                   :   2 Array Induction Mud Resistivity Fully Calibrated (F13
 AT10  .ohm.m                  :   3 " Array Induction, two foot resolution
 AT20  .ohm.m                  :   4 " Array Induction, two foot resolution
 AT30  .ohm.m                  :   5 " Array Induction, two foot resolution
 AT60  .ohm.m                  :   6 " Array Induction, two foot resolution
 AT90  .ohm.m                  :   7 " Array Induction, two foot resolution
 BSC   .mm                     :   8 Nominal Caliper
 C1    .mm                     :   9 CALIPER DIAMETER 1
 C2    .mm                     :   10 CALIPER DIAMETER 2
 CALI  .mm                     :   11 Caliper
 CFTC  .dec                    :   12 Neutron far
 CNTC  .dec                    :   13 Neutron near
 GR    .uR/h                   :   14 GammaRay  
 HMIN  .Ohmm                   :   15 HIP Micro Inverse Resistivity
 HMNO  .Ohmm                   :   16 HIP Micro Normal Resistivity
 HSGR  .GAPI                   :   17 HNGS Standard Gamma-Ray
 HTNP  .m3/m3                  :   18 High Resolution Thermal Neutron Porosity (Ratio Method) in Selected Lithology
 HTPR  .                       :   19 HNGS Formation Thorium Potassium Concentration
 HTUR  .                       :   20 HNGS Formation Thorium Uranium Concentration
 HUPR  .                       :   21 HNGS Formation Uranium Potassium Concentration
 MTEM  .‘                      :   22 Mud Temperature
 PEFZ  .B/E                    :   23 Formation Photoelectric Factor 
 Perm  .md                     :   24 Permeability
 PHIE  .Dec                    :   25 Effective porosity 
 PHIT  .Dec                    :   26 Total porosity
 POTA  .                       :   27 
 PURA  .PPM                    :   28 Upper Limit of Formation Uranium Concentration (F13
 RB    .OHMM                   :   29 Mud Resistivity
 RHOZ  .g/cm3                  :   30 Bulk Density 
 RLA1  .ohm.m                  :   31 ShalRes HRLT Borehole Corrected Resistivity 1
 RLA2  .ohm.m                  :   32 MedRes  HRLT Borehole Corrected Resistivity 2
 RLA3  .ohm.m                  :   33 DeepRes HRLT Borehole Corrected Resistivity 3
 RLA4  .ohm.m                  :   34 XDeepRes HRLT Borehole Corrected Resisitivity 4
 RLA5  .ohm.m                  :   35 UltraDeepR HRLT Borehole Corrected Resistivity 5
 RT    .ohm.m                  :   36 
 RXO   .ohm.m                  :   37 HRLT Invaded Zone Resistivity
 RXOZ  .ohm.m                  :   38 MicroRes Invaded Formation Resistivity
 SDEVM .deg                    :   39 Sonde Deviation
 SP    .mV                     :   40 Spontaneous Potential
 SW    .Dec                    :   41 Water saturation
 THOR  .                       :   42 
 TNPH  .V/V                    :   43 Neutron porosity
 VCLAV .Dec                    :   44 Clay volume
 HAZIM .deg                    :   45 Hole Azimuth
 DT    .uSec/m                 :   46 Sonic travel time
~A Log Data Section - Number of Curves = 46
# ...
362.90  0.1391    1.3996    1.8918    2.1877    2.6702    2.6770 215.9000 212.1112 211.5470 211.8291   472.5151 1636.6528  96.3653   1.1514  1.0177  89.0177  0.4457  2.7795  6.5380  0.4278 30.6429  2.5649     6.5830  0.1959  0.2642  3.0102  1.6942 252.2477  2.0832      1.6087      1.8048      1.9586      2.0426      2.2139      2.5775      1.0446    1.4053  0.4089 -185.5343  1.0000  8.3651  0.4371  0.4553 272.2158 410.1745
363.00  0.1390    1.3817    1.8503    2.1523    2.6301    2.6585 215.9000 211.9479 211.5470 211.7479   475.5150 1646.6895  94.3949   1.0568  0.9339  88.7208  0.4427  2.7109  7.2159  0.3762 30.6429  2.5438     3.3114  0.1676  0.2385  3.0570  1.5581 250.8844  2.0797      1.6905      1.8906      2.0533      2.1440      2.3257      2.7067      1.0964    1.3113  0.4098 -185.4731  1.0000  8.2867  0.4367  0.4728 272.1659 410.3831
363.10  0.1390    1.3630    1.8489    2.1317    2.5961    2.6361 215.9000 212.1019 211.5470 211.8245   481.1508 1640.4427  89.2493   0.9516  0.8408  87.9029  0.4299  2.5922  7.2816  0.3560 30.6429  2.5096     2.1736  0.1523  0.2247  3.0830  1.5070 249.3610  2.0746      1.7026      1.8967      2.0586      2.1575      2.3374      2.7173      1.1029    1.2637  0.4126 -184.7340  1.0000  7.9901  0.4259  0.4825 272.1338 410.2877
363.20  0.1390    1.3449    1.8137    2.1054    2.5971    2.6588 215.9000 212.1183 211.5470 211.8331   481.7782 1639.7094  84.1289   0.9556  0.8444  86.8763  0.4205  2.5425  9.2399  0.3009 30.6429  2.4910     1.4447  0.1388  0.2125  3.1068  1.3428 247.7971  2.0651      1.6065      1.7782      1.9258      2.0150      2.1850      2.5258      1.0522    1.2046  0.4160 -183.6790  1.0000  7.8997  0.4248  0.4913 272.1052 409.7454
363.30  0.1389    1.3161    1.7647    2.0259    2.5232    2.5843 215.9000 211.9470 211.5470 211.7475   474.9132 1648.6733  79.3886   0.9565  0.8452  85.6056  0.4412  2.5976 13.9882  0.1920 30.6429  2.4631     0.9575  0.1264  0.2014  3.1296  1.0069 246.1922  2.0583      1.5419      1.7059      1.8426      1.9263      2.0911      2.4106      1.0162    1.0923  0.4198 -182.2427  1.0000  8.1297  0.4387  0.4999 272.0769 408.8152
363.40  0.1390    1.2923    1.7343    1.9745    2.4411    2.5188 215.9000 212.2664 211.5470 211.9063   463.9330 1642.0287  76.4971   0.8168  0.7215  82.7951  0.4452  2.6620 15.3978  0.1558 30.6429  2.4303     4.7868  0.1822  0.2518  3.0327  0.8693 244.6820  2.0525      1.5559      1.7287      1.8613      1.9464      2.1109      2.4362      1.0274    1.0451  0.4240 -180.1946  1.0000  8.0687  0.4531  0.4637 272.0543 407.4932
363.50  0.1390    1.3048    1.7688    2.0219    2.4512    2.5685 215.9000 212.4111 211.5470 211.9790   460.3879 1647.2782  74.6958   0.7313  0.6460  79.7171  0.4493  2.6849 15.7016  0.1444 30.6429  2.4255    17.7446  0.2454  0.3088  2.9232  0.8041 243.1907  2.0423      1.6894      1.8879      2.0323      2.1346      2.3125      2.6826      1.1020    1.0088  0.4285 -178.1656  1.0000  7.8508  0.4609  0.4228 272.0251 406.1145
363.60  0.1390    1.3470    1.8617    2.1524    2.5616    2.7208 215.9000 212.2466 211.5470 211.8968   471.0584 1677.4565  74.3842   0.7836  0.6922  76.5367  0.4519  2.6320 14.8488  0.1595 30.6429  2.4378    24.0036  0.2629  0.3205  2.8204  0.8194 241.7099  2.0314      1.7350      1.9441      2.0904      2.1946      2.3787      2.7618      1.1282    0.9655  0.4338 -176.3189  1.0000  7.4244  0.4567  0.3845 271.9808 405.1011
363.70  0.1390    1.3842    1.9650    2.2914    2.7416    2.9045 215.9000 212.2162 211.7378 211.9770   474.5288 1684.2291  76.9192   0.8059  0.7119  74.9085  0.4681  2.6284 14.6012  0.1442 30.6429  2.4495    27.2540  0.2706  0.3258  2.7776  0.7664 240.3403  2.0245      1.7837      1.9803      2.1248      2.2445      2.4094      2.7944      1.1718    1.0285  0.4388 -175.7851  1.0000  7.3006  0.4541  0.3685 271.9316 404.8830
363.80  0.1390    1.3968    2.0163    2.3354    2.8204    2.9641 215.9000 212.1448 211.7716 211.9582   477.8599 1690.6359  80.5011   0.8571  0.7614  74.4717  0.4631  2.5950 14.4478  0.1326 30.6429  2.4645    26.9327  0.2698  0.3255  2.7855  0.7352 239.0103  2.0204      1.7717      1.9802      2.1334      2.2602      2.4235      2.8290      1.1451    1.0702  0.4421 -175.3416  1.0000  7.2239  0.4517  0.3715 271.8954 404.9975
363.90  0.1390    1.3867    1.9987    2.2718    2.7479    2.8590 215.9000 211.9642 211.5111 211.7381   483.9333 1706.1517  85.2061   0.8850  0.7851  76.0289  0.4459  2.4742 14.2477  0.1420 30.6429  2.4802    21.1493  0.2554  0.3164  2.8805  0.7817 237.7215  2.0179      1.6306      1.8239      1.9675      2.0819      2.2285      2.6019      1.0584    1.0721  0.4421 -174.5428  1.0000  7.1238  0.4488  0.4069 271.8919 405.0166
364.00  0.1391    1.3770    1.9823    2.2181    2.6794    2.7653 215.9000 212.0791 211.5045 211.7914   479.9999 1717.8274  89.4766   0.8640  0.7633  76.4611  0.4588  2.3942 13.9547  0.1547 30.6429  2.4845    19.3341  0.2502  0.3132  2.9146  0.8272 237.4508  2.0189      1.6633      1.8549      2.0199      2.1223      2.2648      2.6526      1.0838    1.0530  0.4453 -174.0523  1.0000  6.9773  0.4599  0.4196 271.8439 404.6649
364.10  0.1392    1.4067    2.0595    2.3275    2.8353    2.9127 215.9000 212.2029 211.6168 211.9098   476.9196 1726.5604  92.7003   0.7893  0.6972  76.5066  0.4653  2.3075 13.5516  0.1635 30.6429  2.4746    15.6955  0.2387  0.3029  2.9371  0.8590 237.1431  2.0207      1.8782      2.1002      2.3211      2.4289      2.5803      3.0562      1.2013    1.0901  0.4489 -173.5589  1.0000  6.7758  0.4684  0.4280 271.7682 404.2412
364.20  0.1393    1.4795    2.2394    2.5779    3.1825    3.2299 215.9000 212.2150 211.8333 212.0246   483.8383 1729.8236  93.2738   0.8573  0.7574  76.3025  0.4497  2.1714 12.9057  0.1588 30.6429  2.4611    10.6583  0.2186  0.2847  2.9725  0.8522 235.9597  2.0177      2.0263      2.2610      2.5227      2.6257      2.7945      3.3197      1.2803    1.0727  0.4513 -172.8239  1.0000  6.4529  0.4589  0.4412 271.6630 403.8489
364.30  0.1393    1.5616    2.3974    2.8244    3.5624    3.5481 215.9000 212.2150 212.0576 212.1368   489.1852 1731.3307  90.8758   0.9007  0.8093  75.1064  0.4638  2.1251 11.6211  0.1794 30.6429  2.4475    18.2800  0.2471  0.3104  2.9210  0.9012 234.7258  2.0133      1.9866      2.2194      2.4685      2.5677      2.7198      3.2300      1.2540    1.0892  0.4526 -172.4247  1.0000  6.2080  0.4513  0.4220 271.5824 403.6435
364.40  0.1393    1.5749    2.3867    2.8198    3.5750    3.5051 215.9000 212.2150 212.2807 212.2479   498.0953 1732.5822  87.2208   0.8649  0.7745  73.7633  0.4431  2.1247 10.5579  0.2013 30.6429  2.4216    22.4701  0.2589  0.3180  2.8455  0.9487 233.4946  2.0120      1.8374      2.0823      2.2921      2.3835      2.5315      3.0042      1.1522    1.0887  0.4534 -172.2523  1.0000  6.0450  0.4390  0.3938 271.5077 403.5406
364.50  0.1394    1.5392    2.3002    2.6946    3.4246    3.3900 215.9000 212.2150 212.5019 212.3589   521.5969 1735.1149  82.8108   0.8113  0.7167  73.1351  0.3994  2.1750 11.0753  0.1965 30.6429  2.3901    22.6524  0.2594  0.3156  2.7934  0.9209 232.3360  2.0121      1.7449      1.9911      2.1645      2.2524      2.3859      2.8247      1.1049    1.0193  0.4541 -172.4653  1.0000  6.0747  0.4078  0.3744 271.4094 403.4075
364.60  0.1393    1.5226    2.2064    2.5908    3.3236    3.3653 215.9000 212.2150 212.2486 212.2323   529.9760 1734.2863  79.4211   0.7468  0.6597  72.8808  0.3993  2.0970 10.0409  0.2112 30.6429  2.3644    22.0883  0.2579  0.3136  2.7844  0.9577 231.1147  2.0127      1.7685      2.0447      2.2044      2.3066      2.4497      2.9085      1.1132    0.9618  0.4544 -172.4198  1.0000  5.8382  0.3961  0.3710 271.3269 403.3685
364.70  0.1393    1.5354    2.1984    2.6007    3.3651    3.4773 215.9000 212.2150 212.0875 212.1513   534.2572 1731.3149  76.8307   0.7239  0.6394  72.8004  0.3826  1.9899  8.5821  0.2319 30.6429  2.3482    21.1826  0.2555  0.3113  2.7880  1.0141 229.8787  2.0139      1.9002      2.1837      2.3613      2.4751      2.6260      3.1171      1.1917    0.9487  0.4546 -172.2132  1.0000  5.5476  0.3900  0.3724 271.2635 404.0637
