~VERSION INFORMATION
 VERS.                  2.0:   CWLS Log Ascii Standard
 WRAP.                   NO:   One line per depth step
~WELL INFORMATION
#MNEM.UNIT        DATA TYPE:   INFORMATION
#---------    -------------   --------------------------
 STRT.M                0.00:   Top Depth
 STOP.M              805.20:   Bottom Depth
 STEP.M                0.10:   Increment
 NULL.              -999.25:   Null Value
 SRVC.                  KPG:   Service Company/Logging company
 DATE.           26.07.2024:   LAS file Creation Date
 WELL.                  356:   Well Name
 COMP.                KMG-B:   Company
 FLD .             Karatube:   Field
 STATE.                    :   State
 COUNT.          Kazakhstan:   Country
 LATI.                     :   Latitude/Northing
 LONG.                     :   Longitude/Easting
 DF  .                     :   DF Elevation
 GL  .                     :   GL Elevation
~PARAMETER INFORMATION
#MNEM  .UNIT          Value:   Description
#---------    -------------   --------------------------
~CURVE INFORMATION
#MNEM  .UNIT           API Code:   Curve Description
#---------       -------------- -------------------------- 
 DEPTH .M                      :   1 Measured depth
 AMF   .OHMM                   :   2 Array Induction Mud Resistivity Fully Calibrated (F13
 AT10  .ohm.m                  :   3 " Array Induction, two foot resolution
 AT20  .ohm.m                  :   4 " Array Induction, two foot resolution
 AT30  .ohm.m                  :   5 " Array Induction, two foot resolution
 AT60  .ohm.m                  :   6 " Array Induction, two foot resolution
 AT90  .ohm.m                  :   7 " Array Induction, two foot resolution
 BSC   .mm                     :   8 Nominal Caliper
 C1    .mm                     :   9 CALIPER DIAMETER 1
 C2    .mm                     :   10 CALIPER DIAMETER 2
 CALI  .mm                     :   11 Caliper
 CFTC  .dec                    :   12 Neutron far
 CNTC  .dec                    :   13 Neutron near
 GR    .uR/h                   :   14 GammaRay  
 HMIN  .Ohmm                   :   15 HIP Micro Inverse Resistivity
 HMNO  .Ohmm                   :   16 HIP Micro Normal Resistivity
 HSGR  .GAPI                   :   17 HNGS Standard Gamma-Ray
 HTNP  .m3/m3                  :   18 High Resolution Thermal Neutron Porosity (Ratio Method) in Selected Lithology
 HTPR  .                       :   19 HNGS Formation Thorium Potassium Concentration
 HTUR  .                       :   20 HNGS Formation Thorium Uranium Concentration
 HUPR  .                       :   21 HNGS Formation Uranium Potassium Concentration
 MTEM  .‘                      :   22 Mud Temperature
 PEFZ  .B/E                    :   23 Formation Photoelectric Factor 
 Perm  .md                     :   24 Permeability
 PHIE  .Dec                    :   25 Effective porosity 
 PHIT  .Dec                    :   26 Total porosity
 POTA  .                       :   27 
 PURA  .PPM                    :   28 Upper Limit of Formation Uranium Concentration (F13
 RB    .OHMM                   :   29 Mud Resistivity
 RHOZ  .g/cm3                  :   30 Bulk Density 
 RLA1  .ohm.m                  :   31 ShalRes HRLT Borehole Corrected Resistivity 1
 RLA2  .ohm.m                  :   32 MedRes  HRLT Borehole Corrected Resistivity 2
 RLA3  .ohm.m                  :   33 DeepRes HRLT Borehole Corrected Resistivity 3
 RLA4  .ohm.m                  :   34 XDeepRes HRLT Borehole Corrected Resisitivity 4
 RLA5  .ohm.m                  :   35 UltraDeepR HRLT Borehole Corrected Resistivity 5
 RT    .ohm.m                  :   36 
 RXO   .ohm.m                  :   37 HRLT Invaded Zone Resistivity
 RXOZ  .ohm.m                  :   38 MicroRes Invaded Formation Resistivity
 SDEVM .deg                    :   39 Sonde Deviation
 SP    .mV                     :   40 Spontaneous Potential
 SW    .Dec                    :   41 Water saturation
 THOR  .                       :   42 
 TNPH  .V/V                    :   43 Neutron porosity
 VCLAV .Dec                    :   44 Clay volume
 HAZIM .deg                    :   45 Hole Azimuth
 DT    .uSec/m                 :   46 Sonic travel time
~A Log Data Section - Number of Curves = 46
# ...
710.60  0.1274    1.9198    1.8499    1.8112    1.8237    1.8200 215.9000 214.1616 213.4647 213.8130   847.9564 2269.8945  70.8563   1.8599  1.6470  73.7649  0.2782  4.7038  4.2556  1.1054 34.6275  1.9158     0.6927  0.1174  0.1682  1.8022  2.3698 291.3008  2.3349      1.9261      1.8796      1.8759      1.8481      1.7981      1.7534      2.3933    2.2602  0.0840 -195.1636  1.0000  8.4744  0.2790  0.3383 230.8458 258.0935
710.70  0.1274    1.9135    1.8501    1.8009    1.8135    1.7981 215.9000 213.3068 213.1117 213.2088   892.3275 2356.8318  67.3750   1.5028  1.4221  71.5785  0.2754  4.7955  4.4822  1.0715 34.6275  1.9136     0.8948  0.1245  0.1700  1.7466  2.2400 291.4394  2.3435      1.9271      1.8799      1.8910      1.8637      1.8059      1.7786      2.3442    2.2302  0.0822 -194.8265  1.0000  8.3735  0.2711  0.3036 230.8147 250.0416
710.80  0.1275    1.9364    1.8580    1.8196    1.8465    1.8295 215.9000 212.9365 212.9846 212.9605   931.9403 2457.8867  63.9722   1.2308  1.2300  69.2231  0.2677  4.8960  4.7418  1.0325 34.6275  1.9058     1.2851  0.1351  0.1758  1.6891  2.1010 291.5459  2.3494      1.9317      1.8781      1.9014      1.8763      1.8130      1.7908      2.3346    2.2831  0.0804 -194.4379  1.0000  8.2659  0.2697  0.2711 230.8435 237.5355
710.90  0.1276    1.9398    1.8620    1.8052    1.8186    1.8001 215.9000 213.2523 213.1747 213.2135   984.7790 2562.3606  59.6181   1.3500  1.3244  65.0067  0.2615  5.0453  4.8991  1.0299 34.6275  1.8886     1.7791  0.1455  0.1802  1.5706  1.9542 291.8737  2.3531      1.9944      1.9347      1.9583      1.9372      1.8656      1.8397      2.4158    2.3929  0.0788 -194.1619  1.0000  7.9166  0.2628  0.2316 231.0245 229.5628
711.00  0.1276    1.9604    1.8839    1.8439    1.8495    1.8204 215.9000 213.5124 213.4004 213.4564  1019.9442 2631.2322  57.4199   1.8866  1.7321  60.9607  0.2560  5.0594  4.6077  1.1060 34.6275  1.8867     2.0335  0.1500  0.1819  1.4565  1.9212 291.7791  2.3539      2.0866      2.0454      2.0714      2.0548      1.9777      1.9851      2.4167    2.5812  0.0762 -193.3745  1.0000  7.3729  0.2584  0.2125 231.5497 229.5372
711.10  0.1276    2.0363    1.9420    1.8788    1.8857    1.8632 215.9000 213.5982 213.5373 213.5673  1046.3103 2682.2463  56.6010   2.2410  2.0474  57.0624  0.2519  4.9525  4.0781  1.2148 34.6275  1.8967     2.1050  0.1512  0.1820  1.3531  1.9446 291.3420  2.3509      2.2087      2.1922      2.2155      2.2030      2.1195      2.1577      2.4166    2.8813  0.0733 -192.3674  1.0000  6.7044  0.2552  0.2055 232.2649 229.7467
711.20  0.1275    2.0503    1.9911    1.9058    1.8979    1.8482 215.9000 213.2585 213.3475 213.3034  1081.0540 2749.1660  57.0043   2.2249  2.0392  53.5438  0.2424  4.5164  3.6523  1.2378 34.6275  1.9102     1.9119  0.1479  0.1792  1.3098  1.9110 290.1350  2.3479      2.2183      2.2100      2.2267      2.2198      2.1377      2.1777      2.4124    2.9842  0.0717 -191.8575  1.0000  5.9241  0.2512  0.2089 232.7705 221.7795
711.30  0.1273    2.1223    2.0688    2.0116    1.9893    1.9173 215.9000 212.9743 213.9253 213.4494  1114.2299 2787.2188  57.4553   2.1478  1.9374  51.1611  0.2384  4.4211  3.4139  1.2965 34.6275  1.9458     1.6131  0.1423  0.1742  1.2553  1.9077 288.9216  2.3451      2.2382      2.2252      2.2347      2.2276      2.1467      2.1768      2.4987    2.7427  0.0701 -191.4660  1.0000  5.5451  0.2439  0.2128 233.2559 208.1073
711.40  0.1271    2.1281    2.1029    2.0243    2.0254    1.9812 215.9000 212.8138 214.7309 213.7696  1144.1100 2800.0164  57.8832   1.5178  1.4711  49.7090  0.2333  4.5447  3.2988  1.3781 34.6275  1.9867     1.2756  0.1349  0.1674  1.1986  1.9308 287.7059  2.3446      2.3188      2.3019      2.3128      2.3064      2.2308      2.2632      2.5461    2.8394  0.0684 -191.1551  1.0000  5.4472  0.2344  0.2164 233.7309 200.7395
711.50  0.1270    2.0317    2.0693    2.0017    2.0166    1.9761 215.9000 212.9988 214.4629 213.7292  1144.6812 2743.7920  57.5635   1.1969  1.3165  50.1323  0.2220  4.4303  3.0906  1.4354 34.6275  2.0040     1.0997  0.1304  0.1625  1.2137  2.0285 286.5181  2.3462      2.3680      2.3456      2.3590      2.3557      2.2825      2.3198      2.5326    2.8518  0.0665 -190.8188  1.0000  5.3762  0.2262  0.2137 234.0097 204.7228
711.60  0.1269    1.9732    1.9694    1.9460    1.9720    1.9299 215.9000 215.7615 218.1707 216.9628  1126.4302 2661.0466  58.2215   1.2292  1.4225  52.7612  0.2188  4.3072  3.0775  1.4025 34.6275  2.0102     0.9232  0.1254  0.1583  1.2981  2.1165 285.1310  2.3486      2.1347      2.0905      2.1039      2.0949      2.0417      2.0564      2.3578    2.6974  0.0646 -190.8849  1.0000  5.5812  0.2209  0.2194 234.1864 214.7158
711.70  0.1267    1.8920    1.8701    1.8514    1.8803    1.8560 215.9000 220.1916 224.0086 222.0921  1091.1586 2556.3274  59.6997   1.0271  1.1854  57.2533  0.2208  4.1802  3.2299  1.2943 34.6275  2.0113     0.7511  0.1196  0.1545  1.4407  2.1967 283.5770  2.3478      1.8164      1.7677      1.7766      1.7659      1.7294      1.7259      2.0677    2.5427  0.0625 -191.2806  1.0000  6.0225  0.2185  0.2323 234.2779 224.6227
711.80  0.1268    1.8078    1.7526    1.7769    1.8067    1.7867 215.9000 224.4507 225.4075 224.9278  1007.5398 2481.8984  60.5629   0.7861  0.9031  60.9728  0.2365  4.2324  3.3523  1.2631 34.6275  1.9997     1.0933  0.1303  0.1663  1.5420  2.3027 282.1770  2.3366      1.7064      1.6590      1.6665      1.6538      1.6287      1.6161      1.9872    2.2287  0.0601 -191.0258  1.0000  6.5292  0.2391  0.2400 233.9657 234.8897
711.90  0.1269    1.8748    1.7215    1.7216    1.7563    1.7193 215.9000 225.9818 227.6092 226.7941   936.1477 2404.8257  59.8257   0.7451  0.8412  62.5163  0.2697  4.2656  3.4624  1.2324 34.6275  1.9923     1.8600  0.1470  0.1820  1.5919  2.3297 280.0761  2.3190      1.8198      1.7764      1.7733      1.7628      1.7401      1.7268      2.1177    1.9835  0.0563 -190.9783  1.0000  6.7903  0.2564  0.2334 232.7242 245.8788
712.00  0.1270    1.9768    1.8142    1.7990    1.8171    1.7718 215.9000 225.1132 230.1588 227.6210   876.9822 2325.1096  57.4881   1.1140  1.0978  61.8838  0.2768  4.2799  3.5601  1.2022 34.6275  1.9939     2.9885  0.1637  0.1957  1.5902  2.2777 277.2743  2.3168      1.9525      1.9046      1.8996      1.8784      1.8665      1.8455      2.2916    1.8550  0.0511 -191.1381  1.0000  6.8057  0.2704  0.2131 230.4988 251.9357
712.10  0.1271    2.0326    1.8699    1.9078    1.8944    1.8783 215.9000 219.9549 223.7344 221.8367   878.6312 2274.4727  53.1709   1.3317  1.2197  57.7230  0.2712  4.1591  3.6030  1.1546 34.6275  2.0025     3.8824  0.1708  0.1974  1.5074  2.0856 275.8546  2.3177      2.1203      2.0712      2.0575      2.0356      2.0301      2.0074      2.4739    1.8507  0.0486 -191.5503  0.9634  6.2750  0.2601  0.1773 228.5359 250.8590
712.20  0.1272    2.1199    1.9739    1.9768    1.9533    1.9731 215.9000 216.2863 220.0148 218.1422   903.8901 2249.9587  49.1878   0.9608  1.0111  53.2728  0.2507  4.0367  3.5322  1.1438 34.6275  2.0169     5.3648  0.1775  0.1995  1.4083  1.9278 274.4889  2.3251      2.2675      2.2230      2.2052      2.1766      2.1874      2.1861      2.4479    1.9574  0.0463 -191.7537  0.8921  5.6917  0.2445  0.1466 226.4271 244.3871
712.30  0.1273    2.0936    1.9942    2.0236    2.0018    2.0465 215.9000 214.6297 219.8154 217.2073   955.7067 2256.2737  45.6877   0.7253  0.8539  48.6022  0.2252  3.9178  3.3246  1.1787 34.6275  2.0286     3.3586  0.1664  0.1847  1.2924  1.8175 273.1369  2.3444      2.1118      2.0850      2.0677      2.0369      2.0645      2.0693      2.1390    2.1337  0.0441 -191.6924  0.9784  5.0648  0.2235  0.1214 224.0567 232.1520
712.40  0.1274    2.0359    1.9834    1.9589    1.9304    2.0159 215.9000 223.4822 223.8593 223.6687   992.8624 2324.9521  45.5120   0.7083  0.8666  47.5703  0.2137  3.5580  2.6849  1.3508 34.6275  2.0268     2.8209  0.1616  0.1796  1.2621  1.9927 271.8548  2.3559      1.9709      1.9437      1.9239      1.8932      1.9352      1.9316      1.9857    2.2793  0.0427 -192.2124  1.0000  4.4953  0.2197  0.1201 221.8484 216.2365
