~VERSION INFORMATION
 VERS.                  2.0:   CWLS Log Ascii Standard
 WRAP.                   NO:   One line per depth step
~WELL INFORMATION
#MNEM.UNIT        DATA TYPE:   INFORMATION
#---------    -------------   --------------------------
 STRT.M                0.00:   Top Depth
 STOP.M              805.20:   Bottom Depth
 STEP.M                0.10:   Increment
 NULL.              -999.25:   Null Value
 SRVC.                  KPG:   Service Company/Logging company
 DATE.           26.07.2024:   LAS file Creation Date
 WELL.                  356:   Well Name
 COMP.                KMG-B:   Company
 FLD .             Karatube:   Field
 STATE.                    :   State
 COUNT.          Kazakhstan:   Country
 LATI.                     :   Latitude/Northing
 LONG.                     :   Longitude/Easting
 DF  .                     :   DF Elevation
 GL  .                     :   GL Elevation
~PARAMETER INFORMATION
#MNEM  .UNIT          Value:   Description
#---------    -------------   --------------------------
~CURVE INFORMATION
#MNEM  .UNIT           API Code:   Curve Description
#---------       -------------- -------------------------- 
 DEPTH .M                      :   1 Measured depth
 AMF   .OHMM                   :   2 Array Induction Mud Resistivity Fully Calibrated (F13
 AT10  .ohm.m                  :   3 " Array Induction, two foot resolution
 AT20  .ohm.m                  :   4 " Array Induction, two foot resolution
 AT30  .ohm.m                  :   5 " Array Induction, two foot resolution
 AT60  .ohm.m                  :   6 " Array Induction, two foot resolution
 AT90  .ohm.m                  :   7 " Array Induction, two foot resolution
 BSC   .mm                     :   8 Nominal Caliper
 C1    .mm                     :   9 CALIPER DIAMETER 1
 C2    .mm                     :   10 CALIPER DIAMETER 2
 CALI  .mm                     :   11 Caliper
 CFTC  .dec                    :   12 Neutron far
 CNTC  .dec                    :   13 Neutron near
 GR    .uR/h                   :   14 GammaRay  
 HMIN  .Ohmm                   :   15 HIP Micro Inverse Resistivity
 HMNO  .Ohmm                   :   16 HIP Micro Normal Resistivity
 HSGR  .GAPI                   :   17 HNGS Standard Gamma-Ray
 HTNP  .m3/m3                  :   18 High Resolution Thermal Neutron Porosity (Ratio Method) in Selected Lithology
 HTPR  .                       :   19 HNGS Formation Thorium Potassium Concentration
 HTUR  .                       :   20 HNGS Formation Thorium Uranium Concentration
 HUPR  .                       :   21 HNGS Formation Uranium Potassium Concentration
 MTEM  .‘                      :   22 Mud Temperature
 PEFZ  .B/E                    :   23 Formation Photoelectric Factor 
 Perm  .md                     :   24 Permeability
 PHIE  .Dec                    :   25 Effective porosity 
 PHIT  .Dec                    :   26 Total porosity
 POTA  .                       :   27 
 PURA  .PPM                    :   28 Upper Limit of Formation Uranium Concentration (F13
 RB    .OHMM                   :   29 Mud Resistivity
 RHOZ  .g/cm3                  :   30 Bulk Density 
 RLA1  .ohm.m                  :   31 ShalRes HRLT Borehole Corrected Resistivity 1
 RLA2  .ohm.m                  :   32 MedRes  HRLT Borehole Corrected Resistivity 2
 RLA3  .ohm.m                  :   33 DeepRes HRLT Borehole Corrected Resistivity 3
 RLA4  .ohm.m                  :   34 XDeepRes HRLT Borehole Corrected Resisitivity 4
 RLA5  .ohm.m                  :   35 UltraDeepR HRLT Borehole Corrected Resistivity 5
 RT    .ohm.m                  :   36 
 RXO   .ohm.m                  :   37 HRLT Invaded Zone Resistivity
 RXOZ  .ohm.m                  :   38 MicroRes Invaded Formation Resistivity
 SDEVM .deg                    :   39 Sonde Deviation
 SP    .mV                     :   40 Spontaneous Potential
 SW    .Dec                    :   41 Water saturation
 THOR  .                       :   42 
 TNPH  .V/V                    :   43 Neutron porosity
 VCLAV .Dec                    :   44 Clay volume
 HAZIM .deg                    :   45 Hole Azimuth
 DT    .uSec/m                 :   46 Sonic travel time
~A Log Data Section - Number of Curves = 46
# ...
754.30  0.1264   10.4338   10.4582   11.4598   10.2374   11.5352 215.9000 216.6291 216.3061 216.4680  2357.3242 4118.6724  29.9274  10.5781  9.4353  25.8951  0.1226  1.8114  3.7070  0.1234 34.9228  4.1018     0.9702  0.0996  0.1044  1.0236  0.3594  54.8450  2.5581     13.0065     12.5798     12.7861     12.7386     12.9850     12.8042     12.5335   15.2384  0.1055 -196.1849  0.5884  1.8535  0.1222  0.0319 280.1863 138.6307
754.40  0.1264    9.4832    9.5193   10.4684    9.5929   10.9141 215.9000 216.7655 216.2630 216.5143  2290.0872 4064.2324  28.9755  10.7389  9.5766  27.1225  0.1246  1.7297  3.6434  0.2051 34.9228  3.9485     1.2123  0.1047  0.1089  1.0547  0.4607  55.1267  2.5535     11.9236     11.5226     11.7984     11.6907     11.9287     11.7625     10.9083   12.6550  0.1126 -195.5255  0.5876  1.8217  0.1263  0.0280 276.3455 141.3351
754.50  0.1264    8.0370    8.3758    8.8897    8.3214    9.2142 215.9000 217.1284 216.8669 216.9972  2163.6509 3962.3098  27.9136   9.1292  8.1563  28.6993  0.1333  1.6185  3.6183  0.2570 34.9228  3.7810     1.4400  0.1141  0.1176  1.1191  0.5463  55.4024  2.5407      8.6856      8.3268      8.5180      8.3655      8.5094      8.4737      8.4573   10.7976  0.1177 -195.4021  0.6506  1.8091  0.1345  0.0238 274.1126 143.6515
754.60  0.1264    7.0806    7.2806    7.5937    7.4283    8.3999 215.9000 217.5117 217.0069 217.2588  2028.7032 3831.0403  27.0116   7.0680  6.2984  29.4528  0.1435  1.5637  3.6036  0.2776 34.9228  3.6704     1.9852  0.1243  0.1274  1.1526  0.5843  56.4262  2.5218      7.1779      6.8737      6.9911      6.8608      6.9319      6.8855      7.7854    9.3575  0.1189 -195.3750  0.6699  1.8018  0.1432  0.0205 274.9747 143.9826
754.70  0.1263    6.2353    6.4714    6.5986    6.4539    7.0628 215.9000 217.7669 216.9952 217.3810  1906.2295 3700.4866  26.6137   5.7138  5.1077  29.9935  0.1487  1.5739  3.6879  0.2831 34.9228  3.6196     3.2519  0.1337  0.1366  1.1716  0.5990  57.4467  2.4983      7.3936      7.1525      7.2434      7.1119      7.1579      7.1474      7.8916    8.6379  0.1200 -195.3750  0.6145  1.8440  0.1508  0.0191 276.2232 149.1581
754.80  0.1263    5.7016    6.0105    6.2456    6.0584    6.5493 215.9000 217.7685 216.9390 217.3533  1828.3795 3596.9128  27.5934   6.1599  5.5091  30.5927  0.1549  1.7313  4.0605  0.2694 34.9228  3.5728     3.9733  0.1387  0.1421  1.1726  0.5845  57.8242  2.4762      7.2124      7.0266      7.0794      6.9532      6.9652      6.9704      7.7446    7.7743  0.1246 -195.3750  0.6024  2.0302  0.1548  0.0226 275.1825 161.6865
754.90  0.1263    5.4862    5.8951    6.1376    5.9595    6.4633 215.9000 218.4941 217.6341 218.0636  1793.1158 3504.1331  29.3685   6.3898  5.6819  30.6199  0.1554  1.7960  4.1968  0.2349 34.9228  3.5286     3.2143  0.1369  0.1413  1.1684  0.5420  58.4874  2.4647      6.4782      6.3271      6.3351      6.2173      6.1916      6.1494      7.3997    6.9919  0.1274 -195.3750  0.6502  2.0984  0.1529  0.0296 274.5463 178.5017
755.00  0.1263    5.4186    5.6849    5.9406    5.7851    6.3119 215.9000 219.2464 218.5535 218.8999  1777.7346 3420.8489  31.4572   4.9557  4.4030  30.4654  0.1499  1.8309  4.2652  0.1947 34.9228  3.4845     2.4021  0.1315  0.1373  1.1647  0.4921  59.1551  2.4586      6.2659      6.1293      6.1178      6.0014      5.9633      5.8774      7.4623    7.0329  0.1294 -195.3750  0.6891  2.1326  0.1485  0.0387 274.2616 188.1799
755.10  0.1263    5.5845    5.7447    5.9247    5.7789    6.3192 215.9000 219.5001 219.4534 219.4772  1778.8773 3359.5776  33.6236   4.6336  4.1377  30.4301  0.1452  1.8841  4.4113  0.1620 34.9228  3.4440     2.0638  0.1257  0.1331  1.1706  0.4536  59.4176  2.4554      7.0526      6.9163      6.9176      6.7938      6.7310      6.6906      8.1417    6.7697  0.1308 -195.3750  0.6734  2.2057  0.1431  0.0490 274.1450 185.8388
755.20  0.1263    5.9073    5.9604    6.1751    6.0242    6.6878 215.9000 219.2860 219.7212 219.5032  1752.8813 3331.2146  32.6291   5.6030  4.9850  30.5726  0.1462  1.9111  4.4945  0.1456 34.9228  3.4137     2.5360  0.1287  0.1353  1.1759  0.4356  60.0129  2.4543      7.3907      7.2907      7.3199      7.2003      7.1086      7.1605      8.0507    6.5448  0.1320 -195.2192  0.6395  2.2473  0.1450  0.0441 274.0665 181.7767
755.30  0.1263    6.1482    6.2952    6.5317    6.4095    6.9837 215.9000 219.1799 219.7923 219.4856  1713.8235 3323.7456  30.1824   5.4841  4.9079  30.8137  0.1513  1.9047  4.5216  0.1305 34.9209  3.4114     3.6704  0.1370  0.1419  1.1876  0.4204  60.6822  2.4500      7.1934      7.1255      7.1755      7.0443      6.9637      7.0508      7.5446    6.8228  0.1330 -194.9586  0.6097  2.2608  0.1508  0.0330 273.9966 179.1957
755.40  0.1263    6.0851    6.2968    6.5927    6.4587    6.9751 215.9000 219.8595 219.9960 219.9277  1673.2393 3344.6685  27.9206   4.7886  4.3166  31.1338  0.1593  1.7883  4.4093  0.0818 34.9088  3.4060     5.3130  0.1461  0.1497  1.2341  0.3693  60.9180  2.4501      6.9212      6.8530      6.9266      6.8174      6.7395      6.8371      6.9944    6.6022  0.1342 -194.5326  0.5839  2.2047  0.1598  0.0238 273.9038 178.2022
755.50  0.1263    6.0811    6.1041    6.3489    6.3176    7.0313 215.9000 220.2474 220.2205 220.2335  1675.0809 3368.3059  25.3033   4.7626  4.2411  31.2381  0.1618  1.8583  4.6665  0.0130 34.9120  3.3925     5.7259  0.1499  0.1521  1.2552  0.2871  61.3967  2.4554      6.3143      6.2312      6.3531      6.2755      6.2091      6.2776      6.3009    6.0563  0.1350 -194.1048  0.5955  2.3333  0.1614  0.0147 273.8519 173.1839
755.60  0.1263    6.1107    6.0621    6.2686    6.2369    6.9272 215.9000 220.2325 220.1395 220.1864  1699.4268 3393.6350  22.8954   4.1654  3.7453  31.0838  0.1621  2.0206  5.0692 -0.0522 34.9228  3.3923     5.5192  0.1499  0.1511  1.2545  0.2044  61.9695  2.4629      6.0864      5.9655      6.1190      6.0658      6.0044      6.0441      6.2804    5.9148  0.1355 -193.7291  0.6065  2.5346  0.1592  0.0078 273.7917 170.2938
755.70  0.1261    6.4410    6.2731    6.5654    6.5013    7.0992 215.9000 219.3459 218.8734 219.1097  1704.2516 3419.7520  23.8717   4.2159  3.7784  29.8626  0.1646  2.0444  4.8934  0.0064 34.9228  3.4036     5.8386  0.1478  0.1493  1.1971  0.2651  62.1490  2.4743      6.9267      6.7562      6.9539      6.9605      6.8886      6.8997      7.2263    6.4061  0.1367 -193.7823  0.5709  2.4467  0.1607  0.0104 273.4155 175.8305
755.80  0.1260    6.6311    6.5941    7.0639    6.8880    7.4692 215.9000 218.2706 218.0968 218.1837  1754.0608 3458.7712  24.5099   5.3552  4.8144  28.7897  0.1594  2.0389  4.7078  0.0450 34.9228  3.4577     5.5509  0.1420  0.1438  1.1543  0.3026  62.2075  2.4836      8.2727      8.0432      8.2981      8.4237      8.2988      8.2770      8.2537    6.8487  0.1375 -193.9746  0.5362  2.3539  0.1557  0.0122 273.1381 183.7552
755.90  0.1259    6.9092    6.8843    7.3712    7.2684    7.6722 215.9000 217.3295 217.7668 217.5486  1833.6813 3508.3030  24.9596   5.7100  5.2486  27.8822  0.1465  2.0142  4.5287  0.0689 34.9228  3.5236     3.8038  0.1337  0.1357  1.1242  0.3236  62.1680  2.4934      8.2752      7.9929      8.2294      8.4440      8.2905      8.2388      8.1261    7.8456  0.1381 -194.2384  0.5677  2.2644  0.1466  0.0136 272.9524 187.2204
756.00  0.1259    7.1838    7.1524    7.6994    7.7469    8.1039 215.9000 217.4134 217.9378 217.6752  1870.0037 3576.1523  26.2888   6.1814  5.5948  27.8841  0.1482  2.0200  4.5633  0.0902 34.9228  3.6037     3.0016  0.1295  0.1322  1.1295  0.3495  61.9654  2.5094      7.9801      7.7095      7.9206      8.1705      8.0267      7.9562      7.8073    8.3815  0.1394 -194.0446  0.5956  2.2817  0.1466  0.0179 272.4660 181.6285
756.10  0.1258    7.2380    7.4327    8.0358    8.0007    8.4148 215.9000 217.6076 218.0320 217.8202  1915.3973 3630.2725  27.4694   5.9529  5.3450  28.0445  0.1409  2.0778  4.7537  0.0533 34.9228  3.6677     2.2263  0.1238  0.1271  1.1434  0.3095  61.6371  2.5246      7.7999      7.5830      7.7701      8.0939      7.9135      7.8340      7.6935    8.4298  0.1406 -194.3103  0.6263  2.3768  0.1441  0.0222 271.9427 169.9591
