~VERSION INFORMATION
 VERS.                  2.0:   CWLS Log Ascii Standard
 WRAP.                   NO:   One line per depth step
~WELL INFORMATION
#MNEM.UNIT        DATA TYPE:   INFORMATION
#---------    -------------   --------------------------
 STRT.M                0.00:   Top Depth
 STOP.M              805.20:   Bottom Depth
 STEP.M                0.10:   Increment
 NULL.              -999.25:   Null Value
 SRVC.                  KPG:   Service Company/Logging company
 DATE.           26.07.2024:   LAS file Creation Date
 WELL.                  356:   Well Name
 COMP.                KMG-B:   Company
 FLD .             Karatube:   Field
 STATE.                    :   State
 COUNT.          Kazakhstan:   Country
 LATI.                     :   Latitude/Northing
 LONG.                     :   Longitude/Easting
 DF  .                     :   DF Elevation
 GL  .                     :   GL Elevation
~PARAMETER INFORMATION
#MNEM  .UNIT          Value:   Description
#---------    -------------   --------------------------
~CURVE INFORMATION
#MNEM  .UNIT           API Code:   Curve Description
#---------       -------------- -------------------------- 
 DEPTH .M                      :   1 Measured depth
 AMF   .OHMM                   :   2 Array Induction Mud Resistivity Fully Calibrated (F13
 AT10  .ohm.m                  :   3 " Array Induction, two foot resolution
 AT20  .ohm.m                  :   4 " Array Induction, two foot resolution
 AT30  .ohm.m                  :   5 " Array Induction, two foot resolution
 AT60  .ohm.m                  :   6 " Array Induction, two foot resolution
 AT90  .ohm.m                  :   7 " Array Induction, two foot resolution
 BSC   .mm                     :   8 Nominal Caliper
 C1    .mm                     :   9 CALIPER DIAMETER 1
 C2    .mm                     :   10 CALIPER DIAMETER 2
 CALI  .mm                     :   11 Caliper
 CFTC  .dec                    :   12 Neutron far
 CNTC  .dec                    :   13 Neutron near
 GR    .uR/h                   :   14 GammaRay  
 HMIN  .Ohmm                   :   15 HIP Micro Inverse Resistivity
 HMNO  .Ohmm                   :   16 HIP Micro Normal Resistivity
 HSGR  .GAPI                   :   17 HNGS Standard Gamma-Ray
 HTNP  .m3/m3                  :   18 High Resolution Thermal Neutron Porosity (Ratio Method) in Selected Lithology
 HTPR  .                       :   19 HNGS Formation Thorium Potassium Concentration
 HTUR  .                       :   20 HNGS Formation Thorium Uranium Concentration
 HUPR  .                       :   21 HNGS Formation Uranium Potassium Concentration
 MTEM  .‘                      :   22 Mud Temperature
 PEFZ  .B/E                    :   23 Formation Photoelectric Factor 
 Perm  .md                     :   24 Permeability
 PHIE  .Dec                    :   25 Effective porosity 
 PHIT  .Dec                    :   26 Total porosity
 POTA  .                       :   27 
 PURA  .PPM                    :   28 Upper Limit of Formation Uranium Concentration (F13
 RB    .OHMM                   :   29 Mud Resistivity
 RHOZ  .g/cm3                  :   30 Bulk Density 
 RLA1  .ohm.m                  :   31 ShalRes HRLT Borehole Corrected Resistivity 1
 RLA2  .ohm.m                  :   32 MedRes  HRLT Borehole Corrected Resistivity 2
 RLA3  .ohm.m                  :   33 DeepRes HRLT Borehole Corrected Resistivity 3
 RLA4  .ohm.m                  :   34 XDeepRes HRLT Borehole Corrected Resisitivity 4
 RLA5  .ohm.m                  :   35 UltraDeepR HRLT Borehole Corrected Resistivity 5
 RT    .ohm.m                  :   36 
 RXO   .ohm.m                  :   37 HRLT Invaded Zone Resistivity
 RXOZ  .ohm.m                  :   38 MicroRes Invaded Formation Resistivity
 SDEVM .deg                    :   39 Sonde Deviation
 SP    .mV                     :   40 Spontaneous Potential
 SW    .Dec                    :   41 Water saturation
 THOR  .                       :   42 
 TNPH  .V/V                    :   43 Neutron porosity
 VCLAV .Dec                    :   44 Clay volume
 HAZIM .deg                    :   45 Hole Azimuth
 DT    .uSec/m                 :   46 Sonic travel time
~A Log Data Section - Number of Curves = 46
# ...
319.20  0.1413    2.3053    2.7438    2.9927    3.4076    3.4769 215.9000 216.4323 224.9067 220.6270   534.2664 1756.1440  82.1548   1.1206  1.0486  90.7060  0.3882  2.2032 15.9417  0.0176 30.2004  2.5631     0.0000  0.0068  0.1092  3.6187  0.4747 152.8758  2.1750      2.4929      2.7623      2.9400      3.0462      3.2321      3.7194      1.6562    1.5736  0.5493 -190.2643  1.0000  7.9708  0.3974  0.6824 288.3810 370.9725
319.30  0.1412    2.4499    2.9124    3.1281    3.5320    3.5634 215.9000 217.8824 225.3816 221.5999   528.3513 1745.5820  80.8840   0.8001  0.8194  88.7933  0.3924  2.1090 15.1069 -0.0034 30.2043  2.6173     0.0000  0.0089  0.1092  3.5834  0.3898 152.1650  2.1780      2.7438      3.0165      3.2044      3.3200      3.5204      4.0303      1.8262    1.5782  0.5488 -189.9053  1.0000  7.5534  0.4011  0.6692 288.4981 382.5825
319.40  0.1411    2.5599    3.1207    3.3354    3.7820    3.6826 215.9000 219.7698 216.2970 218.0191   516.6586 1740.0945  80.4370   0.7486  0.7953  85.7345  0.4084  2.1755 14.9264 -0.0079 30.2164  2.7023     0.0008  0.0252  0.1171  3.4319  0.3603 151.3795  2.1934      2.8031      3.0721      3.2561      3.3750      3.5788      4.0819      1.8674    1.5720  0.5479 -189.4699  1.0000  7.4632  0.4121  0.6126 288.6836 392.8368
319.50  0.1411    2.7104    3.4293    3.6333    4.1797    4.0517 215.9000 218.4285 225.5266 221.9403   515.1737 1706.5656  81.1282   0.7940  0.8622  83.9215  0.3953  2.1843 14.6397 -0.0133 30.2203  2.8024     0.0070  0.0413  0.1287  3.3510  0.3345 150.5286  2.2061      2.8445      3.0857      3.2674      3.3804      3.5964      4.0634      1.9053    1.5384  0.5477 -189.0659  1.0000  7.3198  0.4026  0.5825 288.7376 398.7521
319.60  0.1411    2.7266    3.5837    3.8886    4.4914    4.2481 215.9000 219.8051 236.8043 228.1423   512.9384 1671.0787  82.0324   0.6054  0.7009  83.1730  0.3885  2.1846 14.4411 -0.0050 30.2243  2.8831     0.0221  0.0537  0.1385  3.3052  0.3591 149.8956  2.1981      2.7823      2.9932      3.1593      3.2766      3.4985      3.9205      1.8643    1.6159  0.5486 -188.7401  1.0000  7.2206  0.3929  0.5654 288.7715 399.7243
319.70  0.1411    2.6592    3.3108    3.6257    4.2188    3.9552 215.9000 227.3885 244.2598 235.6729   501.7749 1649.2517  82.7434   0.4883  0.5922  84.4600  0.3927  2.2008 14.5528  0.0411 30.2347  2.9306     0.0215  0.0534  0.1382  3.3062  0.5179 149.8956  2.1829      2.5738      2.7265      2.8732      2.9828      3.1858      3.5253      1.7505    1.3837  0.5518 -188.6043  1.0000  7.2764  0.3965  0.5657 288.8859 393.3581
319.80  0.1412    2.6563    2.9792    3.2249    3.6223    3.5503 215.9000 227.4344 247.1095 237.0672   497.7927 1606.6558  84.8785   0.4086  0.4986  86.9263  0.3657  2.2554 15.2302  0.0467 30.2644  2.9357     0.0038  0.0359  0.1246  3.3747  0.5545 149.1994  2.1590      2.4577      2.5677      2.7064      2.8079      3.0066      3.2927      1.7081    1.1224  0.5532 -188.3608  1.0000  7.6151  0.3846  0.5913 289.0672 382.4109
319.90  0.1413    2.6539    2.7165    2.9232    3.2481    3.0889 215.9000 225.9449 248.4208 236.9156   494.7454 1561.8759  87.7573   0.2665  0.3446  89.3309  0.3570  2.3155 15.9316  0.0507 30.2926  2.9067     0.0006  0.0239  0.1163  3.4402  0.5869 148.2786  2.1197      2.4043      2.4857      2.6225      2.7286      2.9218      3.1871      1.7001    1.1037  0.5545 -188.2330  1.0000  7.9658  0.3710  0.6157 289.2707 373.9257
320.00  0.1414    2.8787    2.7119    2.8744    3.1410    2.9870 215.9000 226.1247 248.9000 237.2393   486.5259 1533.8975  91.5904   0.2382  0.3222  90.1231  0.3601  2.3498 16.0491  0.0971 30.2926  2.8683     0.0013  0.0280  0.1190  3.4152  0.7488 147.3843  2.1013      2.5035      2.5835      2.7237      2.8320      3.0472      3.3191      1.7855    1.0487  0.5573 -188.6427  1.0000  8.0245  0.3696  0.6064 289.4635 375.7325
320.10  0.1414    2.8533    2.9149    3.0582    3.2526    3.0661 215.9000 221.8177 237.5460 229.5452   479.5909 1535.2194  94.4559   0.2975  0.3968  89.8166  0.3645  2.3932 16.1700  0.1178 30.2841  2.8655     0.0034  0.0351  0.1240  3.3787  0.8133 146.5145  2.1215      2.6548      2.7670      2.9162      3.0391      3.2641      3.5907      1.8923    1.0298  0.5609 -188.8843  1.0000  8.0850  0.3788  0.5928 289.6800 386.8171
320.20  0.1414    2.9330    3.1838    3.3915    3.5479    3.4061 215.9000 217.1158 225.2244 221.1305   476.3571 1555.2990  95.8709   0.3252  0.4197  88.8869  0.3894  2.4223 15.9552  0.1314 30.2785  2.9125     0.0115  0.0463  0.1326  3.3315  0.8465 145.6782  2.1475      2.9092      3.0856      3.2559      3.3957      3.6662      4.0859      2.0356    1.2239  0.5649 -189.0858  1.0000  8.0710  0.3915  0.5752 289.9145 397.7215
320.30  0.1414    3.0697    3.5308    3.8712    3.9898    3.9114 215.9000 215.7578 221.3635 218.5423   487.4774 1603.6263  92.5667   0.3119  0.4096  87.2632  0.3988  2.3677 14.2039  0.1621 30.3026  3.0018     0.0681  0.0693  0.1514  3.2574  0.9275 144.9474  2.1744      3.1859      3.4571      3.6427      3.8021      4.1013      4.6390      2.1876    1.5514  0.5687 -189.4323  1.0000  7.7142  0.3992  0.5475 290.1715 399.8200
320.40  0.1413    3.1149    3.8996    4.3967    4.4918    4.7840 215.9000 215.9929 227.6698 221.7518   507.1988 1627.2257  86.8110   0.5309  0.6787  85.7365  0.4056  2.3578 11.4796  0.2160 30.3189  3.1161     0.6095  0.1141  0.1904  3.1535  1.0683 144.1499  2.2193      3.3429      3.6544      3.8702      4.0376      4.3716      4.9777      2.2466    1.7677  0.5722 -190.1120  1.0000  7.4345  0.3837  0.5088 290.4283 393.7510
320.50  0.1413    3.0163    3.9430    4.3542    4.4391    4.4358 215.9000 217.3431 235.1035 226.0468   528.4769 1636.8958  80.0010   0.9774  1.1928  84.3431  0.3654  2.3830  8.9071  0.2690 30.3279  3.2168     0.9903  0.1274  0.1976  3.0453  1.2026 143.3283  2.2543      3.1187      3.3989      3.5958      3.7486      4.0571      4.6075      2.1096    2.0128  0.5754 -190.9434  1.0000  7.2563  0.3591  0.4684 290.6850 382.8109
320.60  0.1412    2.7984    3.4161    3.6583    3.9034    3.7374 215.9000 220.7182 232.5846 226.5711   529.1782 1642.4552  74.9695   0.5040  0.6525  83.4919  0.3672  2.4813 10.8560  0.2316 30.3159  3.2575     1.1423  0.1316  0.2001  3.0152  1.0777 142.5856  2.2551      3.0288      3.2934      3.5156      3.6484      3.9541      4.5007      2.0352    2.0965  0.5781 -191.5897  1.0000  7.4801  0.3590  0.4572 290.9507 368.6048
320.70  0.1412    2.5962    3.0059    3.3107    3.5881    3.3642 215.9000 222.5413 229.7659 226.1238   527.9884 1638.9604  73.5498   0.3185  0.4322  83.0727  0.3685  2.5297  9.9137  0.2692 30.3173  3.2406     1.6000  0.1420  0.2074  2.9576  1.1715 141.6536  2.2481      2.8890      3.1261      3.3537      3.4742      3.7550      4.2728      1.9284    1.5827  0.5812 -192.0526  1.0000  7.4814  0.3601  0.4357 291.2010 350.9030
320.80  0.1411    2.5220    2.8556    3.1086    3.4246    3.0761 215.9000 223.1918 228.2987 225.7301   523.2508 1627.0144  74.7745   0.2959  0.3963  83.0919  0.3591  2.5579  7.2955  0.3506 30.3262  3.1835     2.4815  0.1569  0.2185  2.8894  1.3957 140.6010  2.2323      2.4611      2.6290      2.8316      2.9234      3.1568      3.5646      1.6675    1.1186  0.5844 -192.4130  1.0000  7.3911  0.3637  0.4102 291.4214 334.8135
320.90  0.1411    2.4730    2.5983    2.8932    3.1814    2.8734 215.9000 222.7285 231.1495 226.8989   492.2117 1587.2939  78.7200   0.2535  0.3343  84.8404  0.3790  2.7334  7.5700  0.3609 30.3185  3.1027     3.7265  0.1721  0.2348  2.9094  1.4418 139.6109  2.1984      2.3457      2.4946      2.6755      2.7597      2.9718      3.3360      1.6114    1.1062  0.5844 -192.9997  1.0000  7.9542  0.3857  0.4177 291.4431 328.7545
321.00  0.1410    2.3279    2.4367    2.6733    2.9531    2.6937 215.9000 221.1149 230.8969 225.9530   477.2694 1549.1324  81.6972   0.2478  0.3333  86.8178  0.3829  2.8255  7.7718  0.3636 30.3194  3.0190     3.8763  0.1737  0.2393  2.9619  1.4767 139.1753  2.1664      2.3346      2.5072      2.6725      2.7560      2.9646      3.3375      1.6000    1.1217  0.5849 -193.8268  1.0000  8.3697  0.3890  0.4373 291.5647 334.3215
