~VERSION INFORMATION
 VERS.                  2.0:   CWLS Log Ascii Standard
 WRAP.                   NO:   One line per depth step
~WELL INFORMATION
#MNEM.UNIT        DATA TYPE:   INFORMATION
#---------    -------------   --------------------------
 STRT.M                0.00:   Top Depth
 STOP.M              805.20:   Bottom Depth
 STEP.M                0.10:   Increment
 NULL.              -999.25:   Null Value
 SRVC.                  KPG:   Service Company/Logging company
 DATE.           26.07.2024:   LAS file Creation Date
 WELL.                  356:   Well Name
 COMP.                KMG-B:   Company
 FLD .             Karatube:   Field
 STATE.                    :   State
 COUNT.          Kazakhstan:   Country
 LATI.                     :   Latitude/Northing
 LONG.                     :   Longitude/Easting
 DF  .                     :   DF Elevation
 GL  .                     :   GL Elevation
~PARAMETER INFORMATION
#MNEM  .UNIT          Value:   Description
#---------    -------------   --------------------------
~CURVE INFORMATION
#MNEM  .UNIT           API Code:   Curve Description
#---------       -------------- -------------------------- 
 DEPTH .M                      :   1 Measured depth
 AMF   .OHMM                   :   2 Array Induction Mud Resistivity Fully Calibrated (F13
 AT10  .ohm.m                  :   3 " Array Induction, two foot resolution
 AT20  .ohm.m                  :   4 " Array Induction, two foot resolution
 AT30  .ohm.m                  :   5 " Array Induction, two foot resolution
 AT60  .ohm.m                  :   6 " Array Induction, two foot resolution
 AT90  .ohm.m                  :   7 " Array Induction, two foot resolution
 BSC   .mm                     :   8 Nominal Caliper
 C1    .mm                     :   9 CALIPER DIAMETER 1
 C2    .mm                     :   10 CALIPER DIAMETER 2
 CALI  .mm                     :   11 Caliper
 CFTC  .dec                    :   12 Neutron far
 CNTC  .dec                    :   13 Neutron near
 GR    .uR/h                   :   14 GammaRay  
 HMIN  .Ohmm                   :   15 HIP Micro Inverse Resistivity
 HMNO  .Ohmm                   :   16 HIP Micro Normal Resistivity
 HSGR  .GAPI                   :   17 HNGS Standard Gamma-Ray
 HTNP  .m3/m3                  :   18 High Resolution Thermal Neutron Porosity (Ratio Method) in Selected Lithology
 HTPR  .                       :   19 HNGS Formation Thorium Potassium Concentration
 HTUR  .                       :   20 HNGS Formation Thorium Uranium Concentration
 HUPR  .                       :   21 HNGS Formation Uranium Potassium Concentration
 MTEM  .‘                      :   22 Mud Temperature
 PEFZ  .B/E                    :   23 Formation Photoelectric Factor 
 Perm  .md                     :   24 Permeability
 PHIE  .Dec                    :   25 Effective porosity 
 PHIT  .Dec                    :   26 Total porosity
 POTA  .                       :   27 
 PURA  .PPM                    :   28 Upper Limit of Formation Uranium Concentration (F13
 RB    .OHMM                   :   29 Mud Resistivity
 RHOZ  .g/cm3                  :   30 Bulk Density 
 RLA1  .ohm.m                  :   31 ShalRes HRLT Borehole Corrected Resistivity 1
 RLA2  .ohm.m                  :   32 MedRes  HRLT Borehole Corrected Resistivity 2
 RLA3  .ohm.m                  :   33 DeepRes HRLT Borehole Corrected Resistivity 3
 RLA4  .ohm.m                  :   34 XDeepRes HRLT Borehole Corrected Resisitivity 4
 RLA5  .ohm.m                  :   35 UltraDeepR HRLT Borehole Corrected Resistivity 5
 RT    .ohm.m                  :   36 
 RXO   .ohm.m                  :   37 HRLT Invaded Zone Resistivity
 RXOZ  .ohm.m                  :   38 MicroRes Invaded Formation Resistivity
 SDEVM .deg                    :   39 Sonde Deviation
 SP    .mV                     :   40 Spontaneous Potential
 SW    .Dec                    :   41 Water saturation
 THOR  .                       :   42 
 TNPH  .V/V                    :   43 Neutron porosity
 VCLAV .Dec                    :   44 Clay volume
 HAZIM .deg                    :   45 Hole Azimuth
 DT    .uSec/m                 :   46 Sonic travel time
~A Log Data Section - Number of Curves = 46
# ...
188.10  0.1452    1.4129    1.7935    2.0536    2.4436    2.3486 215.9000 284.6118 283.0042 283.8071   481.2592 1543.2839  53.0806   0.7077  0.6586  59.6930  0.3510  1.0083  5.4222  0.1078 28.5961  2.0609    60.9701  0.3249  0.3514  2.6922  0.6106 233.1247  2.0172      1.6475      1.8149      1.9796      2.0587      2.2218      2.5747      1.0808    0.9127  0.2434 -158.7924  1.0000  2.7111  0.3616  0.1766 288.7534 387.2116
188.20  0.1453    1.4001    1.7986    2.0868    2.4189    2.3520 215.9000 290.6765 288.3332 289.5025   483.3831 1518.0503  54.8122   0.6842  0.6372  60.3015  0.3423  0.8772  4.8129  0.1406 28.6325  2.0767    53.6530  0.3156  0.3442  2.7438  0.7095 231.4065  2.0180      1.6790      1.8625      2.0473      2.1337      2.2879      2.6783      1.0852    0.9487  0.2434 -158.2484  1.0000  2.4064  0.3482  0.1906 288.7565 387.3384
188.30  0.1454    1.3831    1.8066    2.1536    2.5488    2.4948 215.9000 287.9863 288.4855 288.2352   468.6811 1502.5336  54.1493   0.6259  0.5904  60.3674  0.3592  0.8606  4.2589  0.1888 28.6456  2.0877    59.4275  0.3230  0.3508  2.7283  0.8393 231.3378  2.0133      1.7010      1.8986      2.0844      2.1721      2.3336      2.7371      1.0936    0.9529  0.2503 -157.7001  1.0000  2.3481  0.3603  0.1852 288.8148 388.4669
188.40  0.1455    1.3758    1.8467    2.1859    2.6321    2.5434 215.9000 286.8855 288.2602 287.5719   446.1513 1488.2949  53.3732   0.6136  0.5884  60.1294  0.3847  0.8547  4.1112  0.2086 28.6418  2.0921    68.3312  0.3334  0.3602  2.7078  0.8882 230.5962  2.0109      1.7065      1.8946      2.0795      2.1711      2.3252      2.7237      1.1019    0.9364  0.2596 -157.2029  1.0000  2.3144  0.3875  0.1790 288.9203 390.1644
188.50  0.1455    1.3901    1.8722    2.2148    2.7601    2.6818 215.9000 288.2863 288.2139 288.2500   414.5510 1475.1675  52.5799   0.6289  0.6065  59.5333  0.4198  0.8564  4.4774  0.1915 28.6177  2.0780    83.5149  0.3490  0.3749  2.6846  0.8325 228.9107  2.0068      1.7033      1.8700      2.0579      2.1372      2.2915      2.6698      1.1113    0.9302  0.2713 -156.7710  1.0000  2.2990  0.4325  0.1726 289.0788 390.9047
188.60  0.1455    1.3729    1.8223    2.1260    2.6519    2.5417 215.9000 292.2634 285.9034 289.0645   399.6251 1451.0630  51.5533   0.5922  0.5787  58.8596  0.4359  0.8928  4.2064  0.2134 28.6266  2.0588    94.2763  0.3587  0.3834  2.6160  0.8719 227.2713  2.0018      1.6967      1.8614      2.0438      2.1323      2.2777      2.6565      1.1066    0.9389  0.2846 -156.4809  1.0000  2.3340  0.4473  0.1646 289.2783 389.9335
188.70  0.1455    1.3679    1.8033    2.0949    2.6146    2.5338 215.9000 291.0931 288.5801 289.8327   391.9914 1433.5505  50.2968   0.6148  0.5871  58.5046  0.4301  0.9341  4.0819  0.2288 28.6434  2.0363   103.8520  0.3667  0.3899  2.5705  0.9011 225.6914  1.9974      1.6240      1.8066      2.0003      2.0948      2.2289      2.6321      1.0364    0.9305  0.2973 -156.3125  1.0000  2.4009  0.4530  0.1549 289.4825 388.0467
188.80  0.1455    1.3628    1.7252    2.0369    2.5611    2.5231 215.9000 283.6953 297.2922 290.4022   393.1844 1428.0465  48.7169   0.5828  0.5692  58.6601  0.4376  0.9774  4.2848  0.2281 28.6674  2.0335   108.6702  0.3705  0.3919  2.5681  0.8996 224.1976  1.9957      1.6152      1.7901      1.9810      2.0709      2.2034      2.5932      1.0371    0.8954  0.3090 -156.3125  1.0000  2.5101  0.4489  0.1431 289.6823 386.3717
188.90  0.1454    1.3256    1.7528    2.0435    2.4965    2.4383 215.9000 283.8992 297.2691 290.5074   393.8023 1426.7961  46.0601   0.5523  0.5408  58.9308  0.4331  1.0319  4.9846  0.1955 28.6604  2.0456   121.1203  0.3797  0.3983  2.5704  0.8164 222.7923  1.9914      1.6748      1.8293      2.0172      2.1049      2.2257      2.6017      1.0975    0.8666  0.3189 -156.3125  1.0000  2.6525  0.4474  0.1240 289.7583 385.2455
189.00  0.1453    1.2794    1.7279    2.1074    2.6697    2.6567 215.9000 283.2973 295.2352 289.2044   391.4389 1419.0475  44.1371   0.4776  0.4855  59.2026  0.4550  1.0624  5.5049  0.1566 28.6565  2.0684   138.6623  0.3884  0.4050  2.5911  0.7195 221.4514  1.9835      1.6912      1.8599      2.0596      2.1515      2.2795      2.6782      1.0925    0.8474  0.3260 -156.3125  0.9822  2.7524  0.4480  0.1108 289.7622 384.1248
189.10  0.1453    1.2598    1.7947    2.1803    2.8462    2.7944 215.9000 279.8808 292.3480 286.0458   383.4702 1397.3403  43.9790   0.4268  0.4518  59.4401  0.4538  1.0431  5.5194  0.1153 28.6686  2.1028   145.6916  0.3910  0.4074  2.6460  0.6216 220.2078  1.9805      1.7445      1.8895      2.0741      2.1634      2.2958      2.6586      1.1484    0.8371  0.3282 -156.3125  0.9723  2.7597  0.4521  0.1097 289.6856 382.9481
189.20  0.1453    1.2283    1.7341    2.1894    3.0704    3.1555 215.9000 286.0476 306.7696 296.2248   378.0234 1351.3322  46.2601   0.4367  0.4641  59.7273  0.4380  1.0240  5.4485  0.1256 28.6609  2.1418   125.0862  0.3825  0.4013  2.6604  0.6543 219.0386  1.9785      1.7606      1.8658      2.0266      2.1108      2.2312      2.5430      1.1937    0.8191  0.3297 -156.3125  1.0000  2.7243  0.4377  0.1254 289.5707 382.9464
189.30  0.1453    1.2076    1.6452    2.0215    2.7417    2.7702 215.9000 294.4933 320.5028 307.2228   371.1595 1310.9843  49.5113   0.4117  0.4446  59.8716  0.4355  1.0158  5.4074  0.1404 28.6594  2.1667   110.2131  0.3717  0.3940  2.6618  0.6957 217.9564  1.9764      1.6753      1.7945      1.9478      2.0335      2.1509      2.4659      1.1290    0.8093  0.3307 -156.3244  1.0000  2.7037  0.4288  0.1490 289.4787 384.8137
189.40  0.1454    1.1881    1.5361    1.8857    2.4421    2.4610 215.9000 303.5761 327.4801 315.3008   359.4711 1297.5540  53.8267   0.3817  0.4167  59.6397  0.4438  1.0338  5.4848  0.1385 28.6837  2.1814    92.4338  0.3571  0.3845  2.6529  0.6883 217.0476  1.9858      1.6600      1.8003      1.9597      2.0432      2.1681      2.4983      1.1052    0.8027  0.3307 -156.3655  1.0000  2.7424  0.4430  0.1826 289.4698 388.0255
189.50  0.1454    1.2065    1.5090    1.8149    2.3116    2.2285 215.9000 294.7313 318.0926 306.1896   358.3528 1277.1672  57.1524   0.3869  0.4185  59.5826  0.4391  1.0414  5.5377  0.1307 28.6800  2.1855    72.8567  0.3383  0.3698  2.6586  0.6696 216.8386  1.9962      1.8107      1.9402      2.0991      2.1895      2.3168      2.6450      1.2192    0.7837  0.3291 -156.4918  1.0000  2.7688  0.4314  0.2102 289.3248 390.3091
189.60  0.1454    1.1824    1.5643    1.9368    2.4841    2.4499 215.9000 284.8720 309.2130 296.7930   360.1569 1262.9063  59.7388   0.4316  0.4484  59.4840  0.4103  1.0470  5.5739  0.1301 28.6737  2.1742    60.4030  0.3242  0.3591  2.6618  0.6693 216.6405  2.0003      1.8651      1.9485      2.0930      2.1742      2.3129      2.5879      1.2745    0.7873  0.3279 -156.7370  1.0000  2.7869  0.4181  0.2326 289.0792 389.6547
189.70  0.1454    1.2040    1.6135    2.0019    2.5807    2.6560 215.9000 282.2482 309.4840 295.5515   361.2163 1274.6240  60.9206   0.5209  0.5050  59.0890  0.4176  1.0557  5.5807  0.1579 28.6858  2.1879    56.0227  0.3187  0.3552  2.6431  0.7382 215.8152  2.0061      1.7954      1.8446      1.9762      2.0565      2.1825      2.4216      1.2442    0.7963  0.3292 -157.2782  1.0000  2.7904  0.4244  0.2432 288.6941 386.4824
189.80  0.1455    1.1480    1.6079    1.9876    2.5420    2.5910 215.9000 281.8985 309.3463 295.3036   367.2426 1287.9694  61.0436   0.5128  0.5016  58.1910  0.4089  1.1069  5.7371  0.1636 28.6892  2.2531    49.6228  0.3100  0.3467  2.5936  0.7409 215.1103  2.0221      1.6772      1.7356      1.8590      1.9316      2.0541      2.2903      1.1669    0.7938  0.3308 -158.0044  1.0000  2.8685  0.4210  0.2443 288.2725 382.5250
189.90  0.1455    1.1548    1.5552    1.8895    2.4153    2.5895 215.9000 282.1914 307.2164 294.4376   374.4697 1308.1699  60.3528   0.4037  0.4319  57.3504  0.4115  1.1579  5.8992  0.1566 28.6868  2.3842    44.7615  0.3028  0.3386  2.5474  0.7111 214.4684  2.0421      1.6219      1.7181      1.8584      1.9340      2.0582      2.3373      1.1125    0.7353  0.3330 -158.7444  1.0000  2.9496  0.4187  0.2381 287.8978 379.8133
