~VERSION INFORMATION
 VERS.                  2.0:   CWLS Log Ascii Standard
 WRAP.                   NO:   One line per depth step
~WELL INFORMATION
#MNEM.UNIT        DATA TYPE:   INFORMATION
#---------    -------------   --------------------------
 STRT.M                0.00:   Top Depth
 STOP.M              805.20:   Bottom Depth
 STEP.M                0.10:   Increment
 NULL.              -999.25:   Null Value
 SRVC.                  KPG:   Service Company/Logging company
 DATE.           26.07.2024:   LAS file Creation Date
 WELL.                  356:   Well Name
 COMP.                KMG-B:   Company
 FLD .             Karatube:   Field
 STATE.                    :   State
 COUNT.          Kazakhstan:   Country
 LATI.                     :   Latitude/Northing
 LONG.                     :   Longitude/Easting
 DF  .                     :   DF Elevation
 GL  .                     :   GL Elevation
~PARAMETER INFORMATION
#MNEM  .UNIT          Value:   Description
#---------    -------------   --------------------------
~CURVE INFORMATION
#MNEM  .UNIT           API Code:   Curve Description
#---------       -------------- -------------------------- 
 DEPTH .M                      :   1 Measured depth
 AMF   .OHMM                   :   2 Array Induction Mud Resistivity Fully Calibrated (F13
 AT10  .ohm.m                  :   3 " Array Induction, two foot resolution
 AT20  .ohm.m                  :   4 " Array Induction, two foot resolution
 AT30  .ohm.m                  :   5 " Array Induction, two foot resolution
 AT60  .ohm.m                  :   6 " Array Induction, two foot resolution
 AT90  .ohm.m                  :   7 " Array Induction, two foot resolution
 BSC   .mm                     :   8 Nominal Caliper
 C1    .mm                     :   9 CALIPER DIAMETER 1
 C2    .mm                     :   10 CALIPER DIAMETER 2
 CALI  .mm                     :   11 Caliper
 CFTC  .dec                    :   12 Neutron far
 CNTC  .dec                    :   13 Neutron near
 GR    .uR/h                   :   14 GammaRay  
 HMIN  .Ohmm                   :   15 HIP Micro Inverse Resistivity
 HMNO  .Ohmm                   :   16 HIP Micro Normal Resistivity
 HSGR  .GAPI                   :   17 HNGS Standard Gamma-Ray
 HTNP  .m3/m3                  :   18 High Resolution Thermal Neutron Porosity (Ratio Method) in Selected Lithology
 HTPR  .                       :   19 HNGS Formation Thorium Potassium Concentration
 HTUR  .                       :   20 HNGS Formation Thorium Uranium Concentration
 HUPR  .                       :   21 HNGS Formation Uranium Potassium Concentration
 MTEM  .‘                      :   22 Mud Temperature
 PEFZ  .B/E                    :   23 Formation Photoelectric Factor 
 Perm  .md                     :   24 Permeability
 PHIE  .Dec                    :   25 Effective porosity 
 PHIT  .Dec                    :   26 Total porosity
 POTA  .                       :   27 
 PURA  .PPM                    :   28 Upper Limit of Formation Uranium Concentration (F13
 RB    .OHMM                   :   29 Mud Resistivity
 RHOZ  .g/cm3                  :   30 Bulk Density 
 RLA1  .ohm.m                  :   31 ShalRes HRLT Borehole Corrected Resistivity 1
 RLA2  .ohm.m                  :   32 MedRes  HRLT Borehole Corrected Resistivity 2
 RLA3  .ohm.m                  :   33 DeepRes HRLT Borehole Corrected Resistivity 3
 RLA4  .ohm.m                  :   34 XDeepRes HRLT Borehole Corrected Resisitivity 4
 RLA5  .ohm.m                  :   35 UltraDeepR HRLT Borehole Corrected Resistivity 5
 RT    .ohm.m                  :   36 
 RXO   .ohm.m                  :   37 HRLT Invaded Zone Resistivity
 RXOZ  .ohm.m                  :   38 MicroRes Invaded Formation Resistivity
 SDEVM .deg                    :   39 Sonde Deviation
 SP    .mV                     :   40 Spontaneous Potential
 SW    .Dec                    :   41 Water saturation
 THOR  .                       :   42 
 TNPH  .V/V                    :   43 Neutron porosity
 VCLAV .Dec                    :   44 Clay volume
 HAZIM .deg                    :   45 Hole Azimuth
 DT    .uSec/m                 :   46 Sonic travel time
~A Log Data Section - Number of Curves = 46
# ...
144.40 -999.25   -999.25   -999.25   -999.25   -999.25   -999.25 228.7000 226.6628 214.3877 220.4404    -999.25   -999.25  64.9505  -999.25 -999.25  -999.25 -999.25 -999.25 -999.25 -999.25 27.7944 -999.25     0.0000 -999.25 -999.25 -999.25 -999.25  90.1432 -999.25      0.0420      0.0362      0.0333      0.0303      0.0264      0.0264      0.0264   -999.25  0.5890   -999.25 -999.25 -999.25 -999.25  0.2803  -999.25  -999.25
144.50 -999.25   -999.25   -999.25   -999.25   -999.25   -999.25 228.7000 227.4311 214.5467 220.8948    -999.25   -999.25  65.5203  -999.25 -999.25  -999.25 -999.25 -999.25 -999.25 -999.25 27.7908 -999.25     0.0000 -999.25 -999.25 -999.25 -999.25  92.8900 -999.25      0.0428      0.0368      0.0338      0.0309      0.0268      0.0268      0.0268   -999.25  0.5905   -999.25 -999.25 -999.25 -999.25  0.2857  -999.25  -999.25
144.60 -999.25   -999.25   -999.25   -999.25   -999.25   -999.25 228.7000 227.6903 214.6169 221.0568    -999.25   -999.25  67.1677  -999.25 -999.25  -999.25 -999.25 -999.25 -999.25 -999.25 27.8028 -999.25     0.0000 -999.25 -999.25 -999.25 -999.25  99.5819 -999.25      0.0426      0.0367      0.0337      0.0309      0.0269      0.0269      0.0269   -999.25  0.5921   -999.25 -999.25 -999.25 -999.25  0.3016  -999.25  -999.25
144.70 -999.25   -999.25   -999.25   -999.25   -999.25   -999.25 228.7000 228.0467 214.6275 221.2356    -999.25   -999.25  68.9490  -999.25 -999.25  -999.25 -999.25 -999.25 -999.25 -999.25 27.8135 -999.25     0.0000 -999.25 -999.25 -999.25 -999.25  96.0338 -999.25      0.0428      0.0368      0.0339      0.0310      0.0272      0.0272      0.0272   -999.25  0.5938   -999.25 -999.25 -999.25 -999.25  0.3191  -999.25  -999.25
144.80 -999.25   -999.25   -999.25   -999.25   -999.25   -999.25 228.7000 228.2235 214.6280 221.3215    -999.25   -999.25  70.4514  -999.25 -999.25  -999.25 -999.25 -999.25 -999.25 -999.25 27.8217 -999.25     0.0000 -999.25 -999.25 -999.25 -999.25  91.5831 -999.25      0.0466      0.0399      0.0366      0.0334      0.0295      0.0295      0.0295   -999.25  0.5956   -999.25 -999.25 -999.25 -999.25  0.3342  -999.25  -999.25
144.90 -999.25   -999.25   -999.25   -999.25   -999.25   -999.25 228.7000 228.0644 214.6280 221.2444    -999.25   -999.25  71.2341  -999.25 -999.25  -999.25 -999.25 -999.25 -999.25 -999.25 27.8247 -999.25     0.0000 -999.25 -999.25 -999.25 -999.25  90.2712 -999.25      0.0460      0.0395      0.0361      0.0328      0.0292      0.0292      0.0292   -999.25  0.5971   -999.25 -999.25 -999.25 -999.25  0.3421  -999.25  -999.25
145.00 -999.25 1950.0000 1950.0000 1950.0000   20.7649  442.3357 228.7000 227.4213 214.4462 220.8381    -999.25   -999.25  72.2611  -999.25 -999.25  -999.25 -999.25 -999.25 -999.25 -999.25 27.8123 -999.25     0.0000 -999.25 -999.25 -999.25 -999.25  93.2940 -999.25      0.0479      0.0414      0.0379      0.0345      0.0308      0.0308      0.0308   -999.25  0.5995   -999.25 -999.25 -999.25 -999.25  0.3578  -999.25  -999.25
145.10  0.1458 1950.0000 1950.0000 1950.0000   22.0311  480.5223 228.7000 226.6635 214.2217 220.3548   304.1911 1135.2211  72.4211   0.0282  0.0260  75.3426  0.5019  3.1302  4.7082  0.6741 27.8039 10.0000     0.0000  0.0001  0.0543  2.3185  1.9565  94.7534  3.2009      0.0500      0.0428      0.0394      0.0360      0.0323      0.0323      0.0323    0.0342  0.6018  -96.3381  1.0000  7.2592  0.5052  0.3613  -999.25  -999.25
145.20  0.1458 1950.0000 1950.0000 1950.0000   23.9106  549.1645 228.7000 225.8922 213.9983 219.8650   295.9372 1145.9777  69.7736   0.0268  0.0248  76.7260  0.5383  3.1813  5.8355  0.5530 27.8208 10.0000     0.0000  0.0001  0.0492  2.4175  1.7386  87.8549  3.2061      0.0500      0.0430      0.0395      0.0362      0.0328      0.0328      0.0328    0.0320  0.6029  -95.5657  1.0000  7.6924  0.5464  0.3273  -999.25  -999.25
145.30  0.1458 1950.0000 1950.0000 1950.0000   26.3708  654.2877 228.7000 225.2714 214.1074 219.6189   293.6773 1152.9280  68.5808   0.0260  0.0241  74.2817  0.5703  3.1407  6.3198  0.4977 27.8332 10.0000     0.0000  0.0001  0.0474  2.3769  1.5759  84.8403  3.2131      0.0509      0.0437      0.0402      0.0370      0.0337      0.0337      0.0337    0.0311  0.6039  -94.8252  1.0000  7.4692  0.5624  0.3155  -999.25  -999.25
145.40  0.1458 1950.0000 1950.0000 1950.0000   29.3586  808.4250 228.7000 224.8519 214.2615 219.4926   292.1015 1154.2902  67.4357   0.0258  0.0239  70.7744  0.5794  3.0604  6.7560  0.4567 27.8418 10.0000     0.0000  0.0001  0.0457  2.3003  1.4212  83.6494  3.2188      0.0481      0.0414      0.0383      0.0352      0.0325      0.0325      0.0325    0.0318  0.6047  -94.1199  1.0000  7.0403  0.5721  0.3042  -999.25  -999.25
145.50  0.1458 1950.0000 1950.0000 1950.0000   32.6721 1010.0126 228.7000 224.8120 214.2770 219.4810   284.3943 1138.9309  64.3292   0.0277  0.0256  68.6777  0.6041  2.9564  7.9520  0.3764 27.8418 10.0000     0.0000  0.0001  0.0413  2.2863  1.2170  84.0077  3.2209      0.0447      0.0386      0.0356      0.0326      0.0307      0.0307      0.0307    0.0332  0.6053  -93.5082  1.0000  6.7597  0.5939  0.2745  -999.25  -999.25
145.60  0.1458 1950.0000 1950.0000 1950.0000   35.9748 1244.7430 228.7000 224.8120 214.4336 219.5611   284.9937 1129.3696  63.8018   0.0304  0.0279  65.8330  0.5647  2.7852  7.1612  0.3986 27.8418 10.0000     0.0000  0.0001  0.0405  2.2288  1.2273  83.0882  3.2188      0.0452      0.0390      0.0361      0.0332      0.0319      0.0319      0.0319    0.0331  0.6060  -93.2526  1.0000  6.2167  0.5788  0.2695  -999.25  -999.25
145.70  0.1458 1950.0000 1950.0000 1950.0000   38.7721 1422.1964 228.7000 225.1693 214.6004 219.8211   288.9657 1123.5311  63.9130   0.0293  0.0269  63.2316  0.5709  2.6102  5.6338  0.4640 27.8379 10.0000     0.0000  0.0001  0.0407  2.1623  1.3340  82.0385  3.2138      0.0445      0.0384      0.0356      0.0327      0.0319      0.0319      0.0319    0.0330  0.6067  -93.1509  1.0000  5.6441  0.5506  0.2706  -999.25  -999.25
145.80  0.1458 1950.0000 1950.0000 1950.0000   40.5648 1506.1978 228.7000 226.5806 214.6206 220.5195   290.1221 1122.9128  61.0049   0.0256  0.0237  63.7566  0.5732  2.5811  5.1480  0.5030 27.8139 10.0000     0.0000  0.0001  0.0367  2.1559  1.4170  83.4631  3.2070      0.0467      0.0403      0.0373      0.0343      0.0335      0.0335      0.0335    0.0324  0.6077  -92.9780  1.0000  5.5646  0.5448  0.2439  -999.25  -999.25
145.90  0.1458 1950.0000 1950.0000 1950.0000   40.9664 1461.3463 228.7000 226.3442 214.7650 220.4788   291.7679 1124.4961  59.1496   0.0255  0.0236  64.9151  0.5739  2.5253  4.5388  0.5624 27.8202 10.0000     0.0000  0.0001  0.0342  2.1648  1.5578  83.4445  3.1990      0.0521      0.0450      0.0416      0.0383      0.0369      0.0369      0.0369    0.0301  0.6084  -92.7535  1.0000  5.4662  0.5395  0.2274  -999.25  -999.25
146.00  0.1458 1950.0000 1950.0000 1950.0000   39.4894 1289.8026 228.7000 225.3371 214.9781 220.0970   293.0380 1127.0795  58.1113   0.0255  0.0236  66.5534  0.5431  2.4800  4.0718  0.6143 27.8418 10.0000     0.0000  0.0001  0.0329  2.1903  1.6936  82.7414  3.1901      0.0506      0.0437      0.0403      0.0373      0.0360      0.0360      0.0360    0.0301  0.6088  -92.5563  1.0000  5.4342  0.5370  0.2184  -999.25  -999.25
146.10  0.1458 1950.0000 1950.0000 1950.0000   36.2686 1056.0902 228.7000 224.5523 215.1989 219.8256   288.9427 1127.2932  58.6801   0.0255  0.0236  69.0634  0.5591  2.6464  5.3427  0.5072 27.8418 10.0000     0.0000  0.0001  0.0336  2.2756  1.5150  83.3571  3.1809      0.0507      0.0437      0.0402      0.0372      0.0360      0.0360      0.0360    0.0301  0.6082  -92.8248  1.0000  6.0286  0.5555  0.2233  -999.25  -999.25
146.20  0.1458 1950.0000 1950.0000 1950.0000   32.1050  822.6013 228.7000 224.2601 215.5621 219.8684   284.0972 1131.3457  60.8579   0.0256  0.0237  70.8582  0.5705  2.7485  5.7841  0.4755 27.8418 10.0000     0.0000  0.0001  0.0365  2.3235  1.4807  83.3756  3.1722      0.0499      0.0432      0.0398      0.0368      0.0355      0.0355      0.0355    0.0305  0.6078  -93.1521  1.0000  6.3867  0.5868  0.2426  -999.25  -999.25
