~VERSION INFORMATION
 VERS.                  2.0:   CWLS Log Ascii Standard
 WRAP.                   NO:   One line per depth step
~WELL INFORMATION
#MNEM.UNIT        DATA TYPE:   INFORMATION
#---------    -------------   --------------------------
 STRT.M                0.00:   Top Depth
 STOP.M              805.20:   Bottom Depth
 STEP.M                0.10:   Increment
 NULL.              -999.25:   Null Value
 SRVC.                  KPG:   Service Company/Logging company
 DATE.           26.07.2024:   LAS file Creation Date
 WELL.                  356:   Well Name
 COMP.                KMG-B:   Company
 FLD .             Karatube:   Field
 STATE.                    :   State
 COUNT.          Kazakhstan:   Country
 LATI.                     :   Latitude/Northing
 LONG.                     :   Longitude/Easting
 DF  .                     :   DF Elevation
 GL  .                     :   GL Elevation
~PARAMETER INFORMATION
#MNEM  .UNIT          Value:   Description
#---------    -------------   --------------------------
~CURVE INFORMATION
#MNEM  .UNIT           API Code:   Curve Description
#---------       -------------- -------------------------- 
 DEPTH .M                      :   1 Measured depth
 AMF   .OHMM                   :   2 Array Induction Mud Resistivity Fully Calibrated (F13
 AT10  .ohm.m                  :   3 " Array Induction, two foot resolution
 AT20  .ohm.m                  :   4 " Array Induction, two foot resolution
 AT30  .ohm.m                  :   5 " Array Induction, two foot resolution
 AT60  .ohm.m                  :   6 " Array Induction, two foot resolution
 AT90  .ohm.m                  :   7 " Array Induction, two foot resolution
 BSC   .mm                     :   8 Nominal Caliper
 C1    .mm                     :   9 CALIPER DIAMETER 1
 C2    .mm                     :   10 CALIPER DIAMETER 2
 CALI  .mm                     :   11 Caliper
 CFTC  .dec                    :   12 Neutron far
 CNTC  .dec                    :   13 Neutron near
 GR    .uR/h                   :   14 GammaRay  
 HMIN  .Ohmm                   :   15 HIP Micro Inverse Resistivity
 HMNO  .Ohmm                   :   16 HIP Micro Normal Resistivity
 HSGR  .GAPI                   :   17 HNGS Standard Gamma-Ray
 HTNP  .m3/m3                  :   18 High Resolution Thermal Neutron Porosity (Ratio Method) in Selected Lithology
 HTPR  .                       :   19 HNGS Formation Thorium Potassium Concentration
 HTUR  .                       :   20 HNGS Formation Thorium Uranium Concentration
 HUPR  .                       :   21 HNGS Formation Uranium Potassium Concentration
 MTEM  .‘                      :   22 Mud Temperature
 PEFZ  .B/E                    :   23 Formation Photoelectric Factor 
 Perm  .md                     :   24 Permeability
 PHIE  .Dec                    :   25 Effective porosity 
 PHIT  .Dec                    :   26 Total porosity
 POTA  .                       :   27 
 PURA  .PPM                    :   28 Upper Limit of Formation Uranium Concentration (F13
 RB    .OHMM                   :   29 Mud Resistivity
 RHOZ  .g/cm3                  :   30 Bulk Density 
 RLA1  .ohm.m                  :   31 ShalRes HRLT Borehole Corrected Resistivity 1
 RLA2  .ohm.m                  :   32 MedRes  HRLT Borehole Corrected Resistivity 2
 RLA3  .ohm.m                  :   33 DeepRes HRLT Borehole Corrected Resistivity 3
 RLA4  .ohm.m                  :   34 XDeepRes HRLT Borehole Corrected Resisitivity 4
 RLA5  .ohm.m                  :   35 UltraDeepR HRLT Borehole Corrected Resistivity 5
 RT    .ohm.m                  :   36 
 RXO   .ohm.m                  :   37 HRLT Invaded Zone Resistivity
 RXOZ  .ohm.m                  :   38 MicroRes Invaded Formation Resistivity
 SDEVM .deg                    :   39 Sonde Deviation
 SP    .mV                     :   40 Spontaneous Potential
 SW    .Dec                    :   41 Water saturation
 THOR  .                       :   42 
 TNPH  .V/V                    :   43 Neutron porosity
 VCLAV .Dec                    :   44 Clay volume
 HAZIM .deg                    :   45 Hole Azimuth
 DT    .uSec/m                 :   46 Sonic travel time
~A Log Data Section - Number of Curves = 46
# ...
275.50  0.1431    1.4926    2.3832    3.1723    4.6719    4.7192 215.9000 227.7657 227.8858 227.8257   591.2221 1748.4410  64.8048   0.6741  0.6522  68.0075  0.3318  2.0269 10.9099  0.1477 29.7581  1.9988    34.3558  0.2819  0.3237  2.6914  0.7610  49.1732  2.0070      2.1796      2.8512      3.3606      3.6238      4.0491      5.2316      1.1966    1.0509  0.3364 -154.8542  0.9750  5.4550  0.3311  0.2790 302.5586 300.0053
275.60  0.1431    1.6238    2.6405    3.9563    6.6632    6.9919 215.9000 230.4654 232.3302 231.3960   577.3362 1742.8333  63.0678   0.6331  0.6316  67.8146  0.3392  2.0786 11.0811  0.1590 29.7581  1.9918    47.4705  0.2926  0.3320  2.6668  0.7809  48.9571  2.0016      2.3724      3.0952      3.6421      3.9562      4.3979      5.7131      1.3197    1.0482  0.3360 -155.6543  0.9002  5.5405  0.3420  0.2627 302.4972 301.1503
275.70  0.1431    1.7420    2.9792    4.6113    8.9568    9.6555 215.9000 231.8577 235.3693 233.6070   556.8627 1740.2646  62.4640   0.6250  0.6283  67.3341  0.3593  2.1563 11.3445  0.1620 29.7581  1.9829    54.9029  0.3002  0.3388  2.6303  0.7756  48.7431  1.9987      2.3835      3.0433      3.5847      3.9094      4.3342      5.6364      1.3719    1.0269  0.3373 -156.2775  0.8856  5.6723  0.3607  0.2572 302.4650 303.0453
275.80  0.1431    1.7216    2.7415    4.0207    7.1843    7.6568 215.9000 231.6412 235.6626 233.6431   537.1700 1725.8522  65.4759   0.6466  0.6276  68.2943  0.3841  2.2127 11.7964  0.1475 29.7581  1.9769    44.1094  0.2933  0.3361  2.6652  0.7455  48.6061  1.9992      2.2788      2.8326      3.3434      3.6617      4.0540      5.2603      1.3509    1.0030  0.3444 -156.3436  0.9386  5.8982  0.3769  0.2853 302.3107 304.0435
275.90  0.1431    1.5117    2.2420    3.1009    4.8513    5.2760 215.9000 232.4337 236.8726 234.6428   523.8077 1726.4617  68.1614   0.6722  0.6261  67.1594  0.3947  2.2319 11.7311  0.1273 29.7581  1.9782    34.6213  0.2857  0.3324  2.6281  0.6811  48.4319  2.0029      1.9192      2.2998      2.6914      2.9466      3.2703      4.1833      1.1843    0.9376  0.3546 -156.4669  1.0000  5.8656  0.3929  0.3113 302.1575 304.3548
276.00  0.1431    1.3232    1.8366    2.4753    3.7512    3.9809 215.9000 233.6033 238.5001 236.0385   517.5709 1735.1172  70.4867   0.6624  0.6004  65.4825  0.4120  2.2260 11.4751  0.1061 29.7581  1.9891    29.8092  0.2761  0.3263  2.5779  0.6098  48.2657  2.0087      1.6593      1.9424      2.2443      2.4528      2.7307      3.4419      1.0559    0.8644  0.3678 -156.6364  1.0000  5.7375  0.4039  0.3345 301.9786 305.4698
276.10  0.1431    1.1565    1.5128    1.8649    2.5132    2.5868 215.9000 234.4088 239.8513 237.1143   535.0725 1745.6617  71.6331   0.6362  0.5625  67.1049  0.3936  2.1845 11.6833  0.0969 29.7581  2.0176    24.5264  0.2641  0.3161  2.6750  0.6054  48.2657  2.0155      1.5443      1.7750      2.0179      2.2106      2.4518      3.0526      1.0136    0.8100  0.3889 -156.9092  1.0000  5.8417  0.3855  0.3462 301.5813 308.0665
276.20  0.1431    1.0969    1.3920    1.6869    2.1466    2.2659 215.9000 234.8018 240.0469 237.4097   535.4213 1747.4945  71.5973   0.5969  0.5272  68.0551  0.3709  2.1751 11.8397  0.0979 29.7581  2.0529    23.1924  0.2608  0.3127  2.7216  0.6213  48.1183  2.0226      1.7506      2.0507      2.3322      2.5723      2.8643      3.6019      1.1339    0.8075  0.4111 -156.7657  1.0000  5.9198  0.3851  0.3458 301.2647 311.5588
276.30  0.1431    1.2361    1.5269    1.9080    2.5081    2.7863 215.9000 235.0035 239.6589 237.3203   525.1864 1744.5039  70.8220   0.6453  0.5699  68.6006  0.3935  2.1877 11.9805  0.1021 29.7581  2.0893    24.4927  0.2641  0.3147  2.7381  0.6412  47.8749  2.0277      2.0973      2.5352      2.8996      3.2219      3.5973      4.5879      1.3122    0.8445  0.4340 -156.3882  1.0000  5.9903  0.3961  0.3379 301.0198 315.2849
276.40  0.1431    1.3680    1.9110    2.4883    3.5318    4.2207 215.9000 235.1948 239.2172 237.1973   518.8208 1749.0588  70.2137   0.7591  0.6716  69.4013  0.3904  2.2148 12.2995  0.0742 29.7581  2.1292    26.3348  0.2684  0.3182  2.7764  0.5711  47.6128  2.0285      2.2973      2.8178      3.2195      3.5661      3.9873      5.0843      1.4021    0.9165  0.4593 -156.3356  1.0000  6.1497  0.4062  0.3318 300.7135 330.1361
276.50  0.1430    1.4962    2.2706    3.0412    4.6220    5.4999 215.9000 236.4038 237.4405 236.9204   508.3794 1750.2513  68.9997   0.8105  0.7373  68.6622  0.4172  2.2346 12.2823  0.0544 29.7581  2.1321    29.2420  0.2749  0.3229  2.7484  0.5105  47.3435  2.0324      2.1806      2.6546      3.0082      3.2987      3.6974      4.6552      1.3287    0.9741  0.4822 -156.3125  1.0000  6.1411  0.4211  0.3196 300.3811 359.8273
276.60  0.1430    1.4867    2.3609    3.1853    4.9808    6.1988 215.9000 238.2496 236.2778 237.2609   495.5362 1747.4337  67.1789   0.7651  0.6920  66.6955  0.4340  2.2393 11.9560  0.0427 29.7581  2.1155    35.5100  0.2873  0.3326  2.6692  0.4615  47.0677  2.0355      1.9900      2.4386      2.7628      2.9967      3.3652      4.2210      1.2028    0.9626  0.5031 -156.3111  1.0000  5.9780  0.4382  0.3017 300.0323 363.4524
276.70  0.1429    1.4453    2.2746    2.9626    4.3747    5.6538 215.9000 240.1545 244.1071 242.1206   501.9093 1711.7765  62.2164   0.6984  0.6169  64.3006  0.4300  2.0211 10.5502  0.0683 29.7581  2.0997    42.0053  0.2981  0.3363  2.6067  0.5121  46.7739  2.0351      2.0434      2.5392      2.9074      3.1340      3.5226      4.4493      1.2128    0.8971  0.5193 -156.2758  0.9971  5.2751  0.4149  0.2549 299.6891 365.2073
276.80  0.1429    1.4361    2.2550    2.8804    4.1887    4.8234 215.9000 241.4169 248.8779 245.1184   503.8747 1686.0664  57.7061   0.6385  0.5639  62.8360  0.3901  1.8949  9.7105  0.0915 29.7581  2.0818    54.1552  0.3110  0.3432  2.5619  0.5621  46.4439  2.0336      2.0415      2.5099      2.9005      3.0987      3.4860      4.4025      1.2230    0.8667  0.5271 -155.9372  0.9635  4.8552  0.4009  0.2149 299.5068 364.8089
276.90  0.1429    1.4399    2.2569    2.8353    4.1361    4.5109 215.9000 242.2596 250.6582 246.4234   501.7715 1669.5383  53.6132   0.6577  0.5883  62.2300  0.4024  1.8537  9.3933  0.1125 29.7581  2.0637    68.9970  0.3238  0.3510  2.5336  0.6117  46.0803  2.0312      2.0418      2.4662      2.8826      3.0567      3.4430      4.3503      1.2492    0.8647  0.5271 -155.3187  0.9335  4.6967  0.3956  0.1809 299.4904 363.7331
277.00  0.1429    1.5056    2.4003    3.1071    4.7688    4.8384 215.9000 243.5253 251.5640 247.5118   482.0270 1635.5391  53.0794   0.7108  0.6442  62.0591  0.4193  1.8227  9.2936  0.1006 29.7581  2.0485   100.2740  0.3349  0.3614  2.5496  0.5823  45.6747  2.0248      2.2885      2.8190      3.3384      3.5452      4.0043      5.1237      1.3689    0.9108  0.5382 -154.4984  0.8335  4.6468  0.4096  0.1766 299.1067 363.0177
277.10  0.1428    1.5382    2.5235    3.4205    5.7820    5.4181 215.9000 245.3274 255.2219 250.2255   473.6990 1594.3579  54.0268   0.7542  0.6812  62.4120  0.4276  1.7900  9.2198  0.0993 29.7581  2.0261    99.7492  0.3318  0.3595  2.5757  0.5842  45.2544  2.0195      2.3661      2.9397      3.4785      3.7059      4.2017      5.3848      1.4013    1.0009  0.5453 -153.8568  0.8191  4.6099  0.4042  0.1842 298.6755 362.3563
277.20  0.1428    1.5721    2.5634    3.5312    6.2095    5.7260 215.9000 247.4273 261.1612 254.2014   478.4462 1545.2769  56.6042   0.7281  0.6846  63.3505  0.3816  1.7555  9.1730  0.1104 29.7581  2.0011    64.8480  0.3175  0.3484  2.6126  0.6221  44.8180  2.0133      2.1362      2.6053      2.9941      3.2066      3.6448      4.5947      1.3138    1.0220  0.5478 -153.4192  0.9221  4.5865  0.3767  0.2055 298.2425 360.5807
277.30  0.1427    1.4771    2.3754    3.1337    4.9201    5.0585 215.9000 246.6131 263.5104 254.9215   481.2387 1493.0321  57.8075   0.6780  0.6604  63.4311  0.3567  1.7119  9.0617  0.1050 29.7581  1.9657    52.7590  0.3104  0.3428  2.6471  0.6178  44.7918  2.0085      2.0497      2.4735      2.7969      3.0254      3.4391      4.3102      1.2946    1.0121  0.5485 -152.8794  0.9723  4.5308  0.3505  0.2158 297.7590 358.4600
