~VERSION INFORMATION
 VERS.                  2.0:   CWLS Log Ascii Standard
 WRAP.                   NO:   One line per depth step
~WELL INFORMATION
#MNEM.UNIT        DATA TYPE:   INFORMATION
#---------    -------------   --------------------------
 STRT.M                0.00:   Top Depth
 STOP.M              805.20:   Bottom Depth
 STEP.M                0.10:   Increment
 NULL.              -999.25:   Null Value
 SRVC.                  KPG:   Service Company/Logging company
 DATE.           26.07.2024:   LAS file Creation Date
 WELL.                  356:   Well Name
 COMP.                KMG-B:   Company
 FLD .             Karatube:   Field
 STATE.                    :   State
 COUNT.          Kazakhstan:   Country
 LATI.                     :   Latitude/Northing
 LONG.                     :   Longitude/Easting
 DF  .                     :   DF Elevation
 GL  .                     :   GL Elevation
~PARAMETER INFORMATION
#MNEM  .UNIT          Value:   Description
#---------    -------------   --------------------------
~CURVE INFORMATION
#MNEM  .UNIT           API Code:   Curve Description
#---------       -------------- -------------------------- 
 DEPTH .M                      :   1 Measured depth
 AMF   .OHMM                   :   2 Array Induction Mud Resistivity Fully Calibrated (F13
 AT10  .ohm.m                  :   3 " Array Induction, two foot resolution
 AT20  .ohm.m                  :   4 " Array Induction, two foot resolution
 AT30  .ohm.m                  :   5 " Array Induction, two foot resolution
 AT60  .ohm.m                  :   6 " Array Induction, two foot resolution
 AT90  .ohm.m                  :   7 " Array Induction, two foot resolution
 BSC   .mm                     :   8 Nominal Caliper
 C1    .mm                     :   9 CALIPER DIAMETER 1
 C2    .mm                     :   10 CALIPER DIAMETER 2
 CALI  .mm                     :   11 Caliper
 CFTC  .dec                    :   12 Neutron far
 CNTC  .dec                    :   13 Neutron near
 GR    .uR/h                   :   14 GammaRay  
 HMIN  .Ohmm                   :   15 HIP Micro Inverse Resistivity
 HMNO  .Ohmm                   :   16 HIP Micro Normal Resistivity
 HSGR  .GAPI                   :   17 HNGS Standard Gamma-Ray
 HTNP  .m3/m3                  :   18 High Resolution Thermal Neutron Porosity (Ratio Method) in Selected Lithology
 HTPR  .                       :   19 HNGS Formation Thorium Potassium Concentration
 HTUR  .                       :   20 HNGS Formation Thorium Uranium Concentration
 HUPR  .                       :   21 HNGS Formation Uranium Potassium Concentration
 MTEM  .‘                      :   22 Mud Temperature
 PEFZ  .B/E                    :   23 Formation Photoelectric Factor 
 Perm  .md                     :   24 Permeability
 PHIE  .Dec                    :   25 Effective porosity 
 PHIT  .Dec                    :   26 Total porosity
 POTA  .                       :   27 
 PURA  .PPM                    :   28 Upper Limit of Formation Uranium Concentration (F13
 RB    .OHMM                   :   29 Mud Resistivity
 RHOZ  .g/cm3                  :   30 Bulk Density 
 RLA1  .ohm.m                  :   31 ShalRes HRLT Borehole Corrected Resistivity 1
 RLA2  .ohm.m                  :   32 MedRes  HRLT Borehole Corrected Resistivity 2
 RLA3  .ohm.m                  :   33 DeepRes HRLT Borehole Corrected Resistivity 3
 RLA4  .ohm.m                  :   34 XDeepRes HRLT Borehole Corrected Resisitivity 4
 RLA5  .ohm.m                  :   35 UltraDeepR HRLT Borehole Corrected Resistivity 5
 RT    .ohm.m                  :   36 
 RXO   .ohm.m                  :   37 HRLT Invaded Zone Resistivity
 RXOZ  .ohm.m                  :   38 MicroRes Invaded Formation Resistivity
 SDEVM .deg                    :   39 Sonde Deviation
 SP    .mV                     :   40 Spontaneous Potential
 SW    .Dec                    :   41 Water saturation
 THOR  .                       :   42 
 TNPH  .V/V                    :   43 Neutron porosity
 VCLAV .Dec                    :   44 Clay volume
 HAZIM .deg                    :   45 Hole Azimuth
 DT    .uSec/m                 :   46 Sonic travel time
~A Log Data Section - Number of Curves = 46
# ...
666.90  0.1288    1.5641    1.5279    1.5675    1.6113    1.6156 215.9000 213.6324 212.4415 213.0364   810.9140 2411.2878  49.0481   1.4385  1.2727  43.1453  0.3316  4.1841 11.1462  0.1812 34.2826  1.9373    27.1711  0.2388  0.2606  1.3319  0.5224  85.9204  2.2588      1.6087      1.6648      1.7806      1.8622      1.7490      1.8870      1.0774    1.8045  0.3334 -187.1894  0.7607  5.5731  0.3318  0.1455 293.5064 296.2775
667.00  0.1288    1.5746    1.5427    1.5767    1.6250    1.6377 215.9000 213.6748 212.0609 212.8669   799.5499 2404.7122  45.9872   1.3919  1.2314  42.5113  0.3421  4.0916 10.8543  0.2098 34.2786  1.9245    37.6167  0.2507  0.2692  1.3263  0.5588  86.1794  2.2575      1.6281      1.6699      1.7863      1.8823      1.7801      1.9182      1.0693    1.8409  0.3325 -187.3113  0.7196  5.4271  0.3383  0.1235 293.3794 295.3216
667.10  0.1287    1.5854    1.5573    1.5867    1.6340    1.6583 215.9000 212.9922 211.7691 212.3801   797.7576 2391.5027  42.2434   1.5045  1.3312  42.1010  0.3414  3.8377 10.3426  0.2081 34.2768  1.9091    48.5032  0.2607  0.2754  1.3500  0.5622  86.3181  2.2538      1.6244      1.6606      1.7691      1.8768      1.7921      1.9298      1.0579    1.7492  0.3317 -187.4663  0.6909  5.1713  0.3366  0.0983 293.2730 292.4697
667.20  0.1286    1.5970    1.5692    1.6000    1.6497    1.6889 215.9000 212.0961 211.5592 211.8276   803.3336 2372.5283  37.9758   1.3723  1.2140  41.8076  0.3309  3.4561  9.6464  0.1805 34.2764  1.8940    58.6804  0.2684  0.2792  1.3955  0.5360  86.3486  2.2488      1.6269      1.6604      1.7595      1.8699      1.8061      1.9400      1.0612    1.8041  0.3310 -187.6427  0.6694  4.8232  0.3283  0.0723 293.1945 291.5447
667.30  0.1286    1.6041    1.5894    1.6142    1.6748    1.7193 215.9000 212.8699 211.4823 212.1743   793.9288 2342.6367  34.8419   1.3658  1.2083  39.3757  0.3206  3.2123  8.7977  0.1152 34.2644  1.8712    73.4440  0.2771  0.2854  1.3683  0.4321  86.0591  2.2406      1.6414      1.6736      1.7623      1.8778      1.8450      1.9794      1.0768    1.7548  0.3313 -187.6361  0.6420  4.3988  0.3280  0.0552 293.0212 296.2547
667.40  0.1286    1.6110    1.6049    1.6281    1.7004    1.7401 215.9000 213.2234 212.0943 212.6573   796.8217 2311.0266  32.9782   1.3942  1.2334  37.2638  0.3142  3.0278  8.0530  0.0903 34.2583  1.8534    76.6347  0.2783  0.2852  1.3287  0.3822  85.6097  2.2344      1.6480      1.6812      1.7644      1.8754      1.8709      2.0074      1.0950    1.7408  0.3309 -187.7125  0.6346  4.0265  0.3191  0.0458 292.9015 304.8215
667.50  0.1286    1.6182    1.6194    1.6418    1.7193    1.7596 215.9000 213.1305 213.1458 213.1380   812.0124 2277.6975  32.3848   1.1363  1.0923  35.4718  0.3005  2.9027  7.4125  0.1059 34.2583  1.8321    69.2946  0.2736  0.2800  1.2768  0.3862  85.0002  2.2256      1.6491      1.6716      1.7481      1.8544      1.8824      2.0060      1.1133    1.7736  0.3296 -187.8718  0.6427  3.7062  0.3014  0.0430 292.8532 312.4397
667.60  0.1286    1.6223    1.6314    1.6522    1.7248    1.7734 215.9000 213.2889 213.2550 213.2715   796.0641 2251.9377  32.7117   1.0621  1.0532  33.5457  0.3009  2.6107  6.2607  0.2363 34.2583  1.8192    76.4842  0.2783  0.2850  1.1941  0.5137  84.1595  2.2148      1.6326      1.6522      1.7152      1.8103      1.8679      1.9720      1.1244    1.7835  0.3302 -188.3736  0.6351  3.1303  0.3061  0.0445 292.6543 313.9421
667.70  0.1287    1.6141    1.6385    1.6561    1.7288    1.7791 215.9000 213.4790 213.4818 213.4808   773.7060 2227.7427  32.7100   1.2069  1.1384  32.3214  0.3205  2.4472  5.5506  0.3221 34.2694  1.8104    88.0709  0.2850  0.2916  1.1340  0.5929  83.2936  2.2077      1.6024      1.6245      1.6834      1.7685      1.8537      1.9556      1.1282    1.7901  0.3312 -188.9206  0.6236  2.7753  0.3160  0.0445 292.4186 310.9989
667.80  0.1287    1.6005    1.6400    1.6581    1.7337    1.7735 215.9000 213.6690 213.9066 213.7883   744.5694 2205.2029  32.3004   1.2531  1.1656  31.9240  0.3291  2.4386  5.3714  0.3527 34.2936  1.8030   109.9482  0.2956  0.3020  1.1013  0.6123  82.4036  2.1980      1.5842      1.6001      1.6547      1.7281      1.8379      1.9240      1.1310    1.7794  0.3326 -189.5122  0.6051  2.6857  0.3316  0.0426 292.1618 306.6734
667.90  0.1287    1.5877    1.6261    1.6459    1.7132    1.7526 215.9000 213.8644 214.1517 214.0081   726.6140 2183.8232  31.7872   1.1816  1.1151  33.1539  0.3377  2.4123  5.4368  0.3902 34.3065  1.7825   124.9786  0.3018  0.3078  1.1271  0.6711  81.3235  2.1932      1.5769      1.5867      1.6379      1.7028      1.8343      1.9083      1.1348    1.7826  0.3326 -189.8889  0.5940  2.7184  0.3402  0.0402 291.9561 304.1866
668.00  0.1288    1.5782    1.5938    1.6114    1.6747    1.7119 215.9000 214.0595 214.4791 214.2693   708.4713 2168.0493  31.6963   1.1653  1.1060  34.6971  0.3541  2.3660  5.5629  0.4037 34.3137  1.7659   137.2070  0.3061  0.3121  1.1767  0.7137  80.2464  2.1956      1.5699      1.5800      1.6309      1.6871      1.8411      1.9121      1.1433    1.7829  0.3328 -190.3543  0.5849  2.7814  0.3510  0.0398 291.7550 304.3684
668.10  0.1288    1.5750    1.5653    1.5904    1.6412    1.6805 215.9000 214.2536 214.9189 214.5858   688.8483 2160.2161  32.2245   1.1082  1.0830  36.5147  0.3741  2.2930  5.7499  0.3820 34.3137  1.7582   150.3522  0.3112  0.3175  1.2542  0.7288  79.1942  2.1976      1.5514      1.5550      1.6033      1.6530      1.8211      1.8818      1.1304    1.7732  0.3332 -190.9706  0.5793  2.8749  0.3658  0.0422 291.5460 305.3902
668.20  0.1287    1.5586    1.5384    1.5554    1.6152    1.6400 215.9000 213.7627 214.9685 214.3651   718.1892 2183.3381  34.1837   0.9599  0.9973  38.7913  0.3448  2.5342  5.9163  0.4209 34.3244  1.7570   113.0834  0.2982  0.3060  1.2919  0.8092  76.8120  2.2017      1.5320      1.5354      1.5769      1.6200      1.7937      1.8433      1.1208    1.7790  0.3310 -191.9182  0.6081  3.2791  0.3475  0.0518 291.3748 303.9678
668.30  0.1287    1.5373    1.5082    1.5201    1.5661    1.5971 215.9000 213.2632 214.4083 213.8348   749.3185 2217.4114  36.3039   1.0985  1.0703  40.8928  0.3416  2.6630  5.6172  0.4810 34.3234  1.7611    81.4607  0.2838  0.2933  1.3283  0.9178  74.7101  2.2113      1.5114      1.5098      1.5429      1.5831      1.7656      1.8019      1.1067    1.7425  0.3288 -192.7722  0.6427  3.5345  0.3310  0.0630 291.2647 297.8975
668.40  0.1286    1.5172    1.5028    1.5028    1.5363    1.5631 215.9000 212.8657 213.1319 212.9987   771.7568 2263.4480  38.3635   1.3190  1.1737  42.5714  0.3211  2.5158  4.4954  0.5642 34.2991  1.7843    65.5435  0.2740  0.2852  1.3719  1.0608  73.4289  2.2211      1.5175      1.5128      1.5457      1.5807      1.7712      1.8017      1.1118    1.7625  0.3272 -193.3794  0.6632  3.4500  0.3255  0.0746 291.2526 289.2818
668.50  0.1286    1.5269    1.5184    1.5123    1.5413    1.5769 215.9000 212.9701 213.1113 213.0407   793.0004 2299.6765  39.6375   1.3982  1.2370  43.4484  0.3161  2.6220  4.6448  0.5652 34.3065  1.8131    55.8663  0.2656  0.2779  1.3922  1.0792  72.2522  2.2301      1.5548      1.5582      1.5934      1.6262      1.8343      1.8731      1.1623    1.8090  0.3248 -193.7492  0.6704  3.6519  0.3191  0.0821 291.3047 281.8310
668.60  0.1286    1.5509    1.5442    1.5395    1.5686    1.6075 215.9000 212.8645 213.0538 212.9587   810.5145 2334.9573  40.6772   1.5281  1.3522  44.1018  0.3140  2.8139  5.7056  0.5149 34.3191  1.8322    49.0390  0.2582  0.2715  1.4115  1.0225  71.1612  2.2404      1.6128      1.6200      1.6572      1.6894      1.9145      1.9599      1.2127    1.8783  0.3223 -194.0010  0.6727  3.9745  0.3150  0.0884 291.3866 277.8551
668.70  0.1285    1.5722    1.5631    1.5579    1.5816    1.6308 215.9000 212.3002 212.5879 212.4440   820.2340 2372.2869  41.5281   1.6089  1.4239  44.5974  0.3165  3.0888  8.2560  0.3852 34.3299  1.8329    44.3261  0.2537  0.2678  1.4383  0.8514  70.2169  2.2523      1.6292      1.6325      1.6743      1.7032      1.9317      1.9782      1.2234    1.9591  0.3198 -194.0906  0.6807  4.4445  0.3168  0.0938 291.5016 279.3903
