~VERSION INFORMATION
 VERS.                  2.0:   CWLS Log Ascii Standard
 WRAP.                   NO:   One line per depth step
~WELL INFORMATION
#MNEM.UNIT        DATA TYPE:   INFORMATION
#---------    -------------   --------------------------
 STRT.M                0.00:   Top Depth
 STOP.M              805.20:   Bottom Depth
 STEP.M                0.10:   Increment
 NULL.              -999.25:   Null Value
 SRVC.                  KPG:   Service Company/Logging company
 DATE.           26.07.2024:   LAS file Creation Date
 WELL.                  356:   Well Name
 COMP.                KMG-B:   Company
 FLD .             Karatube:   Field
 STATE.                    :   State
 COUNT.          Kazakhstan:   Country
 LATI.                     :   Latitude/Northing
 LONG.                     :   Longitude/Easting
 DF  .                     :   DF Elevation
 GL  .                     :   GL Elevation
~PARAMETER INFORMATION
#MNEM  .UNIT          Value:   Description
#---------    -------------   --------------------------
~CURVE INFORMATION
#MNEM  .UNIT           API Code:   Curve Description
#---------       -------------- -------------------------- 
 DEPTH .M                      :   1 Measured depth
 AMF   .OHMM                   :   2 Array Induction Mud Resistivity Fully Calibrated (F13
 AT10  .ohm.m                  :   3 " Array Induction, two foot resolution
 AT20  .ohm.m                  :   4 " Array Induction, two foot resolution
 AT30  .ohm.m                  :   5 " Array Induction, two foot resolution
 AT60  .ohm.m                  :   6 " Array Induction, two foot resolution
 AT90  .ohm.m                  :   7 " Array Induction, two foot resolution
 BSC   .mm                     :   8 Nominal Caliper
 C1    .mm                     :   9 CALIPER DIAMETER 1
 C2    .mm                     :   10 CALIPER DIAMETER 2
 CALI  .mm                     :   11 Caliper
 CFTC  .dec                    :   12 Neutron far
 CNTC  .dec                    :   13 Neutron near
 GR    .uR/h                   :   14 GammaRay  
 HMIN  .Ohmm                   :   15 HIP Micro Inverse Resistivity
 HMNO  .Ohmm                   :   16 HIP Micro Normal Resistivity
 HSGR  .GAPI                   :   17 HNGS Standard Gamma-Ray
 HTNP  .m3/m3                  :   18 High Resolution Thermal Neutron Porosity (Ratio Method) in Selected Lithology
 HTPR  .                       :   19 HNGS Formation Thorium Potassium Concentration
 HTUR  .                       :   20 HNGS Formation Thorium Uranium Concentration
 HUPR  .                       :   21 HNGS Formation Uranium Potassium Concentration
 MTEM  .‘                      :   22 Mud Temperature
 PEFZ  .B/E                    :   23 Formation Photoelectric Factor 
 Perm  .md                     :   24 Permeability
 PHIE  .Dec                    :   25 Effective porosity 
 PHIT  .Dec                    :   26 Total porosity
 POTA  .                       :   27 
 PURA  .PPM                    :   28 Upper Limit of Formation Uranium Concentration (F13
 RB    .OHMM                   :   29 Mud Resistivity
 RHOZ  .g/cm3                  :   30 Bulk Density 
 RLA1  .ohm.m                  :   31 ShalRes HRLT Borehole Corrected Resistivity 1
 RLA2  .ohm.m                  :   32 MedRes  HRLT Borehole Corrected Resistivity 2
 RLA3  .ohm.m                  :   33 DeepRes HRLT Borehole Corrected Resistivity 3
 RLA4  .ohm.m                  :   34 XDeepRes HRLT Borehole Corrected Resisitivity 4
 RLA5  .ohm.m                  :   35 UltraDeepR HRLT Borehole Corrected Resistivity 5
 RT    .ohm.m                  :   36 
 RXO   .ohm.m                  :   37 HRLT Invaded Zone Resistivity
 RXOZ  .ohm.m                  :   38 MicroRes Invaded Formation Resistivity
 SDEVM .deg                    :   39 Sonde Deviation
 SP    .mV                     :   40 Spontaneous Potential
 SW    .Dec                    :   41 Water saturation
 THOR  .                       :   42 
 TNPH  .V/V                    :   43 Neutron porosity
 VCLAV .Dec                    :   44 Clay volume
 HAZIM .deg                    :   45 Hole Azimuth
 DT    .uSec/m                 :   46 Sonic travel time
~A Log Data Section - Number of Curves = 46
# ...
492.10  0.1345    1.7169    2.0477    2.1482    2.2776    2.3807 215.9000 217.9378 226.6113 222.2323   332.9515 1375.2433  80.7643   0.6003  0.6330  89.6903  0.6110  4.3675  4.4144  0.9895 32.4905  2.4242     0.0960  0.0749  0.1562  2.2314  2.6022 351.4578  2.1263      2.2190      2.3008      2.4621      2.5365      2.4177      2.6021      1.5116    1.1110  0.3828 -187.1871  1.0000  9.7449  0.6047  0.5419 278.0125 388.9117
492.20  0.1345    1.7557    2.0824    2.1899    2.3106    2.4080 215.9000 217.0327 228.4007 222.6436   329.4729 1379.3860  79.6391   0.5701  0.5976  89.0945  0.6509  4.4605  4.3216  1.0326 32.5251  2.4603     0.3841  0.1027  0.1803  2.1966  2.6624 349.9140  2.1374      2.3584      2.4612      2.6453      2.6868      2.5599      2.7552      1.6463    1.1219  0.3785 -187.4515  1.0000  9.7966  0.6255  0.5175 278.1301 389.4071
492.30  0.1345    1.8452    2.2034    2.3174    2.4352    2.5107 215.9000 217.0134 229.9924 223.4084   332.1477 1392.8885  77.6429   0.5239  0.5643  87.5358  0.5888  4.4835  4.6497  0.9741 32.5266  2.5963     4.7616  0.1651  0.2363  2.1837  2.5164 349.2656  2.1721      2.6716      2.8204      3.0401      3.0428      2.8975      3.1361      1.8673    1.2345  0.3748 -187.9202  0.8074  9.7905  0.6273  0.4743 278.2271 383.5783
492.40  0.1344    1.9145    2.2990    2.4404    2.5635    2.6348 215.9000 217.4324 231.1208 224.1720   340.0117 1412.1023  74.9438   0.6564  0.7114  85.4924  0.6218  4.4532  5.2652  0.8461 32.5069  2.7886     9.1104  0.1812  0.2435  2.1912  2.2346 349.1581  2.2154      2.8321      3.0394      3.2565      3.2269      3.0786      3.3531      1.9710    1.3735  0.3715 -188.5260  0.7157  9.7575  0.6121  0.4159 278.2952 372.3569
492.50  0.1342    1.9749    2.3751    2.5200    2.6408    2.7099 215.9000 217.2998 231.0319 224.0608   359.3653 1414.6075  71.1131   1.1230  1.1333  86.7798  0.5565  4.3800  5.6090  0.7828 32.5310  2.9316    16.9436  0.2010  0.2521  2.2741  2.1659 347.3657  2.2444      2.7661      3.0164      3.1786      3.1270      2.9844      3.2332      2.0201    1.6529  0.3669 -188.9601  0.6597  9.9576  0.5484  0.3409 278.3220 360.3771
492.60  0.1342    1.9956    2.3938    2.5308    2.6258    2.7016 215.9000 217.0910 231.2881 224.0769   379.1619 1418.6637  66.7965   1.3960  1.3281  88.5047  0.4894  4.3568  5.6830  0.7670 32.5488  2.9914    25.2527  0.2150  0.2597  2.3378  2.1904 345.5276  2.2557      2.7019      2.9955      3.1090      3.0519      2.9188      3.1684      2.0012    2.0507  0.3637 -189.4474  0.6265 10.1857  0.4977  0.2980 278.3490 353.2886
492.70  0.1342    2.0081    2.4032    2.5278    2.5964    2.6660 215.9000 216.8990 231.7321 224.1926   399.0832 1424.1805  62.1152   1.4625  1.3734  90.6116  0.4517  4.3757  5.5146  0.7935 32.5608  2.9994    42.9547  0.2337  0.2718  2.3846  2.2983 343.6499  2.2582      2.7205      3.0673      3.1232      3.0698      2.9363      3.1882      2.0561    2.0831  0.3619 -189.9828  0.5771 10.4343  0.4591  0.2540 278.3802 353.9318
492.80  0.1341    2.0201    2.4144    2.5579    2.6347    2.6736 215.9000 216.9034 231.0283 223.8540   392.4645 1438.1288  63.9853   1.2783  1.2375  92.1017  0.4960  4.2036  5.0316  0.8377 32.5608  2.9235    36.2835  0.2273  0.2680  2.4435  2.4619 341.8822  2.2551      2.7408      3.0755      3.1179      3.0594      2.9481      3.1582      2.1862    1.9822  0.3608 -190.5991  0.5911 10.2660  0.4795  0.2713 278.3901 359.5772
492.90  0.1342    2.0307    2.4130    2.5618    2.6479    2.6670 215.9000 217.3182 231.0935 224.1003   389.2725 1446.9025  67.8380   1.1179  1.1024  92.3993  0.4771  4.1137  4.7753  0.8615 32.5608  2.8062    23.4690  0.2134  0.2596  2.4664  2.5433 340.0353  2.2495      2.7465      2.9516      3.0048      2.9496      2.8508      2.9312      2.5893    1.7310  0.3603 -190.9401  0.6391 10.1460  0.4905  0.3081 278.3943 365.0179
493.00  0.1344    2.0114    2.3781    2.5723    2.6685    2.6670 215.9000 217.9337 231.6545 224.6891   389.7929 1450.0703  73.8384   0.6346  0.7139  91.4051  0.4821  4.1129  4.7647  0.8632 32.5608  2.7103     6.7933  0.1763  0.2351  2.4504  2.5354 338.1027  2.2476      2.7295      2.8040      2.8672      2.8258      2.7472      2.7918      2.7749    1.6404  0.3603 -190.9827  0.7809 10.0783  0.4911  0.3919 278.3947 367.1171
493.10  0.1345    1.9814    2.3670    2.5109    2.5739    2.5631 215.9000 216.6074 228.2599 222.3570   378.4337 1457.7426  81.0090   0.5748  0.6523  90.1019  0.5258  3.9271  5.0920  0.7746 32.5608  2.6190     0.0697  0.0697  0.1518  2.5036  2.3572 336.3417  2.2482      2.7590      2.7876      2.8551      2.8239      2.7653      2.7963      2.8007    1.6461  0.3585 -191.0168  1.0000  9.8263  0.5219  0.5472 278.2902 365.6666
493.20  0.1347    1.9444    2.3296    2.5024    2.5786    2.4773 215.9000 215.9058 226.4207 221.1010   381.3432 1463.8954  85.2541   0.8913  0.9447  89.8882  0.5027  3.7989  5.2266  0.7270 32.5608  2.5234     0.0001  0.0158  0.1116  2.5557  2.2861 334.5567  2.2493      2.8554      2.8574      2.9231      2.9146      2.8761      2.8861      2.8332    1.6588  0.3569 -190.8547  1.0000  9.7081  0.5199  0.6390 278.1579 361.5431
493.30  0.1347    1.9607    2.3875    2.6202    2.6933    2.5465 215.9000 216.0205 226.4939 221.1953   403.0428 1467.8759  85.7137   1.2275  1.2069  91.0777  0.4660  3.7539  5.0979  0.7364 32.5608  2.4603     0.0000  0.0131  0.1105  2.6028  2.3602 332.7321  2.2485      2.8347      2.8419      2.8963      2.9021      2.8946      2.8850      2.7167    1.8039  0.3555 -190.4433  1.0000  9.7702  0.4748  0.6490 278.0091 354.9059
493.40  0.1348    2.1103    2.5654    2.8188    2.9376    2.7068 215.9000 216.7348 225.3122 220.9813   407.4298 1493.5320  82.6087   1.1355  1.1198  88.4513  0.4798  3.7211  5.3064  0.7022 32.5608  2.3805     0.0074  0.0418  0.1291  2.5797  2.2546 331.0322  2.2350      2.8778      2.9026      2.9495      2.9692      2.9793      2.9671      2.6643    1.8682  0.3549 -189.5857  1.0000  9.5998  0.4791  0.5818 277.8387 348.0634
493.50  0.1348    2.5076    3.1427    3.5101    3.7186    3.3332 215.9000 215.9840 221.7193 218.8319   415.1759 1523.6047  77.8144   0.9210  0.9642  83.3425  0.4990  3.6553  5.5269  0.6620 32.5608  2.3114     5.3542  0.1589  0.2306  2.4824  2.0747 329.3027  2.2010      3.6902      3.8994      3.9263      3.9825      4.0350      4.1727      2.9451    2.0475  0.3542 -188.4969  0.6999  9.0847  0.4799  0.4780 277.6400 346.6804
493.60  0.1348    3.0486    4.2843    5.2400    5.1493    4.4383 215.9000 213.4773 215.5363 214.5028   430.8540 1557.2322  70.9293   0.9693  1.0566  74.9410  0.4718  3.5359  5.7137  0.6191 32.5608  2.2554   196.3947  0.2457  0.2965  2.2800  1.8066 327.5078  2.1483      7.1396      8.0954      8.5513      8.7904      8.9564     10.5125      4.8840    2.5431  0.3533 -187.1153  0.3013  8.0664  0.4674  0.3390 277.4008 354.1335
493.70  0.1347    3.8621    6.4145    9.5777    9.5008    7.0122 215.9000 220.7672 215.0450 217.8838   436.2451 1578.7128  63.2176   1.3012  1.5699  64.2549  0.4502  3.2556  5.0703  0.6454 32.5608  2.1668  1244.5972  0.2946  0.3342  1.9952  1.6264 325.6360  2.0877     12.3317     15.0107     16.1047     16.6603     17.1696     21.1397      7.1886    2.9518  0.3527 -186.1528  0.1785  6.5474  0.4696  0.2641 277.1340 367.7168
493.80  0.1347    4.6976    9.4363   15.8360   17.6108   11.5799 215.9000 224.9253 215.9062 220.3692   443.5734 1594.7765  55.5375   1.0508  1.3685  54.6090  0.4449  2.9670  4.8139  0.6247 32.5649  2.0857  3096.5200  0.3370  0.3665  1.7518  1.4030 324.3923  2.0272     13.2681     16.0721     17.0605     17.6690     18.2292     22.2830      7.8097    2.4849  0.3522 -185.5625  0.1521  5.2114  0.4659  0.1966 276.8609 381.2395
493.90  0.1347    4.8086   11.3932   21.1874   26.3787   16.0340 215.9000 222.6867 217.4085 220.0310   457.9126 1604.1635  48.1803   0.3891  0.5222  47.7041  0.4339  2.7132  5.5711  0.4914 32.5770  2.0274  5486.2969  0.3682  0.3891  1.6146  1.0675 324.3923  1.9759     13.1303     15.9695     17.1406     17.8059     18.4865     22.7609      7.6948    2.7053  0.3518 -185.5625  0.1389  4.3890  0.4463  0.1391 276.5879 391.2337
