~VERSION INFORMATION
 VERS.                 2.0:   CWLS LOG ASCII STANDARD - VERSION 2.0
 WRAP.                  NO:   SINGLE LINE PER DEPTH STEP
~WELL INFORMATION
#MNEM.UNIT       DATA           DESCRIPTION MNEMONIC
#---------    -------------   --------------------------
 STRT.M         0.0000                        : START DEPTH
 STOP.M         998.0000                      : STOP DEPTH
 STEP.M         0.1000                        : STEP VALUE
 NULL.          -999.0000                     : NULL VALUE
 SRVC.          SCH                           : Service Company/Logging company
 DATE.          08.08.2023                    : LAS file Creation Date
 WELL    .      Каратобе КН-3                 : Well Name
 COMP    .      COMPANY                       : Company
 FLD     .      Каратобе                      : Field
 STATE   .      1                             : State
 COUNT   .      Kazakhstan                    : Country
~CURVE INFORMATION
#MNEM          UNIT     API CODE   Description
#---------- ---------- ----------  -----------
 DEPTH     .M                    : Depth Index
 BSC       .mm                   : Nominal Caliper
 CALI      .mm                   : Caliper
 GR        .gAPI                 : Gamma Ray
 URAN      .PPM                  : Uranium
 THOR      .PPM                  : Thorium
 POTA      .%                    : Potasium
 DT        .uSec/m               : Sonic travel time
 HAZIM     .deg                  : Hole Azimuth
 SDEVM     .deg                  : Hole Deviation
 RHOZ      .g/cm3                : Bulk Density
 PEFZ      .B/E                  : Formation Photoelectric Factor 
 TNPH      .v/v                  : Neutron porosity
 AT10      .ohm.m                : 10" Array Induction, two foot resolution Resistivity
 AT20      .ohm.m                : 20" Array Induction, two foot resolution Resistivity
 AT30      .ohm.m                : 30" Array Induction, two foot resolution Resistivity
 AT60      .ohm.m                : 60" Array Induction, two foot resolution Resistivity
 AT90      .ohm.m                : 90" Array Induction, two foot resolution Resistivity
 RLA1      .ohm.m                : HRLT Borehole Corrected Resistivity 1
 RLA2      .ohm.m                : HRLT Borehole Corrected Resistivity 2
 RLA3      .ohm.m                : HRLT Borehole Corrected Resistivity 3
 RLA4      .ohm.m                : HRLT Borehole Corrected Resisitivity 4
 RLA5      .ohm.m                : HRLT Borehole Corrected Resistivity 5 
 RT        .ohm.m                : Formation Resistivity
 RXO       .ohm.m                : Flushed zone resistivity
 AHMF      .ohm.m                : Array Induction Mud Resistivity Fully Calibrated
 SP        .mV                   : Spontaneous Potential
 MTEM      .degC                 : Formation Temperature
 HMIN      .ohm.m                : HIP Micro Inverse Resistivity
 HMNO      .ohm.m                : HIP Micro Normal Resistivity
~A Log data section
# ...
 486.0000  215.9000  215.7000   50.3305    1.1400    3.9153    1.1020  512.8247   26.6875    0.2686    1.4252    1.4397    1.4462    0.9500    3.2398    3.2384    3.9718    3.6269    4.2255    4.0776    4.1035    4.0439    3.9694    3.8766    5.1206    0.0565 -154.0423   35.6933    0.9724    0.9265 
 486.1000  215.9000  214.0000   52.1927    1.2356    4.2736    1.2165  511.6073   27.1332    0.2634    1.4227    1.2927    1.1876    0.9760    3.5122    3.5153    4.2129    3.9710    4.1355    3.9922    4.0232    3.9645    3.8864    3.8060    4.9796    0.0566 -154.0940   35.7089    0.9714    0.9014 
 486.2000  215.9000  213.5000   54.7315    1.3486    4.6836    1.3377  510.9345   27.3441    0.2610    1.4606    1.2511    0.9905    0.9536    3.4920    3.5423    4.1567    4.0286    4.3468    4.2754    4.3256    4.2673    4.1692    4.2193    4.6859    0.0566 -153.9434   35.7078    1.0115    0.9738 
 486.3000  215.9000  214.3000   57.8059    1.4754    5.1143    1.4552  511.0638   27.2328    0.2625    1.5088    1.2909    0.8989    0.9247    3.1814    3.1207    3.6820    3.6151    3.7655    3.7044    3.7534    3.7024    3.6178    3.6662    4.0342    0.0565 -153.5417   35.6843    0.7587    0.7628 
 486.4000  215.9000  217.7000   59.1759    1.3107    5.5903    1.5661  513.5939   26.4651    0.2645    1.5473    1.3869    0.7507    0.8821    2.8415    2.9918    3.6798    3.3773    3.2543    3.1857    3.2230    3.1751    3.0995    3.1030    3.7265    0.0565 -153.2408   35.7039    0.5050    0.5039 
 486.5000  215.9000  220.7000   60.1344    1.2412    5.8621    1.6296  517.2153   26.1013    0.2671    1.5709    1.5093    0.6664    0.8817    2.7952    2.9324    3.6657    3.3559    3.2402    3.1641    3.2000    3.1542    3.0786    3.0452    3.9201    0.0565 -153.0293   35.7171    0.5317    0.5252 
 486.6000  215.9000  221.6000   60.6809    1.3603    5.8083    1.6199  522.2171   26.4586    0.2707    1.5931    1.6159    0.6900    0.9030    3.1111    3.2013    4.2218    3.5176    4.7098    4.6430    4.7518    4.6985    4.5509    4.6317    5.0315    0.0565 -152.9441   35.7144    0.9088    0.8783 
 486.7000  215.9000  217.8000   64.8857    1.4553    6.0199    1.6727  526.6606   26.0101    0.2685    1.6414    1.6752    0.6814    0.9228    3.3311    3.4023    4.8138    4.0022    4.8760    4.8039    4.9141    4.8686    4.7114    4.8246    4.9262    0.0566 -152.5227   35.7099    0.9589    0.9635 
 486.8000  215.9000  215.3000   71.5169    1.5305    6.4029    1.7931  530.7580   25.5553    0.2667    1.7282    1.7449    0.6453    0.8711    2.9174    3.0255    4.0624    3.6437    4.1032    4.0765    4.1563    4.1270    3.9954    4.1037    3.9383    0.0566 -152.0728   35.7118    0.5461    0.5344 
 486.9000  215.9000  219.4000   81.7972    1.5741    7.0418    2.0269  534.3457   25.3220    0.2673    1.8422    1.8453    0.5647    0.8328    2.4750    2.6027    3.3621    3.1116    3.0348    3.0377    3.0785    3.0597    2.9544    3.0278    3.0821    0.0566 -151.6647   35.7268    0.4092    0.3911 
 487.0000  215.9000  221.0000   87.9614    1.7401    7.8114    2.2223  522.3028   25.3864    0.2691    1.9595    1.9778    0.4969    0.7981    2.1666    2.3043    3.1212    2.7903    2.8034    2.8206    2.8643    2.8449    2.7440    2.8088    2.8981    0.0566 -151.4617   35.7212    0.4080    0.3919 
 487.1000  215.9000  221.6000   92.7027    1.8840    8.6141    2.3983  507.7502   25.5157    0.2715    2.0607    2.1430    0.4454    0.7806    2.0772    2.2426    2.9439    2.7441    2.8341    2.8455    2.8996    2.8722    2.7661    2.8284    3.0217    0.0566 -151.0844   35.7104    0.4192    0.4161 
 487.2000  215.9000  221.2000   96.2321    1.9133    9.4272    2.5488  495.3479   25.6442    0.2745    2.1253    2.3028    0.4253    0.7887    2.1316    2.3129    2.9373    2.8699    3.0800    3.0577    3.1213    3.0816    2.9619    3.0195    3.3965    0.0566 -150.1955   35.6982    0.4291    0.4684 
 487.3000  215.9000  220.0000   97.0718    1.8951    9.6663    2.6748  476.7578   25.4151    0.2758    2.1512    2.4049    0.4312    0.7853    2.1835    2.3632    2.8929    2.9294    3.2206    3.1939    3.2768    3.2242    3.0984    3.1836    3.3527    0.0566 -148.8948   35.7012    0.4425    0.4887 
 487.4000  215.9000  217.9000   97.3875    1.8264    9.7316    2.7762  461.2402   25.0393    0.2767    2.1381    2.4423    0.4407    0.7862    2.2008    2.4098    2.8401    3.0160    2.7496    2.7591    2.8260    2.7713    2.6636    2.7449    2.8147    0.0567 -147.6234   35.7080    0.4901    0.4676 
 487.5000  215.9000  214.1000   98.5414    1.6491    9.7900    2.8262  460.4850   24.5435    0.2779    2.0848    2.4201    0.4379    0.7837    2.2763    2.3643    2.8023    3.0253    2.4419    2.5056    2.5499    2.4970    2.3981    2.4723    2.5419    0.0566 -146.8096   35.7127    0.4854    0.4308 
 487.6000  215.9000  213.3000   96.9953    1.5660    9.6766    2.8261  463.8527   24.3198    0.2779    2.0055    2.3635    0.4641    0.7814    2.3325    2.4344    2.8510    3.2959    2.5788    2.7067    2.7371    2.6859    2.5775    2.6521    2.7310    0.0566 -146.6227   35.7106    0.5152    0.4617 
 487.7000  215.9000  215.2000   94.5358    1.5399    9.5577    2.8223  472.8078   24.2615    0.2780    1.9259    2.2980    0.4978    0.7872    2.3860    2.5128    3.0314    3.6100    3.0284    3.2367    3.2757    3.2233    3.0883    3.1715    3.0918    0.0566 -146.6773   35.7068    0.5138    0.5270 
 487.8000  215.9000  221.0000   92.6230    1.5952    9.6837    2.8812  497.6987   24.4423    0.2800    1.8787    2.2296    0.5161    0.7850    2.3911    2.5204    3.2140    3.5180    3.5682    3.8353    3.9127    3.8504    3.6855    3.8069    3.3412    0.0566 -146.7222   35.7068    0.5020    0.5473 
 487.9000  215.9000  222.7000   92.4539    1.6843    9.7890    2.9432  523.6741   24.6564    0.2814    1.8839    2.2268    0.5619    0.7745    2.3367    2.4037    3.1935    3.1172    3.1610    3.3008    3.3791    3.3141    3.1758    3.2626    3.1164    0.0565 -146.7041   35.7118    0.4413    0.4335 
 488.0000  215.9000  222.0000   93.8481    1.7995    9.8610    2.9973  547.7387   24.9266    0.2825    1.9077    2.2643    0.6033    0.7571    2.2331    2.2207    2.8520    2.7010    2.7263    2.7939    2.8787    2.8242    2.7132    2.7845    2.7378    0.0565 -146.7201   35.7177    0.3777    0.3496 
 488.1000  215.9000  221.8000   99.4506    1.9722    9.7997    2.9979  558.0838   25.4248    0.2831    1.9201    2.2965    0.5470    0.7443    2.1466    2.1045    2.5520    2.3729    2.5634    2.5835    2.6660    2.6220    2.5212    2.5874    2.6168    0.0565 -147.0971   35.7151    0.3857    0.3583 
 488.2000  215.9000  221.8000  102.2076    1.9608    9.6328    2.9220  563.6662   25.8008    0.2831    1.9089    2.3141    0.5698    0.7414    2.1095    2.0946    2.4157    2.2892    2.4537    2.4349    2.4950    2.4683    2.3705    2.4220    2.6565    0.0565 -147.4401   35.7251    0.3946    0.3615 
 488.3000  215.9000  221.8000  103.1876    1.8370    9.4338    2.8002  565.8422   26.1203    0.2830    1.8527    2.2832    0.6359    0.7344    2.0534    2.1196    2.5159    2.4269    2.6517    2.6074    2.6628    2.6503    2.5409    2.5859    2.8956    0.0565 -147.7347   35.7394    0.4610    0.4283 
 488.4000  215.9000  221.0000  103.2151    1.6757    9.5046    2.6688  562.5346   26.5775    0.2844    1.7676    2.2006    0.6735    0.7257    2.0970    2.1302    2.5751    2.5163    2.6327    2.5731    2.6184    2.6065    2.5058    2.5289    2.9559    0.0565 -147.7738   35.7244    0.4531    0.4444 
 488.5000  215.9000  227.5000   99.6601    1.6350    9.4363    2.5414  558.2575   27.0039    0.2855    1.6990    2.1424    0.7593    0.7163    2.1017    2.1840    2.6056    2.5115    2.6179    2.5424    2.5828    2.5743    2.4805    2.4809    3.0156    0.0564 -147.8812   35.7138    0.4142    0.4126 
 488.6000  215.9000  239.0000   93.7741    1.6798    9.2841    2.4271  553.5486   27.3899    0.2862    1.6544    2.0735    0.8741    0.7263    2.1228    2.2842    2.7314    2.6251    2.8212    2.7405    2.7721    2.7618    2.6627    2.6304    3.4092    0.0564 -148.0226   35.7066    0.4142    0.4286 
