~VERSION INFORMATION
 VERS.                 2.0:   CWLS LOG ASCII STANDARD - VERSION 2.0
 WRAP.                  NO:   SINGLE LINE PER DEPTH STEP
~WELL INFORMATION
#MNEM.UNIT       DATA           DESCRIPTION MNEMONIC
#---------    -------------   --------------------------
 STRT.M         0.0000                        : START DEPTH
 STOP.M         998.0000                      : STOP DEPTH
 STEP.M         0.1000                        : STEP VALUE
 NULL.          -999.0000                     : NULL VALUE
 SRVC.          SCH                           : Service Company/Logging company
 DATE.          08.08.2023                    : LAS file Creation Date
 WELL    .      Каратобе КН-3                 : Well Name
 COMP    .      COMPANY                       : Company
 FLD     .      Каратобе                      : Field
 STATE   .      1                             : State
 COUNT   .      Kazakhstan                    : Country
~CURVE INFORMATION
#MNEM          UNIT     API CODE   Description
#---------- ---------- ----------  -----------
 DEPTH     .M                    : Depth Index
 BSC       .mm                   : Nominal Caliper
 CALI      .mm                   : Caliper
 GR        .gAPI                 : Gamma Ray
 URAN      .PPM                  : Uranium
 THOR      .PPM                  : Thorium
 POTA      .%                    : Potasium
 DT        .uSec/m               : Sonic travel time
 HAZIM     .deg                  : Hole Azimuth
 SDEVM     .deg                  : Hole Deviation
 RHOZ      .g/cm3                : Bulk Density
 PEFZ      .B/E                  : Formation Photoelectric Factor 
 TNPH      .v/v                  : Neutron porosity
 AT10      .ohm.m                : 10" Array Induction, two foot resolution Resistivity
 AT20      .ohm.m                : 20" Array Induction, two foot resolution Resistivity
 AT30      .ohm.m                : 30" Array Induction, two foot resolution Resistivity
 AT60      .ohm.m                : 60" Array Induction, two foot resolution Resistivity
 AT90      .ohm.m                : 90" Array Induction, two foot resolution Resistivity
 RLA1      .ohm.m                : HRLT Borehole Corrected Resistivity 1
 RLA2      .ohm.m                : HRLT Borehole Corrected Resistivity 2
 RLA3      .ohm.m                : HRLT Borehole Corrected Resistivity 3
 RLA4      .ohm.m                : HRLT Borehole Corrected Resisitivity 4
 RLA5      .ohm.m                : HRLT Borehole Corrected Resistivity 5 
 RT        .ohm.m                : Formation Resistivity
 RXO       .ohm.m                : Flushed zone resistivity
 AHMF      .ohm.m                : Array Induction Mud Resistivity Fully Calibrated
 SP        .mV                   : Spontaneous Potential
 MTEM      .degC                 : Formation Temperature
 HMIN      .ohm.m                : HIP Micro Inverse Resistivity
 HMNO      .ohm.m                : HIP Micro Normal Resistivity
~A Log data section
# ...
 712.8000  215.9000  217.7000  101.6147    1.3785    9.8994    3.2217  379.9149  336.8032    0.1497    2.3600    3.5800    0.4496    0.7602    1.8645    1.8840    2.0948    2.0742    2.3063    2.2294    2.2401    2.1960    2.0800    1.9736    2.9900    0.0543 -154.3512   37.3376    0.5722    0.5395 
 712.9000  215.9000  216.6000  102.2295    1.3890   10.3950    3.2632  395.5810  334.4729    0.1499    2.3253    3.5080    0.4411    0.7580    1.8084    1.7983    1.9732    2.0154    2.2601    2.2058    2.2156    2.1729    2.0592    1.9905    2.8718    0.0543 -154.2942   37.3307    0.4906    0.4425 
 713.0000  215.9000  215.9000  103.7697    1.2653   11.0523    3.2831  408.5988  333.1891    0.1517    2.2797    3.3924    0.4361    0.7463    1.7493    1.7801    1.9200    1.9583    2.0151    1.9828    1.9894    1.9538    1.8535    1.8113    2.5347    0.0542 -154.2097   37.3338    0.3363    0.2996 
 713.1000  215.9000  215.6000  104.9341    1.0971   11.6139    3.2937  419.2550  331.9499    0.1534    2.2590    3.2959    0.4352    0.7432    1.7005    1.6778    1.7970    1.9466    1.8744    1.8351    1.8421    1.8093    1.7185    1.6665    2.3818    0.0542 -154.1492   37.3380    0.2800    0.2509 
 713.2000  215.9000  216.9000  103.2261    0.9493   11.5531    3.2985  424.3827  329.3410    0.1522    2.2497    3.2430    0.4453    0.7323    1.6371    1.6235    1.7461    1.8389    1.8335    1.7953    1.8013    1.7686    1.6820    1.6307    2.3298    0.0542 -154.2256   37.3310    0.2704    0.2425 
 713.3000  215.9000  217.4000  103.3764    0.9734   11.4073    3.2345  421.1721  326.7863    0.1539    2.2542    3.2443    0.4496    0.7423    1.6525    1.6327    1.7355    1.7865    1.8147    1.7734    1.7759    1.7429    1.6553    1.5881    2.3478    0.0542 -154.5189   37.3382    0.2968    0.2640 
 713.4000  215.9000  216.9000  104.9322    1.0841   11.2338    3.1527  412.6188  324.4739    0.1559    2.2887    3.3094    0.4486    0.7619    1.7183    1.6692    1.7862    1.8136    2.0195    1.9730    1.9736    1.9336    1.8375    1.7562    2.6261    0.0543 -154.9123   37.3488    0.4632    0.4116 
 713.5000  215.9000  214.2000  109.2763    1.2247   11.1251    3.1481  396.6156  323.2993    0.1525    2.3169    3.3731    0.4353    0.7707    1.7974    1.7153    1.8285    1.8474    2.1982    2.1410    2.1401    2.0979    1.9923    1.8960    2.8613    0.0543 -155.2957   37.3419    0.8662    0.8019 
 713.6000  215.9000  212.8000  112.3040    1.3580   11.1254    3.1965  382.3888  321.3105    0.1536    2.3203    3.3702    0.4428    0.7864    1.8750    1.7659    1.8424    1.8373    2.2274    2.1680    2.1669    2.1248    2.0168    1.9221    2.8839    0.0543 -155.7058   37.3437    0.8492    0.7815 
 713.7000  215.9000  212.7000  114.3255    1.4837   11.1782    3.2724  370.9648  319.0268    0.1563    2.3228    3.3322    0.4599    0.7818    1.8450    1.7624    1.8183    1.8215    2.1358    2.0772    2.0736    2.0333    1.9263    1.8251    2.7849    0.0542 -156.1012   37.3492    0.8351    0.7790 
 713.8000  215.9000  213.6000  114.4613    1.5817   11.1377    3.3198  373.7753  318.2248    0.1505    2.3232    3.2690    0.4561    0.7716    1.8048    1.6925    1.7857    1.8186    2.1241    2.0718    2.0716    2.0319    1.9227    1.8352    2.7525    0.0542 -156.2500   37.3422    0.8581    0.7908 
 713.9000  215.9000  217.4000  113.3797    1.6718   11.2051    3.3326  378.9355  316.8146    0.1502    2.3122    3.1782    0.4415    0.7647    1.7519    1.6838    1.7658    1.7980    2.0618    2.0059    2.0102    1.9740    1.8679    1.7863    2.6574    0.0542 -156.3107   37.3394    0.7729    0.7173 
 714.0000  215.9000  223.0000  111.5874    1.7524   11.3077    3.3174  385.4124  315.0806    0.1531    2.3060    3.1213    0.4186    0.7672    1.7127    1.6428    1.7408    1.7709    1.9632    1.9132    1.9188    1.8837    1.7826    1.7074    2.5354    0.0542 -156.3031   37.3394    0.6947    0.6671 
 714.1000  215.9000  218.9000  112.4710    1.7745   10.7383    3.2573  385.8619  315.1705    0.1464    2.3088    3.0957    0.3855    0.7777    1.7266    1.6703    1.7599    1.7729    2.0397    1.9831    1.9943    1.9576    1.8512    1.7722    2.6347    0.0543 -156.2272   37.3394    0.7587    0.7226 
 714.2000  215.9000  215.7000  113.4640    1.6960   10.4841    3.2174  384.3371  315.1881    0.1406    2.3053    3.0615    0.3659    0.7900    1.7402    1.6831    1.7634    1.7570    2.1438    2.0814    2.1003    2.0620    1.9496    1.8740    2.7509    0.0543 -155.9599   37.3431    0.7563    0.7277 
 714.3000  215.9000  214.0000  114.5071    1.5344   10.4975    3.1932  381.0822  315.1557    0.1355    2.3071    3.0470    0.3579    0.7912    1.7562    1.6844    1.7700    1.7252    2.1564    2.0741    2.0917    2.0536    1.9419    1.8395    2.7918    0.0543 -155.5300   37.3498    0.7754    0.7342 
 714.4000  215.9000  213.1000  111.2959    1.6242   10.4285    3.0306  373.0606  316.2700    0.1366    2.3250    3.0280    0.3792    0.7873    1.7267    1.6836    1.7595    1.7210    2.1196    2.0490    2.0638    2.0286    1.9180    1.8344    2.7173    0.0544 -155.1567   37.3429    0.8736    0.8012 
 714.5000  215.9000  212.4000  110.3920    1.7854   10.3048    2.9769  367.6320  316.7747    0.1338    2.3376    3.0325    0.3893    0.7845    1.6902    1.6644    1.7296    1.7156    2.0581    2.0160    2.0308    1.9983    1.8899    1.8455    2.5878    0.0544 -154.8709   37.3495    0.9314    0.8437 
 714.6000  215.9000  212.0000  111.8895    2.0210   10.1241    3.0365  364.9022  316.6449    0.1270    2.3479    3.0621    0.3878    0.7832    1.6646    1.6405    1.6986    1.7009    2.0463    2.0211    2.0343    2.0046    1.8974    1.8768    2.5256    0.0544 -154.6761   37.3702    0.9164    0.8148 
 714.7000  215.9000  211.9000  110.9045    2.1637    9.9169    3.0169  364.7051  319.6974    0.1306    2.3616    3.0780    0.3823    0.7867    1.6848    1.6449    1.6957    1.7242    1.9944    1.9800    1.9900    1.9599    1.8543    1.8402    2.4602    0.0544 -154.4375   37.3464    0.8024    0.7104 
 714.8000  215.9000  212.1000  111.4072    2.3225    9.8761    2.9926  364.9421  321.5801    0.1304    2.3643    3.0954    0.3765    0.7893    1.7121    1.6687    1.7293    1.7449    1.9696    1.9589    1.9682    1.9364    1.8322    1.8159    2.4485    0.0544 -154.2514   37.3342    0.7785    0.6918 
 714.9000  215.9000  212.4000  113.9351    2.5065   10.0485    2.9666  365.5972  321.8052    0.1248    2.3597    3.1095    0.3708    0.8005    1.7646    1.7184    1.7806    1.7682    2.0541    2.0338    2.0459    2.0083    1.8996    1.8703    2.5779    0.0545 -154.1344   37.3390    0.8545    0.7646 
 715.0000  215.9000  213.0000  113.0760    2.5826    9.6517    2.9342  369.9660  325.0454    0.1286    2.3542    3.0795    0.3795    0.8043    1.7878    1.7386    1.8093    1.7877    2.0969    2.0679    2.0808    2.0397    1.9311    1.8892    2.6525    0.0545 -154.0238   37.3394    0.8471    0.7737 
 715.1000  215.9000  213.4000  112.6280    2.7228    9.2880    2.9132  373.4644  327.5287    0.1311    2.3389    3.0683    0.3890    0.7994    1.7667    1.7042    1.7721    1.7452    2.1132    2.0741    2.0860    2.0447    1.9358    1.8802    2.6925    0.0545 -153.8408   37.3421    0.8091    0.7462 
 715.2000  215.9000  213.3000  113.2837    2.9778    9.0536    2.9111  375.0966  328.4184    0.1302    2.3207    3.0465    0.3977    0.7895    1.7159    1.6459    1.7263    1.6721    2.0793    2.0317    2.0409    2.0003    1.8929    1.8238    2.6681    0.0545 -153.5434   37.3490    0.8230    0.7498 
 715.3000  215.9000  213.1000  110.0030    2.8742    9.1743    2.8355  375.6999  331.1354    0.1323    2.3107    3.0128    0.4049    0.7785    1.6607    1.5832    1.6523    1.6064    2.0189    1.9722    1.9797    1.9425    1.8395    1.7735    2.5851    0.0544 -153.3955   37.3439    0.8412    0.7561 
 715.4000  215.9000  212.9000  105.7461    2.7495    9.2222    2.7344  375.9987  332.9661    0.1364    2.3086    2.9679    0.4074    0.7691    1.6407    1.5728    1.6216    1.5971    1.9198    1.8710    1.8766    1.8428    1.7470    1.6791    2.4619    0.0544 -153.2663   37.3417    0.8596    0.7718 
