~VERSION INFORMATION
 VERS.                 2.0:   CWLS LOG ASCII STANDARD - VERSION 2.0
 WRAP.                  NO:   SINGLE LINE PER DEPTH STEP
~WELL INFORMATION
#MNEM.UNIT       DATA           DESCRIPTION MNEMONIC
#---------    -------------   --------------------------
 STRT.M         0.0000                        : START DEPTH
 STOP.M         998.0000                      : STOP DEPTH
 STEP.M         0.1000                        : STEP VALUE
 NULL.          -999.0000                     : NULL VALUE
 SRVC.          SCH                           : Service Company/Logging company
 DATE.          08.08.2023                    : LAS file Creation Date
 WELL    .      Каратобе КН-3                 : Well Name
 COMP    .      COMPANY                       : Company
 FLD     .      Каратобе                      : Field
 STATE   .      1                             : State
 COUNT   .      Kazakhstan                    : Country
~CURVE INFORMATION
#MNEM          UNIT     API CODE   Description
#---------- ---------- ----------  -----------
 DEPTH     .M                    : Depth Index
 BSC       .mm                   : Nominal Caliper
 CALI      .mm                   : Caliper
 GR        .gAPI                 : Gamma Ray
 URAN      .PPM                  : Uranium
 THOR      .PPM                  : Thorium
 POTA      .%                    : Potasium
 DT        .uSec/m               : Sonic travel time
 HAZIM     .deg                  : Hole Azimuth
 SDEVM     .deg                  : Hole Deviation
 RHOZ      .g/cm3                : Bulk Density
 PEFZ      .B/E                  : Formation Photoelectric Factor 
 TNPH      .v/v                  : Neutron porosity
 AT10      .ohm.m                : 10" Array Induction, two foot resolution Resistivity
 AT20      .ohm.m                : 20" Array Induction, two foot resolution Resistivity
 AT30      .ohm.m                : 30" Array Induction, two foot resolution Resistivity
 AT60      .ohm.m                : 60" Array Induction, two foot resolution Resistivity
 AT90      .ohm.m                : 90" Array Induction, two foot resolution Resistivity
 RLA1      .ohm.m                : HRLT Borehole Corrected Resistivity 1
 RLA2      .ohm.m                : HRLT Borehole Corrected Resistivity 2
 RLA3      .ohm.m                : HRLT Borehole Corrected Resistivity 3
 RLA4      .ohm.m                : HRLT Borehole Corrected Resisitivity 4
 RLA5      .ohm.m                : HRLT Borehole Corrected Resistivity 5 
 RT        .ohm.m                : Formation Resistivity
 RXO       .ohm.m                : Flushed zone resistivity
 AHMF      .ohm.m                : Array Induction Mud Resistivity Fully Calibrated
 SP        .mV                   : Spontaneous Potential
 MTEM      .degC                 : Formation Temperature
 HMIN      .ohm.m                : HIP Micro Inverse Resistivity
 HMNO      .ohm.m                : HIP Micro Normal Resistivity
~A Log data section
# ...
 148.5000  226.5000  222.6000   42.8595    0.6444    1.8663    1.6511 -999.0000 -999.0000    0.5207 -999.0000   10.0000    0.5793 -999.0000 -999.0000 -999.0000 -999.0000 -999.0000 -999.0000 -999.0000 -999.0000 -999.0000 -999.0000 -999.0000 -999.0000    0.0589 -999.0000   32.8895    0.1054    0.0961 
 148.6000  226.5000  223.5000   41.8373    0.6446    1.9674    1.6574 -999.0000 -999.0000    0.4975 -999.0000   10.0000    0.6129 -999.0000 -999.0000 -999.0000 -999.0000 -999.0000 -999.0000 -999.0000 -999.0000 -999.0000 -999.0000 -999.0000 -999.0000    0.0589 -999.0000   32.9049    0.1086    0.0990 
 148.7000  226.5000  224.3000   42.1106    0.5253    2.0584    1.7271 -999.0000 -999.0000    0.4731 -999.0000   10.0000    0.6400 -999.0000 -999.0000 -999.0000 -999.0000 -999.0000 -999.0000 -999.0000 -999.0000 -999.0000 -999.0000 -999.0000 -999.0000    0.0589 -999.0000   32.9024    0.1091    0.0993 
 148.8000  226.5000  225.5000   42.3356    0.4377    2.1742    1.8065 -999.0000 -999.0000    0.4609 -999.0000   10.0000    0.6767 -999.0000 -999.0000 -999.0000 -999.0000 -999.0000 -999.0000 -999.0000 -999.0000 -999.0000 -999.0000 -999.0000 -999.0000    0.0589 -999.0000   32.8841    0.1282    0.1162 
 148.9000  226.5000  226.8000   42.6336    0.3687    2.3120    1.8905 -999.0000 -999.0000    0.4576 -999.0000   10.0000    0.7154 -999.0000 -999.0000 -999.0000 -999.0000 -999.0000 -999.0000 -999.0000 -999.0000 -999.0000 -999.0000 -999.0000 -999.0000    0.0589 -999.0000   32.8563    0.1493    0.1344 
 149.0000  226.5000  226.6000   44.9839    0.2209    2.5270    1.9267 -999.0000 -999.0000    0.4565 -999.0000   10.0000    0.6581 -999.0000 -999.0000 -999.0000 -999.0000 -999.0000 -999.0000 -999.0000 -999.0000 -999.0000 -999.0000 -999.0000 -999.0000    0.0590 -999.0000   32.8644    0.1468    0.1315 
 149.1000  226.5000  226.5000   45.8727    0.0916    2.6401    1.9543 -999.0000 -999.0000    0.4655 -999.0000   10.0000    0.5980 -999.0000 -999.0000 -999.0000 -999.0000 -999.0000 -999.0000 -999.0000 -999.0000 -999.0000 -999.0000 -999.0000 -999.0000    0.0590 -999.0000   32.8718    0.0899    0.0824 
 149.2000  226.5000  226.5000   45.4654   -0.0211    2.6629    1.9740 -999.0000 -999.0000    0.4832 -999.0000   10.0000    0.5352 -999.0000 -999.0000 -999.0000 -999.0000 -999.0000 -999.0000 -999.0000 -999.0000 -999.0000 -999.0000 -999.0000 -999.0000    0.0590 -107.4375   32.8787    0.0510    0.0481 
 149.3000  226.5000  226.8000   43.8622   -0.0474    2.5468    1.9357 -999.0000 -999.0000    0.5131 -999.0000   10.0000    0.5759 -999.0000 -999.0000 -999.0000 -999.0000 -999.0000 -999.0000 -999.0000 -999.0000 -999.0000 -999.0000 -999.0000 -999.0000    0.0591 -107.4375   32.8712    0.0391    0.0377 
 149.4000  226.5000  227.0000   41.6556   -0.0302    2.4253    1.9174 -999.0000 -999.0000    0.5450 -999.0000   10.0000    0.5710    3.2362    1.3366    7.0063    4.4627    1.3314    0.0124    0.0108    0.0089    0.0071    0.0042    0.0042    0.0042    0.0591 -107.4375   32.8637    0.0337    0.0329 
 149.5000  225.4400  227.1000   38.7951    0.0342    2.2980    1.9209 -999.0000 -999.0000    0.5791 -999.0000    9.4948    0.5168    2.0877    1.5093    7.4936    6.6698    3.5867    0.0126    0.0109    0.0090    0.0071    0.0041    0.0041    0.0041    0.0593 -107.4375   32.8562    0.0392    0.0377 
 149.6000  215.9000  227.6000   41.0309   -0.0142    2.3362    1.9970 -999.0000   38.4586    0.5962 -999.0000    8.3564    0.5190    1.4588    2.3881   38.2350   40.3330    4.3199    0.0123    0.0106    0.0088    0.0071    0.0044    0.0044    0.0044    0.0594 -107.4375   32.8702    0.0640    0.0596 
 149.7000  215.9000  234.5000   43.5328    0.0019    2.4219    2.1129 -999.0000   37.9065    0.6102 -999.0000    6.9289    0.5071    1.0424    3.3607   12.4274   13.2105    5.6468    0.0154    0.0133    0.0115    0.0096    0.0067    0.0067    0.0067    0.0595 -107.4375   32.8757    0.1208    0.1097 
 149.8000  215.9000  251.3000   46.1062    0.1098    2.5613    2.2775 -999.0000   38.1860    0.6214 -999.0000    5.3315    0.4734    0.6902    3.9625    4.9373    5.3234    4.0845    0.0301    0.0272    0.0246    0.0212    0.0160    0.0160    0.0160    0.0596 -107.4375   32.8689    0.1572    0.1422 
 149.9000  215.9000  259.3000   49.2368    0.1976    2.7721    2.3621 -999.0000   38.4278    0.6229 -999.0000    3.7745    0.5135    0.5731    3.3892    3.6699    5.5565    2.8361    0.0932    0.0846    0.0786    0.0698    0.0554    0.0587    0.0587    0.0597 -107.4375   32.8609    0.1732    0.1571 
 150.0000  215.9000  253.5000   51.6516    0.2281    3.0428    2.4303  636.1433   39.0463    0.6206    1.9899    2.9665    0.5436    0.4809    2.7275    4.5037    7.9624    4.2602    0.2718    0.2445    0.2249    0.2011    0.1630    0.0602    0.4460    0.0598 -107.4375   32.8559    0.2030    0.1837 
 150.1000  215.9000  226.9000   52.8084    0.1683    3.3999    2.4847  660.5994   40.2858    0.6135    1.9361    2.6192    0.5454    0.4689    2.6918    3.9449    6.9444    4.4797    0.5794    0.5202    0.4810    0.4313    0.3540    0.1364    0.9374    0.0598 -107.4375   32.8559    0.2597    0.2336 
 150.2000  215.9000  229.7000   54.2670    0.0226    3.6507    2.5127  631.4140   41.0694    0.6080    1.9464    2.4824    0.5005    0.4341    2.7529    2.9784    5.5245    4.1702    0.7376    0.6585    0.6074    0.5478    0.4533    0.1811    1.2072    0.0598 -107.4375   32.8629    0.3057    0.2624 
 150.3000  215.9000  237.7000   55.4343   -0.1065    3.8882    2.5556  610.2375   41.6786    0.6043    1.9872    2.4426    0.4556    0.4518    3.1655    2.9222    7.3152    5.1284    0.9339    0.8816    0.8228    0.7476    0.6213    0.3371    1.7069    0.0598 -107.4471   32.8655    0.2381    0.2098 
 150.4000  215.9000  236.9000   55.9410   -0.1761    4.1336    2.6357  621.5589   42.0930    0.6037    2.0003    2.4140    0.4254    0.4733    2.7378    2.6609    4.3192    3.1078    1.4012    1.7750    1.7324    1.5953    1.3425    1.4700    1.6967    0.0598 -107.4754   32.8575    0.1757    0.1587 
 150.5000  215.9000  235.7000   56.9227   -0.2430    4.3520    2.6758  656.8669   42.6082    0.6001    2.0012    2.3567    0.4015    0.4272    2.2429    2.4207    3.4183    2.5959    1.7126    2.7054    2.8081    2.6432    2.2504    3.2498    0.5536    0.0598 -107.8036   32.8559    0.1600    0.1454 
 150.6000  215.9000  232.8000   57.8249   -0.2754    4.5376    2.7063  675.4856   42.8941    0.5977    1.9937    2.2825    0.3857    0.4134    2.5881    2.2351    3.9710    2.7955    1.8931    3.2236    3.5722    3.4312    2.9598    4.3181    0.4595    0.0598 -108.2605   32.8559    0.1530    0.1395 
 150.7000  215.9000  225.8000   58.2593   -0.2247    4.6581    2.7358  639.4686   42.5604    0.5997    1.9804    2.2270    0.3861    0.4140    2.1415    2.3350    4.8735    4.0610    2.1342    4.0143    4.7979    4.5283    3.9109    5.7721    0.4117    0.0598 -108.8605   32.8559    0.1601    0.1454 
 150.8000  215.9000  219.3000   58.9071   -0.1709    4.6306    2.6659  622.7835   42.8396    0.5988    1.9663    2.2416    0.3904    0.4041    1.7292    2.5703    9.8065    3.5652    2.2628    4.8296    6.4094    6.0553    5.2323    7.7329    0.3608    0.0599 -109.5936   32.8559    0.1955    0.1729 
 150.9000  215.9000  214.8000   59.4528   -0.1187    4.5226    2.5829  611.4593   43.2256    0.5982    1.9516    2.3218    0.4011    0.3861    1.7040    2.0148   13.4920    5.6548    2.0948    4.8221    6.8789    6.8072    5.9086    8.6235    0.3219    0.0599 -110.3201   32.8559    0.2324    0.2057 
 151.0000  215.9000  216.7000   59.4619   -0.0748    4.3072    2.5579  597.7790   43.3369    0.6019    1.9308    2.4656    0.4286    0.3724    1.5434    1.8671   10.8904    7.1944    1.9728    4.5230    6.3888    6.3907    5.5439    8.0807    0.3104    0.0599 -110.8926   32.8559    0.3036    0.2700 
 151.1000  215.9000  220.4000   58.0243   -0.0772    4.1627    2.4834  590.7008   43.5464    0.6038    1.9007    2.6352    0.4693    0.3617    1.2519    2.0481   12.0283    7.8805    2.5352    5.7395    8.0729    7.9683    6.8519   10.1710    0.4165    0.0599 -111.5167   32.8559    0.3222    0.2864 
