~VERSION INFORMATION
 VERS.                 2.0:   CWLS LOG ASCII STANDARD - VERSION 2.0
 WRAP.                  NO:   SINGLE LINE PER DEPTH STEP
~WELL INFORMATION
#MNEM.UNIT       DATA           DESCRIPTION MNEMONIC
#---------    -------------   --------------------------
 STRT.M         0.0000                        : START DEPTH
 STOP.M         998.0000                      : STOP DEPTH
 STEP.M         0.1000                        : STEP VALUE
 NULL.          -999.0000                     : NULL VALUE
 SRVC.          SCH                           : Service Company/Logging company
 DATE.          08.08.2023                    : LAS file Creation Date
 WELL    .      Каратобе КН-3                 : Well Name
 COMP    .      COMPANY                       : Company
 FLD     .      Каратобе                      : Field
 STATE   .      1                             : State
 COUNT   .      Kazakhstan                    : Country
~CURVE INFORMATION
#MNEM          UNIT     API CODE   Description
#---------- ---------- ----------  -----------
 DEPTH     .M                    : Depth Index
 BSC       .mm                   : Nominal Caliper
 CALI      .mm                   : Caliper
 GR        .gAPI                 : Gamma Ray
 URAN      .PPM                  : Uranium
 THOR      .PPM                  : Thorium
 POTA      .%                    : Potasium
 DT        .uSec/m               : Sonic travel time
 HAZIM     .deg                  : Hole Azimuth
 SDEVM     .deg                  : Hole Deviation
 RHOZ      .g/cm3                : Bulk Density
 PEFZ      .B/E                  : Formation Photoelectric Factor 
 TNPH      .v/v                  : Neutron porosity
 AT10      .ohm.m                : 10" Array Induction, two foot resolution Resistivity
 AT20      .ohm.m                : 20" Array Induction, two foot resolution Resistivity
 AT30      .ohm.m                : 30" Array Induction, two foot resolution Resistivity
 AT60      .ohm.m                : 60" Array Induction, two foot resolution Resistivity
 AT90      .ohm.m                : 90" Array Induction, two foot resolution Resistivity
 RLA1      .ohm.m                : HRLT Borehole Corrected Resistivity 1
 RLA2      .ohm.m                : HRLT Borehole Corrected Resistivity 2
 RLA3      .ohm.m                : HRLT Borehole Corrected Resistivity 3
 RLA4      .ohm.m                : HRLT Borehole Corrected Resisitivity 4
 RLA5      .ohm.m                : HRLT Borehole Corrected Resistivity 5 
 RT        .ohm.m                : Formation Resistivity
 RXO       .ohm.m                : Flushed zone resistivity
 AHMF      .ohm.m                : Array Induction Mud Resistivity Fully Calibrated
 SP        .mV                   : Spontaneous Potential
 MTEM      .degC                 : Formation Temperature
 HMIN      .ohm.m                : HIP Micro Inverse Resistivity
 HMNO      .ohm.m                : HIP Micro Normal Resistivity
~A Log data section
# ...
 205.2000  215.9000  213.6000   84.7671    1.6724    5.4931    2.8536  565.5025   43.8582    0.6349    2.0697    2.8361    0.4194    0.7002    2.5374    3.8354    9.1924   11.8021    4.5044    5.9136    6.4637    6.5407    6.4923    8.3751    2.1387    0.0600 -127.0000   32.8559    0.2502    0.2112 
 205.3000  215.9000  213.3000   85.8859    1.5799    5.6598    2.9201  567.6778   43.6780    0.6374    2.0806    2.8292    0.4306    0.7073    2.6619    3.8792    9.3369   11.6834    4.6611    5.9908    6.5479    6.6230    6.5810    8.4205    2.3125    0.0601 -127.0000   32.8559    0.2806    0.2290 
 205.4000  215.9000  213.4000   86.8333    1.6772    5.5273    3.0048  568.6628   43.4845    0.6396    2.0855    2.8310    0.4412    0.7079    2.7696    4.0149   10.0038   12.1340    4.7168    6.0204    6.5970    6.6904    6.6363    8.4852    2.3676    0.0601 -127.0000   32.8559    0.3051    0.2503 
 205.5000  215.9000  214.1000   87.3413    1.6489    5.5542    3.0344  557.1328   43.3193    0.6421    2.0830    2.8371    0.4610    0.7065    2.8373    4.1644   10.2603   11.6630    4.7720    6.0886    6.6983    6.8066    6.7525    8.6479    2.3853    0.0601 -127.0000   32.8559    0.3101    0.2656 
 205.6000  215.9000  215.2000   87.5075    1.5524    5.6814    3.0323  534.9540   43.1706    0.6447    2.0762    2.8343    0.4789    0.7170    2.9363    4.2479   12.4084   12.5927    4.7696    6.1823    6.8480    6.9901    6.9265    8.9578    2.3140    0.0601 -127.0000   32.8559    0.3157    0.2717 
 205.7000  215.9000  216.4000   86.9018    1.4511    5.9139    3.0140  484.1018   43.0314    0.6467    2.0642    2.8377    0.4462    0.7361    3.5343    5.4212   20.5165   21.5110    4.9689    6.5509    7.2982    7.4681    7.4141    9.6679    2.3590    0.0602 -127.0000   32.8559    0.2921    0.2523 
 205.8000  215.9000  216.3000   86.3588    1.3112    5.9002    2.9635  457.8922   42.8850    0.6485    2.0537    2.8362    0.4202    0.7885    4.8709    8.8817   28.7252   30.8180    5.6074    7.4503    8.3263    8.5306    8.4783   11.0917    2.6071    0.0602 -127.0000   32.8559    0.2553    0.2222 
 205.9000  215.9000  215.2000   85.8434    1.1495    5.7248    2.8978  448.8938   42.7229    0.6504    2.0460    2.8455    0.3993    0.8262    5.5558   10.1055   25.9794   25.7639    5.7866    7.7018    8.6381    8.8771    8.8121   11.5491    2.6432    0.0601 -127.0000   32.8559    0.2515    0.2192 
 206.0000  215.9000  213.5000   85.1646    1.0321    5.5796    2.9041  448.8964   42.4372    0.6523    2.0413    2.8529    0.3852    0.8046    4.5260    7.8676   23.2709   24.0381    5.3857    7.2704    8.1982    8.4274    8.3929   11.0497    2.3926    0.0601 -127.0000   32.8559    0.2731    0.2368 
 206.1000  215.9000  212.8000   83.2158    1.0372    5.3446    2.8601  434.0642   42.1590    0.6541    2.0374    2.8496    0.3946    0.7426    3.0606    4.5949   14.7715   15.5165    5.0426    6.8203    7.6791    7.8956    7.8685   10.3563    2.2443    0.0601 -127.0000   32.8559    0.2798    0.2421 
 206.2000  215.9000  213.1000   80.2645    1.1364    5.0542    2.7780  409.2268   41.8860    0.6559    2.0368    2.8275    0.4226    0.7005    2.2838    3.1511    6.4860    6.8966    4.8537    6.4478    7.1652    7.3495    7.3190    9.5370    2.2384    0.0601 -127.0000   32.8559    0.2639    0.2294 
 206.3000  215.9000  213.2000   78.4998    1.0312    5.3489    2.7934  453.3345   41.5814    0.6574    2.0394    2.7917    0.4285    0.6839    2.0168    2.6103    5.1475    5.6414    4.7711    6.2395    6.8584    7.0098    6.9655    8.9952    2.2640    0.0601 -127.0000   32.8559    0.2581    0.2240 
 206.4000  215.9000  213.2000   77.7540    0.9440    5.6563    2.8346  482.4269   41.1807    0.6600    2.0433    2.7595    0.4321    0.6861    2.0531    2.6214    5.2348    5.6614    4.6075    5.9571    6.4988    6.6254    6.5693    8.4269    2.2387    0.0601 -127.0000   32.8559    0.2528    0.2161 
 206.5000  215.9000  213.1000   78.0272    0.8747    5.9767    2.9017  496.5041   40.6840    0.6637    2.0515    2.7333    0.4335    0.6978    2.1268    2.7979    5.7385    5.8285    4.5068    5.7998    6.3055    6.4228    6.3548    8.1298    2.2055    0.0601 -127.0000   32.8559    0.2531    0.2148 
 206.6000  215.9000  212.6000   79.2467    0.8136    6.2750    2.9249  495.6405   40.2357    0.6658    2.0623    2.7235    0.4419    0.7107    2.2158    2.9942    6.1739    6.0886    4.4876    5.8899    6.4075    6.5227    6.4472    8.3103    2.0994    0.0601 -127.0000   32.8559    0.2751    0.2297 
 206.7000  215.9000  212.3000   81.3562    0.7015    6.6434    2.9262  493.7151   39.7999    0.6678    2.0659    2.7586    0.4506    0.7232    2.3251    3.1608    6.3465    6.7017    4.3551    5.6952    6.1747    6.2600    6.1799    7.9471    2.0599    0.0601 -127.0000   32.8559    0.2815    0.2357 
 206.8000  215.9000  212.3000   84.4877    0.5293    7.0948    2.9028  490.9012   39.3776    0.6700    2.0681    2.8109    0.4593    0.7372    2.4643    3.3775    6.5049    7.2698    4.3067    5.6565    6.1364    6.2045    6.1203    7.8884    2.0306    0.0601 -127.0000   32.8559    0.2983    0.2507 
 206.9000  215.9000  212.6000   84.2621    0.4503    7.0092    2.8260  488.9242   38.8914    0.6726    2.0725    2.8734    0.4882    0.7583    2.7788    3.9167    7.7654    9.5361    4.5895    6.0734    6.6596    6.7229    6.6296    8.6026    2.1213    0.0601 -127.0236   32.8559    0.3382    0.2934 
 207.0000  215.9000  213.0000   84.3064    0.3149    7.2686    2.7986  497.0759   38.4655    0.6748    2.0793    2.9415    0.4981    0.7784    3.1521    4.6270    9.3014   14.3741    4.7134    6.1111    6.7572    6.8248    6.7158    8.6826    2.2607    0.0601 -127.2150   32.8559    0.3667    0.3264 
 207.1000  215.9000  213.5000   85.1028    0.0882    8.0829    2.8479  519.7121   38.1335    0.6764    2.0940    2.9804    0.4785    0.7959    3.5829    5.4133   12.3471   16.6482    4.6261    5.8359    6.4335    6.4801    6.3770    8.1431    2.3755    0.0601 -127.6454   32.8559    0.3857    0.3455 
 207.2000  215.9000  214.6000   86.2122    0.1950    8.4760    2.8444  540.6010   37.8493    0.6775    2.1104    2.9860    0.4782    0.8013    3.8796    5.5876   13.6857   12.3650    4.8595    6.0233    6.6261    6.6733    6.5668    8.3122    2.5845    0.0602 -128.3707   32.8559    0.4713    0.4212 
 207.3000  215.9000  215.4000   87.1038    0.3202    8.6435    2.8767  554.8188   37.5847    0.6786    2.1203    2.9601    0.4717    0.7796    3.5558    4.8269    9.7834    8.4200    4.8164    5.8388    6.4035    6.4527    6.3685    7.9527    2.6569    0.0602 -129.0268   32.8559    0.5031    0.4482 
 207.4000  215.9000  214.9000   87.5322    0.3972    8.5121    2.9854  557.6009   37.3431    0.6796    2.1252    2.9081    0.4495    0.7815    3.3209    4.2338    7.7334    5.7271    4.4320    5.2023    5.6571    5.6980    5.6311    6.8736    2.6396    0.0602 -129.4886   32.8559    0.4467    0.3928 
 207.5000  215.9000  214.0000   89.9117    0.5661    8.5807    2.9761  559.8253   37.0530    0.6803    2.1233    2.8679    0.4381    0.7798    3.1305    3.8917    6.5097    5.4863    4.4924    5.1819    5.6111    5.6587    5.5915    6.7422    2.8053    0.0602 -129.6855   32.8559    0.4217    0.3752 
 207.6000  215.9000  213.5000   91.0052    0.7132    8.7085    2.9362  561.3653   36.7898    0.6810    2.1172    2.8401    0.4333    0.7825    3.2387    3.9679    6.8579    4.9499    5.0353    5.8130    6.3257    6.4002    6.3318    7.6658    3.0866    0.0602 -129.7673   32.8559    0.4449    0.3979 
 207.7000  215.9000  214.6000   88.4092    0.7723    8.8835    2.8778  561.6186   36.6070    0.6813    2.1154    2.8185    0.4383    0.7746    3.1351    4.0883    6.7495    4.5271    5.1212    5.8482    6.3400    6.4253    6.3698    7.6440    3.1821    0.0602 -129.7053   32.8559    0.4550    0.4074 
 207.8000  215.9000  213.8000   89.7264    0.7300    9.2958    2.8824  530.0774   36.4490    0.6817    2.1190    2.8044    0.4440    0.7664    3.0482    3.7887    6.2468    4.3497    4.4006    4.8985    5.2519    5.3213    5.2823    6.2168    3.0492    0.0602 -129.6352   32.8618    0.4027    0.3578 
