~VERSION INFORMATION
 VERS.                 2.0:   CWLS LOG ASCII STANDARD - VERSION 2.0
 WRAP.                  NO:   SINGLE LINE PER DEPTH STEP
~WELL INFORMATION
#MNEM.UNIT       DATA           DESCRIPTION MNEMONIC
#---------    -------------   --------------------------
 STRT.M         0.0000                        : START DEPTH
 STOP.M         998.0000                      : STOP DEPTH
 STEP.M         0.1000                        : STEP VALUE
 NULL.          -999.0000                     : NULL VALUE
 SRVC.          SCH                           : Service Company/Logging company
 DATE.          08.08.2023                    : LAS file Creation Date
 WELL    .      Каратобе КН-3                 : Well Name
 COMP    .      COMPANY                       : Company
 FLD     .      Каратобе                      : Field
 STATE   .      1                             : State
 COUNT   .      Kazakhstan                    : Country
~CURVE INFORMATION
#MNEM          UNIT     API CODE   Description
#---------- ---------- ----------  -----------
 DEPTH     .M                    : Depth Index
 BSC       .mm                   : Nominal Caliper
 CALI      .mm                   : Caliper
 GR        .gAPI                 : Gamma Ray
 URAN      .PPM                  : Uranium
 THOR      .PPM                  : Thorium
 POTA      .%                    : Potasium
 DT        .uSec/m               : Sonic travel time
 HAZIM     .deg                  : Hole Azimuth
 SDEVM     .deg                  : Hole Deviation
 RHOZ      .g/cm3                : Bulk Density
 PEFZ      .B/E                  : Formation Photoelectric Factor 
 TNPH      .v/v                  : Neutron porosity
 AT10      .ohm.m                : 10" Array Induction, two foot resolution Resistivity
 AT20      .ohm.m                : 20" Array Induction, two foot resolution Resistivity
 AT30      .ohm.m                : 30" Array Induction, two foot resolution Resistivity
 AT60      .ohm.m                : 60" Array Induction, two foot resolution Resistivity
 AT90      .ohm.m                : 90" Array Induction, two foot resolution Resistivity
 RLA1      .ohm.m                : HRLT Borehole Corrected Resistivity 1
 RLA2      .ohm.m                : HRLT Borehole Corrected Resistivity 2
 RLA3      .ohm.m                : HRLT Borehole Corrected Resistivity 3
 RLA4      .ohm.m                : HRLT Borehole Corrected Resisitivity 4
 RLA5      .ohm.m                : HRLT Borehole Corrected Resistivity 5 
 RT        .ohm.m                : Formation Resistivity
 RXO       .ohm.m                : Flushed zone resistivity
 AHMF      .ohm.m                : Array Induction Mud Resistivity Fully Calibrated
 SP        .mV                   : Spontaneous Potential
 MTEM      .degC                 : Formation Temperature
 HMIN      .ohm.m                : HIP Micro Inverse Resistivity
 HMNO      .ohm.m                : HIP Micro Normal Resistivity
~A Log data section
# ...
 656.1000  215.9000  214.2000  111.3245    2.6128    9.6442    2.7821  408.7453  328.1011    0.2701    2.1599    2.6962    0.4352    0.6687    1.3727    1.3900    1.5127    1.5177    1.6638    1.6769    1.7205    1.7035    1.6241    1.6733    1.7114    0.0548 -147.2240   37.0860    0.4902    0.4346 
 656.2000  215.9000  214.3000  107.3894    2.4910    9.6362    2.7731  410.1476  328.9209    0.2822    2.1615    2.7524    0.4539    0.6602    1.3376    1.3530    1.4743    1.4673    1.6634    1.6880    1.7291    1.7097    1.6301    1.6815    1.6912    0.0548 -146.9994   37.0860    0.4723    0.4177 
 656.3000  215.9000  214.6000  105.3346    2.5474    9.6966    2.7833  409.9749  329.0126    0.2871    2.1661    2.8318    0.4635    0.6557    1.3368    1.3540    1.4798    1.4526    1.6174    1.6520    1.6893    1.6691    1.5927    1.6419    1.6412    0.0548 -146.8712   37.0815    0.4609    0.4074 
 656.4000  215.9000  215.0000  104.5465    2.6706    9.8241    2.8039  408.9307  328.7923    0.2897    2.1729    2.9094    0.4631    0.6666    1.3749    1.3905    1.5121    1.4861    1.5834    1.6229    1.6551    1.6343    1.5588    1.6077    1.6293    0.0548 -146.8469   37.0773    0.4651    0.4102 
 656.5000  215.9000  214.8000  105.7537    2.6266   10.1655    2.8277  407.4841  328.9931    0.3007    2.1800    2.9552    0.4279    0.6808    1.4479    1.4521    1.5908    1.5600    1.6080    1.6480    1.6781    1.6541    1.5787    1.6275    1.6984    0.0549 -147.1856   37.0911    0.4908    0.4338 
 656.6000  215.9000  214.6000  107.4168    2.6539   10.3230    2.8480  405.0794  329.3259    0.3054    2.1859    2.9509    0.4166    0.6917    1.5477    1.5456    1.6972    1.6613    1.8284    1.8835    1.9178    1.8906    1.8038    1.8595    1.9257    0.0548 -147.3578   37.0966    0.5816    0.5172 
 656.7000  215.9000  214.6000  109.3435    2.7243   10.3641    2.8633  401.8717  329.6832    0.3066    2.1939    2.8853    0.4201    0.6977    1.5987    1.5745    1.7400    1.7289    2.0501    2.1210    2.1633    2.1296    2.0330    2.0968    2.0703    0.0548 -147.4150   37.0964    0.6435    0.5728 
 656.8000  215.9000  215.0000  110.9516    2.7661   10.4184    2.8456  396.4729  329.3514    0.3133    2.1927    2.7979    0.4156    0.6946    1.5925    1.5755    1.7381    1.7245    1.9291    1.9793    2.0154    1.9843    1.8949    1.9596    1.9256    0.0547 -147.3739   37.0943    0.5585    0.4981 
 656.9000  215.9000  215.6000  110.9066    2.7676   10.5611    2.8128  392.8599  329.5043    0.3180    2.1784    2.6971    0.4360    0.6983    1.5883    1.5936    1.7839    1.7592    1.7336    1.7691    1.8012    1.7733    1.6992    1.7515    1.7837    0.0547 -147.6179   37.0984    0.5479    0.4888 
 657.0000  215.9000  216.0000  109.5644    2.7398   10.7482    2.7655  391.0691  330.0175    0.3212    2.1520    2.5933    0.4755    0.7101    1.6414    1.6565    1.8633    1.8310    1.7366    1.7604    1.7914    1.7665    1.6912    1.7368    1.8824    0.0547 -148.0912   37.1071    0.6041    0.5383 
 657.1000  215.9000  215.1000  108.2611    2.7631   10.3400    2.6541  399.3357  330.0344    0.3231    2.1118    2.5010    0.5058    0.7170    1.6750    1.7005    1.9248    1.9231    2.0561    2.0677    2.1150    2.0905    2.0058    2.0575    2.1712    0.0547 -148.6882   37.1071    0.6030    0.5368 
 657.2000  215.9000  217.6000  104.9906    2.7914   10.1092    2.5393  410.0333  330.3338    0.3275    2.0659    2.4011    0.5445    0.7261    1.7164    1.7698    2.0229    2.0387    2.2278    2.2333    2.2867    2.2641    2.1727    2.2279    2.3319    0.0547 -149.0257   37.1036    0.5130    0.4570 
 657.3000  215.9000  224.2000   99.8301    2.8245   10.0490    2.4211  423.0667  330.9046    0.3342    2.0356    2.3124    0.5912    0.7336    1.7303    1.7894    2.0388    2.0345    2.3196    2.3044    2.3554    2.3373    2.2480    2.3032    2.4184    0.0547 -149.1137   37.0966    0.4212    0.3770 
 657.4000  215.9000  226.8000   96.7994    2.6422    9.7653    2.3175  440.4079  330.8226    0.3317    2.0271    2.2673    0.5824    0.7359    1.7584    1.8324    2.0888    2.0901    2.1951    2.1587    2.1996    2.1835    2.1068    2.1428    2.3659    0.0547 -148.8632   37.0945    0.3737    0.3344 
 657.5000  215.9000  228.7000   94.3636    2.4863    9.7209    2.2540  457.1563  330.8547    0.3335    2.0364    2.2609    0.5774    0.7408    1.7852    1.8621    2.1316    2.1274    2.1789    2.1436    2.1763    2.1625    2.0917    2.1177    2.4015    0.0547 -148.5398   37.0975    0.3765    0.3257 
 657.6000  215.9000  230.0000   92.6010    2.3640    9.9601    2.2374  473.1577  331.0285    0.3405    2.0653    2.2944    0.5774    0.7434    1.8153    1.8968    2.1815    2.2134    2.2608    2.2090    2.2366    2.2225    2.1506    2.1557    2.5873    0.0547 -148.1349   37.1066    0.4706    0.3827 
 657.7000  215.9000  228.6000   96.0444    2.2802   10.4817    2.3030  471.1658  331.0996    0.3373    2.1035    2.3673    0.5819    0.7528    1.8810    1.9522    2.2528    2.2784    2.3573    2.2839    2.3096    2.2940    2.2211    2.1993    2.7833    0.0547 -148.1611   37.1006    0.3864    0.3829 
 657.8000  215.9000  228.4000   98.3295    2.2713   10.9328    2.3274  464.9410  330.9860    0.3370    2.1399    2.4651    0.5929    0.7614    1.9210    2.0090    2.3250    2.3613    2.4141    2.3165    2.3433    2.3247    2.2530    2.1992    2.9329    0.0546 -148.3018   37.0995    0.3779    0.3589 
 657.9000  215.9000  230.6000   98.5560    2.3624   11.2615    2.2878  454.4569  330.6261    0.3419    2.1721    2.5623    0.6125    0.7654    1.9480    2.0879    2.4466    2.4710    2.4984    2.3902    2.4093    2.3872    2.3125    2.2325    3.0986    0.0546 -148.5626   37.1064    0.3617    0.3316 
 658.0000  215.9000  225.9000   99.8902    2.3653   11.5022    2.2694  433.6893  330.6578    0.3379    2.2027    2.6419    0.5727    0.7708    2.0553    2.1504    2.5107    2.5509    2.5725    2.4746    2.4861    2.4625    2.3830    2.3083    3.1815    0.0546 -148.9348   37.1071    0.3871    0.3531 
 658.1000  215.9000  221.5000   99.7808    2.3194   11.6486    2.2491  415.7587  330.3471    0.3355    2.2241    2.6904    0.5382    0.7760    2.1496    2.1903    2.5384    2.6349    2.6284    2.5526    2.5593    2.5386    2.4590    2.4105    3.1955    0.0546 -149.3604   37.1097    0.4109    0.3936 
 658.2000  215.9000  221.4000   96.9799    2.2090   11.6530    2.2210  404.8228  329.3710    0.3373    2.2284    2.6939    0.5252    0.7854    2.1786    2.2007    2.5162    2.5721    2.6648    2.5904    2.5933    2.5749    2.4925    2.4467    3.2261    0.0546 -149.8538   37.1166    0.3925    0.3779 
 658.3000  215.9000  220.5000   96.2446    2.1722   11.5189    2.2259  403.0723  328.9677    0.3326    2.2123    2.6355    0.5033    0.7863    2.1829    2.1898    2.4999    2.4513    2.5833    2.5198    2.5285    2.5111    2.4316    2.4194    2.9994    0.0546 -150.1399   37.1235    0.3834    0.3672 
 658.4000  215.9000  219.1000   95.1727    2.2037   11.3913    2.2199  408.0888  328.5005    0.3286    2.1830    2.5341    0.4933    0.7839    2.1576    2.1489    2.4647    2.3388    2.4487    2.4158    2.4468    2.4268    2.3508    2.3903    2.6219    0.0546 -150.4534   37.1257    0.3844    0.3705 
 658.5000  215.9000  217.0000   92.5492    2.3504   11.3337    2.1777  423.7671  327.6657    0.3287    2.1477    2.4152    0.5120    0.7803    2.1223    2.0927    2.4142    2.3027    2.3375    2.3048    2.3602    2.3363    2.2648    2.3127    2.4084    0.0546 -150.9089   37.1177    0.4021    0.3967 
 658.6000  215.9000  216.8000   93.8164    2.3921   11.4965    2.2292  433.4114  326.8831    0.3248    2.1228    2.2986    0.5195    0.7746    2.0636    2.0447    2.3560    2.2031    2.2362    2.2092    2.2759    2.2495    2.1885    2.2327    2.2403    0.0547 -151.4802   37.1003    0.4168    0.4107 
 658.7000  215.9000  217.2000   97.0749    2.4426   11.8758    2.3150  441.8086  326.1106    0.3206    2.1159    2.2094    0.5241    0.7648    1.9838    1.9901    2.2706    2.1859    2.1217    2.1175    2.1812    2.1504    2.0848    2.1297    2.1590    0.0547 -152.0780   37.0935    0.4190    0.4086 
