~VERSION INFORMATION
 VERS.                 2.0:   CWLS LOG ASCII STANDARD - VERSION 2.0
 WRAP.                  NO:   SINGLE LINE PER DEPTH STEP
~WELL INFORMATION
#MNEM.UNIT       DATA           DESCRIPTION MNEMONIC
#---------    -------------   --------------------------
 STRT.M         0.0000                        : START DEPTH
 STOP.M         998.0000                      : STOP DEPTH
 STEP.M         0.1000                        : STEP VALUE
 NULL.          -999.0000                     : NULL VALUE
 SRVC.          SCH                           : Service Company/Logging company
 DATE.          08.08.2023                    : LAS file Creation Date
 WELL    .      Каратобе КН-3                 : Well Name
 COMP    .      COMPANY                       : Company
 FLD     .      Каратобе                      : Field
 STATE   .      1                             : State
 COUNT   .      Kazakhstan                    : Country
~CURVE INFORMATION
#MNEM          UNIT     API CODE   Description
#---------- ---------- ----------  -----------
 DEPTH     .M                    : Depth Index
 BSC       .mm                   : Nominal Caliper
 CALI      .mm                   : Caliper
 GR        .gAPI                 : Gamma Ray
 URAN      .PPM                  : Uranium
 THOR      .PPM                  : Thorium
 POTA      .%                    : Potasium
 DT        .uSec/m               : Sonic travel time
 HAZIM     .deg                  : Hole Azimuth
 SDEVM     .deg                  : Hole Deviation
 RHOZ      .g/cm3                : Bulk Density
 PEFZ      .B/E                  : Formation Photoelectric Factor 
 TNPH      .v/v                  : Neutron porosity
 AT10      .ohm.m                : 10" Array Induction, two foot resolution Resistivity
 AT20      .ohm.m                : 20" Array Induction, two foot resolution Resistivity
 AT30      .ohm.m                : 30" Array Induction, two foot resolution Resistivity
 AT60      .ohm.m                : 60" Array Induction, two foot resolution Resistivity
 AT90      .ohm.m                : 90" Array Induction, two foot resolution Resistivity
 RLA1      .ohm.m                : HRLT Borehole Corrected Resistivity 1
 RLA2      .ohm.m                : HRLT Borehole Corrected Resistivity 2
 RLA3      .ohm.m                : HRLT Borehole Corrected Resistivity 3
 RLA4      .ohm.m                : HRLT Borehole Corrected Resisitivity 4
 RLA5      .ohm.m                : HRLT Borehole Corrected Resistivity 5 
 RT        .ohm.m                : Formation Resistivity
 RXO       .ohm.m                : Flushed zone resistivity
 AHMF      .ohm.m                : Array Induction Mud Resistivity Fully Calibrated
 SP        .mV                   : Spontaneous Potential
 MTEM      .degC                 : Formation Temperature
 HMIN      .ohm.m                : HIP Micro Inverse Resistivity
 HMNO      .ohm.m                : HIP Micro Normal Resistivity
~A Log data section
# ...
 993.6000  215.9000  331.1000   36.9796    0.1346    1.5078    2.5349  219.9053  273.7967    0.9100 -999.0000 -999.0000 -999.0000    0.4120    4.0073   33.4879   24.9475    4.6452    9.0830   32.1405   91.2502  198.7103 2065.9551 2997.7600    2.7966    0.0414 -166.0546   38.4691    0.0910    0.0829 
 993.7000  215.9000  319.1000   36.9796    0.1346    1.5078    2.5349  219.9053  273.7967    0.9100 -999.0000 -999.0000 -999.0000    0.4467    3.1973   41.3855  176.7152    2.9148    9.0830   32.1405   91.2502  198.7103 2065.9551 2997.7600    2.7966    0.0416 -165.9894   38.4691    0.0910    0.0829 
 993.8000  215.9000  310.2000   36.9796    0.1346    1.5078    2.5349  219.9053  273.7967    0.9100 -999.0000 -999.0000 -999.0000    0.4647    2.2082   14.6742    8.7364    2.2648    9.0830   32.1405   91.2502  198.7103 2065.9551 2997.7600    2.7966    0.0420 -165.8708   38.4691    0.0910    0.0829 
 993.9000  215.9000  307.4000   36.9796    0.1346    1.5078    2.5349  219.9053  273.7967    0.9100 -999.0000 -999.0000 -999.0000    0.5333    2.1517   17.2370    6.2338    1.5766    9.0830   32.1405   91.2502  198.7103 2065.9551 2997.7600    2.7966    0.0424 -162.8724   38.4691    0.0910    0.0829 
 994.0000  215.9000  303.5000   36.9796    0.1346    1.5078    2.5349  219.9053  273.7967    0.9100 -999.0000 -999.0000 -999.0000    0.6263    2.0975   21.7876   16.5792    1.9015    9.0830   32.1405   91.2502  198.7103 2065.9551 2997.7600    2.7966    0.0442 -156.8202   38.4691    0.0910    0.0829 
 994.1000  215.9000  297.2000   36.9796    0.1346    1.5078    2.5349  219.9053  273.7967    0.9100 -999.0000 -999.0000 -999.0000    0.7043    2.0633   13.0421   11.8584    2.8957    9.0830   32.1405   91.2502  198.7103 2065.9551 2997.7600    2.7966    0.0476 -147.3244   38.4691    0.0910    0.0829 
 994.2000  215.9000  290.1000   36.9796    0.1346    1.5078    2.5349  219.9053  273.7967    0.9100 -999.0000 -999.0000 -999.0000    0.7961    2.0977   14.7733   11.4160    3.1603    9.0830   32.1405   91.2502  198.7103 2065.9551 2997.7600    2.7966    0.0509 -146.8871   38.4691    0.0910    0.0829 
 994.3000  215.9000  283.5000   36.9796    0.1346    1.5078    2.5349  219.9053  273.7967    0.9100 -999.0000 -999.0000 -999.0000    0.9325    2.2227   11.7949   12.2095    2.7115    9.0830   32.1405   91.2502  198.7103 2065.9551 2997.7600    2.7966    0.0531 -147.0528   38.4691    0.0910    0.0829 
 994.4000  215.9000  278.1000   36.9796    0.1346    1.5078    2.5349  219.9053  273.7967    0.9100 -999.0000 -999.0000 -999.0000    1.1062    2.5171    9.4165   11.1856    2.9857    9.0830   32.1405   91.2502  198.7103 2065.9551 2997.7600    2.7966    0.0535 -147.3929   38.4691    0.0910    0.0829 
 994.5000  215.9000  272.9000   36.9796    0.1346    1.5078    2.5349  219.9053  273.7967    0.9100 -999.0000 -999.0000 -999.0000    1.4152    3.3108    8.5625    9.6787    4.6692    9.0830   32.1405   91.2502  198.7103 2065.9551 2997.7600    2.7966    0.0540 -147.5617   38.4691    0.0910    0.0829 
 994.6000  215.9000  261.1000   36.9796    0.1346    1.5078    2.5349  219.9053  273.7967    0.9100 -999.0000 -999.0000 -999.0000    1.8304    4.0946   10.6912   18.6606    5.5434    9.0830   32.1405   91.2502  198.7103 2065.9551 2997.7600    2.7966    0.0543 -147.6864   38.4691    0.0910    0.0829 
 994.7000  215.9000  229.0000   36.9796    0.1346    1.5078    2.5349  219.9053  273.7967    0.9100 -999.0000 -999.0000 -999.0000    2.4026    5.6239   12.7050   22.8140    5.0339    9.0830   32.1405   91.2502  198.7103 2065.9551 2997.7600    2.7966    0.0544 -147.7703   38.4691    0.0910    0.0829 
 994.8000  215.9000  145.2000   36.9796    0.1346    1.5078    2.5349  219.9053  273.7967    0.9100 -999.0000 -999.0000 -999.0000 -999.0000 -999.0000 -999.0000 -999.0000 -999.0000    9.0830   32.1405   91.2502  198.7103 2065.9551 2997.7600    2.7966    0.0544 -147.7806   38.4691    0.0910    0.0829 
 994.9000  215.9000   73.5000   36.9796    0.1346    1.5078    2.5349  219.9053  273.7967    0.9100 -999.0000 -999.0000 -999.0000 -999.0000 -999.0000 -999.0000 -999.0000 -999.0000    9.0830   32.1405   91.2502  198.7103 2065.9551 2997.7600    2.7966    0.0544 -147.7972   38.4691    0.0910    0.0829 
 995.0000  215.9000   73.6000   36.9796    0.1346    1.5078    2.5349  219.9053  273.7967    0.9100 -999.0000 -999.0000 -999.0000 -999.0000 -999.0000 -999.0000 -999.0000 -999.0000    9.0830   32.1405   91.2502  198.7103 2065.9551 2997.7600    2.7966    0.0543 -147.8534   38.4691    0.0910    0.0829 
 995.1000  215.9000   73.4000   36.9796    0.1346    1.5078    2.5349  219.9053  273.7967    0.9100 -999.0000 -999.0000 -999.0000 -999.0000 -999.0000 -999.0000 -999.0000 -999.0000    9.0830   32.1405   91.2502  198.7103 2065.9551 2997.7600    2.7966    0.0542 -147.8363   38.4691    0.0910    0.0829 
 995.2000  215.9000   73.2000   36.9796    0.1346    1.5078    2.5349  219.9053  273.7967    0.9100 -999.0000 -999.0000 -999.0000 -999.0000 -999.0000 -999.0000 -999.0000 -999.0000    9.0830   32.1405   91.2502  198.7103 2065.9551 2997.7600    2.7966    0.0541 -147.7261   38.4691    0.0910    0.0829 
 995.3000  215.9000   73.1000   36.9796    0.1346    1.5078    2.5349  219.9053  273.7967    0.9100 -999.0000 -999.0000 -999.0000 -999.0000 -999.0000 -999.0000 -999.0000 -999.0000    9.0830   32.1405   91.2502  198.7103 2065.9551 2997.7600    2.7966    0.0541 -147.4234   38.4691    0.0910    0.0829 
 995.4000  215.9000   73.0000   36.9796    0.1346    1.5078    2.5349  219.9053  273.7967    0.9100 -999.0000 -999.0000 -999.0000 -999.0000 -999.0000 -999.0000 -999.0000 -999.0000    9.0830   32.1405   91.2502  198.7103 2065.9551 2997.7600    2.7966    0.0541 -147.5519   38.4691    0.0910    0.0829 
 995.5000  215.9000   73.1000   36.9796    0.1346    1.5078    2.5349  219.9053  273.7967    0.9100 -999.0000 -999.0000 -999.0000 -999.0000 -999.0000 -999.0000 -999.0000 -999.0000 -999.0000 -999.0000 -999.0000 -999.0000 -999.0000 -999.0000 -999.0000    0.0541 -147.7780   38.4691    0.0910    0.0829 
 995.6000  215.9000   73.3000   36.9796    0.1346    1.5078    2.5349  219.9053  273.7967    0.9100 -999.0000 -999.0000 -999.0000 -999.0000 -999.0000 -999.0000 -999.0000 -999.0000 -999.0000 -999.0000 -999.0000 -999.0000 -999.0000 -999.0000 -999.0000    0.0540 -147.8749   38.4691    0.0910    0.0829 
 995.7000  215.9000   73.4000   36.9796    0.1346    1.5078    2.5349  219.9053  273.7967    0.9100 -999.0000 -999.0000 -999.0000 -999.0000 -999.0000 -999.0000 -999.0000 -999.0000 -999.0000 -999.0000 -999.0000 -999.0000 -999.0000 -999.0000 -999.0000    0.0539 -148.0124   38.4691    0.0910    0.0829 
 995.8000  215.9000   73.4000   36.9796    0.1346    1.5078    2.5349  219.9053  273.7967    0.9100 -999.0000 -999.0000 -999.0000 -999.0000 -999.0000 -999.0000 -999.0000 -999.0000 -999.0000 -999.0000 -999.0000 -999.0000 -999.0000 -999.0000 -999.0000    0.0540 -148.1708   38.4691    0.0910    0.0829 
 995.9000  215.9000   73.4000   36.9796    0.1346    1.5078    2.5349  219.9053  273.7967    0.9100 -999.0000 -999.0000 -999.0000 -999.0000 -999.0000 -999.0000 -999.0000 -999.0000 -999.0000 -999.0000 -999.0000 -999.0000 -999.0000 -999.0000 -999.0000    0.0552 -148.3489   38.4691    0.0910    0.0829 
 996.0000  215.9000   73.4000   36.9796    0.1346    1.5078    2.5349  219.9053  273.7967    0.9100 -999.0000 -999.0000 -999.0000 -999.0000 -999.0000 -999.0000 -999.0000 -999.0000 -999.0000 -999.0000 -999.0000 -999.0000 -999.0000 -999.0000 -999.0000    0.0564 -148.3642   38.4691    0.0910    0.0829 
 996.1000  215.9000   73.4000   36.9796    0.1346    1.5078    2.5349  219.9053  273.7967    0.9100 -999.0000 -999.0000 -999.0000 -999.0000 -999.0000 -999.0000 -999.0000 -999.0000 -999.0000 -999.0000 -999.0000 -999.0000 -999.0000 -999.0000 -999.0000    0.0574 -148.3104   38.4691    0.0910    0.0829 
 996.2000  215.9000   73.4000   36.9796    0.1346    1.5078    2.5349  219.9053  273.7967    0.9100 -999.0000 -999.0000 -999.0000 -999.0000 -999.0000 -999.0000 -999.0000 -999.0000 -999.0000 -999.0000 -999.0000 -999.0000 -999.0000 -999.0000 -999.0000    0.0568 -148.3482   38.4691    0.0910    0.0829 
