~VERSION INFORMATION
 VERS.                 2.0:   CWLS LOG ASCII STANDARD - VERSION 2.0
 WRAP.                  NO:   SINGLE LINE PER DEPTH STEP
~WELL INFORMATION
#MNEM.UNIT       DATA           DESCRIPTION MNEMONIC
#---------    -------------   --------------------------
 STRT.M         0.0000                        : START DEPTH
 STOP.M         998.0000                      : STOP DEPTH
 STEP.M         0.1000                        : STEP VALUE
 NULL.          -999.0000                     : NULL VALUE
 SRVC.          SCH                           : Service Company/Logging company
 DATE.          08.08.2023                    : LAS file Creation Date
 WELL    .      Каратобе КН-3                 : Well Name
 COMP    .      COMPANY                       : Company
 FLD     .      Каратобе                      : Field
 STATE   .      1                             : State
 COUNT   .      Kazakhstan                    : Country
~CURVE INFORMATION
#MNEM          UNIT     API CODE   Description
#---------- ---------- ----------  -----------
 DEPTH     .M                    : Depth Index
 BSC       .mm                   : Nominal Caliper
 CALI      .mm                   : Caliper
 GR        .gAPI                 : Gamma Ray
 URAN      .PPM                  : Uranium
 THOR      .PPM                  : Thorium
 POTA      .%                    : Potasium
 DT        .uSec/m               : Sonic travel time
 HAZIM     .deg                  : Hole Azimuth
 SDEVM     .deg                  : Hole Deviation
 RHOZ      .g/cm3                : Bulk Density
 PEFZ      .B/E                  : Formation Photoelectric Factor 
 TNPH      .v/v                  : Neutron porosity
 AT10      .ohm.m                : 10" Array Induction, two foot resolution Resistivity
 AT20      .ohm.m                : 20" Array Induction, two foot resolution Resistivity
 AT30      .ohm.m                : 30" Array Induction, two foot resolution Resistivity
 AT60      .ohm.m                : 60" Array Induction, two foot resolution Resistivity
 AT90      .ohm.m                : 90" Array Induction, two foot resolution Resistivity
 RLA1      .ohm.m                : HRLT Borehole Corrected Resistivity 1
 RLA2      .ohm.m                : HRLT Borehole Corrected Resistivity 2
 RLA3      .ohm.m                : HRLT Borehole Corrected Resistivity 3
 RLA4      .ohm.m                : HRLT Borehole Corrected Resisitivity 4
 RLA5      .ohm.m                : HRLT Borehole Corrected Resistivity 5 
 RT        .ohm.m                : Formation Resistivity
 RXO       .ohm.m                : Flushed zone resistivity
 AHMF      .ohm.m                : Array Induction Mud Resistivity Fully Calibrated
 SP        .mV                   : Spontaneous Potential
 MTEM      .degC                 : Formation Temperature
 HMIN      .ohm.m                : HIP Micro Inverse Resistivity
 HMNO      .ohm.m                : HIP Micro Normal Resistivity
~A Log data section
# ...
 372.6000  215.9000  223.1000   91.5246    0.3149   10.2268    3.0441  374.4203  358.6757    0.2210    2.2773    2.9178    0.3320    0.8493    2.8895    3.4080    4.5717    3.7264    3.5899    3.8320    4.0820    4.2408    4.2460    4.8365    2.5160    0.0579 -151.2249   34.6275    0.4399    0.4214 
 372.7000  215.9000  217.9000   90.3644    0.3072    9.9449    2.9904  365.6287  358.7146    0.2188    2.2618    2.8667    0.3363    0.8262    2.6038    3.4916    4.7791    3.9914    3.5319    3.7373    4.0449    4.2013    4.2082    4.8464    2.5256    0.0580 -149.6053   34.6275    0.6824    0.6978 
 372.8000  215.9000  212.8000   90.1579    0.3194    9.6195    2.9421  370.6176  358.5613    0.2176    2.2244    2.8127    0.3460    0.8136    2.5154    3.1713    4.3486    3.4932    3.1310    3.3015    3.5947    3.7240    3.7370    4.3064    2.2173    0.0581 -148.0768   34.6275    0.9184    0.8318 
 372.9000  215.9000  211.9000   90.9043    0.4151    9.1240    2.9146  385.5952  358.3914    0.2188    2.1760    2.7392    0.3686    0.7803    2.2788    2.6032    3.4747    2.9235    2.6043    2.7167    2.9697    3.0576    3.0695    3.4761    1.7678    0.0580 -146.8105   34.6275    0.5057    0.4497 
 373.0000  215.9000  211.8000   91.8126    0.4082    8.8758    2.9179  394.3526  358.3899    0.2181    2.1318    2.6708    0.3724    0.7874    2.1416    2.4648    3.1676    2.8867    2.6197    2.7992    3.0387    3.1076    3.1119    3.5776    1.8346    0.0579 -146.2538   34.6275    0.4169    0.3700 
 373.1000  215.9000  212.0000   91.8422    0.3537    8.7410    2.9326  405.0113  358.4231    0.2162    2.0936    2.6107    0.3745    0.8164    2.3913    2.8061    3.7835    3.5527    2.8457    3.1598    3.3928    3.4602    3.4552    4.0348    1.8554    0.0579 -145.6065   34.6293    0.4279    0.3811 
 373.2000  215.9000  211.9000   89.0910    0.2487    8.7250    2.9544  426.9476  358.4093    0.2126    2.0694    2.5429    0.3882    0.8216    2.7503    3.1011    4.3655    4.1687    3.1520    3.6149    3.8424    3.9088    3.8859    4.6116    1.9926    0.0579 -144.0515   34.6368    0.4588    0.4097 
 373.3000  215.9000  211.9000   86.3529    0.2652    8.6770    2.9803  433.0643  358.2782    0.2090    2.0564    2.4915    0.3918    0.8476    3.2215    3.7433    5.2318    5.4863    3.6527    4.3770    4.6317    4.6871    4.6621    5.6686    2.1059    0.0580 -142.6616   34.6334    0.5113    0.4567 
 373.4000  215.9000  212.0000   84.1120    0.3491    8.5367    2.9958  433.5315  358.0833    0.2056    2.0512    2.4653    0.3900    0.8849    3.8203    4.6497    7.3047    8.6095    3.2948    4.0360    4.2788    4.3085    4.2667    5.2586    1.8425    0.0580 -141.5257   34.6275    0.5339    0.4768 
 373.5000  215.9000  212.0000   83.8386    0.5137    8.0763    2.9626  436.0096  357.8158    0.2034    2.0486    2.4553    0.3817    0.8743    4.1062    4.8852    9.2474   10.6153    3.2012    3.9727    4.2350    4.2613    4.2210    5.2472    1.7339    0.0579 -141.1493   34.6275    0.4615    0.4129 
 373.6000  215.9000  211.9000   84.0527    0.5885    7.7824    2.9570  437.5994  357.7569    0.2013    2.0461    2.4552    0.3753    0.8370    3.5935    4.1227    7.5344    8.2784    3.0361    3.7298    3.9973    4.0264    3.9886    4.9414    1.6375    0.0579 -141.1442   34.6376    0.4046    0.3622 
 373.7000  215.9000  211.9000   84.5970    0.6174    7.6342    2.9637  437.8277  357.7087    0.1992    2.0446    2.4596    0.3689    0.7649    2.5871    2.9116    4.4507    5.0245    2.1729    2.4662    2.6570    2.6783    2.6534    3.1442    1.3720    0.0578 -141.3478   34.6491    0.3443    0.3081 
 373.8000  215.9000  212.0000   85.7129    0.6245    7.8681    2.9671  432.7106  357.1656    0.1968    2.0445    2.4611    0.3571    0.6980    1.9136    2.0850    3.0151    3.2668    1.9126    2.1308    2.2966    2.3180    2.2959    2.6929    1.2717    0.0578 -141.7431   34.6416    0.2855    0.2503 
 373.9000  215.9000  212.5000   86.5962    0.7114    8.0678    3.0275  432.7505  357.1210    0.1943    2.0493    2.4496    0.3468    0.6368    1.4911    1.5486    2.1258    2.2350    1.6892    1.8415    1.9717    1.9951    1.9656    2.2517    1.1261    0.0578 -142.4160   34.6388    0.2672    0.2217 
 374.0000  215.9000  213.1000   87.8762    0.8568    8.2730    3.1225  436.4050  333.8811    0.1916    2.0670    2.4857    0.3391    0.5961    1.3209    1.3351    1.6725    1.7870    1.7838    1.9517    2.0715    2.1078    2.0619    2.3512    1.1936    0.0578 -143.3375   34.6388    0.2660    0.2174 
 374.1000  215.9000  212.9000   93.9571    1.1076    8.7074    3.2260  445.3318   99.2486    0.1894    2.0934    2.5830    0.3452    0.6044    1.3323    1.3837    1.7192    1.8756    2.0590    2.2915    2.4336    2.4784    2.4155    2.8067    1.4140    0.0578 -145.0297   34.6382    0.2836    0.2485 
 374.2000  215.9000  218.9000   99.6681    1.2474    9.1423    3.3489  455.4840  137.7460    0.1874    2.1150    2.7239    0.3622    0.6725    1.6830    1.7545    2.2656    2.5511    2.9412    3.4367    3.6429    3.7278    3.6111    4.3572    1.8356    0.0578 -146.0302   34.6340    0.3369    0.3003 
 374.3000  215.9000  229.5000  104.8380    1.3046    9.5721    3.4765  467.0949  359.8523    0.1856    2.1337    2.9154    0.3884    0.7164    2.0641    2.3000    3.2732    4.0601    3.1220    3.6197    3.8094    3.8835    3.7494    4.4975    2.0547    0.0577 -146.5226   34.6288    0.5348    0.4386 
 374.4000  215.9000  229.9000  105.7293    1.3285    9.9137    3.4615  487.6569  359.8895    0.1851    2.1515    3.1330    0.4331    0.7744    2.6063    2.9314    4.3132    6.0584    3.0025    3.4817    3.6732    3.7346    3.6049    4.3234    1.9612    0.0578 -146.8997   34.6511    0.6365    0.5416 
 374.5000  215.9000  229.9000  105.6411    1.3050   10.1694    3.4105  506.9936  359.5192    0.1851    2.1546    3.2993    0.4783    0.8055    3.0923    3.2813    4.8835    6.5953    2.8578    3.2561    3.4334    3.4729    3.3476    3.9530    1.9082    0.0579 -147.5547   34.6576    0.4187    0.4489 
 374.6000  215.9000  229.4000  104.6654    1.2406   10.3481    3.3283  525.1193  358.7994    0.1855    2.1517    3.4081    0.5237    0.8091    3.0285    3.1629    4.4897    5.6391    2.6822    2.9882    3.1965    3.2067    3.0976    3.5945    1.7535    0.0580 -148.4523   34.6501    0.3998    0.4050 
 374.7000  215.9000  224.3000  101.8147    1.2701   10.4386    3.2959  530.9532  359.2491    0.1896    2.1583    3.4506    0.5437    0.7930    2.8871    3.1095    4.0960    4.8479    2.7462    2.9869    3.2444    3.2338    3.1351    3.5803    1.7553    0.0579 -148.9676   34.6427    0.4047    0.4129 
 374.8000  215.9000  223.1000  101.2769    1.3030   10.4841    3.2902  530.8282  246.2373    0.1949    2.1684    3.4174    0.5501    0.7818    2.7407    3.0345    4.0873    4.5165    2.7616    2.9714    3.2518    3.2347    3.1368    3.5570    1.7531    0.0578 -149.4724   34.6388    0.4105    0.4244 
 374.9000  215.9000  226.9000  103.2447    1.3393   10.4806    3.3137  524.2477   10.3089    0.2014    2.1716    3.3046    0.5419    0.7818    2.6261    2.9630    4.0009    4.2501    2.7940    2.9592    3.2430    3.2293    3.1337    3.4896    1.7914    0.0578 -149.9659   34.6388    0.3971    0.3940 
 375.0000  215.9000  222.4000  102.9299    1.1796   10.7517    3.3177  500.9149    0.7280    0.2048    2.1809    3.1317    0.4983    0.8023    2.5953    2.9118    4.0940    4.1513    2.9147    3.0966    3.3799    3.3767    3.2801    3.6611    1.8775    0.0578 -150.1836   34.6317    0.4221    0.4319 
 375.1000  215.9000  219.0000  103.6561    1.0292   10.7486    3.2853  479.7495    0.8701    0.2087    2.1895    2.9507    0.4576    0.8316    2.6378    2.9518    4.0310    4.0121    3.2671    3.5896    3.8649    3.9074    3.8041    4.4124    2.1608    0.0579 -150.2186   34.6307    0.5705    0.5908 
 375.2000  215.9000  219.1000  105.8283    0.9011   10.3820    3.2075  462.2310    1.3837    0.2134    2.1848    2.8068    0.4223    0.8457    2.6672    2.9304    4.0343    3.9099    3.1561    3.4676    3.6657    3.7472    3.6485    4.1911    2.0642    0.0579 -150.0357   34.6382    0.8312    0.7616 
